[
  {
    "service_request": "2022-851157",
    "request_type": "Health Related Questions",
    "request_reason": "Noise Ordinance Complaint",
    "date_created": "2022-01-01T00:54:37.000",
    "date_modified": "2022-01-01T00:54:37.000",
    "request_status": "Pending",
    "responsible_agency": "Health Department",
    "final_address": "417 Elmira Ave",
    "address_councildis": "C",
    "status": "Pending",
    "rowid": "851157",
    "final_x": "3688173.51907",
    "final_y": "530186.504065",
    "longitude": "-90.04704507714136",
    "latitude": "29.95162471635191",
    "geocoded_column": {
      "latitude": "29.95162471635191",
      "longitude": "-90.04704507714136"
    }
  },
  {
    "service_request": "2021-851155",
    "request_type": "Traffic Signals/Signs/Striping/Streetlights",
    "request_reason": "Street Light Outage/Malfunction",
    "date_created": "2021-12-31T22:57:56.000",
    "date_modified": "2021-12-31T22:57:56.000",
    "request_status": "Pending",
    "responsible_agency": "Department of Public Works",
    "final_address": "6325 General Haig St",
    "address_councildis": "A",
    "status": "Pending",
    "contractor": "Royal Engineering",
    "rowid": "851155",
    "final_x": "3670801.5787",
    "final_y": "549307.423379",
    "longitude": "-90.10124822878299",
    "latitude": "30.00472554137156",
    "geocoded_column": {
      "latitude": "30.00472554137156",
      "longitude": "-90.10124822878299"
    }
  },
  {
    "service_request": "2021-851154",
    "request_type": "Traffic Signals/Signs/Striping/Streetlights",
    "request_reason": "Street Light Outage/Malfunction",
    "date_created": "2021-12-31T22:56:31.000",
    "date_modified": "2021-12-31T22:56:32.000",
    "request_status": "Pending",
    "responsible_agency": "Department of Public Works",
    "final_address": "6325 General Haig St",
    "address_councildis": "A",
    "status": "Pending",
    "contractor": "Royal Engineering",
    "rowid": "851154",
    "final_x": "3670801.5787",
    "final_y": "549307.423379",
    "longitude": "-90.10124822878299",
    "latitude": "30.00472554137156",
    "geocoded_column": {
      "latitude": "30.00472554137156",
      "longitude": "-90.10124822878299"
    }
  },
  {
    "service_request": "2021-851153",
    "request_type": "Trash/Recycling",
    "request_reason": "Missed Trash Pick-Up",
    "date_created": "2021-12-31T22:49:13.000",
    "date_modified": "2021-12-31T22:49:13.000",
    "request_status": "Pending",
    "responsible_agency": "Department of Sanitation",
    "final_address": "5632 Coliseum St",
    "address_councildis": "A",
    "status": "Assigned to Contractor",
    "contractor": "Richards Disposal",
    "rowid": "851153",
    "final_x": "3666127.97588",
    "final_y": "519886.432952",
    "longitude": "-90.11699977651087",
    "latitude": "29.92396488288307",
    "geocoded_column": {
      "latitude": "29.92396488288307",
      "longitude": "-90.11699977651087"
    }
  },
  {
    "service_request": "2021-851152",
    "request_type": "Health Related Questions",
    "request_reason": "Noise Ordinance Complaint",
    "date_created": "2021-12-31T21:11:26.000",
    "date_modified": "2021-12-31T22:00:35.000",
    "request_status": "Pending",
    "responsible_agency": "Health Department",
    "final_address": "1137 Baronne St, New Orleans, Louisiana, 70113",
    "address_councildis": "B",
    "status": "Pending",
    "rowid": "851152",
    "final_x": "3678926.30741",
    "final_y": "526902.102398",
    "longitude": "-90.07635707620054",
    "latitude": "29.942875901846065",
    "geocoded_column": {
      "latitude": "29.942875901846065",
      "longitude": "-90.07635707620054"
    }
  },
  {
    "service_request": "2021-851151",
    "request_type": "Health Related Questions",
    "request_reason": "Noise Ordinance Complaint",
    "date_created": "2021-12-31T21:08:13.000",
    "date_modified": "2021-12-31T22:00:37.000",
    "request_status": "Pending",
    "responsible_agency": "Health Department",
    "final_address": "1137 Baronne St, New Orleans, Louisiana, 70113",
    "address_councildis": "B",
    "status": "Pending",
    "rowid": "851151",
    "final_x": "3678926.30741",
    "final_y": "526902.102398",
    "longitude": "-90.07635707620054",
    "latitude": "29.942875901846065",
    "geocoded_column": {
      "latitude": "29.942875901846065",
      "longitude": "-90.07635707620054"
    }
  },
  {
    "service_request": "2021-851150",
    "request_type": "Trash/Recycling",
    "request_reason": "Order Recycling Cart",
    "date_created": "2021-12-31T20:54:46.000",
    "date_modified": "2021-12-31T21:00:56.000",
    "request_status": "Pending",
    "responsible_agency": "Department of Sanitation",
    "final_address": "6075 Dorothea St",
    "address_councildis": "D",
    "status": "Pending",
    "rowid": "851150",
    "final_x": "3695920.95843",
    "final_y": "557425.577691",
    "longitude": "-90.02159793182842",
    "latitude": "30.026280818083727",
    "geocoded_column": {
      "latitude": "30.026280818083727",
      "longitude": "-90.02159793182842"
    }
  },
  {
    "service_request": "2021-851149",
    "request_type": "Trash/Recycling",
    "request_reason": "Repair Recycling Cart",
    "date_created": "2021-12-31T20:50:53.000",
    "date_modified": "2021-12-31T21:00:57.000",
    "request_status": "Pending",
    "responsible_agency": "Department of Sanitation",
    "final_address": "3633 Inwood Ave",
    "address_councildis": "C",
    "status": "Pending",
    "rowid": "851149",
    "final_x": "3703971.14986",
    "final_y": "514985.236851",
    "longitude": "-89.99772363755838",
    "latitude": "29.90932945874536",
    "geocoded_column": {
      "latitude": "29.90932945874536",
      "longitude": "-89.99772363755838"
    }
  },
  {
    "service_request": "2021-851148",
    "request_type": "Trash/Recycling",
    "request_reason": "Missed Trash Pick-Up",
    "date_created": "2021-12-31T20:34:25.000",
    "date_modified": "2021-12-31T21:00:59.000",
    "request_status": "Pending",
    "responsible_agency": "Department of Sanitation",
    "final_address": "5927 Pratt Dr",
    "address_councildis": "D",
    "status": "Assigned to Contractor",
    "contractor": "Metro Disposal",
    "rowid": "851148",
    "final_x": "3680317.70882",
    "final_y": "554429.5334",
    "longitude": "-90.07100662838735",
    "latitude": "30.018524708707204",
    "geocoded_column": {
      "latitude": "30.018524708707204",
      "longitude": "-90.07100662838735"
    }
  },
  {
    "service_request": "2021-851147",
    "request_type": "Property Maintenance",
    "request_reason": "Property Maintenance",
    "date_created": "2021-12-31T19:59:45.000",
    "date_modified": "2021-12-31T19:59:45.000",
    "request_status": "Pending",
    "responsible_agency": "Department of Code Enforcement",
    "final_address": "1425 Touro St",
    "address_councildis": "C",
    "status": "Pending",
    "rowid": "851147",
    "final_x": "3684157.1878",
    "final_y": "537554.161672",
    "longitude": "-90.05946806642993",
    "latitude": "29.97200660255999",
    "geocoded_column": {
      "latitude": "29.97200660255999",
      "longitude": "-90.05946806642993"
    }
  },
  {
    "service_request": "2021-851146",
    "request_type": "Roads/Drainage",
    "request_reason": "Street Subsidence (Sinking)",
    "date_created": "2021-12-31T19:59:19.000",
    "date_modified": "2021-12-31T19:59:19.000",
    "request_status": "Pending",
    "responsible_agency": "Department of Public Works",
    "final_address": "4910 Baronne St",
    "address_councildis": "B",
    "status": "Pending",
    "rowid": "851146",
    "final_x": "3668975.65473",
    "final_y": "521346.175161",
    "longitude": "-90.10796136769697",
    "latitude": "29.927895283727313",
    "geocoded_column": {
      "latitude": "29.927895283727313",
      "longitude": "-90.10796136769697"
    }
  },
  {
    "service_request": "2021-851145",
    "request_type": "Roads/Drainage",
    "request_reason": "Debris in Roadway",
    "date_created": "2021-12-31T19:55:57.000",
    "date_modified": "2021-12-31T19:55:57.000",
    "request_status": "Pending",
    "responsible_agency": "Department of Public Works",
    "final_address": "4904 Baronne St",
    "address_councildis": "B",
    "status": "Pending",
    "rowid": "851145",
    "final_x": "3669009.85908",
    "final_y": "521345.289337",
    "longitude": "-90.10785342211754",
    "latitude": "29.927891842160783",
    "geocoded_column": {
      "latitude": "29.927891842160783",
      "longitude": "-90.10785342211754"
    }
  },
  {
    "service_request": "2021-851144",
    "request_type": "Abandoned Vehicles",
    "request_reason": "Abandoned/Junk Vehicles",
    "date_created": "2021-12-31T19:45:10.000",
    "date_modified": "2021-12-31T19:45:10.000",
    "request_status": "Pending",
    "responsible_agency": "Department of Public Works",
    "final_address": "5700 St Anthony Ave",
    "address_councildis": "D",
    "status": "Pending",
    "rowid": "851144",
    "final_x": "3682026.8372",
    "final_y": "553811.631063",
    "longitude": "-90.06562801019497",
    "latitude": "30.016773819730965",
    "geocoded_column": {
      "latitude": "30.016773819730965",
      "longitude": "-90.06562801019497"
    }
  },
  {
    "service_request": "2021-851143",
    "request_type": "Abandoned Vehicles",
    "request_reason": "Abandoned/Junk Vehicles",
    "date_created": "2021-12-31T19:37:43.000",
    "date_modified": "2021-12-31T19:37:43.000",
    "request_status": "Pending",
    "responsible_agency": "Department of Public Works",
    "final_address": "5700 St Anthony Ave",
    "address_councildis": "D",
    "status": "Pending",
    "rowid": "851143",
    "final_x": "3682026.8372",
    "final_y": "553811.631063",
    "longitude": "-90.06562801019497",
    "latitude": "30.016773819730965",
    "geocoded_column": {
      "latitude": "30.016773819730965",
      "longitude": "-90.06562801019497"
    }
  },
  {
    "service_request": "2021-851142",
    "request_type": "Property Maintenance",
    "request_reason": "Property Maintenance",
    "date_created": "2021-12-31T19:33:32.000",
    "date_modified": "2021-12-31T19:33:32.000",
    "request_status": "Pending",
    "responsible_agency": "Department of Code Enforcement",
    "final_address": "5769 Cameron Blvd",
    "address_councildis": "D",
    "status": "Pending",
    "rowid": "851142",
    "final_x": "3682530.48943",
    "final_y": "554648.600408",
    "longitude": "-90.06400738767712",
    "latitude": "30.019059848432168",
    "geocoded_column": {
      "latitude": "30.019059848432168",
      "longitude": "-90.06400738767712"
    }
  },
  {
    "service_request": "2021-851141",
    "request_type": "Trash/Recycling",
    "request_reason": "Missed Trash Pick-Up",
    "date_created": "2021-12-31T19:30:40.000",
    "date_modified": "2021-12-31T19:30:40.000",
    "request_status": "Pending",
    "responsible_agency": "Department of Sanitation",
    "final_address": "4040 Virgil Blvd",
    "address_councildis": "D",
    "status": "Assigned to Contractor",
    "contractor": "Metro Disposal",
    "rowid": "851141",
    "final_x": "3679671.16443",
    "final_y": "547254.479249",
    "longitude": "-90.07329877170346",
    "latitude": "29.998815455686035",
    "geocoded_column": {
      "latitude": "29.998815455686035",
      "longitude": "-90.07329877170346"
    }
  },
  {
    "service_request": "2021-851140",
    "request_type": "Trash/Recycling",
    "request_reason": "Repair Recycling Cart",
    "date_created": "2021-12-31T19:28:46.000",
    "date_modified": "2021-12-31T19:28:46.000",
    "request_status": "Pending",
    "responsible_agency": "Department of Sanitation",
    "final_address": "524 Passera Ct",
    "address_councildis": "A",
    "status": "Pending",
    "rowid": "851140",
    "final_x": "3670643.04923",
    "final_y": "540842.299531",
    "longitude": "-90.10203643128871",
    "latitude": "29.981454058538585",
    "geocoded_column": {
      "latitude": "29.981454058538585",
      "longitude": "-90.10203643128871"
    }
  },
  {
    "service_request": "2021-851139",
    "request_type": "Trash/Recycling",
    "request_reason": "Missed Trash Pick-Up",
    "date_created": "2021-12-31T19:27:10.000",
    "date_modified": "2021-12-31T19:27:11.000",
    "request_status": "Pending",
    "responsible_agency": "Department of Sanitation",
    "final_address": "524 Passera Ct",
    "address_councildis": "A",
    "status": "Assigned to Contractor",
    "contractor": "Richards Disposal",
    "rowid": "851139",
    "final_x": "3670643.04923",
    "final_y": "540842.299531",
    "longitude": "-90.10203643128871",
    "latitude": "29.981454058538585",
    "geocoded_column": {
      "latitude": "29.981454058538585",
      "longitude": "-90.10203643128871"
    }
  },
  {
    "service_request": "2021-851138",
    "request_type": "Abandoned Vehicles",
    "request_reason": "Abandoned/Junk Vehicles",
    "date_created": "2021-12-31T19:26:06.000",
    "date_modified": "2021-12-31T19:26:06.000",
    "request_status": "Pending",
    "responsible_agency": "Department of Public Works",
    "final_address": "5769 Cameron Blvd",
    "address_councildis": "D",
    "status": "Pending",
    "rowid": "851138",
    "final_x": "3682530.48943",
    "final_y": "554648.600408",
    "longitude": "-90.06400738767712",
    "latitude": "30.019059848432168",
    "geocoded_column": {
      "latitude": "30.019059848432168",
      "longitude": "-90.06400738767712"
    }
  },
  {
    "service_request": "2021-851137",
    "request_type": "Trash/Recycling",
    "request_reason": "Missed Trash Pick-Up",
    "date_created": "2021-12-31T18:56:22.000",
    "date_modified": "2021-12-31T18:56:23.000",
    "request_status": "Pending",
    "responsible_agency": "Department of Sanitation",
    "final_address": "5334 Vermillion Blvd",
    "address_councildis": "D",
    "status": "Assigned to Contractor",
    "contractor": "Metro Disposal",
    "rowid": "851137",
    "final_x": "3683223.33928",
    "final_y": "552556.196054",
    "longitude": "-90.06189158524695",
    "latitude": "30.013285378745227",
    "geocoded_column": {
      "latitude": "30.013285378745227",
      "longitude": "-90.06189158524695"
    }
  },
  {
    "service_request": "2021-851136",
    "request_type": "Safety & Permits",
    "request_reason": "Short term Rental (Enforcement)",
    "date_created": "2021-12-31T18:54:02.000",
    "date_modified": "2021-12-31T19:00:32.000",
    "request_status": "Pending",
    "responsible_agency": "Safety and Permits",
    "final_address": "1347 Magazine St",
    "address_councildis": "B",
    "status": "Pending",
    "rowid": "851136",
    "final_x": "3680400.3444",
    "final_y": "524860.841724",
    "longitude": "-90.07177414442371",
    "latitude": "29.937218568812625",
    "geocoded_column": {
      "latitude": "29.937218568812625",
      "longitude": "-90.07177414442371"
    }
  },
  {
    "service_request": "2021-851135",
    "request_type": "Trash/Recycling",
    "request_reason": "Missed Trash Pick-Up",
    "date_created": "2021-12-31T18:48:53.000",
    "date_modified": "2021-12-31T18:48:54.000",
    "request_status": "Pending",
    "responsible_agency": "Department of Sanitation",
    "final_address": "2729 Edna St",
    "address_councildis": "D",
    "status": "Assigned to Contractor",
    "contractor": "Metro Disposal",
    "rowid": "851135",
    "final_x": "3689619.9638",
    "final_y": "545327.968975",
    "longitude": "-90.04193909236174",
    "latitude": "29.993213679326495",
    "geocoded_column": {
      "latitude": "29.993213679326495",
      "longitude": "-90.04193909236174"
    }
  },
  {
    "service_request": "2021-851134",
    "request_type": "Trash/Recycling",
    "request_reason": "Request a Large Item Pick Up",
    "date_created": "2021-12-31T18:19:27.000",
    "date_modified": "2021-12-31T18:19:28.000",
    "request_status": "Pending",
    "responsible_agency": "Department of Sanitation",
    "final_address": "6839 Louisville St",
    "address_councildis": "A",
    "status": "Assigned to Contractor",
    "contractor": "Metro Disposal",
    "rowid": "851134",
    "final_x": "3668356.51553",
    "final_y": "553039.345879",
    "longitude": "-90.10884670219156",
    "latitude": "30.015059084963195",
    "geocoded_column": {
      "latitude": "30.015059084963195",
      "longitude": "-90.10884670219156"
    }
  },
  {
    "service_request": "2021-851133",
    "request_type": "Property Maintenance",
    "request_reason": "Property Maintenance",
    "date_created": "2021-12-31T18:08:58.000",
    "date_modified": "2021-12-31T18:08:58.000",
    "request_status": "Pending",
    "responsible_agency": "Department of Code Enforcement",
    "final_address": "2935 Dryades St",
    "address_councildis": "B",
    "status": "Pending",
    "rowid": "851133",
    "final_x": "3674664.60744",
    "final_y": "523044.733115",
    "longitude": "-90.0899444616384",
    "latitude": "29.9323972568412",
    "geocoded_column": {
      "latitude": "29.9323972568412",
      "longitude": "-90.0899444616384"
    }
  },
  {
    "service_request": "2021-851132",
    "request_type": "Trash/Recycling",
    "request_reason": "Missed Trash Pick-Up",
    "date_created": "2021-12-31T18:02:26.000",
    "date_modified": "2021-12-31T19:00:35.000",
    "request_status": "Pending",
    "responsible_agency": "Department of Sanitation",
    "final_address": "6300 Garfield St, New Orleans, Louisiana, 70118",
    "address_councildis": "A",
    "status": "Assigned to Contractor",
    "contractor": "Richards Disposal",
    "rowid": "851132",
    "final_x": "3664296.89479",
    "final_y": "521915.38873",
    "longitude": "-90.12271220262357",
    "latitude": "29.929597192809226",
    "geocoded_column": {
      "latitude": "29.929597192809226",
      "longitude": "-90.12271220262357"
    }
  },
  {
    "service_request": "2021-851131",
    "request_type": "Property Maintenance",
    "request_reason": "Property Maintenance",
    "date_created": "2021-12-31T17:58:16.000",
    "date_modified": "2021-12-31T18:00:36.000",
    "request_status": "Pending",
    "responsible_agency": "Department of Code Enforcement",
    "final_address": "104 Neil Ave",
    "address_councildis": "C",
    "status": "Pending",
    "rowid": "851131",
    "final_x": "3705778.58884",
    "final_y": "518837.831671",
    "longitude": "-89.99187672963645",
    "latitude": "29.919864712043694",
    "geocoded_column": {
      "latitude": "29.919864712043694",
      "longitude": "-89.99187672963645"
    }
  },
  {
    "service_request": "2021-851130",
    "request_type": "Property Maintenance",
    "request_reason": "Property Maintenance",
    "date_created": "2021-12-31T17:57:07.000",
    "date_modified": "2021-12-31T17:57:07.000",
    "request_status": "Pending",
    "responsible_agency": "Department of Code Enforcement",
    "final_address": "2601 Valence St",
    "address_councildis": "B",
    "status": "Pending",
    "rowid": "851130",
    "final_x": "3669432.54401",
    "final_y": "524327.925692",
    "longitude": "-90.10641828356368",
    "latitude": "29.936080699580955",
    "geocoded_column": {
      "latitude": "29.936080699580955",
      "longitude": "-90.10641828356368"
    }
  },
  {
    "service_request": "2021-851129",
    "request_type": "Property Maintenance",
    "request_reason": "Property Maintenance",
    "date_created": "2021-12-31T17:55:15.000",
    "date_modified": "2021-12-31T18:00:37.000",
    "request_status": "Pending",
    "responsible_agency": "Department of Code Enforcement",
    "final_address": "102 Neil Ave",
    "address_councildis": "C",
    "status": "Pending",
    "rowid": "851129",
    "final_x": "3705698.10916",
    "final_y": "518839.246967",
    "longitude": "-89.99213071039154",
    "latitude": "29.919871194082823",
    "geocoded_column": {
      "latitude": "29.919871194082823",
      "longitude": "-89.99213071039154"
    }
  },
  {
    "service_request": "2021-851128",
    "request_type": "Trash/Recycling",
    "request_reason": "Missed Trash Pick-Up",
    "date_created": "2021-12-31T17:54:58.000",
    "date_modified": "2021-12-31T17:54:58.000",
    "request_status": "Pending",
    "responsible_agency": "Department of Sanitation",
    "final_address": "1255 Foy St",
    "address_councildis": "D",
    "status": "Assigned to Contractor",
    "contractor": "Metro Disposal",
    "rowid": "851128",
    "final_x": "3677072.98894",
    "final_y": "546449.048081",
    "longitude": "-90.08153423895939",
    "latitude": "29.996679108277736",
    "geocoded_column": {
      "latitude": "29.996679108277736",
      "longitude": "-90.08153423895939"
    }
  },
  {
    "service_request": "2021-851127",
    "request_type": "Trash/Recycling",
    "request_reason": "Missed Trash Pick-Up",
    "date_created": "2021-12-31T17:48:10.000",
    "date_modified": "2021-12-31T18:00:38.000",
    "request_status": "Pending",
    "responsible_agency": "Department of Sanitation",
    "final_address": "2310 Calhoun St, New Orleans, Louisiana, 70118",
    "address_councildis": "A",
    "status": "Assigned to Contractor",
    "contractor": "Richards Disposal",
    "rowid": "851127",
    "final_x": "3665901.63738",
    "final_y": "525511.710653",
    "longitude": "-90.11752583618245",
    "latitude": "29.939439215514884",
    "geocoded_column": {
      "latitude": "29.939439215514884",
      "longitude": "-90.11752583618245"
    }
  },
  {
    "service_request": "2021-851126",
    "request_type": "Trash/Recycling",
    "request_reason": "Replace Trash Cart",
    "date_created": "2021-12-31T17:36:41.000",
    "date_modified": "2021-12-31T18:00:40.000",
    "request_status": "Pending",
    "responsible_agency": "Department of Sanitation",
    "final_address": "4727 Bienville Ave",
    "address_councildis": "A",
    "status": "Assigned to Contractor",
    "contractor": "Richards Disposal",
    "rowid": "851126",
    "final_x": "3669504.09934",
    "final_y": "540691.227979",
    "longitude": "-90.10563888346933",
    "latitude": "29.981072266698078",
    "geocoded_column": {
      "latitude": "29.981072266698078",
      "longitude": "-90.10563888346933"
    }
  },
  {
    "service_request": "2021-851125",
    "request_type": "Trash/Recycling",
    "request_reason": "Missed Trash Pick-Up",
    "date_created": "2021-12-31T17:15:50.000",
    "date_modified": "2021-12-31T17:15:50.000",
    "request_status": "Pending",
    "responsible_agency": "Department of Sanitation",
    "final_address": "1021 Nashville Ave",
    "address_councildis": "A",
    "status": "Assigned to Contractor",
    "contractor": "Richards Disposal",
    "rowid": "851125",
    "final_x": "3665770.55021",
    "final_y": "519829.127288",
    "longitude": "-90.11812996453574",
    "latitude": "29.92381773817631",
    "geocoded_column": {
      "latitude": "29.92381773817631",
      "longitude": "-90.11812996453574"
    }
  },
  {
    "service_request": "2021-851124",
    "request_type": "Trash/Recycling",
    "request_reason": "Missed Trash Pick-Up",
    "date_created": "2021-12-31T17:10:16.000",
    "date_modified": "2021-12-31T17:10:17.000",
    "request_status": "Pending",
    "responsible_agency": "Department of Sanitation",
    "final_address": "5610 Chamberlain Dr",
    "address_councildis": "D",
    "status": "Assigned to Contractor",
    "contractor": "Metro Disposal",
    "rowid": "851124",
    "final_x": "3679326.19707",
    "final_y": "553068.697879",
    "longitude": "-90.07418669322648",
    "latitude": "30.014812901303078",
    "geocoded_column": {
      "latitude": "30.014812901303078",
      "longitude": "-90.07418669322648"
    }
  },
  {
    "service_request": "2021-851123",
    "request_type": "Trash/Recycling",
    "request_reason": "Missed Trash Pick-Up",
    "date_created": "2021-12-31T16:42:45.000",
    "date_modified": "2021-12-31T17:00:48.000",
    "request_status": "Pending",
    "responsible_agency": "Department of Sanitation",
    "final_address": "1758 Burbank Dr, New Orleans, Louisiana, 70122",
    "address_councildis": "D",
    "status": "Assigned to Contractor",
    "contractor": "Metro Disposal",
    "rowid": "851123",
    "final_x": "3680094.54075",
    "final_y": "554384.189848",
    "longitude": "-90.07171333540386",
    "latitude": "30.018406788672408",
    "geocoded_column": {
      "latitude": "30.018406788672408",
      "longitude": "-90.07171333540386"
    }
  },
  {
    "service_request": "2021-851122",
    "request_type": "Trash/Recycling",
    "request_reason": "Missed Trash Pick-Up",
    "date_created": "2021-12-31T16:40:13.000",
    "date_modified": "2021-12-31T17:00:53.000",
    "request_status": "Pending",
    "responsible_agency": "Department of Sanitation",
    "final_address": "5800 BLK Magnolia St",
    "address_councildis": "A",
    "status": "Assigned to Contractor",
    "contractor": "Richards Disposal",
    "rowid": "851122",
    "final_x": "3666934.30422",
    "final_y": "524916.527711",
    "longitude": "-90.11428555006445",
    "latitude": "29.937772484139085",
    "geocoded_column": {
      "latitude": "29.937772484139085",
      "longitude": "-90.11428555006445"
    }
  },
  {
    "service_request": "2021-851121",
    "request_type": "Trash/Recycling",
    "request_reason": "Missed Trash Pick-Up",
    "date_created": "2021-12-31T16:27:39.000",
    "date_modified": "2021-12-31T17:00:55.000",
    "request_status": "Pending",
    "responsible_agency": "Department of Sanitation",
    "final_address": "5616 Prytania St",
    "address_councildis": "A",
    "status": "Assigned to Contractor",
    "contractor": "Richards Disposal",
    "rowid": "851121",
    "final_x": "3666318.2802",
    "final_y": "520529.755384",
    "longitude": "-90.11637748372199",
    "latitude": "29.925728260696822",
    "geocoded_column": {
      "latitude": "29.925728260696822",
      "longitude": "-90.11637748372199"
    }
  },
  {
    "service_request": "2021-851120",
    "request_type": "Trash/Recycling",
    "request_reason": "Missed Trash Pick-Up",
    "date_created": "2021-12-31T16:23:57.000",
    "date_modified": "2021-12-31T16:23:58.000",
    "request_status": "Pending",
    "responsible_agency": "Department of Sanitation",
    "final_address": "1459 Calhoun St",
    "address_councildis": "A",
    "status": "Assigned to Contractor",
    "contractor": "Richards Disposal",
    "rowid": "851120",
    "final_x": "3664495.98362",
    "final_y": "522067.661626",
    "longitude": "-90.12207863073579",
    "latitude": "29.93001010992489",
    "geocoded_column": {
      "latitude": "29.93001010992489",
      "longitude": "-90.12207863073579"
    }
  },
  {
    "service_request": "2021-851119",
    "request_type": "Trash/Recycling",
    "request_reason": "Missed Trash Pick-Up",
    "date_created": "2021-12-31T16:17:26.000",
    "date_modified": "2021-12-31T17:00:57.000",
    "request_status": "Pending",
    "responsible_agency": "Department of Sanitation",
    "final_address": "5262 Warrington Dr",
    "address_councildis": "D",
    "status": "Assigned to Contractor",
    "contractor": "Metro Disposal",
    "rowid": "851119",
    "final_x": "3680911.3908",
    "final_y": "551640.436309",
    "longitude": "-90.06922803159861",
    "latitude": "30.010837706464162",
    "geocoded_column": {
      "latitude": "30.010837706464162",
      "longitude": "-90.06922803159861"
    }
  },
  {
    "service_request": "2021-851118",
    "request_type": "Trash/Recycling",
    "request_reason": "Missed Trash Pick-Up",
    "date_created": "2021-12-31T16:10:58.000",
    "date_modified": "2021-12-31T16:10:59.000",
    "request_status": "Pending",
    "responsible_agency": "Department of Sanitation",
    "final_address": "5514 St Anthony Ave",
    "address_councildis": "D",
    "status": "Assigned to Contractor",
    "contractor": "Metro Disposal",
    "rowid": "851118",
    "final_x": "3682032.01192",
    "final_y": "553280.264855",
    "longitude": "-90.06563023474358",
    "latitude": "30.015312598802346",
    "geocoded_column": {
      "latitude": "30.015312598802346",
      "longitude": "-90.06563023474358"
    }
  },
  {
    "service_request": "2021-851117",
    "request_type": "Trash/Recycling",
    "request_reason": "Missed Trash Pick-Up",
    "date_created": "2021-12-31T16:09:27.000",
    "date_modified": "2021-12-31T16:09:27.000",
    "request_status": "Pending",
    "responsible_agency": "Department of Sanitation",
    "final_address": "1036 Arabella St",
    "address_councildis": "A",
    "status": "Assigned to Contractor",
    "contractor": "Richards Disposal",
    "rowid": "851117",
    "final_x": "3666000.47456",
    "final_y": "519906.65292",
    "longitude": "-90.1174015768668",
    "latitude": "29.92402420237604",
    "geocoded_column": {
      "latitude": "29.92402420237604",
      "longitude": "-90.1174015768668"
    }
  },
  {
    "service_request": "2021-851116",
    "request_type": "Trash/Recycling",
    "request_reason": "Missed Trash Pick-Up",
    "date_created": "2021-12-31T15:57:22.000",
    "date_modified": "2021-12-31T15:57:22.000",
    "request_status": "Pending",
    "responsible_agency": "Department of Sanitation",
    "final_address": "1807 Independence St",
    "address_councildis": "D",
    "status": "Assigned to Contractor",
    "contractor": "Metro Disposal",
    "rowid": "851116",
    "final_x": "3691663.27542",
    "final_y": "538217.771529",
    "longitude": "-90.03573897982379",
    "latitude": "29.973599707980352",
    "geocoded_column": {
      "latitude": "29.973599707980352",
      "longitude": "-90.03573897982379"
    }
  },
  {
    "service_request": "2021-851115",
    "request_type": "Trash/Recycling",
    "request_reason": "Missed Trash Pick-Up",
    "date_created": "2021-12-31T15:53:17.000",
    "date_modified": "2021-12-31T15:53:18.000",
    "request_status": "Pending",
    "responsible_agency": "Department of Sanitation",
    "final_address": "1505 Calhoun St",
    "address_councildis": "A",
    "status": "Assigned to Contractor",
    "contractor": "Richards Disposal",
    "rowid": "851115",
    "final_x": "3664598.9321",
    "final_y": "522298.81657",
    "longitude": "-90.12174592220263",
    "latitude": "29.930642720252894",
    "geocoded_column": {
      "latitude": "29.930642720252894",
      "longitude": "-90.12174592220263"
    }
  },
  {
    "service_request": "2021-851114",
    "request_type": "Trash/Recycling",
    "request_reason": "Missed Trash Pick-Up",
    "date_created": "2021-12-31T15:50:54.000",
    "date_modified": "2021-12-31T15:50:55.000",
    "request_status": "Pending",
    "responsible_agency": "Department of Sanitation",
    "final_address": "2529 Lincoln Ct",
    "address_councildis": "D",
    "status": "Assigned to Contractor",
    "contractor": "Metro Disposal",
    "rowid": "851114",
    "final_x": "3682883.34952",
    "final_y": "541555.114508",
    "longitude": "-90.06335100387574",
    "latitude": "29.983046705070592",
    "geocoded_column": {
      "latitude": "29.983046705070592",
      "longitude": "-90.06335100387574"
    }
  },
  {
    "service_request": "2021-851113",
    "request_type": "Abandoned Vehicles",
    "request_reason": "Abandoned/Junk Vehicles",
    "date_created": "2021-12-31T15:47:36.000",
    "date_modified": "2021-12-31T15:47:36.000",
    "request_status": "Pending",
    "responsible_agency": "Department of Public Works",
    "final_address": "7432 Ligustrum Dr",
    "address_councildis": "E",
    "status": "Pending",
    "rowid": "851113",
    "final_x": "3701629.38455",
    "final_y": "560645.170974",
    "longitude": "-90.00344203315537",
    "latitude": "30.034952531323203",
    "geocoded_column": {
      "latitude": "30.034952531323203",
      "longitude": "-90.00344203315537"
    }
  },
  {
    "service_request": "2021-851112",
    "request_type": "Trash/Recycling",
    "request_reason": "Missed Trash Pick-Up",
    "date_created": "2021-12-31T15:46:56.000",
    "date_modified": "2021-12-31T16:01:00.000",
    "request_status": "Pending",
    "responsible_agency": "Department of Sanitation",
    "final_address": "4120 Erato St",
    "address_councildis": "B",
    "status": "Assigned to Contractor",
    "contractor": "Richards Disposal",
    "rowid": "851112",
    "final_x": "3671234.6523",
    "final_y": "531230.559938",
    "longitude": "-90.1004945042858",
    "latitude": "29.95500750656508",
    "geocoded_column": {
      "latitude": "29.95500750656508",
      "longitude": "-90.1004945042858"
    }
  },
  {
    "service_request": "2021-851111",
    "request_type": "Trash/Recycling",
    "request_reason": "Missed Trash Pick-Up",
    "date_created": "2021-12-31T15:39:12.000",
    "date_modified": "2021-12-31T16:01:02.000",
    "request_status": "Pending",
    "responsible_agency": "Department of Sanitation",
    "final_address": "2700 BLK Octavia St",
    "address_councildis": "A",
    "status": "Assigned to Contractor",
    "contractor": "Richards Disposal",
    "rowid": "851111",
    "final_x": "3667909.34065",
    "final_y": "525530.396562",
    "longitude": "-90.11118660148502",
    "latitude": "29.9394318668686",
    "geocoded_column": {
      "latitude": "29.9394318668686",
      "longitude": "-90.11118660148502"
    }
  },
  {
    "service_request": "2021-851110",
    "request_type": "Trash/Recycling",
    "request_reason": "Missed Trash Pick-Up",
    "date_created": "2021-12-31T15:33:00.000",
    "date_modified": "2021-12-31T15:33:01.000",
    "request_status": "Pending",
    "responsible_agency": "Department of Sanitation",
    "final_address": "2514 Calhoun St",
    "address_councildis": "A",
    "status": "Assigned to Contractor",
    "contractor": "Richards Disposal",
    "rowid": "851110",
    "final_x": "3666211.76186",
    "final_y": "526230.571006",
    "longitude": "-90.11652262740853",
    "latitude": "29.941406799087453",
    "geocoded_column": {
      "latitude": "29.941406799087453",
      "longitude": "-90.11652262740853"
    }
  },
  {
    "service_request": "2021-851109",
    "request_type": "Trash/Recycling",
    "request_reason": "Replace Trash Cart",
    "date_created": "2021-12-31T15:32:04.000",
    "date_modified": "2021-12-31T16:01:03.000",
    "request_status": "Pending",
    "responsible_agency": "Department of Sanitation",
    "final_address": "8118 Cohn St",
    "address_councildis": "A",
    "status": "Assigned to Contractor",
    "contractor": "Richards Disposal",
    "rowid": "851109",
    "final_x": "3663475.22816",
    "final_y": "530259.615361",
    "longitude": "-90.12502829644419",
    "latitude": "29.952564999754408",
    "geocoded_column": {
      "latitude": "29.952564999754408",
      "longitude": "-90.12502829644419"
    }
  },
  {
    "service_request": "2021-851108",
    "request_type": "Trash/Recycling",
    "request_reason": "Order Trash Cart",
    "date_created": "2021-12-31T15:30:52.000",
    "date_modified": "2021-12-31T15:30:52.000",
    "request_status": "Pending",
    "responsible_agency": "Department of Sanitation",
    "final_address": "6410 Argonne Blvd",
    "address_councildis": "A",
    "status": "Assigned to Contractor",
    "contractor": "Metro Disposal",
    "rowid": "851108",
    "final_x": "3670339.01524",
    "final_y": "550082.061396",
    "longitude": "-90.10268327868441",
    "latitude": "30.006869192695486",
    "geocoded_column": {
      "latitude": "30.006869192695486",
      "longitude": "-90.10268327868441"
    }
  },
  {
    "service_request": "2021-851107",
    "request_type": "Abandoned Vehicles",
    "request_reason": "Abandoned/Junk Vehicles",
    "date_created": "2021-12-31T15:29:56.000",
    "date_modified": "2021-12-31T15:29:56.000",
    "request_status": "Pending",
    "responsible_agency": "Department of Public Works",
    "final_address": "632 N White St",
    "address_councildis": "A",
    "status": "Pending",
    "rowid": "851107",
    "final_x": "3676121.34664",
    "final_y": "537022.715528",
    "longitude": "-90.08486486897698",
    "latitude": "29.970788505525178",
    "geocoded_column": {
      "latitude": "29.970788505525178",
      "longitude": "-90.08486486897698"
    }
  },
  {
    "service_request": "2021-851106",
    "request_type": "Trash/Recycling",
    "request_reason": "Missed Trash Pick-Up",
    "date_created": "2021-12-31T15:21:27.000",
    "date_modified": "2021-12-31T16:01:04.000",
    "request_status": "Pending",
    "responsible_agency": "Department of Sanitation",
    "final_address": "5901 Stratford Pl",
    "address_councildis": "C",
    "status": "Assigned to Contractor",
    "contractor": "Richards Disposal",
    "rowid": "851106",
    "final_x": "3705508.45687",
    "final_y": "516123.4133",
    "longitude": "-89.99282963444712",
    "latitude": "29.912409691909474",
    "geocoded_column": {
      "latitude": "29.912409691909474",
      "longitude": "-89.99282963444712"
    }
  },
  {
    "service_request": "2021-851105",
    "request_type": "Trash/Recycling",
    "request_reason": "Repair Trash Cart",
    "date_created": "2021-12-31T15:15:28.000",
    "date_modified": "2021-12-31T15:15:29.000",
    "request_status": "Pending",
    "responsible_agency": "Department of Sanitation",
    "final_address": "1401 Behrman Ave",
    "address_councildis": "C",
    "status": "Assigned to Contractor",
    "contractor": "Richards Disposal",
    "rowid": "851105",
    "final_x": "3691315.67113",
    "final_y": "526226.773182",
    "longitude": "-90.0372651352375",
    "latitude": "29.940639455275797",
    "geocoded_column": {
      "latitude": "29.940639455275797",
      "longitude": "-90.0372651352375"
    }
  },
  {
    "service_request": "2021-851104",
    "request_type": "Trash/Recycling",
    "request_reason": "Request a Large Item Pick Up",
    "date_created": "2021-12-31T15:08:20.000",
    "date_modified": "2021-12-31T16:01:05.000",
    "request_status": "Pending",
    "responsible_agency": "Department of Sanitation",
    "final_address": "1701 Desire St",
    "address_councildis": "D",
    "status": "Assigned to Contractor",
    "contractor": "Metro Disposal",
    "rowid": "851104",
    "final_x": "3690783.87094",
    "final_y": "537972.150665",
    "longitude": "-90.03852508218617",
    "latitude": "29.9729516912382",
    "geocoded_column": {
      "latitude": "29.9729516912382",
      "longitude": "-90.03852508218617"
    }
  },
  {
    "service_request": "2021-851103",
    "request_type": "Health Related Questions",
    "request_reason": "Noise Ordinance Complaint",
    "date_created": "2021-12-31T15:05:15.000",
    "date_modified": "2021-12-31T16:01:06.000",
    "request_status": "Pending",
    "responsible_agency": "Health Department",
    "final_address": "N Carrollton Ave & Dumaine St, New Orleans, Louisiana, 70119",
    "address_councildis": "A",
    "status": "Pending",
    "rowid": "851103",
    "final_x": "3673178.9",
    "final_y": "540540.88",
    "longitude": "-90.09403732652713",
    "latitude": "29.980550086916637",
    "geocoded_column": {
      "latitude": "29.980550086916637",
      "longitude": "-90.09403732652713"
    }
  },
  {
    "service_request": "2021-851102",
    "request_type": "Trash/Recycling",
    "request_reason": "MIssed Recycling Pick-Up",
    "date_created": "2021-12-31T15:04:29.000",
    "date_modified": "2021-12-31T15:04:29.000",
    "case_close_date": "2021-09-24T19:00:00.000",
    "request_status": "Pending",
    "responsible_agency": "Department of Sanitation",
    "final_address": "5828 Magnolia St",
    "address_councildis": "A",
    "status": "Assigned to Contractor",
    "contractor": "Richards Disposal",
    "rowid": "851102",
    "final_x": "3666802.00109",
    "final_y": "524902.680572",
    "longitude": "-90.114703708006",
    "latitude": "29.937738278607156",
    "geocoded_column": {
      "latitude": "29.937738278607156",
      "longitude": "-90.114703708006"
    }
  },
  {
    "service_request": "2021-851101",
    "request_type": "Trash/Recycling",
    "request_reason": "Missed Trash Pick-Up",
    "date_created": "2021-12-31T15:03:31.000",
    "date_modified": "2021-12-31T15:03:32.000",
    "request_status": "Pending",
    "responsible_agency": "Department of Sanitation",
    "final_address": "5415 Urquhart St",
    "address_councildis": "E",
    "status": "Assigned to Contractor",
    "contractor": "Metro Disposal",
    "rowid": "851101",
    "final_x": "3697506.87267",
    "final_y": "534704.836614",
    "longitude": "-90.01741117411463",
    "latitude": "29.963757141408035",
    "geocoded_column": {
      "latitude": "29.963757141408035",
      "longitude": "-90.01741117411463"
    }
  },
  {
    "service_request": "2021-851100",
    "request_type": "Trash/Recycling",
    "request_reason": "Missed Trash Pick-Up",
    "date_created": "2021-12-31T15:00:30.000",
    "date_modified": "2021-12-31T16:01:07.000",
    "request_status": "Pending",
    "responsible_agency": "Department of Sanitation",
    "final_address": "200 Alonzo St",
    "address_councildis": "A",
    "status": "Assigned to Contractor",
    "contractor": "Richards Disposal",
    "rowid": "851100",
    "final_x": "3664456.84813",
    "final_y": "517096.615925",
    "longitude": "-90.12236802251839",
    "latitude": "29.916342428615057",
    "geocoded_column": {
      "latitude": "29.916342428615057",
      "longitude": "-90.12236802251839"
    }
  },
  {
    "service_request": "2021-851099",
    "request_type": "Trash/Recycling",
    "request_reason": "Repair Trash Cart",
    "date_created": "2021-12-31T15:00:05.000",
    "date_modified": "2021-12-31T15:00:31.000",
    "request_status": "Pending",
    "responsible_agency": "Department of Sanitation",
    "final_address": "7752 Arcadia Ln",
    "address_councildis": "E",
    "status": "Assigned to Contractor",
    "contractor": "Metro Disposal",
    "rowid": "851099",
    "final_x": "3712046.79608",
    "final_y": "567511.216932",
    "longitude": "-89.97026361725196",
    "latitude": "30.053494827689498",
    "geocoded_column": {
      "latitude": "30.053494827689498",
      "longitude": "-89.97026361725196"
    }
  },
  {
    "service_request": "2021-851098",
    "request_type": "Trash/Recycling",
    "request_reason": "Request a Large Item Pick Up",
    "date_created": "2021-12-31T14:57:55.000",
    "date_modified": "2021-12-31T14:57:56.000",
    "request_status": "Pending",
    "responsible_agency": "Department of Sanitation",
    "final_address": "2713 Dante St",
    "address_councildis": "A",
    "status": "Assigned to Contractor",
    "contractor": "Richards Disposal",
    "rowid": "851098",
    "final_x": "3665178.53837",
    "final_y": "532931.376324",
    "longitude": "-90.11956062799926",
    "latitude": "29.95986197300416",
    "geocoded_column": {
      "latitude": "29.95986197300416",
      "longitude": "-90.11956062799926"
    }
  },
  {
    "service_request": "2021-851097",
    "request_type": "Property Maintenance",
    "request_reason": "Property Maintenance",
    "date_created": "2021-12-31T14:54:10.000",
    "date_modified": "2021-12-31T15:00:34.000",
    "request_status": "Pending",
    "responsible_agency": "Department of Code Enforcement",
    "final_address": "900 BLK Saint Roch Ave",
    "address_councildis": "C",
    "status": "Pending",
    "rowid": "851097",
    "final_x": "3686535.83358",
    "final_y": "535883.746918",
    "longitude": "-90.05201492526962",
    "latitude": "29.967340618078282",
    "geocoded_column": {
      "latitude": "29.967340618078282",
      "longitude": "-90.05201492526962"
    }
  },
  {
    "service_request": "2021-851096",
    "request_type": "Trash/Recycling",
    "request_reason": "Replace Trash Cart",
    "date_created": "2021-12-31T14:54:04.000",
    "date_modified": "2021-12-31T15:00:37.000",
    "request_status": "Pending",
    "responsible_agency": "Department of Sanitation",
    "final_address": "14045 Partridge Ln",
    "address_councildis": "E",
    "status": "Assigned to Contractor",
    "contractor": "Metro Disposal",
    "rowid": "851096",
    "final_x": "3719399.20178",
    "final_y": "571758.480872",
    "longitude": "-89.94686240802096",
    "latitude": "30.06493049547278",
    "geocoded_column": {
      "latitude": "30.06493049547278",
      "longitude": "-89.94686240802096"
    }
  },
  {
    "service_request": "2021-851095",
    "request_type": "Trash/Recycling",
    "request_reason": "Missed Trash Pick-Up",
    "date_created": "2021-12-31T14:51:24.000",
    "date_modified": "2021-12-31T14:51:25.000",
    "request_status": "Pending",
    "responsible_agency": "Department of Sanitation",
    "final_address": "1334 Bartholomew St",
    "address_councildis": "D",
    "status": "Assigned to Contractor",
    "contractor": "Metro Disposal",
    "rowid": "851095",
    "final_x": "3692020.01737",
    "final_y": "536332.253319",
    "longitude": "-90.03467980744881",
    "latitude": "29.96840408736077",
    "geocoded_column": {
      "latitude": "29.96840408736077",
      "longitude": "-90.03467980744881"
    }
  },
  {
    "service_request": "2021-851094",
    "request_type": "Trash/Recycling",
    "request_reason": "Missed Trash Pick-Up",
    "date_created": "2021-12-31T14:50:08.000",
    "date_modified": "2021-12-31T15:00:38.000",
    "request_status": "Pending",
    "responsible_agency": "Department of Sanitation",
    "final_address": "4826 Warrington Dr",
    "address_councildis": "D",
    "status": "Assigned to Contractor",
    "contractor": "Metro Disposal",
    "rowid": "851094",
    "final_x": "3681016.69608",
    "final_y": "550324.517012",
    "longitude": "-90.06894120763037",
    "latitude": "30.00721620786253",
    "geocoded_column": {
      "latitude": "30.00721620786253",
      "longitude": "-90.06894120763037"
    }
  },
  {
    "service_request": "2021-851093",
    "request_type": "Abandoned Vehicles",
    "request_reason": "Abandoned/Junk Vehicles",
    "date_created": "2021-12-31T14:48:43.000",
    "date_modified": "2021-12-31T15:00:41.000",
    "request_status": "Pending",
    "responsible_agency": "Department of Public Works",
    "final_address": "398 Broadway St, New Orleans, Louisiana, 70118",
    "address_councildis": "A",
    "status": "Pending",
    "rowid": "851093",
    "final_x": "3661979.94163",
    "final_y": "523326.346171",
    "longitude": "-90.12997966833227",
    "latitude": "29.933543989587605",
    "geocoded_column": {
      "latitude": "29.933543989587605",
      "longitude": "-90.12997966833227"
    }
  },
  {
    "service_request": "2021-851092",
    "request_type": "Trash/Recycling",
    "request_reason": "Missed Trash Pick-Up",
    "date_created": "2021-12-31T14:47:30.000",
    "date_modified": "2021-12-31T15:00:43.000",
    "request_status": "Pending",
    "responsible_agency": "Department of Sanitation",
    "final_address": "5515 Chestnut St",
    "address_councildis": "A",
    "status": "Assigned to Contractor",
    "contractor": "Richards Disposal",
    "rowid": "851092",
    "final_x": "3666464.75463",
    "final_y": "519675.00684",
    "longitude": "-90.11594377306251",
    "latitude": "29.92337369333792",
    "geocoded_column": {
      "latitude": "29.92337369333792",
      "longitude": "-90.11594377306251"
    }
  },
  {
    "service_request": "2021-851091",
    "request_type": "Trash/Recycling",
    "request_reason": "Missed Trash Pick-Up",
    "date_created": "2021-12-31T14:45:07.000",
    "date_modified": "2021-12-31T14:45:08.000",
    "request_status": "Pending",
    "responsible_agency": "Department of Sanitation",
    "final_address": "4124 Davey St",
    "address_councildis": "D",
    "status": "Assigned to Contractor",
    "contractor": "Metro Disposal",
    "rowid": "851091",
    "final_x": "3676127.3723",
    "final_y": "547209.863633",
    "longitude": "-90.08449519720051",
    "latitude": "29.998799455189765",
    "geocoded_column": {
      "latitude": "29.998799455189765",
      "longitude": "-90.08449519720051"
    }
  },
  {
    "service_request": "2021-851090",
    "request_type": "Trash/Recycling",
    "request_reason": "Missed Trash Pick-Up",
    "date_created": "2021-12-31T14:44:22.000",
    "date_modified": "2021-12-31T15:00:45.000",
    "request_status": "Pending",
    "responsible_agency": "Department of Sanitation",
    "final_address": "5900 BLK Patton St",
    "address_councildis": "A",
    "status": "Assigned to Contractor",
    "contractor": "Richards Disposal",
    "rowid": "851090",
    "final_x": "3664781.56771",
    "final_y": "518474.174125",
    "longitude": "-90.12129707948522",
    "latitude": "29.920120844066442",
    "geocoded_column": {
      "latitude": "29.920120844066442",
      "longitude": "-90.12129707948522"
    }
  },
  {
    "service_request": "2021-851089",
    "request_type": "Trash/Recycling",
    "request_reason": "Missed Trash Pick-Up",
    "date_created": "2021-12-31T14:40:53.000",
    "date_modified": "2021-12-31T15:00:46.000",
    "request_status": "Pending",
    "responsible_agency": "Department of Sanitation",
    "final_address": "5100 BLK Burgundy St",
    "address_councildis": "E",
    "status": "Assigned to Contractor",
    "contractor": "Metro Disposal",
    "rowid": "851089",
    "final_x": "3696167.19162",
    "final_y": "533382.544899",
    "longitude": "-90.0216895313018",
    "latitude": "29.960163543799283",
    "geocoded_column": {
      "latitude": "29.960163543799283",
      "longitude": "-90.0216895313018"
    }
  },
  {
    "service_request": "2021-851088",
    "request_type": "Trash/Recycling",
    "request_reason": "Replace Trash Cart",
    "date_created": "2021-12-31T14:36:30.000",
    "date_modified": "2021-12-31T15:00:47.000",
    "request_status": "Pending",
    "responsible_agency": "Department of Sanitation",
    "final_address": "3557 Inwood Ave, New Orleans, Louisiana, 70131",
    "address_councildis": "C",
    "status": "Assigned to Contractor",
    "contractor": "Richards Disposal",
    "rowid": "851088",
    "final_x": "3703641.80503",
    "final_y": "515158.824115",
    "longitude": "-89.99875672001963",
    "latitude": "29.909817316056756",
    "geocoded_column": {
      "latitude": "29.909817316056756",
      "longitude": "-89.99875672001963"
    }
  },
  {
    "service_request": "2021-851087",
    "request_type": "Trash/Recycling",
    "request_reason": "Missed Trash Pick-Up",
    "date_created": "2021-12-31T14:34:03.000",
    "date_modified": "2021-12-31T16:59:18.000",
    "request_status": "Pending",
    "responsible_agency": "Department of Sanitation",
    "final_address": "New Orleans,LA",
    "status": "Assigned to Contractor",
    "rowid": "851087",
    "longitude": "0.0",
    "latitude": "0.0",
    "geocoded_column": {
      "latitude": "0.0",
      "longitude": "0.0"
    }
  },
  {
    "service_request": "2021-851086",
    "request_type": "Trash/Recycling",
    "request_reason": "Missed Trash Pick-Up",
    "date_created": "2021-12-31T14:33:27.000",
    "date_modified": "2021-12-31T15:00:50.000",
    "request_status": "Pending",
    "responsible_agency": "Department of Sanitation",
    "final_address": "3909 Louisiana Avenue Prkwy",
    "address_councildis": "B",
    "status": "Assigned to Contractor",
    "contractor": "Richards Disposal",
    "rowid": "851086",
    "final_x": "3671201.44097",
    "final_y": "529158.826496",
    "longitude": "-90.10066974791134",
    "latitude": "29.9493119043204",
    "geocoded_column": {
      "latitude": "29.9493119043204",
      "longitude": "-90.10066974791134"
    }
  },
  {
    "service_request": "2021-851085",
    "request_type": "Trash/Recycling",
    "request_reason": "Missed Trash Pick-Up",
    "date_created": "2021-12-31T14:31:13.000",
    "date_modified": "2021-12-31T14:31:13.000",
    "request_status": "Pending",
    "responsible_agency": "Department of Sanitation",
    "final_address": "1212 Forstall St",
    "address_councildis": "E",
    "status": "Assigned to Contractor",
    "contractor": "Metro Disposal",
    "rowid": "851085",
    "final_x": "3696346.95907",
    "final_y": "534688.817478",
    "longitude": "-90.02107462673737",
    "latitude": "29.963749671208532",
    "geocoded_column": {
      "latitude": "29.963749671208532",
      "longitude": "-90.02107462673737"
    }
  },
  {
    "service_request": "2021-851084",
    "request_type": "Property Maintenance",
    "request_reason": "Property Maintenance",
    "date_created": "2021-12-31T14:30:27.000",
    "date_modified": "2021-12-31T14:30:27.000",
    "request_status": "Pending",
    "responsible_agency": "Department of Code Enforcement",
    "final_address": "7701 Maple St",
    "address_councildis": "A",
    "status": "Pending",
    "rowid": "851084",
    "final_x": "3662096.89959",
    "final_y": "526410.684798",
    "longitude": "-90.12950813809526",
    "latitude": "29.942021566440655",
    "geocoded_column": {
      "latitude": "29.942021566440655",
      "longitude": "-90.12950813809526"
    }
  },
  {
    "service_request": "2021-851083",
    "request_type": "Trash/Recycling",
    "request_reason": "Missed Trash Pick-Up",
    "date_created": "2021-12-31T14:23:00.000",
    "date_modified": "2021-12-31T15:00:51.000",
    "request_status": "Pending",
    "responsible_agency": "Department of Sanitation",
    "final_address": "2129 Palmer Ave, New Orleans, Louisiana, 70118",
    "address_councildis": "A",
    "status": "Assigned to Contractor",
    "contractor": "Richards Disposal",
    "rowid": "851083",
    "final_x": "3666121.59508",
    "final_y": "524791.087484",
    "longitude": "-90.11685555157926",
    "latitude": "29.93745131317883",
    "geocoded_column": {
      "latitude": "29.93745131317883",
      "longitude": "-90.11685555157926"
    }
  },
  {
    "service_request": "2021-851082",
    "request_type": "Roads/Drainage",
    "request_reason": "Unpermitted work in ROW",
    "date_created": "2021-12-31T14:15:15.000",
    "date_modified": "2021-12-31T14:15:15.000",
    "request_status": "Pending",
    "responsible_agency": "Department of Public Works",
    "final_address": "PLEASANT ST & ANNUNCIATION ST",
    "address_councildis": "B",
    "status": "Pending",
    "rowid": "851082",
    "final_x": "3676054.5",
    "final_y": "518890.68",
    "longitude": "-90.08569948261227",
    "latitude": "29.920933411868557",
    "geocoded_column": {
      "latitude": "29.920933411868557",
      "longitude": "-90.08569948261227"
    }
  },
  {
    "service_request": "2021-851081",
    "request_type": "Trash/Recycling",
    "request_reason": "Missed Trash Pick-Up",
    "date_created": "2021-12-31T14:11:43.000",
    "date_modified": "2021-12-31T14:11:44.000",
    "request_status": "Pending",
    "responsible_agency": "Department of Sanitation",
    "final_address": "1732 Bartholomew St",
    "address_councildis": "D",
    "status": "Assigned to Contractor",
    "contractor": "Metro Disposal",
    "rowid": "851081",
    "final_x": "3692377.23203",
    "final_y": "537778.327368",
    "longitude": "-90.03349990577291",
    "latitude": "29.97236914200978",
    "geocoded_column": {
      "latitude": "29.97236914200978",
      "longitude": "-90.03349990577291"
    }
  },
  {
    "service_request": "2021-851080",
    "request_type": "Trash/Recycling",
    "request_reason": "Request a Large Item Pick Up",
    "date_created": "2021-12-31T13:41:27.000",
    "date_modified": "2021-12-31T14:00:42.000",
    "request_status": "Pending",
    "responsible_agency": "Department of Sanitation",
    "final_address": "4925 Gallier Dr",
    "address_councildis": "D",
    "status": "Assigned to Contractor",
    "contractor": "Metro Disposal",
    "rowid": "851080",
    "final_x": "3691940.34057",
    "final_y": "552230.43919",
    "longitude": "-90.03436226081719",
    "latitude": "30.012120828715176",
    "geocoded_column": {
      "latitude": "30.012120828715176",
      "longitude": "-90.03436226081719"
    }
  },
  {
    "service_request": "2021-851079",
    "request_type": "Abandoned Vehicles",
    "request_reason": "Abandoned/Junk Vehicles",
    "date_created": "2021-12-31T13:39:13.000",
    "date_modified": "2021-12-31T13:39:13.000",
    "request_status": "Pending",
    "responsible_agency": "Department of Public Works",
    "final_address": "JACKSON AVE & PRYTANIA ST",
    "address_councildis": "B",
    "status": "Pending",
    "rowid": "851079",
    "final_x": "3677946.4",
    "final_y": "523292.38",
    "longitude": "-90.07957558223018",
    "latitude": "29.93297987591418",
    "geocoded_column": {
      "latitude": "29.93297987591418",
      "longitude": "-90.07957558223018"
    }
  },
  {
    "service_request": "2021-851077",
    "request_type": "Parks & Parkways",
    "request_reason": "Request Tree Service (Right of Way/Public Property)",
    "date_created": "2021-12-31T13:36:59.000",
    "date_modified": "2021-12-31T13:36:59.000",
    "request_status": "Pending",
    "responsible_agency": "Department of Parks & Parkway",
    "final_address": "1015 Louisiana Ave",
    "address_councildis": "B",
    "status": "Pending",
    "rowid": "851077",
    "final_x": "3675199.70267",
    "final_y": "519448.536567",
    "longitude": "-90.08837856136961",
    "latitude": "29.922492902670886",
    "geocoded_column": {
      "latitude": "29.922492902670886",
      "longitude": "-90.08837856136961"
    }
  },
  {
    "service_request": "2021-851076",
    "request_type": "Roads/Drainage",
    "request_reason": "Pothole",
    "date_created": "2021-12-31T13:34:35.000",
    "date_modified": "2021-12-31T13:34:35.000",
    "request_status": "Pending",
    "responsible_agency": "Department of Public Works",
    "final_address": "2754 Mithra St",
    "address_councildis": "D",
    "status": "Pending",
    "rowid": "851076",
    "final_x": "3687811.16963",
    "final_y": "552951.621847",
    "longitude": "-90.04738249236485",
    "latitude": "30.01423187970382",
    "geocoded_column": {
      "latitude": "30.01423187970382",
      "longitude": "-90.04738249236485"
    }
  },
  {
    "service_request": "2021-851075",
    "request_type": "Roads/Drainage",
    "request_reason": "Pothole",
    "date_created": "2021-12-31T13:32:02.000",
    "date_modified": "2021-12-31T13:32:02.000",
    "request_status": "Pending",
    "responsible_agency": "Department of Public Works",
    "final_address": "4527 Magazine St",
    "address_councildis": "B",
    "status": "Pending",
    "rowid": "851075",
    "final_x": "3670425.97742",
    "final_y": "518766.249143",
    "longitude": "-90.10347043940386",
    "latitude": "29.920758581833628",
    "geocoded_column": {
      "latitude": "29.920758581833628",
      "longitude": "-90.10347043940386"
    }
  },
  {
    "service_request": "2021-851074",
    "request_type": "Trash/Recycling",
    "request_reason": "Replace Trash Cart",
    "date_created": "2021-12-31T13:31:47.000",
    "date_modified": "2021-12-31T14:00:44.000",
    "request_status": "Pending",
    "responsible_agency": "Department of Sanitation",
    "final_address": "8201 Green St",
    "address_councildis": "A",
    "status": "Assigned to Contractor",
    "contractor": "Richards Disposal",
    "rowid": "851074",
    "final_x": "3662882.63296",
    "final_y": "529979.645441",
    "longitude": "-90.12690876040115",
    "latitude": "29.951812342168573",
    "geocoded_column": {
      "latitude": "29.951812342168573",
      "longitude": "-90.12690876040115"
    }
  },
  {
    "service_request": "2021-851073",
    "request_type": "Trash/Recycling",
    "request_reason": "Missed Trash Pick-Up",
    "date_created": "2021-12-31T13:24:23.000",
    "date_modified": "2021-12-31T14:00:47.000",
    "request_status": "Pending",
    "responsible_agency": "Department of Sanitation",
    "final_address": "3511 Camphor St",
    "address_councildis": "A",
    "status": "Assigned to Contractor",
    "contractor": "Richards Disposal",
    "rowid": "851073",
    "final_x": "3663782.34861",
    "final_y": "537949.251401",
    "longitude": "-90.12380224438868",
    "latitude": "29.973700071423394",
    "geocoded_column": {
      "latitude": "29.973700071423394",
      "longitude": "-90.12380224438868"
    }
  },
  {
    "service_request": "2021-851071",
    "request_type": "Traffic Signals/Signs/Striping/Streetlights",
    "request_reason": "Street Light Outage/Malfunction",
    "date_created": "2021-12-31T13:18:27.000",
    "date_modified": "2021-12-31T14:00:50.000",
    "request_status": "Pending",
    "responsible_agency": "Department of Public Works",
    "final_address": "6620 General Diaz St",
    "address_councildis": "A",
    "status": "Pending",
    "contractor": "Royal Engineering",
    "rowid": "851071",
    "final_x": "3669827.85198",
    "final_y": "551478.684629",
    "longitude": "-90.10425085554571",
    "latitude": "30.010724501834563",
    "geocoded_column": {
      "latitude": "30.010724501834563",
      "longitude": "-90.10425085554571"
    }
  },
  {
    "service_request": "2021-851069",
    "request_type": "Trash/Recycling",
    "request_reason": "Missed Trash Pick-Up",
    "date_created": "2021-12-31T13:07:51.000",
    "date_modified": "2021-12-31T14:00:54.000",
    "request_status": "Pending",
    "responsible_agency": "Department of Sanitation",
    "final_address": "2516 Dublin St",
    "address_councildis": "A",
    "status": "Assigned to Contractor",
    "contractor": "Richards Disposal",
    "rowid": "851069",
    "final_x": "3664922.38157",
    "final_y": "532196.465155",
    "longitude": "-90.1203940836171",
    "latitude": "29.957848665996288",
    "geocoded_column": {
      "latitude": "29.957848665996288",
      "longitude": "-90.1203940836171"
    }
  },
  {
    "service_request": "2021-851068",
    "request_type": "Trash/Recycling",
    "request_reason": "Missed Trash Pick-Up",
    "date_created": "2021-12-31T12:57:44.000",
    "date_modified": "2021-12-31T12:57:45.000",
    "request_status": "Pending",
    "responsible_agency": "Department of Sanitation",
    "final_address": "2416 Broadway St",
    "address_councildis": "A",
    "status": "Assigned to Contractor",
    "contractor": "Richards Disposal",
    "rowid": "851068",
    "final_x": "3666634.66746",
    "final_y": "530275.214657",
    "longitude": "-90.11505165675878",
    "latitude": "29.952515904601903",
    "geocoded_column": {
      "latitude": "29.952515904601903",
      "longitude": "-90.11505165675878"
    }
  },
  {
    "service_request": "2021-851067",
    "request_type": "Property Maintenance",
    "request_reason": "Property Maintenance",
    "date_created": "2021-12-31T12:54:10.000",
    "date_modified": "2021-12-31T13:00:32.000",
    "request_status": "Pending",
    "responsible_agency": "Department of Code Enforcement",
    "final_address": "BELLEVILLE ST & DIANA ST",
    "address_councildis": "C",
    "status": "Pending",
    "rowid": "851067",
    "final_x": "3687756.7",
    "final_y": "527583.38",
    "longitude": "-90.0484533548664",
    "latitude": "29.944479873565662",
    "geocoded_column": {
      "latitude": "29.944479873565662",
      "longitude": "-90.0484533548664"
    }
  },
  {
    "service_request": "2021-851066",
    "request_type": "Trash/Recycling",
    "request_reason": "Replace Trash Cart",
    "date_created": "2021-12-31T12:49:59.000",
    "date_modified": "2021-12-31T12:49:59.000",
    "request_status": "Pending",
    "responsible_agency": "Department of Sanitation",
    "final_address": "1503 Mandeville St",
    "address_councildis": "C",
    "status": "Assigned to Contractor",
    "contractor": "Metro Disposal",
    "rowid": "851066",
    "final_x": "3685689.10748",
    "final_y": "537892.205897",
    "longitude": "-90.05461811085982",
    "latitude": "29.972889188350138",
    "geocoded_column": {
      "latitude": "29.972889188350138",
      "longitude": "-90.05461811085982"
    }
  },
  {
    "service_request": "2021-851065",
    "request_type": "Trash/Recycling",
    "request_reason": "Repair Trash Cart",
    "date_created": "2021-12-31T12:48:37.000",
    "date_modified": "2021-12-31T12:48:37.000",
    "request_status": "Pending",
    "responsible_agency": "Department of Sanitation",
    "final_address": "1501 Mandeville St",
    "address_councildis": "C",
    "status": "Assigned to Contractor",
    "contractor": "Metro Disposal",
    "rowid": "851065",
    "final_x": "3685693.2742",
    "final_y": "537873.872585",
    "longitude": "-90.05460559774029",
    "latitude": "29.972838650290722",
    "geocoded_column": {
      "latitude": "29.972838650290722",
      "longitude": "-90.05460559774029"
    }
  },
  {
    "service_request": "2021-851064",
    "request_type": "Roads/Drainage",
    "request_reason": "Street Flooding / Drainage",
    "date_created": "2021-12-31T12:45:38.000",
    "date_modified": "2021-12-31T13:00:34.000",
    "request_status": "Pending",
    "responsible_agency": "Department of Public Works",
    "final_address": "50 Pratt Dr",
    "address_councildis": "D",
    "status": "Pending",
    "rowid": "851064",
    "final_x": "3680486.6717",
    "final_y": "549774.348308",
    "longitude": "-90.07063485493116",
    "latitude": "30.00571951232522",
    "geocoded_column": {
      "latitude": "30.00571951232522",
      "longitude": "-90.07063485493116"
    }
  },
  {
    "service_request": "2021-851063",
    "request_type": "Trash/Recycling",
    "request_reason": "Illegal Dumping",
    "date_created": "2021-12-31T12:43:40.000",
    "date_modified": "2021-12-31T12:43:40.000",
    "request_status": "Pending",
    "responsible_agency": "Department of Code Enforcement",
    "final_address": "2700 BLK Marigny St",
    "address_councildis": "D",
    "status": "Pending",
    "rowid": "851063",
    "final_x": "3684897.74959",
    "final_y": "542810.960097",
    "longitude": "-90.05694432311245",
    "latitude": "29.986438292847605",
    "geocoded_column": {
      "latitude": "29.986438292847605",
      "longitude": "-90.05694432311245"
    }
  },
  {
    "service_request": "2021-851062",
    "request_type": "Trash/Recycling",
    "request_reason": "Start Trash Service",
    "date_created": "2021-12-31T12:41:23.000",
    "date_modified": "2021-12-31T13:00:38.000",
    "request_status": "Pending",
    "responsible_agency": "Department of Sanitation",
    "final_address": "1813 Montegut St",
    "address_councildis": "D",
    "status": "Assigned to Contractor",
    "contractor": "Metro Disposal",
    "rowid": "851062",
    "final_x": "3689154.04284",
    "final_y": "538875.114505",
    "longitude": "-90.04364027961337",
    "latitude": "29.975485063351726",
    "geocoded_column": {
      "latitude": "29.975485063351726",
      "longitude": "-90.04364027961337"
    }
  },
  {
    "service_request": "2021-851061",
    "request_type": "Trash/Recycling",
    "request_reason": "Replace Recycling Cart",
    "date_created": "2021-12-31T12:37:53.000",
    "date_modified": "2021-12-31T13:00:41.000",
    "request_status": "Pending",
    "responsible_agency": "Department of Sanitation",
    "final_address": "220 S Gayoso St",
    "address_councildis": "B",
    "status": "Pending",
    "rowid": "851061",
    "final_x": "3674019.62798",
    "final_y": "535353.85511",
    "longitude": "-90.09155948452033",
    "latitude": "29.96626250208269",
    "geocoded_column": {
      "latitude": "29.96626250208269",
      "longitude": "-90.09155948452033"
    }
  },
  {
    "service_request": "2021-851060",
    "request_type": "Trash/Recycling",
    "request_reason": "Missed Trash Pick-Up",
    "date_created": "2021-12-31T12:36:55.000",
    "date_modified": "2021-12-31T12:36:55.000",
    "request_status": "Pending",
    "responsible_agency": "Department of Sanitation",
    "final_address": "1800 BLK Desire St",
    "address_councildis": "D",
    "status": "Assigned to Contractor",
    "contractor": "Metro Disposal",
    "rowid": "851060",
    "final_x": "3690853.76228",
    "final_y": "538415.70478",
    "longitude": "-90.03828852033496",
    "latitude": "29.97416913620994",
    "geocoded_column": {
      "latitude": "29.97416913620994",
      "longitude": "-90.03828852033496"
    }
  },
  {
    "service_request": "2021-851059",
    "request_type": "Trash/Recycling",
    "request_reason": "Missed Trash Pick-Up",
    "date_created": "2021-12-31T12:25:48.000",
    "date_modified": "2021-12-31T13:00:44.000",
    "request_status": "Pending",
    "responsible_agency": "Department of Sanitation",
    "final_address": "New Orleans,LA",
    "address_councildis": "C",
    "status": "Assigned to Contractor",
    "contractor": "Richards Disposal",
    "rowid": "851059",
    "final_x": "3702695.97034",
    "final_y": "517377.365877",
    "longitude": "-90.00166055973898",
    "latitude": "29.915947805060767",
    "geocoded_column": {
      "latitude": "29.915947805060767",
      "longitude": "-90.00166055973898"
    }
  },
  {
    "service_request": "2021-851058",
    "request_type": "Property Maintenance",
    "request_reason": "Property Maintenance",
    "date_created": "2021-12-31T12:25:34.000",
    "date_modified": "2021-12-31T13:00:47.000",
    "request_status": "Pending",
    "responsible_agency": "Department of Code Enforcement",
    "final_address": "1932 Pelopidas St",
    "address_councildis": "D",
    "status": "Pending",
    "rowid": "851058",
    "final_x": "3682443.88117",
    "final_y": "547627.327122",
    "longitude": "-90.06452669483731",
    "latitude": "29.999756524758947",
    "geocoded_column": {
      "latitude": "29.999756524758947",
      "longitude": "-90.06452669483731"
    }
  },
  {
    "service_request": "2021-851057",
    "request_type": "Trash/Recycling",
    "request_reason": "Missed Trash Pick-Up",
    "date_created": "2021-12-31T12:25:01.000",
    "date_modified": "2021-12-31T13:00:50.000",
    "request_status": "Pending",
    "responsible_agency": "Department of Sanitation",
    "final_address": "3816 Vincennes Pl",
    "address_councildis": "A",
    "status": "Assigned to Contractor",
    "contractor": "Richards Disposal",
    "rowid": "851057",
    "final_x": "3668222.44717",
    "final_y": "529625.898241",
    "longitude": "-90.11006004143432",
    "latitude": "29.950683982249327",
    "geocoded_column": {
      "latitude": "29.950683982249327",
      "longitude": "-90.11006004143432"
    }
  },
  {
    "service_request": "2021-851056",
    "request_type": "Property Maintenance",
    "request_reason": "Property Maintenance",
    "date_created": "2021-12-31T12:24:32.000",
    "date_modified": "2021-12-31T13:00:53.000",
    "request_status": "Pending",
    "responsible_agency": "Department of Code Enforcement",
    "final_address": "1938 Pelopidas St",
    "address_councildis": "D",
    "status": "Pending",
    "rowid": "851056",
    "final_x": "3682485.95663",
    "final_y": "547666.762322",
    "longitude": "-90.06439239725684",
    "latitude": "29.99986367630396",
    "geocoded_column": {
      "latitude": "29.99986367630396",
      "longitude": "-90.06439239725684"
    }
  },
  {
    "service_request": "2021-851055",
    "request_type": "Trash/Recycling",
    "request_reason": "Missed Trash Pick-Up",
    "date_created": "2021-12-31T12:16:21.000",
    "date_modified": "2021-12-31T13:00:54.000",
    "request_status": "Pending",
    "responsible_agency": "Department of Sanitation",
    "final_address": "7532 Hampson St, New Orleans, Louisiana, 70118",
    "address_councildis": "A",
    "status": "Assigned to Contractor",
    "contractor": "Richards Disposal",
    "rowid": "851055",
    "final_x": "3662180.44359",
    "final_y": "525790.219389",
    "longitude": "-90.12926495543418",
    "latitude": "29.940313070115618",
    "geocoded_column": {
      "latitude": "29.940313070115618",
      "longitude": "-90.12926495543418"
    }
  },
  {
    "service_request": "2021-851054",
    "request_type": "Trash/Recycling",
    "request_reason": "Missed Trash Pick-Up",
    "date_created": "2021-12-31T12:16:04.000",
    "date_modified": "2021-12-31T12:16:05.000",
    "request_status": "Pending",
    "responsible_agency": "Department of Sanitation",
    "final_address": "205 Cambridge Ct",
    "address_councildis": "C",
    "status": "Assigned to Contractor",
    "contractor": "Richards Disposal",
    "rowid": "851054",
    "final_x": "3706255.69297",
    "final_y": "518346.543286",
    "longitude": "-89.99038893212266",
    "latitude": "29.91849847246988",
    "geocoded_column": {
      "latitude": "29.91849847246988",
      "longitude": "-89.99038893212266"
    }
  },
  {
    "service_request": "2021-851053",
    "request_type": "Trash/Recycling",
    "request_reason": "Request a Large Item Pick Up",
    "date_created": "2021-12-31T12:11:18.000",
    "date_modified": "2021-12-31T13:00:55.000",
    "request_status": "Pending",
    "responsible_agency": "Department of Sanitation",
    "final_address": "907 Cherokee St, New Orleans, Louisiana, 70118",
    "address_councildis": "A",
    "status": "Assigned to Contractor",
    "contractor": "Richards Disposal",
    "rowid": "851053",
    "final_x": "3662914.65594",
    "final_y": "526201.816702",
    "longitude": "-90.1269332370911",
    "latitude": "29.941423596913193",
    "geocoded_column": {
      "latitude": "29.941423596913193",
      "longitude": "-90.1269332370911"
    }
  },
  {
    "service_request": "2021-851052",
    "request_type": "COVID-19",
    "request_reason": "COVID-19 Business Non-Compliance",
    "date_created": "2021-12-31T12:11:05.000",
    "date_modified": "2021-12-31T12:11:06.000",
    "request_status": "Pending",
    "responsible_agency": "Safety and Permits",
    "final_address": "8550 Pontchartrain Blvd",
    "address_councildis": "A",
    "status": "Pending",
    "rowid": "851052",
    "final_x": "3666468.75149",
    "final_y": "555327.528217",
    "longitude": "-90.11473427732953",
    "latitude": "30.021406114289903",
    "geocoded_column": {
      "latitude": "30.021406114289903",
      "longitude": "-90.11473427732953"
    }
  },
  {
    "service_request": "2021-851051",
    "request_type": "Abandoned Vehicles",
    "request_reason": "Abandoned/Junk Vehicles",
    "date_created": "2021-12-31T12:03:54.000",
    "date_modified": "2021-12-31T13:00:56.000",
    "request_status": "Pending",
    "responsible_agency": "Department of Public Works",
    "final_address": "1825 Orleans Ave",
    "address_councildis": "D",
    "status": "Pending",
    "rowid": "851051",
    "final_x": "3679523.96898",
    "final_y": "535121.954694",
    "longitude": "-90.07418493150286",
    "latitude": "29.96545968492413",
    "geocoded_column": {
      "latitude": "29.96545968492413",
      "longitude": "-90.07418493150286"
    }
  },
  {
    "service_request": "2021-851050",
    "request_type": "Trash/Recycling",
    "request_reason": "Missed Trash Pick-Up",
    "date_created": "2021-12-31T12:00:01.000",
    "date_modified": "2021-12-31T12:00:02.000",
    "request_status": "Pending",
    "responsible_agency": "Department of Sanitation",
    "final_address": "6000 Burgundy St",
    "address_councildis": "E",
    "status": "Assigned to Contractor",
    "contractor": "Metro Disposal",
    "rowid": "851050",
    "final_x": "3698876.49264",
    "final_y": "532650.859332",
    "longitude": "-90.01316080658339",
    "latitude": "29.95806611425129",
    "geocoded_column": {
      "latitude": "29.95806611425129",
      "longitude": "-90.01316080658339"
    }
  },
  {
    "service_request": "2021-851049",
    "request_type": "Roads/Drainage",
    "request_reason": "Debris in Roadway",
    "date_created": "2021-12-31T11:57:56.000",
    "date_modified": "2021-12-31T11:57:57.000",
    "request_status": "Pending",
    "responsible_agency": "Department of Public Works",
    "final_address": "THALIA ST & S BROAD ST",
    "address_councildis": "B",
    "status": "Pending",
    "rowid": "851049",
    "final_x": "3672088.2",
    "final_y": "530383.68",
    "longitude": "-90.09782814931245",
    "latitude": "29.952653587511108",
    "geocoded_column": {
      "latitude": "29.952653587511108",
      "longitude": "-90.09782814931245"
    }
  },
  {
    "service_request": "2021-851048",
    "request_type": "Trash/Recycling",
    "request_reason": "Request a Large Item Pick Up",
    "date_created": "2021-12-31T11:56:51.000",
    "date_modified": "2021-12-31T11:56:52.000",
    "request_status": "Pending",
    "responsible_agency": "Department of Sanitation",
    "final_address": "1335 Coliseum St",
    "address_councildis": "B",
    "status": "Assigned to Contractor",
    "contractor": "Richards Disposal",
    "rowid": "851048",
    "final_x": "3679965.07445",
    "final_y": "525004.747133",
    "longitude": "-90.07314332162451",
    "latitude": "29.937627431060843",
    "geocoded_column": {
      "latitude": "29.937627431060843",
      "longitude": "-90.07314332162451"
    }
  },
  {
    "service_request": "2021-851047",
    "request_type": "Trash/Recycling",
    "request_reason": "Missed Trash Pick-Up",
    "date_created": "2021-12-31T11:56:15.000",
    "date_modified": "2021-12-31T12:00:36.000",
    "request_status": "Pending",
    "responsible_agency": "Department of Sanitation",
    "final_address": "603 Tricou St, New Orleans, Louisiana, 70117",
    "address_councildis": "E",
    "status": "Assigned to Contractor",
    "contractor": "Metro Disposal",
    "rowid": "851047",
    "final_x": "3699489.08823",
    "final_y": "531330.516034",
    "longitude": "-90.01127451721908",
    "latitude": "29.954416217344857",
    "geocoded_column": {
      "latitude": "29.954416217344857",
      "longitude": "-90.01127451721908"
    }
  },
  {
    "service_request": "2021-851046",
    "request_type": "Trash/Recycling",
    "request_reason": "Missed Trash Pick-Up",
    "date_created": "2021-12-31T11:54:21.000",
    "date_modified": "2021-12-31T11:54:22.000",
    "request_status": "Pending",
    "responsible_agency": "Department of Sanitation",
    "final_address": "2700 BLK Edna St",
    "address_councildis": "D",
    "status": "Assigned to Contractor",
    "contractor": "Metro Disposal",
    "rowid": "851046",
    "final_x": "3689686.30038",
    "final_y": "545289.876728",
    "longitude": "-90.04173090314175",
    "latitude": "29.993106883511192",
    "geocoded_column": {
      "latitude": "29.993106883511192",
      "longitude": "-90.04173090314175"
    }
  },
  {
    "service_request": "2021-851045",
    "request_type": "Trash/Recycling",
    "request_reason": "Replace Trash Cart",
    "date_created": "2021-12-31T11:47:29.000",
    "date_modified": "2021-12-31T12:00:38.000",
    "request_status": "Pending",
    "responsible_agency": "Department of Sanitation",
    "final_address": "6027 Perrier St, New Orleans, Louisiana, 70118",
    "address_councildis": "A",
    "status": "Assigned to Contractor",
    "contractor": "Richards Disposal",
    "rowid": "851045",
    "final_x": "3664977.04762",
    "final_y": "520660.648761",
    "longitude": "-90.12060699512413",
    "latitude": "29.926127276632457",
    "geocoded_column": {
      "latitude": "29.926127276632457",
      "longitude": "-90.12060699512413"
    }
  },
  {
    "service_request": "2021-851044",
    "request_type": "Trash/Recycling",
    "request_reason": "Missed Trash Pick-Up",
    "date_created": "2021-12-31T11:46:00.000",
    "date_modified": "2021-12-31T12:00:39.000",
    "request_status": "Pending",
    "responsible_agency": "Department of Sanitation",
    "final_address": "6027 Perrier St, New Orleans, Louisiana, 70118",
    "address_councildis": "A",
    "status": "Assigned to Contractor",
    "contractor": "Richards Disposal",
    "rowid": "851044",
    "final_x": "3664977.04762",
    "final_y": "520660.648761",
    "longitude": "-90.12060699512413",
    "latitude": "29.926127276632457",
    "geocoded_column": {
      "latitude": "29.926127276632457",
      "longitude": "-90.12060699512413"
    }
  },
  {
    "service_request": "2021-851043",
    "request_type": "Abandoned Vehicles",
    "request_reason": "Abandoned/Junk Vehicles",
    "date_created": "2021-12-31T11:43:04.000",
    "date_modified": "2021-12-31T11:43:04.000",
    "request_status": "Pending",
    "responsible_agency": "Department of Public Works",
    "final_address": "707 Washington Ave",
    "address_councildis": "B",
    "status": "Pending",
    "rowid": "851043",
    "final_x": "3677887.52706",
    "final_y": "519640.078712",
    "longitude": "-90.07988756825347",
    "latitude": "29.92293900859502",
    "geocoded_column": {
      "latitude": "29.92293900859502",
      "longitude": "-90.07988756825347"
    }
  },
  {
    "service_request": "2021-851042",
    "request_type": "Trash/Recycling",
    "request_reason": "Request a Large Item Pick Up",
    "date_created": "2021-12-31T11:42:26.000",
    "date_modified": "2021-12-31T12:00:41.000",
    "request_status": "Pending",
    "responsible_agency": "Department of Sanitation",
    "final_address": "1454 Farragut St",
    "address_councildis": "C",
    "status": "Assigned to Contractor",
    "contractor": "Richards Disposal",
    "rowid": "851042",
    "final_x": "3692379.17584",
    "final_y": "525732.194557",
    "longitude": "-90.03392519114193",
    "latitude": "29.93924641382243",
    "geocoded_column": {
      "latitude": "29.93924641382243",
      "longitude": "-90.03392519114193"
    }
  },
  {
    "service_request": "2021-851041",
    "request_type": "Abandoned Vehicles",
    "request_reason": "Abandoned/Junk Vehicles",
    "date_created": "2021-12-31T11:34:15.000",
    "date_modified": "2021-12-31T11:34:15.000",
    "request_status": "Pending",
    "responsible_agency": "Department of Public Works",
    "final_address": "4517 Piety Dr",
    "address_councildis": "D",
    "status": "Pending",
    "rowid": "851041",
    "final_x": "3691836.49481",
    "final_y": "550910.386901",
    "longitude": "-90.03473761929413",
    "latitude": "30.008494410069005",
    "geocoded_column": {
      "latitude": "30.008494410069005",
      "longitude": "-90.03473761929413"
    }
  },
  {
    "service_request": "2021-851040",
    "request_type": "Trash/Recycling",
    "request_reason": "Missed Trash Pick-Up",
    "date_created": "2021-12-31T11:31:54.000",
    "date_modified": "2021-12-31T12:00:42.000",
    "request_status": "Pending",
    "responsible_agency": "Department of Sanitation",
    "final_address": "6327 Cartier Dr",
    "address_councildis": "D",
    "status": "Assigned to Contractor",
    "contractor": "Metro Disposal",
    "rowid": "851040",
    "final_x": "3677640.46389",
    "final_y": "556315.814106",
    "longitude": "-90.07940052850333",
    "latitude": "30.023792122643584",
    "geocoded_column": {
      "latitude": "30.023792122643584",
      "longitude": "-90.07940052850333"
    }
  },
  {
    "service_request": "2021-851039",
    "request_type": "Trash/Recycling",
    "request_reason": "Missed Trash Pick-Up",
    "date_created": "2021-12-31T11:29:34.000",
    "date_modified": "2021-12-31T11:29:34.000",
    "request_status": "Pending",
    "responsible_agency": "Department of Sanitation",
    "final_address": "8325 Green St",
    "address_councildis": "A",
    "status": "Assigned to Contractor",
    "contractor": "Richards Disposal",
    "rowid": "851039",
    "final_x": "3662474.52352",
    "final_y": "530337.398978",
    "longitude": "-90.12818550102949",
    "latitude": "29.952807857753168",
    "geocoded_column": {
      "latitude": "29.952807857753168",
      "longitude": "-90.12818550102949"
    }
  },
  {
    "service_request": "2021-851038",
    "request_type": "Trash/Recycling",
    "request_reason": "Order Recycling Cart",
    "date_created": "2021-12-31T11:19:20.000",
    "date_modified": "2021-12-31T11:19:20.000",
    "request_status": "Pending",
    "responsible_agency": "Department of Sanitation",
    "final_address": "2230 Marais St",
    "address_councildis": "C",
    "status": "Pending",
    "rowid": "851038",
    "final_x": "3685329.00213",
    "final_y": "536667.956039",
    "longitude": "-90.05579849786383",
    "latitude": "29.969533972768176",
    "geocoded_column": {
      "latitude": "29.969533972768176",
      "longitude": "-90.05579849786383"
    }
  },
  {
    "service_request": "2021-851037",
    "request_type": "Trash/Recycling",
    "request_reason": "Request a Large Item Pick Up",
    "date_created": "2021-12-31T11:09:17.000",
    "date_modified": "2021-12-31T12:00:44.000",
    "request_status": "Pending",
    "responsible_agency": "Department of Sanitation",
    "final_address": "633 Elmira Ave",
    "address_councildis": "C",
    "status": "Assigned to Contractor",
    "contractor": "Richards Disposal",
    "rowid": "851037",
    "final_x": "3688129.10479",
    "final_y": "529209.013376",
    "longitude": "-90.0472199584299",
    "latitude": "29.94893832278857",
    "geocoded_column": {
      "latitude": "29.94893832278857",
      "longitude": "-90.0472199584299"
    }
  },
  {
    "service_request": "2021-851036",
    "request_type": "Trash/Recycling",
    "request_reason": "Request a Large Item Pick Up",
    "date_created": "2021-12-31T11:08:57.000",
    "date_modified": "2021-12-31T11:08:58.000",
    "request_status": "Pending",
    "responsible_agency": "Department of Sanitation",
    "final_address": "5300 Lacour Monique St",
    "address_councildis": "C",
    "status": "Assigned to Contractor",
    "contractor": "Richards Disposal",
    "rowid": "851036",
    "final_x": "3703408.76209",
    "final_y": "517958.604854",
    "longitude": "-89.99938937077226",
    "latitude": "29.917523215192144",
    "geocoded_column": {
      "latitude": "29.917523215192144",
      "longitude": "-89.99938937077226"
    }
  },
  {
    "service_request": "2021-851035",
    "request_type": "Roads/Drainage",
    "request_reason": "Catch Basin - Clogged",
    "date_created": "2021-12-31T11:02:28.000",
    "date_modified": "2021-12-31T11:02:28.000",
    "request_status": "Pending",
    "responsible_agency": "Department of Public Works",
    "final_address": "3200 Dumaine St",
    "address_councildis": "A",
    "status": "Pending",
    "rowid": "851035",
    "final_x": "3675362.37685",
    "final_y": "538850.895689",
    "longitude": "-90.08719900254917",
    "latitude": "29.975838094047003",
    "geocoded_column": {
      "latitude": "29.975838094047003",
      "longitude": "-90.08719900254917"
    }
  },
  {
    "service_request": "2021-851034",
    "request_type": "Trash/Recycling",
    "request_reason": "Missed Trash Pick-Up",
    "date_created": "2021-12-31T10:59:58.000",
    "date_modified": "2021-12-31T10:59:59.000",
    "request_status": "Pending",
    "responsible_agency": "Department of Sanitation",
    "final_address": "541 Webster St",
    "address_councildis": "A",
    "status": "Assigned to Contractor",
    "contractor": "Richards Disposal",
    "rowid": "851034",
    "final_x": "3663903.38759",
    "final_y": "518734.188151",
    "longitude": "-90.12406042429113",
    "latitude": "29.92086131449269",
    "geocoded_column": {
      "latitude": "29.92086131449269",
      "longitude": "-90.12406042429113"
    }
  },
  {
    "service_request": "2021-851033",
    "request_type": "Trash/Recycling",
    "request_reason": "Order Trash Cart",
    "date_created": "2021-12-31T10:52:57.000",
    "date_modified": "2021-12-31T11:00:44.000",
    "request_status": "Pending",
    "responsible_agency": "Department of Sanitation",
    "final_address": "906 Germain St",
    "address_councildis": "A",
    "status": "Assigned to Contractor",
    "contractor": "Metro Disposal",
    "rowid": "851033",
    "final_x": "3669962.9522",
    "final_y": "547726.136402",
    "longitude": "-90.103951221859",
    "latitude": "30.00040232152856",
    "geocoded_column": {
      "latitude": "30.00040232152856",
      "longitude": "-90.103951221859"
    }
  },
  {
    "service_request": "2021-851032",
    "request_type": "Trash/Recycling",
    "request_reason": "Replace Trash Cart",
    "date_created": "2021-12-31T10:52:32.000",
    "date_modified": "2021-12-31T10:52:33.000",
    "request_status": "Pending",
    "responsible_agency": "Department of Sanitation",
    "final_address": "4034 Hollygrove St",
    "address_councildis": "A",
    "status": "Assigned to Contractor",
    "contractor": "Richards Disposal",
    "rowid": "851032",
    "final_x": "3666460.58145",
    "final_y": "538127.919433",
    "longitude": "-90.1153377763723",
    "latitude": "29.974113341408575",
    "geocoded_column": {
      "latitude": "29.974113341408575",
      "longitude": "-90.1153377763723"
    }
  },
  {
    "service_request": "2021-851031",
    "request_type": "Trash/Recycling",
    "request_reason": "Missed Trash Pick-Up",
    "date_created": "2021-12-31T10:47:02.000",
    "date_modified": "2021-12-31T10:47:03.000",
    "request_status": "Pending",
    "responsible_agency": "Department of Sanitation",
    "final_address": "8511 Hickory St",
    "address_councildis": "A",
    "status": "Assigned to Contractor",
    "contractor": "Richards Disposal",
    "rowid": "851031",
    "final_x": "3662272.42669",
    "final_y": "530983.628418",
    "longitude": "-90.1288021858109",
    "latitude": "29.954590623248265",
    "geocoded_column": {
      "latitude": "29.954590623248265",
      "longitude": "-90.1288021858109"
    }
  },
  {
    "service_request": "2021-851030",
    "request_type": "Trash/Recycling",
    "request_reason": "Request a Large Item Pick Up",
    "date_created": "2021-12-31T10:37:35.000",
    "date_modified": "2021-12-31T10:37:35.000",
    "request_status": "Pending",
    "responsible_agency": "Department of Sanitation",
    "final_address": "8122 Green St",
    "address_councildis": "A",
    "status": "Assigned to Contractor",
    "contractor": "Richards Disposal",
    "rowid": "851030",
    "final_x": "3662983.08141",
    "final_y": "529769.999361",
    "longitude": "-90.12659856197553",
    "latitude": "29.951232974627466",
    "geocoded_column": {
      "latitude": "29.951232974627466",
      "longitude": "-90.12659856197553"
    }
  },
  {
    "service_request": "2021-851029",
    "request_type": "Trash/Recycling",
    "request_reason": "MIssed Recycling Pick-Up",
    "date_created": "2021-12-31T10:34:09.000",
    "date_modified": "2021-12-31T10:34:10.000",
    "request_status": "Pending",
    "responsible_agency": "Department of Sanitation",
    "final_address": "8816 Willow St",
    "address_councildis": "A",
    "status": "Assigned to Contractor",
    "contractor": "Richards Disposal",
    "rowid": "851029",
    "final_x": "3660458.78253",
    "final_y": "530645.936898",
    "longitude": "-90.13454015654126",
    "latitude": "29.9537143790175",
    "geocoded_column": {
      "latitude": "29.9537143790175",
      "longitude": "-90.13454015654126"
    }
  },
  {
    "service_request": "2021-851028",
    "request_type": "Trash/Recycling",
    "request_reason": "Missed Trash Pick-Up",
    "date_created": "2021-12-31T10:32:24.000",
    "date_modified": "2021-12-31T11:00:47.000",
    "request_status": "Pending",
    "responsible_agency": "Department of Sanitation",
    "final_address": "2809 St Charles Ave",
    "address_councildis": "B",
    "status": "Assigned to Contractor",
    "contractor": "Richards Disposal",
    "rowid": "851028",
    "final_x": "3675795.02344",
    "final_y": "522531.79001",
    "longitude": "-90.08639345918574",
    "latitude": "29.93095305294322",
    "geocoded_column": {
      "latitude": "29.93095305294322",
      "longitude": "-90.08639345918574"
    }
  },
  {
    "service_request": "2021-851027",
    "request_type": "Trash/Recycling",
    "request_reason": "Missed Trash Pick-Up",
    "date_created": "2021-12-31T10:30:39.000",
    "date_modified": "2021-12-31T11:00:50.000",
    "request_status": "Pending",
    "responsible_agency": "Department of Sanitation",
    "final_address": "1700 Block of Joseph St, New Orleans, Louisiana, 70115",
    "status": "Assigned to Contractor",
    "rowid": "851027",
    "longitude": "0.0",
    "latitude": "0.0",
    "geocoded_column": {
      "latitude": "0.0",
      "longitude": "0.0"
    }
  },
  {
    "service_request": "2021-851026",
    "request_type": "Trash/Recycling",
    "request_reason": "Missed Trash Pick-Up",
    "date_created": "2021-12-31T10:25:54.000",
    "date_modified": "2021-12-31T11:00:53.000",
    "request_status": "Pending",
    "responsible_agency": "Department of Sanitation",
    "final_address": "5701 Pasteur Blvd, New Orleans, Louisiana, 70122",
    "address_councildis": "D",
    "status": "Assigned to Contractor",
    "contractor": "Metro Disposal",
    "rowid": "851026",
    "final_x": "3682944.50677",
    "final_y": "553846.695383",
    "longitude": "-90.0627273345483",
    "latitude": "30.016842285704186",
    "geocoded_column": {
      "latitude": "30.016842285704186",
      "longitude": "-90.0627273345483"
    }
  },
  {
    "service_request": "2021-851025",
    "request_type": "Trash/Recycling",
    "request_reason": "Replace Recycling Cart",
    "date_created": "2021-12-31T10:25:37.000",
    "date_modified": "2021-12-31T11:00:54.000",
    "request_status": "Pending",
    "responsible_agency": "Department of Sanitation",
    "final_address": "2125 General Collins Ave",
    "address_councildis": "C",
    "status": "Pending",
    "rowid": "851025",
    "final_x": "3698419.02762",
    "final_y": "523158.169979",
    "longitude": "-90.01495023429986",
    "latitude": "29.931979021670692",
    "geocoded_column": {
      "latitude": "29.931979021670692",
      "longitude": "-90.01495023429986"
    }
  },
  {
    "service_request": "2021-851024",
    "request_type": "Trash/Recycling",
    "request_reason": "Request a Large Item Pick Up",
    "date_created": "2021-12-31T10:19:54.000",
    "date_modified": "2021-12-31T10:19:54.000",
    "request_status": "Pending",
    "responsible_agency": "Department of Sanitation",
    "final_address": "7723 Arcadia Ln",
    "address_councildis": "E",
    "status": "Assigned to Contractor",
    "contractor": "Metro Disposal",
    "rowid": "851024",
    "final_x": "3712182.23506",
    "final_y": "567428.379172",
    "longitude": "-89.96983864942307",
    "latitude": "30.053262626842876",
    "geocoded_column": {
      "latitude": "30.053262626842876",
      "longitude": "-89.96983864942307"
    }
  },
  {
    "service_request": "2021-851023",
    "request_type": "Trash/Recycling",
    "request_reason": "Missed Trash Pick-Up",
    "date_created": "2021-12-31T10:15:30.000",
    "date_modified": "2021-12-31T11:00:56.000",
    "request_status": "Pending",
    "responsible_agency": "Department of Sanitation",
    "final_address": "9319 Stroelitz St",
    "address_councildis": "A",
    "status": "Assigned to Contractor",
    "contractor": "Richards Disposal",
    "rowid": "851023",
    "final_x": "3664741.75604",
    "final_y": "537938.486537",
    "longitude": "-90.12077257522867",
    "latitude": "29.973642589970037",
    "geocoded_column": {
      "latitude": "29.973642589970037",
      "longitude": "-90.12077257522867"
    }
  },
  {
    "service_request": "2021-851022",
    "request_type": "Trash/Recycling",
    "request_reason": "Missed Trash Pick-Up",
    "date_created": "2021-12-31T10:12:56.000",
    "date_modified": "2021-12-31T11:00:57.000",
    "request_status": "Pending",
    "responsible_agency": "Department of Sanitation",
    "final_address": "3611 Marais St",
    "address_councildis": "D",
    "status": "Assigned to Contractor",
    "contractor": "Metro Disposal",
    "rowid": "851022",
    "final_x": "3690914.56694",
    "final_y": "535932.683783",
    "longitude": "-90.03818512368981",
    "latitude": "29.967339815214043",
    "geocoded_column": {
      "latitude": "29.967339815214043",
      "longitude": "-90.03818512368981"
    }
  },
  {
    "service_request": "2021-851021",
    "request_type": "Abandoned Vehicles",
    "request_reason": "Abandoned/Junk Vehicles",
    "date_created": "2021-12-31T10:12:20.000",
    "date_modified": "2021-12-31T10:12:20.000",
    "request_status": "Pending",
    "responsible_agency": "Department of Public Works",
    "final_address": "1312 Gordon St",
    "address_councildis": "E",
    "status": "Pending",
    "rowid": "851021",
    "final_x": "3699454.51799",
    "final_y": "534265.604677",
    "longitude": "-90.01127674460399",
    "latitude": "29.962487764153153",
    "geocoded_column": {
      "latitude": "29.962487764153153",
      "longitude": "-90.01127674460399"
    }
  },
  {
    "service_request": "2021-851020",
    "request_type": "Traffic Signals/Signs/Striping/Streetlights",
    "request_reason": "Street Light Outage/Malfunction",
    "date_created": "2021-12-31T10:09:42.000",
    "date_modified": "2021-12-31T11:00:58.000",
    "request_status": "Pending",
    "responsible_agency": "Department of Public Works",
    "final_address": "2401 Upperline St",
    "address_councildis": "B",
    "status": "Pending",
    "contractor": "Royal Engineering",
    "rowid": "851020",
    "final_x": "3669197.7417",
    "final_y": "523612.253307",
    "longitude": "-90.10718374025004",
    "latitude": "29.93411974149995",
    "geocoded_column": {
      "latitude": "29.93411974149995",
      "longitude": "-90.10718374025004"
    }
  },
  {
    "service_request": "2021-851019",
    "request_type": "Trash/Recycling",
    "request_reason": "Missed Trash Pick-Up",
    "date_created": "2021-12-31T10:06:05.000",
    "date_modified": "2021-12-31T10:06:06.000",
    "request_status": "Pending",
    "responsible_agency": "Department of Sanitation",
    "final_address": "2222 Cambronne St",
    "address_councildis": "A",
    "status": "Assigned to Contractor",
    "contractor": "Richards Disposal",
    "rowid": "851019",
    "final_x": "3663646.12467",
    "final_y": "531890.178051",
    "longitude": "-90.12443436090143",
    "latitude": "29.95704356214727",
    "geocoded_column": {
      "latitude": "29.95704356214727",
      "longitude": "-90.12443436090143"
    }
  },
  {
    "service_request": "2021-851018",
    "request_type": "Trash/Recycling",
    "request_reason": "Missed Trash Pick-Up",
    "date_created": "2021-12-31T10:02:51.000",
    "date_modified": "2021-12-31T10:02:51.000",
    "request_status": "Pending",
    "responsible_agency": "Department of Sanitation",
    "final_address": "1602 S Carrollton Ave",
    "address_councildis": "A",
    "status": "Assigned to Contractor",
    "contractor": "Richards Disposal",
    "rowid": "851018",
    "final_x": "3662941.54567",
    "final_y": "529480.309569",
    "longitude": "-90.12673934388177",
    "latitude": "29.95043762374432",
    "geocoded_column": {
      "latitude": "29.95043762374432",
      "longitude": "-90.12673934388177"
    }
  },
  {
    "service_request": "2021-851017",
    "request_type": "Trash/Recycling",
    "request_reason": "Request a Large Item Pick Up",
    "date_created": "2021-12-31T10:02:17.000",
    "date_modified": "2021-12-31T11:01:00.000",
    "request_status": "Pending",
    "responsible_agency": "Department of Sanitation",
    "final_address": "2332 Soniat St",
    "address_councildis": "B",
    "status": "Assigned to Contractor",
    "contractor": "Richards Disposal",
    "rowid": "851017",
    "final_x": "3668488.59386",
    "final_y": "524199.733436",
    "longitude": "-90.10940269086535",
    "latitude": "29.935755970319086",
    "geocoded_column": {
      "latitude": "29.935755970319086",
      "longitude": "-90.10940269086535"
    }
  },