[
  {
    "service_request": "2022-896523",
    "request_type": "Property Maintenance",
    "request_reason": "Property Maintenance",
    "date_created": "2022-07-03T22:38:55.000",
    "date_modified": "2022-07-03T22:38:55.000",
    "request_status": "Pending",
    "responsible_agency": "Department of Code Enforcement",
    "final_address": "2235 Louisiana Ave",
    "address_councildis": "B",
    "status": "Pending",
    "rowid": "896523",
    "final_x": "3673301.03771",
    "final_y": "523794.976059",
    "longitude": "-90.09422352272192",
    "latitude": "29.934500797032108",
    "geocoded_column": {
      "latitude": "29.934500797032108",
      "longitude": "-90.09422352272192"
    }
  },
  {
    "service_request": "2022-896522",
    "request_type": "Traffic Signals/Signs/Striping/Streetlights",
    "request_reason": "Street Light Outage/Malfunction",
    "date_created": "2022-07-03T22:35:25.000",
    "date_modified": "2022-07-03T22:35:25.000",
    "request_status": "Pending",
    "responsible_agency": "Department of Public Works",
    "final_address": "1245 Hagan St",
    "address_councildis": "A",
    "status": "Pending",
    "contractor": "Royal Engineering",
    "rowid": "896522",
    "final_x": "3675637.48008",
    "final_y": "540009.522955",
    "longitude": "-90.08629032289168",
    "latitude": "29.979015692471933",
    "geocoded_column": {
      "latitude": "29.979015692471933",
      "longitude": "-90.08629032289168"
    }
  },
  {
    "service_request": "2022-896521",
    "request_type": "Trash/Recycling",
    "request_reason": "Replace Trash Cart",
    "date_created": "2022-07-03T21:57:00.000",
    "date_modified": "2022-07-03T21:57:00.000",
    "request_status": "Pending",
    "responsible_agency": "Department of Sanitation",
    "final_address": "3920 S Pin Oak Ave",
    "address_councildis": "C",
    "status": "Assigned to Contractor",
    "contractor": "Richards Disposal",
    "rowid": "896521",
    "final_x": "3704935.83217",
    "final_y": "513637.39877",
    "longitude": "-89.99472864771663",
    "latitude": "29.905592410816674",
    "geocoded_column": {
      "latitude": "29.905592410816674",
      "longitude": "-89.99472864771663"
    }
  },
  {
    "service_request": "2022-896519",
    "request_type": "Trash/Recycling",
    "request_reason": "Order Trash Cart",
    "date_created": "2022-07-03T21:50:26.000",
    "date_modified": "2022-07-03T21:50:26.000",
    "request_status": "Pending",
    "responsible_agency": "Department of Sanitation",
    "final_address": "2216 St Louis St",
    "address_councildis": "B",
    "status": "Assigned to Contractor",
    "contractor": "Richards Disposal",
    "rowid": "896519",
    "final_x": "3677690.9572",
    "final_y": "535127.752774",
    "longitude": "-90.07997330296226",
    "latitude": "29.965530885966118",
    "geocoded_column": {
      "latitude": "29.965530885966118",
      "longitude": "-90.07997330296226"
    }
  },
  {
    "service_request": "2022-896517",
    "request_type": "Traffic Signals/Signs/Striping/Streetlights",
    "request_reason": "Request for Traffic Calming due to Speeding",
    "date_created": "2022-07-03T21:17:03.000",
    "date_modified": "2022-07-03T21:17:03.000",
    "request_status": "Pending",
    "responsible_agency": "Department of Public Works",
    "final_address": "2621 Banks St A",
    "address_councildis": "B",
    "status": "Pending",
    "rowid": "896517",
    "final_x": "3674944.06638",
    "final_y": "533980.767237",
    "longitude": "-90.08868722317226",
    "latitude": "29.962459393806533",
    "geocoded_column": {
      "latitude": "29.962459393806533",
      "longitude": "-90.08868722317226"
    }
  },
  {
    "service_request": "2022-896516",
    "request_type": "Trash/Recycling",
    "request_reason": "Request a Large Item Pick Up",
    "date_created": "2022-07-03T21:08:22.000",
    "date_modified": "2022-07-03T21:08:23.000",
    "request_status": "Pending",
    "responsible_agency": "Department of Sanitation",
    "final_address": "4508 Jeanne Marie Pl",
    "address_councildis": "D",
    "status": "Assigned to Contractor",
    "contractor": "Metro Disposal",
    "rowid": "896516",
    "final_x": "3678416.06197",
    "final_y": "549126.097043",
    "longitude": "-90.07719883961582",
    "latitude": "30.0039996306993",
    "geocoded_column": {
      "latitude": "30.0039996306993",
      "longitude": "-90.07719883961582"
    }
  },
  {
    "service_request": "2022-896515",
    "request_type": "Roads/Drainage",
    "request_reason": "Street Subsidence (Sinking)",
    "date_created": "2022-07-03T21:07:44.000",
    "date_modified": "2022-07-03T21:07:44.000",
    "request_status": "Pending",
    "responsible_agency": "Department of Public Works",
    "final_address": "7025 Argonne Blvd",
    "address_councildis": "A",
    "status": "Pending",
    "rowid": "896515",
    "final_x": "3670847.1419",
    "final_y": "554038.622488",
    "longitude": "-90.1009435272954",
    "latitude": "30.017733321850134",
    "geocoded_column": {
      "latitude": "30.017733321850134",
      "longitude": "-90.1009435272954"
    }
  },
  {
    "service_request": "2022-896514",
    "request_type": "Parks & Parkways",
    "request_reason": "Request Tree Service (Right of Way/Public Property)",
    "date_created": "2022-07-03T20:58:25.000",
    "date_modified": "2022-07-03T20:58:26.000",
    "request_status": "Pending",
    "responsible_agency": "Department of Parks & Parkway",
    "final_address": "FILMORE ST & ELYSIAN FIELDS AVE",
    "address_councildis": "D",
    "status": "Pending",
    "rowid": "896514",
    "final_x": "3683682.8",
    "final_y": "552214.68",
    "longitude": "-90.06045192149821",
    "latitude": "30.012332307665183",
    "geocoded_column": {
      "latitude": "30.012332307665183",
      "longitude": "-90.06045192149821"
    }
  },
  {
    "service_request": "2022-896513",
    "request_type": "Trash/Recycling",
    "request_reason": "Replace Trash Cart",
    "date_created": "2022-07-03T19:41:41.000",
    "date_modified": "2022-07-03T19:41:42.000",
    "request_status": "Pending",
    "responsible_agency": "Department of Sanitation",
    "final_address": "5909 General Meyer Ave",
    "address_councildis": "C",
    "status": "Assigned to Contractor",
    "contractor": "Richards Disposal",
    "rowid": "896513",
    "final_x": "3705922.29137",
    "final_y": "521199.712249",
    "longitude": "-89.99133581893898",
    "latitude": "29.926354434636036",
    "geocoded_column": {
      "latitude": "29.926354434636036",
      "longitude": "-89.99133581893898"
    }
  },
  {
    "service_request": "2022-896512",
    "request_type": "Traffic Signals/Signs/Striping/Streetlights",
    "request_reason": "Street Light Outage/Malfunction",
    "date_created": "2022-07-03T19:36:49.000",
    "date_modified": "2022-07-03T19:36:49.000",
    "request_status": "Pending",
    "responsible_agency": "Department of Public Works",
    "final_address": "7531 Wave Dr",
    "address_councildis": "E",
    "status": "Pending",
    "contractor": "Royal Engineering",
    "rowid": "896512",
    "final_x": "3715340.99339",
    "final_y": "568386.047461",
    "longitude": "-89.95981847766456",
    "latitude": "30.055792091368904",
    "geocoded_column": {
      "latitude": "30.055792091368904",
      "longitude": "-89.95981847766456"
    }
  },
  {
    "service_request": "2022-896511",
    "request_type": "Trash/Recycling",
    "request_reason": "Missed Trash Pick-Up",
    "date_created": "2022-07-03T19:35:29.000",
    "date_modified": "2022-07-03T19:35:29.000",
    "request_status": "Pending",
    "responsible_agency": "Department of Sanitation",
    "final_address": "8237 Apricot St",
    "address_councildis": "A",
    "status": "Assigned to Contractor",
    "contractor": "Richards Disposal",
    "rowid": "896511",
    "final_x": "3665372.41389",
    "final_y": "533087.166724",
    "longitude": "-90.11894319578644",
    "latitude": "29.960284697163896",
    "geocoded_column": {
      "latitude": "29.960284697163896",
      "longitude": "-90.11894319578644"
    }
  },
  {
    "service_request": "2022-896510",
    "request_type": "Trash/Recycling",
    "request_reason": "MIssed Recycling Pick-Up",
    "date_created": "2022-07-03T19:19:18.000",
    "date_modified": "2022-07-03T19:19:19.000",
    "request_status": "Pending",
    "responsible_agency": "Department of Sanitation",
    "final_address": "1332 S Saratoga St",
    "address_councildis": "B",
    "status": "Assigned to Contractor",
    "contractor": "Richards Disposal",
    "rowid": "896510",
    "final_x": "3677754.68245",
    "final_y": "526856.123966",
    "longitude": "-90.08005776752789",
    "latitude": "29.942784764808835",
    "geocoded_column": {
      "latitude": "29.942784764808835",
      "longitude": "-90.08005776752789"
    }
  },
  {
    "service_request": "2022-896509",
    "request_type": "Trash/Recycling",
    "request_reason": "Stop Trash Service",
    "date_created": "2022-07-03T19:15:30.000",
    "date_modified": "2022-07-03T19:15:31.000",
    "request_status": "Pending",
    "responsible_agency": "Department of Sanitation",
    "final_address": "2410 Constance St",
    "address_councildis": "B",
    "status": "Assigned to Contractor",
    "contractor": "Richards Disposal",
    "rowid": "896509",
    "final_x": "3678215.12974",
    "final_y": "521100.988665",
    "longitude": "-90.07880296447401",
    "latitude": "29.926946178117543",
    "geocoded_column": {
      "latitude": "29.926946178117543",
      "longitude": "-90.07880296447401"
    }
  },
  {
    "service_request": "2022-896508",
    "request_type": "Abandoned Vehicles",
    "request_reason": "Abandoned/Junk Vehicles",
    "date_created": "2022-07-03T18:38:13.000",
    "date_modified": "2022-07-03T18:38:13.000",
    "request_status": "Pending",
    "responsible_agency": "Department of Public Works",
    "final_address": "1827 Industry St",
    "address_councildis": "D",
    "status": "Pending",
    "rowid": "896508",
    "final_x": "3681692.18274",
    "final_y": "542749.067981",
    "longitude": "-90.06707164107743",
    "latitude": "29.986365905933173",
    "geocoded_column": {
      "latitude": "29.986365905933173",
      "longitude": "-90.06707164107743"
    }
  },
  {
    "service_request": "2022-896507",
    "request_type": "Traffic Signals/Signs/Striping/Streetlights",
    "request_reason": "Traffic Signal Malfunctioning/Damaged",
    "date_created": "2022-07-03T18:31:49.000",
    "date_modified": "2022-07-03T18:31:49.000",
    "request_status": "Pending",
    "responsible_agency": "Department of Public Works",
    "final_address": "1429 Poydras St",
    "address_councildis": "B",
    "status": "Pending",
    "rowid": "896507",
    "final_x": "3678519.64424",
    "final_y": "530102.565697",
    "longitude": "-90.0775302665205",
    "latitude": "29.95168836877828",
    "geocoded_column": {
      "latitude": "29.95168836877828",
      "longitude": "-90.0775302665205"
    }
  },
  {
    "service_request": "2022-896506",
    "request_type": "Trash/Recycling",
    "request_reason": "Request a Large Item Pick Up",
    "date_created": "2022-07-03T18:22:46.000",
    "date_modified": "2022-07-03T18:22:46.000",
    "request_status": "Pending",
    "responsible_agency": "Department of Sanitation",
    "final_address": "2364 Oriole St",
    "address_councildis": "D",
    "status": "Assigned to Contractor",
    "contractor": "Metro Disposal",
    "rowid": "896506",
    "final_x": "3684578.20879",
    "final_y": "558073.773595",
    "longitude": "-90.05741680782253",
    "latitude": "30.02841527648835",
    "geocoded_column": {
      "latitude": "30.02841527648835",
      "longitude": "-90.05741680782253"
    }
  },
  {
    "service_request": "2022-896505",
    "request_type": "Trash/Recycling",
    "request_reason": "Request a Large Item Pick Up",
    "date_created": "2022-07-03T18:02:56.000",
    "date_modified": "2022-07-03T18:02:57.000",
    "request_status": "Pending",
    "responsible_agency": "Department of Sanitation",
    "final_address": "7602 Sycamore St",
    "address_councildis": "A",
    "status": "Assigned to Contractor",
    "contractor": "Richards Disposal",
    "rowid": "896505",
    "final_x": "3665568.20135",
    "final_y": "529728.284801",
    "longitude": "-90.11843739617154",
    "latitude": "29.951043160126638",
    "geocoded_column": {
      "latitude": "29.951043160126638",
      "longitude": "-90.11843739617154"
    }
  },
  {
    "service_request": "2022-896504",
    "request_type": "Safety & Permits",
    "request_reason": "Construction permit",
    "date_created": "2022-07-03T17:57:13.000",
    "date_modified": "2022-07-03T17:57:13.000",
    "request_status": "Pending",
    "responsible_agency": "Department of Code Enforcement",
    "status": "Pending",
    "rowid": "896504",
    "longitude": "0.0",
    "latitude": "0.0",
    "geocoded_column": {
      "latitude": "0.0",
      "longitude": "0.0"
    }
  },
  {
    "service_request": "2022-896503",
    "request_type": "Property Maintenance",
    "request_reason": "Property Maintenance",
    "date_created": "2022-07-03T17:03:05.000",
    "date_modified": "2022-07-03T17:03:05.000",
    "request_status": "Pending",
    "responsible_agency": "Department of Code Enforcement",
    "final_address": "259 Westpark Ct",
    "address_councildis": "C",
    "status": "Pending",
    "rowid": "896503",
    "final_x": "3696089.27709",
    "final_y": "522420.805178",
    "longitude": "-90.02233160912171",
    "latitude": "29.930025022028488",
    "geocoded_column": {
      "latitude": "29.930025022028488",
      "longitude": "-90.02233160912171"
    }
  },
  {
    "service_request": "2022-896502",
    "request_type": "Trash/Recycling",
    "request_reason": "Missed Trash Pick-Up",
    "date_created": "2022-07-03T16:58:43.000",
    "date_modified": "2022-07-03T16:58:43.000",
    "request_status": "Pending",
    "responsible_agency": "Department of Sanitation",
    "final_address": "8401 Apple St",
    "address_councildis": "A",
    "status": "Assigned to Contractor",
    "contractor": "Richards Disposal",
    "rowid": "896502",
    "final_x": "3664554.47917",
    "final_y": "532878.666052",
    "longitude": "-90.12153303731714",
    "latitude": "29.959735199086555",
    "geocoded_column": {
      "latitude": "29.959735199086555",
      "longitude": "-90.12153303731714"
    }
  },
  {
    "service_request": "2022-896500",
    "request_type": "Traffic Signals/Signs/Striping/Streetlights",
    "request_reason": "Traffic Sign Missing/Damaged",
    "date_created": "2022-07-03T16:22:50.000",
    "date_modified": "2022-07-03T16:22:50.000",
    "request_status": "Pending",
    "responsible_agency": "Department of Public Works",
    "final_address": "3100 Fern St",
    "address_councildis": "B",
    "status": "Pending",
    "rowid": "896500",
    "final_x": "3667250.59226",
    "final_y": "533101.800324",
    "longitude": "-90.11301178693775",
    "latitude": "29.96027006791954",
    "geocoded_column": {
      "latitude": "29.96027006791954",
      "longitude": "-90.11301178693775"
    }
  },
  {
    "service_request": "2022-896499",
    "request_type": "Traffic Signals/Signs/Striping/Streetlights",
    "request_reason": "Traffic Sign Missing/Damaged",
    "date_created": "2022-07-03T16:18:46.000",
    "date_modified": "2022-07-03T16:18:46.000",
    "request_status": "Pending",
    "responsible_agency": "Department of Public Works",
    "final_address": "3229 Bloomingdale Ct",
    "address_councildis": "B",
    "status": "Pending",
    "rowid": "896499",
    "final_x": "3668870.82721",
    "final_y": "532166.879427",
    "longitude": "-90.10792698073882",
    "latitude": "29.957651797625388",
    "geocoded_column": {
      "latitude": "29.957651797625388",
      "longitude": "-90.10792698073882"
    }
  },
  {
    "service_request": "2022-896498",
    "request_type": "Trash/Recycling",
    "request_reason": "Order Trash Cart",
    "date_created": "2022-07-03T16:17:37.000",
    "date_modified": "2022-07-03T16:17:38.000",
    "request_status": "Pending",
    "responsible_agency": "Department of Sanitation",
    "final_address": "209 Elmira Ave",
    "address_councildis": "C",
    "status": "Assigned to Contractor",
    "contractor": "Richards Disposal",
    "rowid": "896498",
    "final_x": "3688218.96751",
    "final_y": "531097.519426",
    "longitude": "-90.04686927760743",
    "latitude": "29.954128292501537",
    "geocoded_column": {
      "latitude": "29.954128292501537",
      "longitude": "-90.04686927760743"
    }
  },
  {
    "service_request": "2022-896497",
    "request_type": "Traffic Signals/Signs/Striping/Streetlights",
    "request_reason": "Traffic Sign Missing/Damaged",
    "date_created": "2022-07-03T16:15:01.000",
    "date_modified": "2022-07-03T16:15:01.000",
    "request_status": "Pending",
    "responsible_agency": "Department of Public Works",
    "final_address": "3231 Audubon St",
    "address_councildis": "B",
    "status": "Pending",
    "rowid": "896497",
    "final_x": "3668515.92014",
    "final_y": "532405.272643",
    "longitude": "-90.10903963407247",
    "latitude": "29.958317732074256",
    "geocoded_column": {
      "latitude": "29.958317732074256",
      "longitude": "-90.10903963407247"
    }
  },
  {
    "service_request": "2022-896496",
    "request_type": "Traffic Signals/Signs/Striping/Streetlights",
    "request_reason": "Street Name Sign Damaged or Missing",
    "date_created": "2022-07-03T16:11:15.000",
    "date_modified": "2022-07-03T16:11:15.000",
    "request_status": "Pending",
    "responsible_agency": "Department of Public Works",
    "final_address": "3100 Fern St",
    "address_councildis": "B",
    "status": "Pending",
    "rowid": "896496",
    "final_x": "3667250.59226",
    "final_y": "533101.800324",
    "longitude": "-90.11301178693775",
    "latitude": "29.96027006791954",
    "geocoded_column": {
      "latitude": "29.96027006791954",
      "longitude": "-90.11301178693775"
    }
  },
  {
    "service_request": "2022-896495",
    "request_type": "Trash/Recycling",
    "request_reason": "Illegal Dumping",
    "date_created": "2022-07-03T16:04:30.000",
    "date_modified": "2022-07-03T16:04:30.000",
    "request_status": "Pending",
    "responsible_agency": "Department of Sanitation",
    "final_address": "7820 St Charles Ave",
    "address_councildis": "A",
    "status": "Pending",
    "rowid": "896495",
    "final_x": "3661226.88166",
    "final_y": "526145.267454",
    "longitude": "-90.13226376887074",
    "latitude": "29.94131685753672",
    "geocoded_column": {
      "latitude": "29.94131685753672",
      "longitude": "-90.13226376887074"
    }
  },
  {
    "service_request": "2022-896493",
    "request_type": "Trash/Recycling",
    "request_reason": "Order Trash Cart",
    "date_created": "2022-07-03T15:42:41.000",
    "date_modified": "2022-07-03T15:42:41.000",
    "request_status": "Pending",
    "responsible_agency": "Department of Sanitation",
    "final_address": "New Orleans,LA",
    "status": "Assigned to Contractor",
    "rowid": "896493",
    "longitude": "0.0",
    "latitude": "0.0",
    "geocoded_column": {
      "latitude": "0.0",
      "longitude": "0.0"
    }
  },
  {
    "service_request": "2022-896490",
    "request_type": "Trash/Recycling",
    "request_reason": "Order Recycling Cart",
    "date_created": "2022-07-03T14:28:50.000",
    "date_modified": "2022-07-03T14:28:50.000",
    "request_status": "Pending",
    "responsible_agency": "Department of Sanitation",
    "final_address": "3750 Lang St",
    "address_councildis": "C",
    "status": "Pending",
    "rowid": "896490",
    "final_x": "3701986.29693",
    "final_y": "517200.328437",
    "longitude": "-90.00390703253869",
    "latitude": "29.915483671995364",
    "geocoded_column": {
      "latitude": "29.915483671995364",
      "longitude": "-90.00390703253869"
    }
  },
  {
    "service_request": "2022-896489",
    "request_type": "Trash/Recycling",
    "request_reason": "Order Recycling Cart",
    "date_created": "2022-07-03T14:27:12.000",
    "date_modified": "2022-07-03T14:27:12.000",
    "request_status": "Pending",
    "responsible_agency": "Department of Sanitation",
    "final_address": "3201 Plymouth Pl",
    "address_councildis": "C",
    "status": "Pending",
    "rowid": "896489",
    "final_x": "3702764.00452",
    "final_y": "519430.952631",
    "longitude": "-90.00137047119297",
    "latitude": "29.92159228827243",
    "geocoded_column": {
      "latitude": "29.92159228827243",
      "longitude": "-90.00137047119297"
    }
  },
  {
    "service_request": "2022-896485",
    "request_type": "Trash/Recycling",
    "request_reason": "Illegal Dumping",
    "date_created": "2022-07-03T14:15:13.000",
    "date_modified": "2022-07-03T14:15:13.000",
    "request_status": "Pending",
    "responsible_agency": "Department of Sanitation",
    "final_address": "4136 Toulouse St",
    "address_councildis": "A",
    "status": "Pending",
    "rowid": "896485",
    "final_x": "3672001.42132",
    "final_y": "539864.375114",
    "longitude": "-90.0977793618108",
    "latitude": "29.978724893700036",
    "geocoded_column": {
      "latitude": "29.978724893700036",
      "longitude": "-90.0977793618108"
    }
  },
  {
    "service_request": "2022-896483",
    "request_type": "Property Maintenance",
    "request_reason": "Property Maintenance",
    "date_created": "2022-07-03T14:00:55.000",
    "date_modified": "2022-07-03T14:01:45.000",
    "request_status": "Pending",
    "responsible_agency": "Department of Code Enforcement",
    "final_address": "New Orleans,LA",
    "address_councildis": "A",
    "rowid": "896483",
    "final_x": "3662890.86579",
    "final_y": "531974.689475",
    "longitude": "-90.12681643507378",
    "latitude": "29.957297829493157",
    "geocoded_column": {
      "latitude": "29.957297829493157",
      "longitude": "-90.12681643507378"
    }
  },
  {
    "service_request": "2022-896482",
    "request_type": "Property Maintenance",
    "request_reason": "Property Maintenance",
    "date_created": "2022-07-03T13:50:53.000",
    "date_modified": "2022-07-03T13:50:53.000",
    "request_status": "Pending",
    "responsible_agency": "Department of Code Enforcement",
    "final_address": "2113 Leonidas St",
    "address_councildis": "A",
    "status": "Pending",
    "rowid": "896482",
    "final_x": "3662890.86579",
    "final_y": "531974.689475",
    "longitude": "-90.12681643507378",
    "latitude": "29.957297829493157",
    "geocoded_column": {
      "latitude": "29.957297829493157",
      "longitude": "-90.12681643507378"
    }
  },
  {
    "service_request": "2022-896481",
    "request_type": "Traffic Signals/Signs/Striping/Streetlights",
    "request_reason": "Street Light Outage/Malfunction",
    "date_created": "2022-07-03T13:26:02.000",
    "date_modified": "2022-07-03T13:29:12.000",
    "request_status": "Pending",
    "responsible_agency": "Department of Public Works",
    "final_address": "8400 block of nelson street",
    "address_councildis": "A",
    "status": "Pending",
    "contractor": "Royal Engineering",
    "rowid": "896481",
    "final_x": "3664193.04953",
    "final_y": "532684.308107",
    "longitude": "-90.1226808400854",
    "latitude": "29.95921128342338",
    "geocoded_column": {
      "latitude": "29.95921128342338",
      "longitude": "-90.1226808400854"
    }
  },
  {
    "service_request": "2022-896480",
    "request_type": "Trash/Recycling",
    "request_reason": "Request a Large Item Pick Up",
    "date_created": "2022-07-03T13:24:40.000",
    "date_modified": "2022-07-03T13:24:41.000",
    "request_status": "Pending",
    "responsible_agency": "Department of Sanitation",
    "final_address": "230 N Alexander St",
    "address_councildis": "A",
    "status": "Assigned to Contractor",
    "contractor": "Richards Disposal",
    "rowid": "896480",
    "final_x": "3670446.07246",
    "final_y": "539692.593162",
    "longitude": "-90.1026975767908",
    "latitude": "29.97829857505526",
    "geocoded_column": {
      "latitude": "29.97829857505526",
      "longitude": "-90.1026975767908"
    }
  },
  {
    "service_request": "2022-896479",
    "request_type": "Abandoned Vehicles",
    "request_reason": "Abandoned/Junk Vehicles",
    "date_created": "2022-07-03T13:22:43.000",
    "date_modified": "2022-07-03T13:22:43.000",
    "request_status": "Pending",
    "responsible_agency": "Department of Public Works",
    "final_address": "2745 Jasmine St",
    "address_councildis": "D",
    "status": "Pending",
    "rowid": "896479",
    "final_x": "3688041.94191",
    "final_y": "548212.99253",
    "longitude": "-90.04682146655598",
    "latitude": "30.001195259013226",
    "geocoded_column": {
      "latitude": "30.001195259013226",
      "longitude": "-90.04682146655598"
    }
  },
  {
    "service_request": "2022-896478",
    "request_type": "Trash/Recycling",
    "request_reason": "Missed Trash Pick-Up",
    "date_created": "2022-07-03T13:11:49.000",
    "date_modified": "2022-07-03T13:11:50.000",
    "request_status": "Pending",
    "responsible_agency": "Department of Sanitation",
    "final_address": "8326 Belfast St",
    "address_councildis": "A",
    "status": "Assigned to Contractor",
    "contractor": "Richards Disposal",
    "rowid": "896478",
    "final_x": "3664882.55962",
    "final_y": "532960.986308",
    "longitude": "-90.12049427749008",
    "latitude": "29.959952008371992",
    "geocoded_column": {
      "latitude": "29.959952008371992",
      "longitude": "-90.12049427749008"
    }
  },
  {
    "service_request": "2022-896477",
    "request_type": "Trash/Recycling",
    "request_reason": "Missed Trash Pick-Up",
    "date_created": "2022-07-03T13:11:12.000",
    "date_modified": "2022-07-03T13:11:13.000",
    "request_status": "Pending",
    "responsible_agency": "Department of Sanitation",
    "final_address": "8324 Belfast St",
    "address_councildis": "A",
    "status": "Assigned to Contractor",
    "contractor": "Richards Disposal",
    "rowid": "896477",
    "final_x": "3664896.42733",
    "final_y": "532949.099396",
    "longitude": "-90.12045088343926",
    "latitude": "29.959918919634397",
    "geocoded_column": {
      "latitude": "29.959918919634397",
      "longitude": "-90.12045088343926"
    }
  },
  {
    "service_request": "2022-896476",
    "request_type": "Trash/Recycling",
    "request_reason": "Request a Large Item Pick Up",
    "date_created": "2022-07-03T13:11:09.000",
    "date_modified": "2022-07-03T13:11:09.000",
    "request_status": "Pending",
    "responsible_agency": "Department of Sanitation",
    "final_address": "327 Arabella St",
    "address_councildis": "A",
    "status": "Assigned to Contractor",
    "contractor": "Richards Disposal",
    "rowid": "896476",
    "final_x": "3665529.51904",
    "final_y": "517404.490997",
    "longitude": "-90.11897192974514",
    "latitude": "29.917157774096122",
    "geocoded_column": {
      "latitude": "29.917157774096122",
      "longitude": "-90.11897192974514"
    }
  },
  {
    "service_request": "2022-896475",
    "request_type": "Trash/Recycling",
    "request_reason": "Request a Large Item Pick Up",
    "date_created": "2022-07-03T13:10:34.000",
    "date_modified": "2022-07-03T13:10:35.000",
    "request_status": "Pending",
    "responsible_agency": "Department of Sanitation",
    "final_address": "3242 Derby Pl",
    "address_councildis": "A",
    "status": "Assigned to Contractor",
    "contractor": "Metro Disposal",
    "rowid": "896475",
    "final_x": "3677655.26702",
    "final_y": "542870.048141",
    "longitude": "-90.0798185371974",
    "latitude": "29.98682060827312",
    "geocoded_column": {
      "latitude": "29.98682060827312",
      "longitude": "-90.0798185371974"
    }
  },
  {
    "service_request": "2022-896474",
    "request_type": "Trash/Recycling",
    "request_reason": "Missed Trash Pick-Up",
    "date_created": "2022-07-03T12:57:00.000",
    "date_modified": "2022-07-03T12:57:01.000",
    "request_status": "Pending",
    "responsible_agency": "Department of Sanitation",
    "final_address": "8509 S Claiborne Ave",
    "address_councildis": "A",
    "status": "Assigned to Contractor",
    "contractor": "Richards Disposal",
    "rowid": "896474",
    "final_x": "3663780.29683",
    "final_y": "532647.015876",
    "longitude": "-90.1239854618413",
    "latitude": "29.9591207267592",
    "geocoded_column": {
      "latitude": "29.9591207267592",
      "longitude": "-90.1239854618413"
    }
  },
  {
    "service_request": "2022-896473",
    "request_type": "Trash/Recycling",
    "request_reason": "Repair Trash Cart",
    "date_created": "2022-07-03T12:54:48.000",
    "date_modified": "2022-07-03T12:54:49.000",
    "request_status": "Pending",
    "responsible_agency": "Department of Sanitation",
    "final_address": "8317 Willow St",
    "address_councildis": "A",
    "status": "Assigned to Contractor",
    "contractor": "Richards Disposal",
    "rowid": "896473",
    "final_x": "3661809.90464",
    "final_y": "529522.953473",
    "longitude": "-90.13031108237563",
    "latitude": "29.95058759847603",
    "geocoded_column": {
      "latitude": "29.95058759847603",
      "longitude": "-90.13031108237563"
    }
  },
  {
    "service_request": "2022-896472",
    "request_type": "Roads/Drainage",
    "request_reason": "Street Flooding / Drainage",
    "date_created": "2022-07-03T12:47:22.000",
    "date_modified": "2022-07-03T12:47:22.000",
    "request_status": "Pending",
    "responsible_agency": "Department of Public Works",
    "final_address": "2027 St Ann St",
    "address_councildis": "D",
    "status": "Pending",
    "rowid": "896472",
    "final_x": "3678972.44366",
    "final_y": "535708.329415",
    "longitude": "-90.07590630312161",
    "latitude": "29.967088668519153",
    "geocoded_column": {
      "latitude": "29.967088668519153",
      "longitude": "-90.07590630312161"
    }
  },
  {
    "service_request": "2022-896471",
    "request_type": "Roads/Drainage",
    "request_reason": "Catch Basin - Clogged",
    "date_created": "2022-07-03T12:41:21.000",
    "date_modified": "2022-07-03T12:41:21.000",
    "request_status": "Pending",
    "responsible_agency": "Department of Public Works",
    "final_address": "2900 Chartres St",
    "address_councildis": "C",
    "status": "Pending",
    "rowid": "896471",
    "final_x": "3687846.50607",
    "final_y": "534153.595013",
    "longitude": "-90.04793710615161",
    "latitude": "29.96254293745019",
    "geocoded_column": {
      "latitude": "29.96254293745019",
      "longitude": "-90.04793710615161"
    }
  },
  {
    "service_request": "2022-896470",
    "request_type": "Trash/Recycling",
    "request_reason": "Missed Trash Pick-Up",
    "date_created": "2022-07-03T12:36:11.000",
    "date_modified": "2022-07-03T12:36:11.000",
    "request_status": "Pending",
    "responsible_agency": "Department of Sanitation",
    "final_address": "4970 Western St",
    "address_councildis": "D",
    "status": "Assigned to Contractor",
    "contractor": "Metro Disposal",
    "rowid": "896470",
    "final_x": "3683994.52553",
    "final_y": "551263.119509",
    "longitude": "-90.05950046720022",
    "latitude": "30.0097063371232",
    "geocoded_column": {
      "latitude": "30.0097063371232",
      "longitude": "-90.05950046720022"
    }
  },
  {
    "service_request": "2022-896469",
    "request_type": "Trash/Recycling",
    "request_reason": "Order Recycling Cart",
    "date_created": "2022-07-03T12:29:56.000",
    "date_modified": "2022-07-03T12:29:57.000",
    "request_status": "Pending",
    "responsible_agency": "Department of Sanitation",
    "final_address": "1237 Elysian Fields Ave",
    "address_councildis": "C",
    "status": "Pending",
    "rowid": "896469",
    "final_x": "3685066.31759",
    "final_y": "536978.189128",
    "longitude": "-90.0566171598047",
    "latitude": "29.97039505634489",
    "geocoded_column": {
      "latitude": "29.97039505634489",
      "longitude": "-90.0566171598047"
    }
  },
  {
    "service_request": "2022-896468",
    "request_type": "Abandoned Vehicles",
    "request_reason": "Vehicle Blocking Your Driveway",
    "date_created": "2022-07-03T12:23:28.000",
    "date_modified": "2022-07-03T12:23:28.000",
    "request_status": "Pending",
    "responsible_agency": "Department of Public Works",
    "final_address": "6901 General Haig St, New Orleans, Louisiana, 70124",
    "address_councildis": "A",
    "status": "Pending",
    "rowid": "896468",
    "final_x": "3671186.27079",
    "final_y": "553192.936471",
    "longitude": "-90.09990077255364",
    "latitude": "30.01539795244573",
    "geocoded_column": {
      "latitude": "30.01539795244573",
      "longitude": "-90.09990077255364"
    }
  },
  {
    "service_request": "2022-896467",
    "request_type": "Abandoned Vehicles",
    "request_reason": "Abandoned/Junk Vehicles",
    "date_created": "2022-07-03T12:22:18.000",
    "date_modified": "2022-07-03T12:22:18.000",
    "request_status": "Pending",
    "responsible_agency": "Department of Public Works",
    "final_address": "6901 General Haig St, New Orleans, Louisiana, 70124",
    "address_councildis": "A",
    "status": "Pending",
    "rowid": "896467",
    "final_x": "3671186.27079",
    "final_y": "553192.936471",
    "longitude": "-90.09990077255364",
    "latitude": "30.01539795244573",
    "geocoded_column": {
      "latitude": "30.01539795244573",
      "longitude": "-90.09990077255364"
    }
  },
  {
    "service_request": "2022-896466",
    "request_type": "Trash/Recycling",
    "request_reason": "Request a Large Item Pick Up",
    "date_created": "2022-07-03T12:14:05.000",
    "date_modified": "2022-07-03T12:14:06.000",
    "request_status": "Pending",
    "responsible_agency": "Department of Sanitation",
    "final_address": "2619 Prancer St",
    "address_councildis": "C",
    "status": "Assigned to Contractor",
    "contractor": "Richards Disposal",
    "rowid": "896466",
    "final_x": "3699537.46244",
    "final_y": "521294.431097",
    "longitude": "-90.01148734778485",
    "latitude": "29.926818950861104",
    "geocoded_column": {
      "latitude": "29.926818950861104",
      "longitude": "-90.01148734778485"
    }
  },
  {
    "service_request": "2022-896465",
    "request_type": "Trash/Recycling",
    "request_reason": "Missed Trash Pick-Up",
    "date_created": "2022-07-03T11:25:18.000",
    "date_modified": "2022-07-03T11:25:18.000",
    "request_status": "Pending",
    "responsible_agency": "Department of Sanitation",
    "final_address": "9319 Stroelitz St",
    "address_councildis": "A",
    "status": "Assigned to Contractor",
    "contractor": "Richards Disposal",
    "rowid": "896465",
    "final_x": "3664741.75604",
    "final_y": "537938.486537",
    "longitude": "-90.12077257522867",
    "latitude": "29.973642589970037",
    "geocoded_column": {
      "latitude": "29.973642589970037",
      "longitude": "-90.12077257522867"
    }
  },
  {
    "service_request": "2022-896464",
    "request_type": "Mosquito, Termite & Rodent Control",
    "request_reason": "Rodent Complaint (Rats)",
    "date_created": "2022-07-03T11:15:17.000",
    "date_modified": "2022-07-03T11:15:17.000",
    "request_status": "Pending",
    "responsible_agency": "Mosquito, Termite & Rodent Control Board",
    "final_address": "3627 St Ferdinand St",
    "address_councildis": "D",
    "status": "Pending",
    "rowid": "896464",
    "final_x": "3690038.83068",
    "final_y": "546515.218961",
    "longitude": "-90.04057365405012",
    "latitude": "29.99646519993442",
    "geocoded_column": {
      "latitude": "29.99646519993442",
      "longitude": "-90.04057365405012"
    }
  },
  {
    "service_request": "2022-896463",
    "request_type": "Trash/Recycling",
    "request_reason": "Request a Large Item Pick Up",
    "date_created": "2022-07-03T11:11:46.000",
    "date_modified": "2022-07-03T11:11:46.000",
    "request_status": "Pending",
    "responsible_agency": "Department of Sanitation",
    "final_address": "1220 Gallier St",
    "address_councildis": "C",
    "status": "Assigned to Contractor",
    "contractor": "Metro Disposal",
    "rowid": "896463",
    "final_x": "3690564.23542",
    "final_y": "536177.716295",
    "longitude": "-90.03928273286918",
    "latitude": "29.96802445196129",
    "geocoded_column": {
      "latitude": "29.96802445196129",
      "longitude": "-90.03928273286918"
    }
  },
  {
    "service_request": "2022-896462",
    "request_type": "Property Maintenance",
    "request_reason": "Property Maintenance",
    "date_created": "2022-07-03T11:10:45.000",
    "date_modified": "2022-07-03T11:10:45.000",
    "request_status": "Pending",
    "responsible_agency": "Department of Code Enforcement",
    "final_address": "2003 Royal St",
    "address_councildis": "C",
    "status": "Pending",
    "rowid": "896462",
    "final_x": "3684394.05167",
    "final_y": "534841.400454",
    "longitude": "-90.05881530748964",
    "latitude": "29.96454020636783",
    "geocoded_column": {
      "latitude": "29.96454020636783",
      "longitude": "-90.05881530748964"
    }
  },
  {
    "service_request": "2022-896461",
    "request_type": "Trash/Recycling",
    "request_reason": "Missed Trash Pick-Up",
    "date_created": "2022-07-03T11:08:20.000",
    "date_modified": "2022-07-03T11:08:21.000",
    "request_status": "Pending",
    "responsible_agency": "Department of Sanitation",
    "final_address": "3500 BLK Livingston St",
    "address_councildis": "A",
    "status": "Assigned to Contractor",
    "contractor": "Richards Disposal",
    "rowid": "896461",
    "final_x": "3663955.76326",
    "final_y": "537881.183212",
    "longitude": "-90.12325683124298",
    "latitude": "29.973507871992695",
    "geocoded_column": {
      "latitude": "29.973507871992695",
      "longitude": "-90.12325683124298"
    }
  },
  {
    "service_request": "2022-896460",
    "request_type": "Trash/Recycling",
    "request_reason": "Missed Trash Pick-Up",
    "date_created": "2022-07-03T11:07:10.000",
    "date_modified": "2022-07-03T11:07:11.000",
    "request_status": "Pending",
    "responsible_agency": "Department of Sanitation",
    "final_address": "8537 Belfast St",
    "address_councildis": "A",
    "status": "Assigned to Contractor",
    "contractor": "Richards Disposal",
    "rowid": "896460",
    "final_x": "3664358.27181",
    "final_y": "533543.335429",
    "longitude": "-90.12213043250138",
    "latitude": "29.961568526655988",
    "geocoded_column": {
      "latitude": "29.961568526655988",
      "longitude": "-90.12213043250138"
    }
  },
  {
    "service_request": "2022-896459",
    "request_type": "Trash/Recycling",
    "request_reason": "Illegal Dumping",
    "date_created": "2022-07-03T11:01:32.000",
    "date_modified": "2022-07-03T11:01:32.000",
    "request_status": "Pending",
    "responsible_agency": "Department of Sanitation",
    "final_address": "1401 Cambronne St",
    "address_councildis": "A",
    "status": "Pending",
    "rowid": "896459",
    "final_x": "3661706.90694",
    "final_y": "529629.995585",
    "longitude": "-90.13063275014996",
    "latitude": "29.950884902937798",
    "geocoded_column": {
      "latitude": "29.950884902937798",
      "longitude": "-90.13063275014996"
    }
  },
  {
    "service_request": "2022-896458",
    "request_type": "Property Maintenance",
    "request_reason": "Property Maintenance",
    "date_created": "2022-07-03T10:45:03.000",
    "date_modified": "2022-07-03T10:45:03.000",
    "request_status": "Pending",
    "responsible_agency": "Department of Code Enforcement",
    "final_address": "2540 Mistletoe St",
    "address_councildis": "A",
    "status": "Pending",
    "rowid": "896458",
    "final_x": "3662427.66995",
    "final_y": "534704.898054",
    "longitude": "-90.12818840054828",
    "latitude": "29.964818416642572",
    "geocoded_column": {
      "latitude": "29.964818416642572",
      "longitude": "-90.12818840054828"
    }
  },
  {
    "service_request": "2022-896457",
    "request_type": "Property Maintenance",
    "request_reason": "Property Maintenance",
    "date_created": "2022-07-03T10:42:19.000",
    "date_modified": "2022-07-03T10:42:19.000",
    "request_status": "Pending",
    "responsible_agency": "Department of Code Enforcement",
    "final_address": "2542 Mistletoe St",
    "address_councildis": "A",
    "status": "Pending",
    "rowid": "896457",
    "final_x": "3662437.36647",
    "final_y": "534717.008838",
    "longitude": "-90.12815737716123",
    "latitude": "29.96485143691225",
    "geocoded_column": {
      "latitude": "29.96485143691225",
      "longitude": "-90.12815737716123"
    }
  },
  {
    "service_request": "2022-896456",
    "request_type": "Safety & Permits",
    "request_reason": "Construction permit",
    "date_created": "2022-07-03T10:40:22.000",
    "date_modified": "2022-07-03T10:40:22.000",
    "request_status": "Pending",
    "responsible_agency": "Department of Code Enforcement",
    "final_address": "4300 Laurel St",
    "address_councildis": "B",
    "status": "Pending",
    "rowid": "896456",
    "final_x": "3671496.94452",
    "final_y": "518049.967414",
    "longitude": "-90.10011421375592",
    "latitude": "29.91875738364617",
    "geocoded_column": {
      "latitude": "29.91875738364617",
      "longitude": "-90.10011421375592"
    }
  },
  {
    "service_request": "2022-896455",
    "request_type": "Property Maintenance",
    "request_reason": "Property Maintenance",
    "date_created": "2022-07-03T10:40:07.000",
    "date_modified": "2022-07-03T10:40:07.000",
    "request_status": "Pending",
    "responsible_agency": "Department of Code Enforcement",
    "final_address": "2542 Mistletoe St",
    "address_councildis": "A",
    "status": "Pending",
    "rowid": "896455",
    "final_x": "3662437.36647",
    "final_y": "534717.008838",
    "longitude": "-90.12815737716123",
    "latitude": "29.96485143691225",
    "geocoded_column": {
      "latitude": "29.96485143691225",
      "longitude": "-90.12815737716123"
    }
  },
  {
    "service_request": "2022-896454",
    "request_type": "Roads/Drainage",
    "request_reason": "Catch Basin - Broken/Damage",
    "date_created": "2022-07-03T10:38:28.000",
    "date_modified": "2022-07-03T10:40:47.000",
    "request_status": "Pending",
    "responsible_agency": "Department of Public Works",
    "final_address": "7717 Lacombe St, New Orleans, Louisiana, 70127",
    "address_councildis": "E",
    "rowid": "896454",
    "final_x": "3709461.05509",
    "final_y": "565698.16541",
    "longitude": "-89.9785041619079",
    "latitude": "30.048593991233375",
    "geocoded_column": {
      "latitude": "30.048593991233375",
      "longitude": "-89.9785041619079"
    }
  },
  {
    "service_request": "2022-896453",
    "request_type": "Trash/Recycling",
    "request_reason": "Missed Trash Pick-Up",
    "date_created": "2022-07-03T10:37:57.000",
    "date_modified": "2022-07-03T10:37:58.000",
    "request_status": "Pending",
    "responsible_agency": "Department of Sanitation",
    "final_address": "9117 Apple St",
    "address_councildis": "A",
    "status": "Assigned to Contractor",
    "contractor": "Richards Disposal",
    "rowid": "896453",
    "final_x": "3662669.60391",
    "final_y": "534593.932869",
    "longitude": "-90.12742807301017",
    "latitude": "29.964506299805635",
    "geocoded_column": {
      "latitude": "29.964506299805635",
      "longitude": "-90.12742807301017"
    }
  },
  {
    "service_request": "2022-896452",
    "request_type": "Safety & Permits",
    "request_reason": "Short term Rental (Enforcement)",
    "date_created": "2022-07-03T10:37:33.000",
    "date_modified": "2022-07-03T10:37:33.000",
    "request_status": "Pending",
    "responsible_agency": "Safety and Permits",
    "final_address": "4308 Laurel St",
    "address_councildis": "B",
    "status": "Pending",
    "rowid": "896452",
    "final_x": "3671438.2059",
    "final_y": "518035.83999",
    "longitude": "-90.10030010120482",
    "latitude": "29.91872027586948",
    "geocoded_column": {
      "latitude": "29.91872027586948",
      "longitude": "-90.10030010120482"
    }
  },
  {
    "service_request": "2022-896451",
    "request_type": "Roads/Drainage",
    "request_reason": "Catch Basin - Clogged",
    "date_created": "2022-07-03T10:34:09.000",
    "date_modified": "2022-07-03T18:33:38.000",
    "request_status": "Pending",
    "responsible_agency": "Department of Public Works",
    "final_address": "2328 Forstall St",
    "address_councildis": "E",
    "rowid": "896451",
    "final_x": "3697522.6465",
    "final_y": "538937.558986",
    "longitude": "-90.01720783311293",
    "latitude": "29.975395113464828",
    "geocoded_column": {
      "latitude": "29.975395113464828",
      "longitude": "-90.01720783311293"
    }
  },
  {
    "service_request": "2022-896450",
    "request_type": "Trash/Recycling",
    "request_reason": "Missed Trash Pick-Up",
    "date_created": "2022-07-03T10:25:06.000",
    "date_modified": "2022-07-03T10:25:07.000",
    "request_status": "Pending",
    "responsible_agency": "Department of Sanitation",
    "final_address": "8134 Apple St",
    "address_councildis": "A",
    "status": "Assigned to Contractor",
    "contractor": "Richards Disposal",
    "rowid": "896450",
    "final_x": "3665134.54592",
    "final_y": "532246.214595",
    "longitude": "-90.11972246254109",
    "latitude": "29.957979283572765",
    "geocoded_column": {
      "latitude": "29.957979283572765",
      "longitude": "-90.11972246254109"
    }
  },
  {
    "service_request": "2022-896449",
    "request_type": "Trash/Recycling",
    "request_reason": "Request a Large Item Pick Up",
    "date_created": "2022-07-03T10:23:05.000",
    "date_modified": "2022-07-03T10:23:06.000",
    "request_status": "Pending",
    "responsible_agency": "Department of Sanitation",
    "final_address": "2230 Ursulines Ave",
    "address_councildis": "D",
    "status": "Assigned to Contractor",
    "contractor": "Richards Disposal",
    "rowid": "896449",
    "final_x": "3679018.39304",
    "final_y": "536993.88084",
    "longitude": "-90.07571663656199",
    "latitude": "29.97062210844368",
    "geocoded_column": {
      "latitude": "29.97062210844368",
      "longitude": "-90.07571663656199"
    }
  },
  {
    "service_request": "2022-896448",
    "request_type": "Trash/Recycling",
    "request_reason": "Missed Trash Pick-Up",
    "date_created": "2022-07-03T10:22:16.000",
    "date_modified": "2022-07-03T10:22:17.000",
    "request_status": "Pending",
    "responsible_agency": "Department of Sanitation",
    "final_address": "13050 Cherbourg St",
    "address_councildis": "E",
    "status": "Assigned to Contractor",
    "contractor": "Metro Disposal",
    "rowid": "896448",
    "final_x": "3724173.60332",
    "final_y": "560946.79683",
    "longitude": "-89.93218814998477",
    "latitude": "30.035043159566552",
    "geocoded_column": {
      "latitude": "30.035043159566552",
      "longitude": "-89.93218814998477"
    }
  },
  {
    "service_request": "2022-896447",
    "request_type": "Trash/Recycling",
    "request_reason": "Repair Trash Cart",
    "date_created": "2022-07-03T10:09:33.000",
    "date_modified": "2022-07-03T10:09:34.000",
    "request_status": "Pending",
    "responsible_agency": "Department of Sanitation",
    "final_address": "1623 S Rampart St",
    "address_councildis": "B",
    "status": "Assigned to Contractor",
    "contractor": "Richards Disposal",
    "rowid": "896447",
    "final_x": "3677438.45397",
    "final_y": "526005.620414",
    "longitude": "-90.0810855226102",
    "latitude": "29.94045566782216",
    "geocoded_column": {
      "latitude": "29.94045566782216",
      "longitude": "-90.0810855226102"
    }
  },
  {
    "service_request": "2022-896446",
    "request_type": "Trash/Recycling",
    "request_reason": "Missed Trash Pick-Up",
    "date_created": "2022-07-03T09:58:02.000",
    "date_modified": "2022-07-03T09:58:03.000",
    "request_status": "Pending",
    "responsible_agency": "Department of Sanitation",
    "final_address": "8506 Apricot St",
    "address_councildis": "A",
    "status": "Assigned to Contractor",
    "contractor": "Richards Disposal",
    "rowid": "896446",
    "final_x": "3664686.92685",
    "final_y": "533611.932741",
    "longitude": "-90.12109029887758",
    "latitude": "29.961747590287853",
    "geocoded_column": {
      "latitude": "29.961747590287853",
      "longitude": "-90.12109029887758"
    }
  },
  {
    "service_request": "2022-896445",
    "request_type": "Trash/Recycling",
    "request_reason": "Illegal Dumping",
    "date_created": "2022-07-03T09:52:28.000",
    "date_modified": "2022-07-03T09:52:28.000",
    "request_status": "Pending",
    "responsible_agency": "Department of Sanitation",
    "final_address": "605 Wagner St",
    "address_councildis": "C",
    "status": "Pending",
    "rowid": "896445",
    "final_x": "3690512.86806",
    "final_y": "529298.582209",
    "longitude": "-90.0396902202122",
    "latitude": "29.94911082150968",
    "geocoded_column": {
      "latitude": "29.94911082150968",
      "longitude": "-90.0396902202122"
    }
  },
  {
    "service_request": "2022-896444",
    "request_type": "Property Maintenance",
    "request_reason": "Property Maintenance",
    "date_created": "2022-07-03T09:49:26.000",
    "date_modified": "2022-07-03T09:49:26.000",
    "request_status": "Pending",
    "responsible_agency": "Department of Code Enforcement",
    "final_address": "5533 Bundy Rd",
    "address_councildis": "E",
    "status": "Pending",
    "rowid": "896444",
    "final_x": "3709673.74309",
    "final_y": "557981.084379",
    "longitude": "-89.97812042068206",
    "latitude": "30.027368173467046",
    "geocoded_column": {
      "latitude": "30.027368173467046",
      "longitude": "-89.97812042068206"
    }
  },
  {
    "service_request": "2022-896443",
    "request_type": "Property Maintenance",
    "request_reason": "Property Maintenance",
    "date_created": "2022-07-03T09:43:48.000",
    "date_modified": "2022-07-03T09:43:48.000",
    "request_status": "Pending",
    "responsible_agency": "Department of Code Enforcement",
    "final_address": "5437 Crowder Blvd",
    "address_councildis": "E",
    "status": "Pending",
    "rowid": "896443",
    "final_x": "3706315.4595",
    "final_y": "557203.336923",
    "longitude": "-89.98876106206772",
    "latitude": "30.025338456517066",
    "geocoded_column": {
      "latitude": "30.025338456517066",
      "longitude": "-89.98876106206772"
    }
  },
  {
    "service_request": "2022-896442",
    "request_type": "Traffic Signals/Signs/Striping/Streetlights",
    "request_reason": "Street Light Outage/Malfunction",
    "date_created": "2022-07-03T09:31:02.000",
    "date_modified": "2022-07-03T09:31:43.000",
    "request_status": "Pending",
    "responsible_agency": "Department of Public Works",
    "final_address": "N PRIEUR ST & LAHARPE ST",
    "address_councildis": "D",
    "status": "Pending",
    "contractor": "Royal Engineering",
    "rowid": "896442",
    "final_x": "3681104.5",
    "final_y": "538132.08",
    "longitude": "-90.06908880712938",
    "latitude": "29.973688641980875",
    "geocoded_column": {
      "latitude": "29.973688641980875",
      "longitude": "-90.06908880712938"
    }
  },
  {
    "service_request": "2022-896440",
    "request_type": "Roads/Drainage",
    "request_reason": "Man hole cover issue",
    "date_created": "2022-07-03T09:23:04.000",
    "date_modified": "2022-07-03T09:23:04.000",
    "request_status": "Pending",
    "responsible_agency": "Department of Public Works",
    "final_address": "923 N Rendon St",
    "address_councildis": "A",
    "status": "Pending",
    "rowid": "896440",
    "final_x": "3675510.4804",
    "final_y": "539028.529994",
    "longitude": "-90.08672514543186",
    "latitude": "29.976322097988923",
    "geocoded_column": {
      "latitude": "29.976322097988923",
      "longitude": "-90.08672514543186"
    }
  },
  {
    "service_request": "2022-896438",
    "request_type": "Trash/Recycling",
    "request_reason": "Missed Trash Pick-Up",
    "date_created": "2022-07-03T08:50:11.000",
    "date_modified": "2022-07-03T08:50:11.000",
    "request_status": "Pending",
    "responsible_agency": "Department of Sanitation",
    "final_address": "4862 Tchoupitoulas St",
    "address_councildis": "B",
    "status": "Assigned to Contractor",
    "contractor": "Richards Disposal",
    "rowid": "896438",
    "final_x": "3669172.6427",
    "final_y": "517206.739765",
    "longitude": "-90.10747931798777",
    "latitude": "29.91650735315027",
    "geocoded_column": {
      "latitude": "29.91650735315027",
      "longitude": "-90.10747931798777"
    }
  },
  {
    "service_request": "2022-896437",
    "request_type": "Trash/Recycling",
    "request_reason": "Missed Trash Pick-Up",
    "date_created": "2022-07-03T08:48:04.000",
    "date_modified": "2022-07-03T08:48:05.000",
    "request_status": "Pending",
    "responsible_agency": "Department of Sanitation",
    "final_address": "1707 Valmont St",
    "address_councildis": "B",
    "status": "Assigned to Contractor",
    "contractor": "Richards Disposal",
    "rowid": "896437",
    "final_x": "3667983.30189",
    "final_y": "521890.47609",
    "longitude": "-90.11107567647309",
    "latitude": "29.92942108131164",
    "geocoded_column": {
      "latitude": "29.92942108131164",
      "longitude": "-90.11107567647309"
    }
  },
  {
    "service_request": "2022-896436",
    "request_type": "Trash/Recycling",
    "request_reason": "Missed Trash Pick-Up",
    "date_created": "2022-07-03T07:54:15.000",
    "date_modified": "2022-07-03T07:54:15.000",
    "request_status": "Pending",
    "responsible_agency": "Department of Sanitation",
    "final_address": "8735 Apricot St",
    "address_councildis": "A",
    "status": "Assigned to Contractor",
    "contractor": "Richards Disposal",
    "rowid": "896436",
    "final_x": "3664064.00032",
    "final_y": "534284.947717",
    "longitude": "-90.12303496031429",
    "latitude": "29.96361626729517",
    "geocoded_column": {
      "latitude": "29.96361626729517",
      "longitude": "-90.12303496031429"
    }
  },
  {
    "service_request": "2022-896435",
    "request_type": "Property Maintenance",
    "request_reason": "Property Maintenance",
    "date_created": "2022-07-03T07:47:23.000",
    "date_modified": "2022-07-03T07:47:23.000",
    "request_status": "Pending",
    "responsible_agency": "Department of Code Enforcement",
    "final_address": "6759 General Haig St",
    "address_councildis": "A",
    "status": "Pending",
    "rowid": "896435",
    "final_x": "3671107.90683",
    "final_y": "552328.176854",
    "longitude": "-90.10017777137695",
    "latitude": "30.013022489215206",
    "geocoded_column": {
      "latitude": "30.013022489215206",
      "longitude": "-90.10017777137695"
    }
  },
  {
    "service_request": "2022-896434",
    "request_type": "Health Related Questions",
    "request_reason": "Noise Ordinance Complaint",
    "date_created": "2022-07-03T07:43:44.000",
    "date_modified": "2022-07-03T07:43:44.000",
    "request_status": "Pending",
    "responsible_agency": "Health Department",
    "final_address": "5629 Berkley Dr",
    "address_councildis": "C",
    "status": "Pending",
    "rowid": "896434",
    "final_x": "3704815.81559",
    "final_y": "518062.953846",
    "longitude": "-89.99494428072695",
    "latitude": "29.917765023276583",
    "geocoded_column": {
      "latitude": "29.917765023276583",
      "longitude": "-89.99494428072695"
    }
  },
  {
    "service_request": "2022-896433",
    "request_type": "Roads/Drainage",
    "request_reason": "Accessibility Ramps, Curbs and Sidewalk Repair",
    "date_created": "2022-07-03T03:58:21.000",
    "date_modified": "2022-07-03T03:58:21.000",
    "request_status": "Pending",
    "responsible_agency": "Department of Public Works",
    "final_address": "2424 Barracks St",
    "address_councildis": "D",
    "status": "Pending",
    "rowid": "896433",
    "final_x": "3678945.28379",
    "final_y": "537970.456841",
    "longitude": "-90.07591367956758",
    "latitude": "29.97330956326355",
    "geocoded_column": {
      "latitude": "29.97330956326355",
      "longitude": "-90.07591367956758"
    }
  },
  {
    "service_request": "2022-896432",
    "request_type": "Abandoned Vehicles",
    "request_reason": "Abandoned/Junk Vehicles",
    "date_created": "2022-07-03T00:52:08.000",
    "date_modified": "2022-07-03T00:52:08.000",
    "request_status": "Pending",
    "responsible_agency": "Department of Public Works",
    "final_address": "4527 Sierra Madre Dr",
    "address_councildis": "E",
    "status": "Pending",
    "rowid": "896432",
    "final_x": "3714064.84069",
    "final_y": "555498.639257",
    "longitude": "-89.9643387950937",
    "latitude": "30.0203988999574",
    "geocoded_column": {
      "latitude": "30.0203988999574",
      "longitude": "-89.9643387950937"
    }
  },
  {
    "service_request": "2022-896431",
    "request_type": "Property Maintenance",
    "request_reason": "Property Maintenance",
    "date_created": "2022-07-03T00:35:42.000",
    "date_modified": "2022-07-03T00:35:42.000",
    "request_status": "Pending",
    "responsible_agency": "Department of Code Enforcement",
    "final_address": "4527 Sierra Madre Dr",
    "address_councildis": "E",
    "status": "Pending",
    "rowid": "896431",
    "final_x": "3714064.84069",
    "final_y": "555498.639257",
    "longitude": "-89.9643387950937",
    "latitude": "30.0203988999574",
    "geocoded_column": {
      "latitude": "30.0203988999574",
      "longitude": "-89.9643387950937"
    }
  },
  {
    "service_request": "2022-896430",
    "request_type": "Trash/Recycling",
    "request_reason": "Replace Trash Cart",
    "date_created": "2022-07-02T23:44:43.000",
    "date_modified": "2022-07-02T23:44:44.000",
    "request_status": "Pending",
    "responsible_agency": "Department of Sanitation",
    "final_address": "206 Norland Ave",
    "address_councildis": "C",
    "status": "Assigned to Contractor",
    "contractor": "Richards Disposal",
    "rowid": "896430",
    "final_x": "3706370.87934",
    "final_y": "520481.962296",
    "longitude": "-89.98994632866021",
    "latitude": "29.924366419145016",
    "geocoded_column": {
      "latitude": "29.924366419145016",
      "longitude": "-89.98994632866021"
    }
  },
  {
    "service_request": "2022-896429",
    "request_type": "Traffic Signals/Signs/Striping/Streetlights",
    "request_reason": "Street Light Outage/Malfunction",
    "date_created": "2022-07-02T22:46:45.000",
    "date_modified": "2022-07-02T22:46:45.000",
    "request_status": "Pending",
    "responsible_agency": "Department of Public Works",
    "final_address": "2721 Robert E Lee Blvd",
    "address_councildis": "D",
    "status": "Pending",
    "contractor": "Royal Engineering",
    "rowid": "896429",
    "final_x": "3687222.38761",
    "final_y": "556121.738458",
    "longitude": "-90.04913049005278",
    "latitude": "30.022966683968132",
    "geocoded_column": {
      "latitude": "30.022966683968132",
      "longitude": "-90.04913049005278"
    }
  },
  {
    "service_request": "2022-896428",
    "request_type": "Trash/Recycling",
    "request_reason": "Missed Trash Pick-Up",
    "date_created": "2022-07-02T22:30:28.000",
    "date_modified": "2022-07-02T22:30:28.000",
    "request_status": "Pending",
    "responsible_agency": "Department of Sanitation",
    "final_address": "2324 Jackson Ave",
    "address_councildis": "B",
    "status": "Assigned to Contractor",
    "contractor": "Richards Disposal",
    "rowid": "896428",
    "final_x": "3675647.30606",
    "final_y": "526195.183742",
    "longitude": "-90.08673396542972",
    "latitude": "29.9410306073941",
    "geocoded_column": {
      "latitude": "29.9410306073941",
      "longitude": "-90.08673396542972"
    }
  },
  {
    "service_request": "2022-896427",
    "request_type": "Trash/Recycling",
    "request_reason": "Request a Large Item Pick Up",
    "date_created": "2022-07-02T21:44:49.000",
    "date_modified": "2022-07-02T21:44:49.000",
    "request_status": "Pending",
    "responsible_agency": "Department of Sanitation",
    "final_address": "4804 Camp St",
    "address_councildis": "B",
    "status": "Assigned to Contractor",
    "contractor": "Richards Disposal",
    "rowid": "896427",
    "final_x": "3669492.16372",
    "final_y": "518959.837303",
    "longitude": "-90.10641152624129",
    "latitude": "29.921318414688052",
    "geocoded_column": {
      "latitude": "29.921318414688052",
      "longitude": "-90.10641152624129"
    }
  },
  {
    "service_request": "2022-896426",
    "request_type": "Trash/Recycling",
    "request_reason": "Order Trash Cart",
    "date_created": "2022-07-02T21:40:49.000",
    "date_modified": "2022-07-02T21:40:50.000",
    "request_status": "Pending",
    "responsible_agency": "Department of Sanitation",
    "final_address": "417 Stafford Pl",
    "address_councildis": "A",
    "status": "Assigned to Contractor",
    "contractor": "Metro Disposal",
    "rowid": "896426",
    "final_x": "3664884.50189",
    "final_y": "554060.966232",
    "longitude": "-90.11978247937914",
    "latitude": "30.017969746448703",
    "geocoded_column": {
      "latitude": "30.017969746448703",
      "longitude": "-90.11978247937914"
    }
  },
  {
    "service_request": "2022-896425",
    "request_type": "Traffic Signals/Signs/Striping/Streetlights",
    "request_reason": "Street Light Outage/Malfunction",
    "date_created": "2022-07-02T21:18:56.000",
    "date_modified": "2022-07-02T21:18:57.000",
    "request_status": "Pending",
    "responsible_agency": "Department of Public Works",
    "final_address": "5024 Pontchartrain Blvd",
    "address_councildis": "A",
    "status": "Pending",
    "contractor": "Royal Engineering",
    "rowid": "896425",
    "final_x": "3666782.53492",
    "final_y": "539669.24097",
    "longitude": "-90.11426918052314",
    "latitude": "29.97834204510771",
    "geocoded_column": {
      "latitude": "29.97834204510771",
      "longitude": "-90.11426918052314"
    }
  },
  {
    "service_request": "2022-896424",
    "request_type": "Traffic Signals/Signs/Striping/Streetlights",
    "request_reason": "Traffic Signal Malfunctioning/Damaged",
    "date_created": "2022-07-02T21:12:36.000",
    "date_modified": "2022-07-02T21:12:36.000",
    "request_status": "Pending",
    "responsible_agency": "Department of Public Works",
    "final_address": "3033 S Carrollton Ave",
    "address_councildis": "B",
    "status": "Pending",
    "rowid": "896424",
    "final_x": "3666586.17402",
    "final_y": "533209.355716",
    "longitude": "-90.1151062778048",
    "latitude": "29.96058524996126",
    "geocoded_column": {
      "latitude": "29.96058524996126",
      "longitude": "-90.1151062778048"
    }
  },
  {
    "service_request": "2022-896423",
    "request_type": "Traffic Signals/Signs/Striping/Streetlights",
    "request_reason": "Traffic Signal Malfunctioning/Damaged",
    "date_created": "2022-07-02T21:11:01.000",
    "date_modified": "2022-07-02T21:11:01.000",
    "request_status": "Pending",
    "responsible_agency": "Department of Public Works",
    "final_address": "5800 Canal Blvd",
    "address_councildis": "A",
    "status": "Pending",
    "rowid": "896423",
    "final_x": "3668224.89261",
    "final_y": "546060.446608",
    "longitude": "-90.10949807889433",
    "latitude": "29.99587341005522",
    "geocoded_column": {
      "latitude": "29.99587341005522",
      "longitude": "-90.10949807889433"
    }
  },
  {
    "service_request": "2022-896422",
    "request_type": "Property Maintenance",
    "request_reason": "Property Maintenance",
    "date_created": "2022-07-02T20:40:21.000",
    "date_modified": "2022-07-02T20:40:21.000",
    "request_status": "Pending",
    "responsible_agency": "Department of Code Enforcement",
    "final_address": "5714 Lafaye St",
    "address_councildis": "D",
    "status": "Pending",
    "rowid": "896422",
    "final_x": "3687162.94031",
    "final_y": "554283.74748",
    "longitude": "-90.04938340612846",
    "latitude": "30.01791472162876",
    "geocoded_column": {
      "latitude": "30.01791472162876",
      "longitude": "-90.04938340612846"
    }
  },
  {
    "service_request": "2022-896420",
    "request_type": "Trash/Recycling",
    "request_reason": "Missed Trash Pick-Up",
    "date_created": "2022-07-02T20:09:48.000",
    "date_modified": "2022-07-02T20:09:48.000",
    "request_status": "Pending",
    "responsible_agency": "Department of Sanitation",
    "final_address": "8410 Panola St, New Orleans, Louisiana, 70118",
    "address_councildis": "A",
    "status": "Assigned to Contractor",
    "contractor": "Richards Disposal",
    "rowid": "896420",
    "final_x": "3663195.32506",
    "final_y": "531479.573955",
    "longitude": "-90.12587151546492",
    "latitude": "29.955927604064236",
    "geocoded_column": {
      "latitude": "29.955927604064236",
      "longitude": "-90.12587151546492"
    }
  },
  {
    "service_request": "2022-896419",
    "request_type": "Roads/Drainage",
    "request_reason": "Street Subsidence (Sinking)",
    "date_created": "2022-07-02T20:07:21.000",
    "date_modified": "2022-07-02T20:07:21.000",
    "request_status": "Pending",
    "responsible_agency": "Department of Public Works",
    "final_address": "4433 Danneel St",
    "address_councildis": "B",
    "status": "Pending",
    "rowid": "896419",
    "final_x": "3670368.19994",
    "final_y": "522328.07609",
    "longitude": "-90.10353214796731",
    "latitude": "29.93055417533511",
    "geocoded_column": {
      "latitude": "29.93055417533511",
      "longitude": "-90.10353214796731"
    }
  },
  {
    "service_request": "2022-896418",
    "request_type": "Trash/Recycling",
    "request_reason": "Missed Trash Pick-Up",
    "date_created": "2022-07-02T19:51:52.000",
    "date_modified": "2022-07-02T19:51:53.000",
    "request_status": "Pending",
    "responsible_agency": "Department of Sanitation",
    "final_address": "8410 Panola St",
    "address_councildis": "A",
    "status": "Assigned to Contractor",
    "contractor": "Richards Disposal",
    "rowid": "896418",
    "final_x": "3663195.32506",
    "final_y": "531479.573955",
    "longitude": "-90.12587151546492",
    "latitude": "29.955927604064236",
    "geocoded_column": {
      "latitude": "29.955927604064236",
      "longitude": "-90.12587151546492"
    }
  },
  {
    "service_request": "2022-896417",
    "request_type": "Traffic Signals/Signs/Striping/Streetlights",
    "request_reason": "Street Light Outage/Malfunction",
    "date_created": "2022-07-02T19:32:00.000",
    "date_modified": "2022-07-02T19:32:01.000",
    "request_status": "Pending",
    "responsible_agency": "Department of Public Works",
    "final_address": "3533 Bacchus Dr",
    "address_councildis": "C",
    "status": "Pending",
    "contractor": "Royal Engineering",
    "rowid": "896417",
    "final_x": "3710060.54385",
    "final_y": "517632.973558",
    "longitude": "-89.97840578543165",
    "latitude": "29.916413239754498",
    "geocoded_column": {
      "latitude": "29.916413239754498",
      "longitude": "-89.97840578543165"
    }
  },
  {
    "service_request": "2022-896416",
    "request_type": "Roads/Drainage",
    "request_reason": "Catch Basin - Clogged",
    "date_created": "2022-07-02T18:58:31.000",
    "date_modified": "2022-07-02T18:58:31.000",
    "request_status": "Pending",
    "responsible_agency": "Department of Public Works",
    "final_address": "3950 S Inwood Ave",
    "address_councildis": "C",
    "status": "Pending",
    "rowid": "896416",
    "final_x": "3705335.59351",
    "final_y": "513493.697842",
    "longitude": "-89.99347228977142",
    "latitude": "29.90518443494743",
    "geocoded_column": {
      "latitude": "29.90518443494743",
      "longitude": "-89.99347228977142"
    }
  },
  {
    "service_request": "2022-896414",
    "request_type": "Trash/Recycling",
    "request_reason": "Illegal Dumping",
    "date_created": "2022-07-02T18:36:54.000",
    "date_modified": "2022-07-02T18:38:13.000",
    "request_status": "Pending",
    "responsible_agency": "Department of Sanitation",
    "final_address": "S Murat St & Banks St, New Orleans, Louisiana, 70119",
    "address_councildis": "A",
    "rowid": "896414",
    "final_x": "3668990.9",
    "final_y": "538453.88",
    "longitude": "-90.10733541156544",
    "latitude": "29.97493542439952",
    "geocoded_column": {
      "latitude": "29.97493542439952",
      "longitude": "-90.10733541156544"
    }
  },
  {
    "service_request": "2022-896413",
    "request_type": "Trash/Recycling",
    "request_reason": "Missed Trash Pick-Up",
    "date_created": "2022-07-02T18:22:32.000",
    "date_modified": "2022-07-02T18:22:34.000",
    "request_status": "Pending",
    "responsible_agency": "Department of Sanitation",
    "final_address": "4930 Gilbert St",
    "address_councildis": "E",
    "status": "Assigned to Contractor",
    "contractor": "Metro Disposal",
    "rowid": "896413",
    "final_x": "3729327.66701",
    "final_y": "562681.5816",
    "longitude": "-89.91583293382956",
    "latitude": "30.03963879640239",
    "geocoded_column": {
      "latitude": "30.03963879640239",
      "longitude": "-89.91583293382956"
    }
  },
  {
    "service_request": "2022-896412",
    "request_type": "Trash/Recycling",
    "request_reason": "Missed Trash Pick-Up",
    "date_created": "2022-07-02T18:19:48.000",
    "date_modified": "2022-07-02T18:19:49.000",
    "request_status": "Pending",
    "responsible_agency": "Department of Sanitation",
    "final_address": "6026 Benjamin St",
    "address_councildis": "A",
    "status": "Assigned to Contractor",
    "contractor": "Richards Disposal",
    "rowid": "896412",
    "final_x": "3665360.39456",
    "final_y": "522127.85913",
    "longitude": "-90.11934780455478",
    "latitude": "29.930150480305272",
    "geocoded_column": {
      "latitude": "29.930150480305272",
      "longitude": "-90.11934780455478"
    }
  },
  {
    "service_request": "2022-896411",
    "request_type": "Trash/Recycling",
    "request_reason": "Request a Large Item Pick Up",
    "date_created": "2022-07-02T18:17:13.000",
    "date_modified": "2022-07-02T18:17:14.000",
    "request_status": "Pending",
    "responsible_agency": "Department of Sanitation",
    "final_address": "515 General Taylor St",
    "address_councildis": "B",
    "status": "Assigned to Contractor",
    "contractor": "Richards Disposal",
    "rowid": "896411",
    "final_x": "3673423.35329",
    "final_y": "517826.948278",
    "longitude": "-90.09404115018458",
    "latitude": "29.918087002171305",
    "geocoded_column": {
      "latitude": "29.918087002171305",
      "longitude": "-90.09404115018458"
    }
  },
  {
    "service_request": "2022-896410",
    "request_type": "Property Maintenance",
    "request_reason": "Property Maintenance",
    "date_created": "2022-07-02T17:51:43.000",
    "date_modified": "2022-07-02T17:51:43.000",
    "request_status": "Pending",
    "responsible_agency": "Department of Code Enforcement",
    "final_address": "7849 Read Blvd Apt 12",
    "address_councildis": "E",
    "status": "Pending",
    "rowid": "896410",
    "final_x": "3708429.38795",
    "final_y": "565267.44797",
    "longitude": "-89.98178086429685",
    "latitude": "30.047443191521047",
    "geocoded_column": {
      "latitude": "30.047443191521047",
      "longitude": "-89.98178086429685"
    }
  },
  {
    "service_request": "2022-896408",
    "request_type": "Trash/Recycling",
    "request_reason": "Order Trash Cart",
    "date_created": "2022-07-02T17:42:34.000",
    "date_modified": "2022-07-02T17:42:34.000",
    "request_status": "Pending",
    "responsible_agency": "Department of Sanitation",
    "final_address": "6507 Memphis St",
    "address_councildis": "A",
    "status": "Assigned to Contractor",
    "contractor": "Metro Disposal",
    "rowid": "896408",
    "final_x": "3669596.29076",
    "final_y": "550736.866069",
    "longitude": "-90.10500757358035",
    "latitude": "30.008691589001725",
    "geocoded_column": {
      "latitude": "30.008691589001725",
      "longitude": "-90.10500757358035"
    }
  },
  {
    "service_request": "2022-896407",
    "request_type": "Trash/Recycling",
    "request_reason": "Order Recycling Cart",
    "date_created": "2022-07-02T17:41:41.000",
    "date_modified": "2022-07-02T17:41:41.000",
    "request_status": "Pending",
    "responsible_agency": "Department of Sanitation",
    "final_address": "6507 Memphis St",
    "address_councildis": "A",
    "status": "Pending",
    "rowid": "896407",
    "final_x": "3669596.29076",
    "final_y": "550736.866069",
    "longitude": "-90.10500757358035",
    "latitude": "30.008691589001725",
    "geocoded_column": {
      "latitude": "30.008691589001725",
      "longitude": "-90.10500757358035"
    }
  },
  {
    "service_request": "2022-896406",
    "request_type": "Trash/Recycling",
    "request_reason": "Missed Trash Pick-Up",
    "date_created": "2022-07-02T17:40:50.000",
    "date_modified": "2022-07-02T17:40:51.000",
    "request_status": "Pending",
    "responsible_agency": "Department of Sanitation",
    "final_address": "5015 St Claude Ave",
    "address_councildis": "E",
    "status": "Assigned to Contractor",
    "contractor": "Metro Disposal",
    "rowid": "896406",
    "final_x": "3696113.05085",
    "final_y": "534351.361221",
    "longitude": "-90.02182547915295",
    "latitude": "29.962829149857008",
    "geocoded_column": {
      "latitude": "29.962829149857008",
      "longitude": "-90.02182547915295"
    }
  },
  {
    "service_request": "2022-896405",
    "request_type": "Trash/Recycling",
    "request_reason": "Missed Trash Pick-Up",
    "date_created": "2022-07-02T17:36:36.000",
    "date_modified": "2022-07-02T17:36:36.000",
    "request_status": "Pending",
    "responsible_agency": "Department of Sanitation",
    "final_address": "4137 General Ogden St, New Orleans, Louisiana, 70118",
    "address_councildis": "A",
    "status": "Assigned to Contractor",
    "contractor": "Richards Disposal",
    "rowid": "896405",
    "final_x": "3667022.69581",
    "final_y": "538069.887625",
    "longitude": "-90.11356443502756",
    "latitude": "29.973937331843185",
    "geocoded_column": {
      "latitude": "29.973937331843185",
      "longitude": "-90.11356443502756"
    }
  },
  {
    "service_request": "2022-896404",
    "request_type": "Traffic Signals/Signs/Striping/Streetlights",
    "request_reason": "Traffic Sign Missing/Damaged",
    "date_created": "2022-07-02T17:14:43.000",
    "date_modified": "2022-07-02T17:14:43.000",
    "request_status": "Pending",
    "responsible_agency": "Department of Public Works",
    "final_address": "3701 Annunciation St",
    "address_councildis": "B",
    "status": "Pending",
    "rowid": "896404",
    "final_x": "3673864.67176",
    "final_y": "518134.170486",
    "longitude": "-90.09263764520404",
    "latitude": "29.918918633293746",
    "geocoded_column": {
      "latitude": "29.918918633293746",
      "longitude": "-90.09263764520404"
    }
  },
  {
    "service_request": "2022-896403",
    "request_type": "Abandoned Vehicles",
    "request_reason": "Abandoned/Junk Vehicles",
    "date_created": "2022-07-02T17:09:19.000",
    "date_modified": "2022-07-02T17:09:22.000",
    "request_status": "Pending",
    "responsible_agency": "Department of Public Works",
    "final_address": "1404 Erato St",
    "address_councildis": "B",
    "status": "Pending",
    "rowid": "896403",
    "final_x": "3680148.71183",
    "final_y": "525714.106109",
    "longitude": "-90.0725389231595",
    "latitude": "29.93957237841691",
    "geocoded_column": {
      "latitude": "29.93957237841691",
      "longitude": "-90.0725389231595"
    }
  },
  {
    "service_request": "2022-896402",
    "request_type": "Trash/Recycling",
    "request_reason": "Request a Large Item Pick Up",
    "date_created": "2022-07-02T16:56:43.000",
    "date_modified": "2022-07-02T16:56:43.000",
    "request_status": "Pending",
    "responsible_agency": "Department of Sanitation",
    "final_address": "1627 N Johnson St",
    "address_councildis": "D",
    "status": "Assigned to Contractor",
    "contractor": "Metro Disposal",
    "rowid": "896402",
    "final_x": "3681117.58088",
    "final_y": "538880.440905",
    "longitude": "-90.06902141639779",
    "latitude": "29.975745978472077",
    "geocoded_column": {
      "latitude": "29.975745978472077",
      "longitude": "-90.06902141639779"
    }
  },
  {
    "service_request": "2022-896401",
    "request_type": "Trash/Recycling",
    "request_reason": "Missed Trash Pick-Up",
    "date_created": "2022-07-02T16:31:47.000",
    "date_modified": "2022-07-02T16:31:48.000",
    "request_status": "Pending",
    "responsible_agency": "Department of Sanitation",
    "final_address": "3600 Second St",
    "address_councildis": "B",
    "status": "Assigned to Contractor",
    "contractor": "Richards Disposal",
    "rowid": "896401",
    "final_x": "3672761.56865",
    "final_y": "528938.756352",
    "longitude": "-90.09575122714078",
    "latitude": "29.948660542868282",
    "geocoded_column": {
      "latitude": "29.948660542868282",
      "longitude": "-90.09575122714078"
    }
  },
  {
    "service_request": "2022-896400",
    "request_type": "Trash/Recycling",
    "request_reason": "Request a Large Item Pick Up",
    "date_created": "2022-07-02T16:14:34.000",
    "date_modified": "2022-07-02T16:14:35.000",
    "request_status": "Pending",
    "responsible_agency": "Department of Sanitation",
    "final_address": "222 S Lopez St",
    "address_councildis": "B",
    "status": "Assigned to Contractor",
    "contractor": "Richards Disposal",
    "rowid": "896400",
    "final_x": "3673542.20232",
    "final_y": "535678.388167",
    "longitude": "-90.09305609469851",
    "latitude": "29.967169076702024",
    "geocoded_column": {
      "latitude": "29.967169076702024",
      "longitude": "-90.09305609469851"
    }
  },
  {
    "service_request": "2022-896399",
    "request_type": "Traffic Signals/Signs/Striping/Streetlights",
    "request_reason": "Street Light Outage/Malfunction",
    "date_created": "2022-07-02T16:04:52.000",
    "date_modified": "2022-07-02T16:04:53.000",
    "request_status": "Pending",
    "responsible_agency": "Department of Public Works",
    "final_address": "3533 Bacchus Dr",
    "address_councildis": "C",
    "status": "Pending",
    "contractor": "Royal Engineering",
    "rowid": "896399",
    "final_x": "3710060.54385",
    "final_y": "517632.973558",
    "longitude": "-89.97840578543165",
    "latitude": "29.916413239754498",
    "geocoded_column": {
      "latitude": "29.916413239754498",
      "longitude": "-89.97840578543165"
    }
  },
  {
    "service_request": "2022-896398",
    "request_type": "Traffic Signals/Signs/Striping/Streetlights",
    "request_reason": "Street Light Outage/Malfunction",
    "date_created": "2022-07-02T15:48:40.000",
    "date_modified": "2022-07-02T15:48:40.000",
    "request_status": "Pending",
    "responsible_agency": "Department of Public Works",
    "final_address": "869 Taft Pl",
    "address_councildis": "A",
    "status": "Pending",
    "contractor": "Royal Engineering",
    "rowid": "896398",
    "final_x": "3673790.02708",
    "final_y": "539985.586571",
    "longitude": "-90.09212611782726",
    "latitude": "29.979005031456463",
    "geocoded_column": {
      "latitude": "29.979005031456463",
      "longitude": "-90.09212611782726"
    }
  },
  {
    "service_request": "2022-896397",
    "request_type": "Traffic Signals/Signs/Striping/Streetlights",
    "request_reason": "Street Light Outage/Malfunction",
    "date_created": "2022-07-02T15:45:45.000",
    "date_modified": "2022-07-02T15:45:46.000",
    "request_status": "Pending",
    "responsible_agency": "Department of Public Works",
    "final_address": "844 Taft Pl",
    "address_councildis": "A",
    "status": "Pending",
    "contractor": "Royal Engineering",
    "rowid": "896397",
    "final_x": "3673847.3515",
    "final_y": "539714.952458",
    "longitude": "-90.09195432536946",
    "latitude": "29.978259172620614",
    "geocoded_column": {
      "latitude": "29.978259172620614",
      "longitude": "-90.09195432536946"
    }
  },
  {
    "service_request": "2022-896396",
    "request_type": "Roads/Drainage",
    "request_reason": "Pothole",
    "date_created": "2022-07-02T15:41:28.000",
    "date_modified": "2022-07-02T15:41:28.000",
    "request_status": "Pending",
    "responsible_agency": "Department of Public Works",
    "final_address": "2601 Jackson Ave",
    "address_councildis": "B",
    "status": "Pending",
    "rowid": "896396",
    "final_x": "3675224.61",
    "final_y": "526882.894782",
    "longitude": "-90.08804489881594",
    "latitude": "29.942934224668576",
    "geocoded_column": {
      "latitude": "29.942934224668576",
      "longitude": "-90.08804489881594"
    }
  },
  {
    "service_request": "2022-896395",
    "request_type": "Trash/Recycling",
    "request_reason": "Start Trash Service",
    "date_created": "2022-07-02T15:32:22.000",
    "date_modified": "2022-07-02T15:32:23.000",
    "request_status": "Pending",
    "responsible_agency": "Department of Sanitation",
    "final_address": "6650 Memphis St",
    "address_councildis": "A",
    "status": "Assigned to Contractor",
    "contractor": "Metro Disposal",
    "rowid": "896395",
    "final_x": "3669504.17441",
    "final_y": "551711.034069",
    "longitude": "-90.10526561404846",
    "latitude": "30.01137292362441",
    "geocoded_column": {
      "latitude": "30.01137292362441",
      "longitude": "-90.10526561404846"
    }
  },
  {
    "service_request": "2022-896394",
    "request_type": "Trash/Recycling",
    "request_reason": "Order Trash Cart",
    "date_created": "2022-07-02T15:29:13.000",
    "date_modified": "2022-07-02T15:29:13.000",
    "request_status": "Pending",
    "responsible_agency": "Department of Sanitation",
    "final_address": "6650 Memphis St",
    "address_councildis": "A",
    "status": "Assigned to Contractor",
    "contractor": "Metro Disposal",
    "rowid": "896394",
    "final_x": "3669504.17441",
    "final_y": "551711.034069",
    "longitude": "-90.10526561404846",
    "latitude": "30.01137292362441",
    "geocoded_column": {
      "latitude": "30.01137292362441",
      "longitude": "-90.10526561404846"
    }
  },
  {
    "service_request": "2022-896393",
    "request_type": "Trash/Recycling",
    "request_reason": "Request a Large Item Pick Up",
    "date_created": "2022-07-02T15:28:07.000",
    "date_modified": "2022-07-02T15:28:07.000",
    "request_status": "Pending",
    "responsible_agency": "Department of Sanitation",
    "final_address": "5630 Pembrook Dr",
    "address_councildis": "C",
    "status": "Assigned to Contractor",
    "contractor": "Richards Disposal",
    "rowid": "896393",
    "final_x": "3704495.43934",
    "final_y": "521000.851513",
    "longitude": "-89.99584728042855",
    "latitude": "29.925853509798397",
    "geocoded_column": {
      "latitude": "29.925853509798397",
      "longitude": "-89.99584728042855"
    }
  },
  {
    "service_request": "2022-896392",
    "request_type": "Trash/Recycling",
    "request_reason": "Illegal Dumping",
    "date_created": "2022-07-02T15:22:21.000",
    "date_modified": "2022-07-02T15:22:21.000",
    "request_status": "Pending",
    "responsible_agency": "Department of Sanitation",
    "final_address": "8720 Hickory St",
    "address_councildis": "A",
    "status": "Pending",
    "rowid": "896392",
    "final_x": "3661646.9481",
    "final_y": "531455.816195",
    "longitude": "-90.13076156623289",
    "latitude": "29.955907051901747",
    "geocoded_column": {
      "latitude": "29.955907051901747",
      "longitude": "-90.13076156623289"
    }
  },
  {
    "service_request": "2022-896391",
    "request_type": "Abandoned Vehicles",
    "request_reason": "Abandoned/Junk Vehicles",
    "date_created": "2022-07-02T15:11:57.000",
    "date_modified": "2022-07-02T15:11:57.000",
    "request_status": "Pending",
    "responsible_agency": "Department of Public Works",
    "final_address": "4500 S Rocheblave St",
    "address_councildis": "B",
    "status": "Pending",
    "rowid": "896391",
    "final_x": "3669651.25703",
    "final_y": "528371.75168",
    "longitude": "-90.1055910090675",
    "latitude": "29.947193469269397",
    "geocoded_column": {
      "latitude": "29.947193469269397",
      "longitude": "-90.1055910090675"
    }
  },
  {
    "service_request": "2022-896390",
    "request_type": "Trash/Recycling",
    "request_reason": "Missed Trash Pick-Up",
    "date_created": "2022-07-02T14:58:40.000",
    "date_modified": "2022-07-02T14:58:40.000",
    "request_status": "Pending",
    "responsible_agency": "Department of Sanitation",
    "final_address": "4700 Perlita St",
    "address_councildis": "D",
    "status": "Assigned to Contractor",
    "contractor": "Metro Disposal",
    "rowid": "896390",
    "final_x": "3678614.75618",
    "final_y": "549820.072084",
    "longitude": "-90.07654708298314",
    "latitude": "30.005901823790282",
    "geocoded_column": {
      "latitude": "30.005901823790282",
      "longitude": "-90.07654708298314"
    }
  },
  {
    "service_request": "2022-896389",
    "request_type": "Roads/Drainage",
    "request_reason": "Road Shoulder Repair",
    "date_created": "2022-07-02T14:42:36.000",
    "date_modified": "2022-07-02T14:42:36.000",
    "request_status": "Pending",
    "responsible_agency": "Department of Public Works",
    "final_address": "5735 Chamberlain Dr",
    "address_councildis": "D",
    "status": "Pending",
    "rowid": "896389",
    "final_x": "3679440.23394",
    "final_y": "553819.527255",
    "longitude": "-90.07380031533134",
    "latitude": "30.016873964113746",
    "geocoded_column": {
      "latitude": "30.016873964113746",
      "longitude": "-90.07380031533134"
    }
  },
  {
    "service_request": "2022-896388",
    "request_type": "Property Maintenance",
    "request_reason": "Property Maintenance",
    "date_created": "2022-07-02T14:40:39.000",
    "date_modified": "2022-07-02T14:40:39.000",
    "request_status": "Pending",
    "responsible_agency": "Department of Code Enforcement",
    "final_address": "2100 St Bernard Ave",
    "address_councildis": "D",
    "status": "Pending",
    "rowid": "896388",
    "final_x": "3681212.18332",
    "final_y": "539527.09889",
    "longitude": "-90.06870009489934",
    "latitude": "29.97752119292881",
    "geocoded_column": {
      "latitude": "29.97752119292881",
      "longitude": "-90.06870009489934"
    }
  },
  {
    "service_request": "2022-896387",
    "request_type": "Abandoned Vehicles",
    "request_reason": "Abandoned/Junk Vehicles",
    "date_created": "2022-07-02T14:05:31.000",
    "date_modified": "2022-07-02T14:05:31.000",
    "request_status": "Pending",
    "responsible_agency": "Department of Public Works",
    "final_address": "3927 Dhemecourt St, New Orleans, Louisiana, 70119",
    "address_councildis": "B",
    "status": "Pending",
    "rowid": "896387",
    "final_x": "3670444.30663",
    "final_y": "536398.344455",
    "longitude": "-90.1028148872264",
    "latitude": "29.969240553753504",
    "geocoded_column": {
      "latitude": "29.969240553753504",
      "longitude": "-90.1028148872264"
    }
  },
  {
    "service_request": "2022-896386",
    "request_type": "Roads/Drainage",
    "request_reason": "Street Flooding / Drainage",
    "date_created": "2022-07-02T14:04:06.000",
    "date_modified": "2022-07-02T14:04:06.000",
    "request_status": "Pending",
    "responsible_agency": "Department of Public Works",
    "final_address": "152 Hay Pl",
    "address_councildis": "A",
    "status": "Pending",
    "rowid": "896386",
    "final_x": "3665991.11424",
    "final_y": "554123.855704",
    "longitude": "-90.1162838828698",
    "latitude": "30.018110398015946",
    "geocoded_column": {
      "latitude": "30.018110398015946",
      "longitude": "-90.1162838828698"
    }
  },
  {
    "service_request": "2022-896385",
    "request_type": "Property Maintenance",
    "request_reason": "Property Maintenance",
    "date_created": "2022-07-02T13:58:34.000",
    "date_modified": "2022-07-02T13:58:34.000",
    "request_status": "Pending",
    "responsible_agency": "Department of Code Enforcement",
    "final_address": "2635 Myrtle St",
    "address_councildis": "D",
    "status": "Pending",
    "rowid": "896385",
    "final_x": "3687453.68854",
    "final_y": "546119.142928",
    "longitude": "-90.04875396070429",
    "latitude": "29.99545607659211",
    "geocoded_column": {
      "latitude": "29.99545607659211",
      "longitude": "-90.04875396070429"
    }
  },
  {
    "service_request": "2022-896384",
    "request_type": "Trash/Recycling",
    "request_reason": "Replace Trash Cart",
    "date_created": "2022-07-02T13:33:13.000",
    "date_modified": "2022-07-02T13:33:13.000",
    "request_status": "Pending",
    "responsible_agency": "Department of Sanitation",
    "final_address": "1439 St Andrew St",
    "address_councildis": "B",
    "status": "Assigned to Contractor",
    "contractor": "Richards Disposal",
    "rowid": "896384",
    "final_x": "3678736.69083",
    "final_y": "523688.147579",
    "longitude": "-90.07706699275087",
    "latitude": "29.934044306060013",
    "geocoded_column": {
      "latitude": "29.934044306060013",
      "longitude": "-90.07706699275087"
    }
  },
  {
    "service_request": "2022-896383",
    "request_type": "Trash/Recycling",
    "request_reason": "Replace Trash Cart",
    "date_created": "2022-07-02T13:32:46.000",
    "date_modified": "2022-07-02T13:32:47.000",
    "request_status": "Pending",
    "responsible_agency": "Department of Sanitation",
    "final_address": "1437 St Andrew St",
    "address_councildis": "B",
    "status": "Assigned to Contractor",
    "contractor": "Richards Disposal",
    "rowid": "896383",
    "final_x": "3678674.63016",
    "final_y": "523626.303099",
    "longitude": "-90.0772650561403",
    "latitude": "29.933876124838466",
    "geocoded_column": {
      "latitude": "29.933876124838466",
      "longitude": "-90.0772650561403"
    }
  },
  {
    "service_request": "2022-896382",
    "request_type": "Trash/Recycling",
    "request_reason": "Request a Large Item Pick Up",
    "date_created": "2022-07-02T13:27:29.000",
    "date_modified": "2022-07-02T13:27:30.000",
    "request_status": "Pending",
    "responsible_agency": "Department of Sanitation",
    "final_address": "4733 Dauphine St",
    "address_councildis": "E",
    "status": "Assigned to Contractor",
    "contractor": "Metro Disposal",
    "rowid": "896382",
    "final_x": "3694606.91702",
    "final_y": "533430.776196",
    "longitude": "-90.02661478680982",
    "latitude": "29.960345180794135",
    "geocoded_column": {
      "latitude": "29.960345180794135",
      "longitude": "-90.02661478680982"
    }
  },
  {
    "service_request": "2022-896381",
    "request_type": "Trash/Recycling",
    "request_reason": "Missed Trash Pick-Up",
    "date_created": "2022-07-02T13:22:28.000",
    "date_modified": "2022-07-02T13:22:29.000",
    "request_status": "Pending",
    "responsible_agency": "Department of Sanitation",
    "final_address": "3621 Live Oak St",
    "address_councildis": "A",
    "status": "Assigned to Contractor",
    "contractor": "Richards Disposal",
    "rowid": "896381",
    "final_x": "3664551.72941",
    "final_y": "537873.627401",
    "longitude": "-90.12137488923305",
    "latitude": "29.973469776860757",
    "geocoded_column": {
      "latitude": "29.973469776860757",
      "longitude": "-90.12137488923305"
    }
  },
  {
    "service_request": "2022-896380",
    "request_type": "Property Maintenance",
    "request_reason": "Property Maintenance",
    "date_created": "2022-07-02T13:16:53.000",
    "date_modified": "2022-07-02T13:16:53.000",
    "request_status": "Pending",
    "responsible_agency": "Department of Code Enforcement",
    "final_address": "1238 Annette St",
    "address_councildis": "C",
    "status": "Pending",
    "rowid": "896380",
    "final_x": "3683084.98818",
    "final_y": "536471.196935",
    "longitude": "-90.06289216391815",
    "latitude": "29.969061556769883",
    "geocoded_column": {
      "latitude": "29.969061556769883",
      "longitude": "-90.06289216391815"
    }
  },
  {
    "service_request": "2022-896379",
    "request_type": "Trash/Recycling",
    "request_reason": "Missed Trash Pick-Up",
    "date_created": "2022-07-02T12:55:57.000",
    "date_modified": "2022-07-02T12:55:58.000",
    "request_status": "Pending",
    "responsible_agency": "Department of Sanitation",
    "final_address": "9100 Dixon St",
    "address_councildis": "A",
    "status": "Assigned to Contractor",
    "contractor": "Richards Disposal",
    "rowid": "896379",
    "final_x": "3665762.52672",
    "final_y": "537841.438857",
    "longitude": "-90.11755200194045",
    "latitude": "29.973345999648412",
    "geocoded_column": {
      "latitude": "29.973345999648412",
      "longitude": "-90.11755200194045"
    }
  },
  {
    "service_request": "2022-896378",
    "request_type": "Traffic Signals/Signs/Striping/Streetlights",
    "request_reason": "Street Light Outage/Malfunction",
    "date_created": "2022-07-02T12:54:52.000",
    "date_modified": "2022-07-02T12:54:53.000",
    "request_status": "Pending",
    "responsible_agency": "Department of Public Works",
    "final_address": "9100 Dixon St",
    "address_councildis": "A",
    "status": "Pending",
    "contractor": "Royal Engineering",
    "rowid": "896378",
    "final_x": "3665762.52672",
    "final_y": "537841.438857",
    "longitude": "-90.11755200194045",
    "latitude": "29.973345999648412",
    "geocoded_column": {
      "latitude": "29.973345999648412",
      "longitude": "-90.11755200194045"
    }
  },
  {
    "service_request": "2022-896377",
    "request_type": "Trash/Recycling",
    "request_reason": "Order Recycling Cart",
    "date_created": "2022-07-02T12:47:50.000",
    "date_modified": "2022-07-02T12:47:50.000",
    "request_status": "Pending",
    "responsible_agency": "Department of Sanitation",
    "final_address": "4617 S Prieur St",
    "address_councildis": "B",
    "status": "Pending",
    "rowid": "896377",
    "final_x": "3669358.79041",
    "final_y": "526848.352894",
    "longitude": "-90.1065659358374",
    "latitude": "29.943013231364922",
    "geocoded_column": {
      "latitude": "29.943013231364922",
      "longitude": "-90.1065659358374"
    }
  },
  {
    "service_request": "2022-896376",
    "request_type": "Trash/Recycling",
    "request_reason": "Replace Trash Cart",
    "date_created": "2022-07-02T12:40:52.000",
    "date_modified": "2022-07-02T12:40:52.000",
    "request_status": "Pending",
    "responsible_agency": "Department of Sanitation",
    "final_address": "1403 Toledano St Apt A",
    "address_councildis": "B",
    "status": "Assigned to Contractor",
    "contractor": "Richards Disposal",
    "rowid": "896376",
    "final_x": "3674971.26197",
    "final_y": "520848.551865",
    "longitude": "-90.08905166775497",
    "latitude": "29.92634931644159",
    "geocoded_column": {
      "latitude": "29.92634931644159",
      "longitude": "-90.08905166775497"
    }
  },
  {
    "service_request": "2022-896375",
    "request_type": "Traffic Signals/Signs/Striping/Streetlights",
    "request_reason": "Traffic Sign Missing/Damaged",
    "date_created": "2022-07-02T12:31:50.000",
    "date_modified": "2022-07-02T12:31:51.000",
    "request_status": "Pending",
    "responsible_agency": "Department of Public Works",
    "final_address": "6045 General Meyer Ave",
    "address_councildis": "C",
    "status": "Pending",
    "contractor": "Royal Engineering",
    "rowid": "896375",
    "final_x": "3706253.46564",
    "final_y": "521040.848505",
    "longitude": "-89.99029628187728",
    "latitude": "29.925906945634736",
    "geocoded_column": {
      "latitude": "29.925906945634736",
      "longitude": "-89.99029628187728"
    }
  },
  {
    "service_request": "2022-896374",
    "request_type": "Trash/Recycling",
    "request_reason": "Request a Large Item Pick Up",
    "date_created": "2022-07-02T12:30:49.000",
    "date_modified": "2022-07-02T12:30:49.000",
    "request_status": "Pending",
    "responsible_agency": "Department of Sanitation",
    "final_address": "5417 Story St",
    "address_councildis": "A",
    "status": "Assigned to Contractor",
    "contractor": "Richards Disposal",
    "rowid": "896374",
    "final_x": "3668183.40858",
    "final_y": "526025.785726",
    "longitude": "-90.11030463640701",
    "latitude": "29.94078598672612",
    "geocoded_column": {
      "latitude": "29.94078598672612",
      "longitude": "-90.11030463640701"
    }
  },
  {
    "service_request": "2022-896373",
    "request_type": "Traffic Signals/Signs/Striping/Streetlights",
    "request_reason": "Street Light Outage/Malfunction",
    "date_created": "2022-07-02T12:25:09.000",
    "date_modified": "2022-07-02T12:25:10.000",
    "request_status": "Pending",
    "responsible_agency": "Department of Public Works",
    "final_address": "5538 Bellaire Dr",
    "address_councildis": "A",
    "status": "Pending",
    "contractor": "Royal Engineering",
    "rowid": "896373",
    "final_x": "3663995.47341",
    "final_y": "544511.016591",
    "longitude": "-90.12291023185342",
    "latitude": "29.9917365365538",
    "geocoded_column": {
      "latitude": "29.9917365365538",
      "longitude": "-90.12291023185342"
    }
  },
  {
    "service_request": "2022-896372",
    "request_type": "Trash/Recycling",
    "request_reason": "Illegal Dumping",
    "date_created": "2022-07-02T12:20:34.000",
    "date_modified": "2022-07-02T13:21:38.000",
    "request_status": "Pending",
    "responsible_agency": "Department of Sanitation",
    "final_address": "S Pierce St & Banks St, New Orleans, Louisiana, 70119",
    "address_councildis": "A",
    "rowid": "896372",
    "final_x": "3670763.7",
    "final_y": "537109.08",
    "longitude": "-90.10178209195877",
    "latitude": "29.971185402627775",
    "geocoded_column": {
      "latitude": "29.971185402627775",
      "longitude": "-90.10178209195877"
    }
  },
  {
    "service_request": "2022-896371",
    "request_type": "Trash/Recycling",
    "request_reason": "MIssed Recycling Pick-Up",
    "date_created": "2022-07-02T12:17:46.000",
    "date_modified": "2022-07-02T12:18:37.000",
    "request_status": "Pending",
    "responsible_agency": "Department of Sanitation",
    "final_address": "20 Fontainebleau Dr",
    "address_councildis": "A",
    "status": "Assigned to Contractor",
    "contractor": "Richards Disposal",
    "rowid": "896371",
    "final_x": "3665772.952",
    "final_y": "531642.683075",
    "longitude": "-90.11772676601629",
    "latitude": "29.956301161428733",
    "geocoded_column": {
      "latitude": "29.956301161428733",
      "longitude": "-90.11772676601629"
    }
  },