[
  {
    "service_request": "2026-1303212",
    "request_type": "Trash/Recycling",
    "request_reason": "Illegal Dumping",
    "date_created": "2026-07-23T23:32:39.000",
    "date_modified": "2026-07-23T23:32:41.000",
    "request_status": "Pending",
    "responsible_agency": "Department of Code Enforcement",
    "final_address": "801 Bourbon St, New Orleans, Louisiana, 70116",
    "address_councildis": "C",
    "status": "Pending",
    "rowid": "1303212",
    "final_x": "3682490.98735",
    "final_y": "533018.672772",
    "longitude": "-90.06488875731978",
    "latitude": "29.959586396383013",
    "geocoded_column": {
      "latitude": "29.959586396383013",
      "longitude": "-90.06488875731978"
    }
  },
  {
    "service_request": "2026-1303211",
    "request_type": "Health Related Request",
    "request_reason": "Noise Ordinance Complaint",
    "date_created": "2026-07-23T23:30:04.000",
    "date_modified": "2026-07-23T23:30:06.000",
    "request_status": "Pending",
    "responsible_agency": "Health Department",
    "final_address": "801 Bourbon St, New Orleans, Louisiana, 70116",
    "address_councildis": "C",
    "status": "Pending",
    "rowid": "1303211",
    "final_x": "3682490.98735",
    "final_y": "533018.672772",
    "longitude": "-90.06488875731978",
    "latitude": "29.959586396383013",
    "geocoded_column": {
      "latitude": "29.959586396383013",
      "longitude": "-90.06488875731978"
    }
  },
  {
    "service_request": "2026-1303210",
    "request_type": "Health Related Request",
    "request_reason": "Noise Ordinance Complaint",
    "date_created": "2026-07-23T23:29:47.000",
    "date_modified": "2026-07-23T23:29:49.000",
    "request_status": "Pending",
    "responsible_agency": "Health Department",
    "final_address": "801 Bourbon St, New Orleans, Louisiana, 70116",
    "address_councildis": "C",
    "status": "Pending",
    "rowid": "1303210",
    "final_x": "3682490.98735",
    "final_y": "533018.672772",
    "longitude": "-90.06488875731978",
    "latitude": "29.959586396383013",
    "geocoded_column": {
      "latitude": "29.959586396383013",
      "longitude": "-90.06488875731978"
    }
  },
  {
    "service_request": "2026-1303209",
    "request_type": "Health Related Request",
    "request_reason": "Noise Ordinance Complaint",
    "date_created": "2026-07-23T23:29:28.000",
    "date_modified": "2026-07-23T23:29:29.000",
    "request_status": "Pending",
    "responsible_agency": "Health Department",
    "final_address": "800 Bourbon St, New Orleans, Louisiana, 70116",
    "address_councildis": "C",
    "status": "Pending",
    "rowid": "1303209",
    "final_x": "3682553.51528",
    "final_y": "533013.631428",
    "longitude": "-90.06469148499534",
    "latitude": "29.95957063099051",
    "geocoded_column": {
      "latitude": "29.95957063099051",
      "longitude": "-90.06469148499534"
    }
  },
  {
    "service_request": "2026-1303208",
    "request_type": "Health Related Request",
    "request_reason": "Noise Ordinance Complaint",
    "date_created": "2026-07-23T23:29:12.000",
    "date_modified": "2026-07-23T23:29:13.000",
    "request_status": "Pending",
    "responsible_agency": "Health Department",
    "final_address": "800 Bourbon St, New Orleans, Louisiana, 70116",
    "address_councildis": "C",
    "status": "Pending",
    "rowid": "1303208",
    "final_x": "3682553.51528",
    "final_y": "533013.631428",
    "longitude": "-90.06469148499534",
    "latitude": "29.95957063099051",
    "geocoded_column": {
      "latitude": "29.95957063099051",
      "longitude": "-90.06469148499534"
    }
  },
  {
    "service_request": "2026-1303207",
    "request_type": "Health Related Request",
    "request_reason": "Noise Ordinance Complaint",
    "date_created": "2026-07-23T23:28:56.000",
    "date_modified": "2026-07-23T23:28:58.000",
    "request_status": "Pending",
    "responsible_agency": "Health Department",
    "final_address": "800 Bourbon St, New Orleans, Louisiana, 70116",
    "address_councildis": "C",
    "status": "Pending",
    "rowid": "1303207",
    "final_x": "3682553.51528",
    "final_y": "533013.631428",
    "longitude": "-90.06469148499534",
    "latitude": "29.95957063099051",
    "geocoded_column": {
      "latitude": "29.95957063099051",
      "longitude": "-90.06469148499534"
    }
  },
  {
    "service_request": "2026-1303206",
    "request_type": "Trash/Recycling",
    "request_reason": "Order Trash Cart",
    "date_created": "2026-07-23T22:52:03.000",
    "date_modified": "2026-07-23T22:52:09.000",
    "request_status": "Pending",
    "responsible_agency": "Department of Sanitation",
    "final_address": "2427 Orleans Ave",
    "address_councildis": "C",
    "status": "Assigned to Contractor",
    "contractor": "IV Waste",
    "rowid": "1303206",
    "final_x": "3677725.79547",
    "final_y": "536389.397063",
    "longitude": "-90.07981969902264",
    "latitude": "29.968998930295985",
    "geocoded_column": {
      "latitude": "29.968998930295985",
      "longitude": "-90.07981969902264"
    }
  },
  {
    "service_request": "2026-1303205",
    "request_type": "Streetlights",
    "request_reason": "Streetlight Outage/Malfunction",
    "date_created": "2026-07-23T22:14:22.000",
    "date_modified": "2026-07-23T22:14:24.000",
    "request_status": "Pending",
    "responsible_agency": "Department of Public Works",
    "final_address": "4341 State Street Dr",
    "address_councildis": "B",
    "status": "Pending",
    "rowid": "1303205",
    "final_x": "3668675.19214",
    "final_y": "531602.878787",
    "longitude": "-90.10856377742009",
    "latitude": "29.956106732843683",
    "geocoded_column": {
      "latitude": "29.956106732843683",
      "longitude": "-90.10856377742009"
    }
  },
  {
    "service_request": "2026-1303204",
    "request_type": "Trash/Recycling",
    "request_reason": "Replace Recycling Cart",
    "date_created": "2026-07-23T22:04:00.000",
    "date_modified": "2026-07-23T22:04:02.000",
    "request_status": "Pending",
    "responsible_agency": "Department of Sanitation",
    "final_address": "826 N Rocheblave St",
    "address_councildis": "C",
    "status": "Pending",
    "rowid": "1303204",
    "final_x": "3677902.4347",
    "final_y": "536773.85108",
    "longitude": "-90.07924857196839",
    "latitude": "29.970050732974858",
    "geocoded_column": {
      "latitude": "29.970050732974858",
      "longitude": "-90.07924857196839"
    }
  },
  {
    "service_request": "2026-1303203",
    "request_type": "Abandoned Vehicles",
    "request_reason": "Abandoned/Junk Vehicles",
    "date_created": "2026-07-23T21:54:32.000",
    "date_modified": "2026-07-23T21:54:34.000",
    "request_status": "Pending",
    "responsible_agency": "Department of Public Works",
    "final_address": "6326 Caldwell Dr",
    "address_councildis": "D",
    "status": "Pending",
    "rowid": "1303203",
    "final_x": "3679048.70613",
    "final_y": "556884.792346",
    "longitude": "-90.0749310164164",
    "latitude": "30.02531415535802",
    "geocoded_column": {
      "latitude": "30.02531415535802",
      "longitude": "-90.0749310164164"
    }
  },
  {
    "service_request": "2026-1303202",
    "request_type": "Abandoned Vehicles",
    "request_reason": "Abandoned/Junk Vehicles",
    "date_created": "2026-07-23T21:42:03.000",
    "date_modified": "2026-07-23T21:42:05.000",
    "request_status": "Pending",
    "responsible_agency": "Department of Public Works",
    "final_address": "6326 Caldwell Dr, New Orleans, Louisiana, 70122",
    "address_councildis": "D",
    "status": "Pending",
    "rowid": "1303202",
    "final_x": "3679048.70613",
    "final_y": "556884.792346",
    "longitude": "-90.0749310164164",
    "latitude": "30.02531415535802",
    "geocoded_column": {
      "latitude": "30.02531415535802",
      "longitude": "-90.0749310164164"
    }
  },
  {
    "service_request": "2026-1303201",
    "request_type": "Health Related Request",
    "request_reason": "Noise Ordinance Complaint",
    "date_created": "2026-07-23T21:12:36.000",
    "date_modified": "2026-07-23T21:12:38.000",
    "request_status": "Pending",
    "responsible_agency": "Health Department",
    "final_address": "801 Bourbon St, New Orleans, Louisiana, 70116",
    "address_councildis": "C",
    "status": "Pending",
    "rowid": "1303201",
    "final_x": "3682490.98735",
    "final_y": "533018.672772",
    "longitude": "-90.06488875731978",
    "latitude": "29.959586396383013",
    "geocoded_column": {
      "latitude": "29.959586396383013",
      "longitude": "-90.06488875731978"
    }
  },
  {
    "service_request": "2026-1303200",
    "request_type": "Health Related Request",
    "request_reason": "Noise Ordinance Complaint",
    "date_created": "2026-07-23T21:12:14.000",
    "date_modified": "2026-07-23T21:12:16.000",
    "request_status": "Pending",
    "responsible_agency": "Health Department",
    "final_address": "801 Bourbon St, New Orleans, Louisiana, 70116",
    "address_councildis": "C",
    "status": "Pending",
    "rowid": "1303200",
    "final_x": "3682490.98735",
    "final_y": "533018.672772",
    "longitude": "-90.06488875731978",
    "latitude": "29.959586396383013",
    "geocoded_column": {
      "latitude": "29.959586396383013",
      "longitude": "-90.06488875731978"
    }
  },
  {
    "service_request": "2026-1303199",
    "request_type": "Health Related Request",
    "request_reason": "Noise Ordinance Complaint",
    "date_created": "2026-07-23T21:11:53.000",
    "date_modified": "2026-07-23T21:11:54.000",
    "request_status": "Pending",
    "responsible_agency": "Health Department",
    "final_address": "801 Bourbon St, New Orleans, Louisiana, 70116",
    "address_councildis": "C",
    "status": "Pending",
    "rowid": "1303199",
    "final_x": "3682490.98735",
    "final_y": "533018.672772",
    "longitude": "-90.06488875731978",
    "latitude": "29.959586396383013",
    "geocoded_column": {
      "latitude": "29.959586396383013",
      "longitude": "-90.06488875731978"
    }
  },
  {
    "service_request": "2026-1303198",
    "request_type": "Health Related Request",
    "request_reason": "Noise Ordinance Complaint",
    "date_created": "2026-07-23T21:11:31.000",
    "date_modified": "2026-07-23T21:11:32.000",
    "request_status": "Pending",
    "responsible_agency": "Health Department",
    "final_address": "800 Bourbon St, New Orleans, Louisiana, 70116",
    "address_councildis": "C",
    "status": "Pending",
    "rowid": "1303198",
    "final_x": "3682553.51528",
    "final_y": "533013.631428",
    "longitude": "-90.06469148499534",
    "latitude": "29.95957063099051",
    "geocoded_column": {
      "latitude": "29.95957063099051",
      "longitude": "-90.06469148499534"
    }
  },
  {
    "service_request": "2026-1303197",
    "request_type": "Health Related Request",
    "request_reason": "Noise Ordinance Complaint",
    "date_created": "2026-07-23T21:11:11.000",
    "date_modified": "2026-07-23T21:11:13.000",
    "request_status": "Pending",
    "responsible_agency": "Health Department",
    "final_address": "800 Bourbon St, New Orleans, Louisiana, 70116",
    "address_councildis": "C",
    "status": "Pending",
    "rowid": "1303197",
    "final_x": "3682553.51528",
    "final_y": "533013.631428",
    "longitude": "-90.06469148499534",
    "latitude": "29.95957063099051",
    "geocoded_column": {
      "latitude": "29.95957063099051",
      "longitude": "-90.06469148499534"
    }
  },
  {
    "service_request": "2026-1303196",
    "request_type": "Health Related Request",
    "request_reason": "Noise Ordinance Complaint",
    "date_created": "2026-07-23T21:06:25.000",
    "date_modified": "2026-07-23T21:06:28.000",
    "request_status": "Pending",
    "responsible_agency": "Health Department",
    "final_address": "800 Bourbon St, New Orleans, Louisiana, 70116",
    "address_councildis": "C",
    "status": "Pending",
    "rowid": "1303196",
    "final_x": "3682553.51528",
    "final_y": "533013.631428",
    "longitude": "-90.06469148499534",
    "latitude": "29.95957063099051",
    "geocoded_column": {
      "latitude": "29.95957063099051",
      "longitude": "-90.06469148499534"
    }
  },
  {
    "service_request": "2026-1303195",
    "request_type": "Streetlights",
    "request_reason": "Streetlight Outage/Malfunction",
    "date_created": "2026-07-23T21:01:28.000",
    "date_modified": "2026-07-23T21:01:30.000",
    "request_status": "Pending",
    "responsible_agency": "Department of Public Works",
    "final_address": "8001 Fig St",
    "address_councildis": "B",
    "status": "Pending",
    "rowid": "1303195",
    "final_x": "3666658.75649",
    "final_y": "532921.957508",
    "longitude": "-90.11488672649722",
    "latitude": "29.959792877303094",
    "geocoded_column": {
      "latitude": "29.959792877303094",
      "longitude": "-90.11488672649722"
    }
  },
  {
    "service_request": "2026-1303194",
    "request_type": "Trash/Recycling",
    "request_reason": "Order Second Trash Cart",
    "date_created": "2026-07-23T20:54:38.000",
    "date_modified": "2026-07-23T20:54:40.000",
    "request_status": "Pending",
    "responsible_agency": "Department of Sanitation",
    "final_address": "4521 Baronne St",
    "address_councildis": "B",
    "status": "Assigned to Contractor",
    "contractor": "IV Waste",
    "rowid": "1303194",
    "final_x": "3670207.96564",
    "final_y": "521577.813817",
    "longitude": "-90.10406339430816",
    "latitude": "29.928495922035182",
    "geocoded_column": {
      "latitude": "29.928495922035182",
      "longitude": "-90.10406339430816"
    }
  },
  {
    "service_request": "2026-1303193",
    "request_type": "Street and Traffic Signs",
    "request_reason": "Stop Sign Missing or Damaged",
    "date_created": "2026-07-23T20:54:01.000",
    "date_modified": "2026-07-23T20:54:03.000",
    "request_status": "Pending",
    "responsible_agency": "Department of Public Works",
    "final_address": "1016 Annunciation St",
    "address_councildis": "B",
    "status": "Pending",
    "rowid": "1303193",
    "final_x": "3681706.88296",
    "final_y": "526431.03379",
    "longitude": "-90.06759456570985",
    "latitude": "29.941496455574875",
    "geocoded_column": {
      "latitude": "29.941496455574875",
      "longitude": "-90.06759456570985"
    }
  },
  {
    "service_request": "2026-1303192",
    "request_type": "Streetlights",
    "request_reason": "Streetlight Outage/Malfunction",
    "date_created": "2026-07-23T20:48:47.000",
    "date_modified": "2026-07-23T20:48:49.000",
    "request_status": "Pending",
    "responsible_agency": "Department of Public Works",
    "final_address": "4335 Sybil St",
    "address_councildis": "D",
    "status": "Pending",
    "rowid": "1303192",
    "final_x": "3679178.14331",
    "final_y": "548378.976658",
    "longitude": "-90.07481721480715",
    "latitude": "30.00192232228966",
    "geocoded_column": {
      "latitude": "30.00192232228966",
      "longitude": "-90.07481721480715"
    }
  },
  {
    "service_request": "2026-1303191",
    "request_type": "Trash/Recycling",
    "request_reason": "Missed Trash Pick-Up",
    "date_created": "2026-07-23T20:41:40.000",
    "date_modified": "2026-07-23T20:41:42.000",
    "request_status": "Pending",
    "responsible_agency": "Department of Sanitation",
    "final_address": "4433 General Pershing St",
    "address_councildis": "B",
    "status": "Assigned to Contractor",
    "contractor": "IV Waste",
    "rowid": "1303191",
    "final_x": "3669234.35463",
    "final_y": "529941.598529",
    "longitude": "-90.10685427687936",
    "latitude": "29.951522311553354",
    "geocoded_column": {
      "latitude": "29.951522311553354",
      "longitude": "-90.10685427687936"
    }
  },
  {
    "service_request": "2026-1303190",
    "request_type": "Property Maintenance",
    "request_reason": "Property Maintenance",
    "date_created": "2026-07-23T20:26:27.000",
    "date_modified": "2026-07-23T20:26:29.000",
    "request_status": "Pending",
    "responsible_agency": "Department of Code Enforcement",
    "final_address": "1440 Henriette Delille St",
    "address_councildis": "C",
    "status": "Pending",
    "rowid": "1303190",
    "final_x": "3682855.74997",
    "final_y": "535846.919687",
    "longitude": "-90.06363795936943",
    "latitude": "29.967351996512807",
    "geocoded_column": {
      "latitude": "29.967351996512807",
      "longitude": "-90.06363795936943"
    }
  },
  {
    "service_request": "2026-1303189",
    "request_type": "General Services",
    "request_reason": "General Service Request",
    "date_created": "2026-07-23T20:09:18.000",
    "date_modified": "2026-07-23T20:09:21.000",
    "request_status": "Pending",
    "responsible_agency": "Orleans Parish Communication District",
    "final_address": "6730 Vicksburg St",
    "address_councildis": "A",
    "status": "Pending",
    "rowid": "1303189",
    "final_x": "3669236.79841",
    "final_y": "552252.719318",
    "longitude": "-90.10609203682641",
    "latitude": "30.012870244133886",
    "geocoded_column": {
      "latitude": "30.012870244133886",
      "longitude": "-90.10609203682641"
    }
  },
  {
    "service_request": "2026-1303188",
    "request_type": "Roads and Streets",
    "request_reason": "Abandoned Service Cut",
    "date_created": "2026-07-23T19:54:29.000",
    "date_modified": "2026-07-23T19:54:32.000",
    "request_status": "Pending",
    "responsible_agency": "Department of Public Works",
    "final_address": "2218 Feliciana St",
    "address_councildis": "D",
    "status": "Pending",
    "rowid": "1303188",
    "final_x": "3689780.07145",
    "final_y": "540365.258507",
    "longitude": "-90.04161006252546",
    "latitude": "29.979563041248444",
    "geocoded_column": {
      "latitude": "29.979563041248444",
      "longitude": "-90.04161006252546"
    }
  },
  {
    "service_request": "2026-1303187",
    "request_type": "Abandoned Vehicles",
    "request_reason": "Abandoned/Junk Vehicles",
    "date_created": "2026-07-23T19:47:29.000",
    "date_modified": "2026-07-23T19:47:31.000",
    "request_status": "Pending",
    "responsible_agency": "Department of Public Works",
    "final_address": "206 N Tonti St",
    "address_councildis": "B",
    "status": "Pending",
    "rowid": "1303187",
    "final_x": "3676755.93646",
    "final_y": "534681.807174",
    "longitude": "-90.08294142861776",
    "latitude": "29.964332775888707",
    "geocoded_column": {
      "latitude": "29.964332775888707",
      "longitude": "-90.08294142861776"
    }
  },
  {
    "service_request": "2026-1303186",
    "request_type": "Drainage",
    "request_reason": "Ditch and Culvert Maintenance",
    "date_created": "2026-07-23T19:43:10.000",
    "date_modified": "2026-07-23T19:43:13.000",
    "request_status": "Pending",
    "responsible_agency": "Department of Public Works",
    "final_address": "3500 BLK Republic St",
    "address_councildis": "D",
    "status": "Pending",
    "rowid": "1303186",
    "final_x": "3680472.21612",
    "final_y": "545389.606187",
    "longitude": "-90.0708331508246",
    "latitude": "29.99366347040658",
    "geocoded_column": {
      "latitude": "29.99366347040658",
      "longitude": "-90.0708331508246"
    }
  },
  {
    "service_request": "2026-1303185",
    "request_type": "Utility Poles",
    "request_reason": "Wires Sagging/Hanging Low",
    "date_created": "2026-07-23T19:36:00.000",
    "date_modified": "2026-07-23T19:36:03.000",
    "request_status": "Pending",
    "responsible_agency": "Utility Company Collective",
    "final_address": "8534 Zimple St",
    "address_councildis": "A",
    "status": "Pending",
    "rowid": "1303185",
    "final_x": "3660424.16755",
    "final_y": "529242.506177",
    "longitude": "-90.13469581330762",
    "latitude": "29.94985639006489",
    "geocoded_column": {
      "latitude": "29.94985639006489",
      "longitude": "-90.13469581330762"
    }
  },
  {
    "service_request": "2026-1303184",
    "request_type": "Streetlights",
    "request_reason": "Streetlight Outage/Malfunction",
    "date_created": "2026-07-23T19:30:18.000",
    "date_modified": "2026-07-23T19:30:20.000",
    "request_status": "Pending",
    "responsible_agency": "Department of Public Works",
    "final_address": "4819 Cleveland Ave",
    "address_councildis": "A",
    "status": "Pending",
    "rowid": "1303184",
    "final_x": "3668410.81703",
    "final_y": "539917.978186",
    "longitude": "-90.10911806467556",
    "latitude": "29.978978254764844",
    "geocoded_column": {
      "latitude": "29.978978254764844",
      "longitude": "-90.10911806467556"
    }
  },
  {
    "service_request": "2026-1303183",
    "request_type": "Trash/Recycling",
    "request_reason": "Replace Trash Cart",
    "date_created": "2026-07-23T19:15:35.000",
    "date_modified": "2026-07-23T19:15:38.000",
    "request_status": "Pending",
    "responsible_agency": "Department of Sanitation",
    "final_address": "4335 Werner Dr",
    "address_councildis": "E",
    "status": "Assigned to Contractor",
    "contractor": "Waste Pro",
    "rowid": "1303183",
    "final_x": "3705068.73393",
    "final_y": "553148.663447",
    "longitude": "-89.99285038287084",
    "latitude": "30.014229835610866",
    "geocoded_column": {
      "latitude": "30.014229835610866",
      "longitude": "-89.99285038287084"
    }
  },
  {
    "service_request": "2026-1303182",
    "request_type": "Trash/Recycling",
    "request_reason": "Request a Large Item Pick Up",
    "date_created": "2026-07-23T19:04:58.000",
    "date_modified": "2026-07-23T19:05:00.000",
    "request_status": "Pending",
    "responsible_agency": "Department of Sanitation",
    "final_address": "146 26Th St",
    "address_councildis": "A",
    "status": "Assigned to Contractor",
    "contractor": "IV Waste",
    "rowid": "1303182",
    "final_x": "3665777.15104",
    "final_y": "549852.585876",
    "longitude": "-90.11710317511744",
    "latitude": "30.006372144945683",
    "geocoded_column": {
      "latitude": "30.006372144945683",
      "longitude": "-90.11710317511744"
    }
  },
  {
    "service_request": "2026-1303181",
    "request_type": "Trash/Recycling",
    "request_reason": "Request a Large Item Pick Up",
    "date_created": "2026-07-23T19:04:58.000",
    "date_modified": "2026-07-23T19:05:00.000",
    "request_status": "Pending",
    "responsible_agency": "Department of Sanitation",
    "final_address": "146 26Th St",
    "address_councildis": "A",
    "status": "Assigned to Contractor",
    "contractor": "IV Waste",
    "rowid": "1303181",
    "final_x": "3665777.15104",
    "final_y": "549852.585876",
    "longitude": "-90.11710317511744",
    "latitude": "30.006372144945683",
    "geocoded_column": {
      "latitude": "30.006372144945683",
      "longitude": "-90.11710317511744"
    }
  },
  {
    "service_request": "2026-1303180",
    "request_type": "Trash/Recycling",
    "request_reason": "Request a Large Item Pick Up",
    "date_created": "2026-07-23T19:03:59.000",
    "date_modified": "2026-07-23T19:04:02.000",
    "request_status": "Pending",
    "responsible_agency": "Department of Sanitation",
    "final_address": "6540 Coventry St",
    "address_councildis": "E",
    "status": "Assigned to Contractor",
    "contractor": "Waste Pro",
    "rowid": "1303180",
    "final_x": "3697636.74608",
    "final_y": "559042.346908",
    "longitude": "-90.0161175489098",
    "latitude": "30.030672194274807",
    "geocoded_column": {
      "latitude": "30.030672194274807",
      "longitude": "-90.0161175489098"
    }
  },
  {
    "service_request": "2026-1303179",
    "request_type": "Trash/Recycling",
    "request_reason": "Replace Recycling Cart",
    "date_created": "2026-07-23T19:03:14.000",
    "date_modified": "2026-07-23T19:03:16.000",
    "request_status": "Pending",
    "responsible_agency": "Department of Sanitation",
    "final_address": "4 Seaward Ct",
    "address_councildis": "C",
    "status": "Pending",
    "rowid": "1303179",
    "final_x": "3704379.69233",
    "final_y": "522269.369274",
    "longitude": "-89.99616592695854",
    "latitude": "29.92934520614904",
    "geocoded_column": {
      "latitude": "29.92934520614904",
      "longitude": "-89.99616592695854"
    }
  },
  {
    "service_request": "2026-1303178",
    "request_type": "Mosquito, Termite & Rodent Control",
    "request_reason": "Rodent Complaint (Mice & Rats)",
    "date_created": "2026-07-23T18:49:39.000",
    "date_modified": "2026-07-23T18:49:41.000",
    "request_status": "Pending",
    "responsible_agency": "Mosquito, Termite & Rodent Control Board",
    "final_address": "5762 Pasteur Blvd",
    "address_councildis": "D",
    "status": "Pending",
    "rowid": "1303178",
    "final_x": "3682664.0054",
    "final_y": "554565.561688",
    "longitude": "-90.06358843151075",
    "latitude": "30.018827454831058",
    "geocoded_column": {
      "latitude": "30.018827454831058",
      "longitude": "-90.06358843151075"
    }
  },
  {
    "service_request": "2026-1303177",
    "request_type": "Trash/Recycling",
    "request_reason": "Order Trash Cart",
    "date_created": "2026-07-23T18:48:53.000",
    "date_modified": "2026-07-23T18:48:55.000",
    "request_status": "Pending",
    "responsible_agency": "Department of Sanitation",
    "final_address": "1942 Mediamolle Dr",
    "address_councildis": "C",
    "status": "Assigned to Contractor",
    "contractor": "Richards Disposal",
    "rowid": "1303177",
    "final_x": "3699304.79639",
    "final_y": "524029.549116",
    "longitude": "-90.01212225322135",
    "latitude": "29.93434695992208",
    "geocoded_column": {
      "latitude": "29.93434695992208",
      "longitude": "-90.01212225322135"
    }
  },
  {
    "service_request": "2026-1303176",
    "request_type": "General Services",
    "request_reason": "General Service Request",
    "date_created": "2026-07-23T18:43:16.000",
    "date_modified": "2026-07-23T18:43:19.000",
    "request_status": "Pending",
    "responsible_agency": "Orleans Parish Communication District",
    "final_address": "1443 Murl St",
    "address_councildis": "C",
    "status": "Pending",
    "rowid": "1303176",
    "final_x": "3695348.2328",
    "final_y": "526131.468286",
    "longitude": "-90.02453715313985",
    "latitude": "29.940251364392925",
    "geocoded_column": {
      "latitude": "29.940251364392925",
      "longitude": "-90.02453715313985"
    }
  },
  {
    "service_request": "2026-1303175",
    "request_type": "Trash/Recycling",
    "request_reason": "Repair Trash Cart",
    "date_created": "2026-07-23T18:31:01.000",
    "date_modified": "2026-07-23T18:31:03.000",
    "request_status": "Pending",
    "responsible_agency": "Department of Sanitation",
    "final_address": "8724 Birch St",
    "address_councildis": "A",
    "status": "Assigned to Contractor",
    "contractor": "IV Waste",
    "rowid": "1303175",
    "final_x": "3661181.19648",
    "final_y": "530936.727298",
    "longitude": "-90.13224943733887",
    "latitude": "29.954493157255364",
    "geocoded_column": {
      "latitude": "29.954493157255364",
      "longitude": "-90.13224943733887"
    }
  },
  {
    "service_request": "2026-1303173",
    "request_type": "Trash/Recycling",
    "request_reason": "Request a Large Item Pick Up",
    "date_created": "2026-07-23T18:19:49.000",
    "date_modified": "2026-07-23T18:19:52.000",
    "request_status": "Pending",
    "responsible_agency": "Department of Sanitation",
    "final_address": "1622 Nie Prkwy",
    "address_councildis": "C",
    "status": "Assigned to Contractor",
    "contractor": "Richards Disposal",
    "rowid": "1303173",
    "final_x": "3701271.35332",
    "final_y": "524920.133372",
    "longitude": "-90.00588136125636",
    "latitude": "29.93673326004419",
    "geocoded_column": {
      "latitude": "29.93673326004419",
      "longitude": "-90.00588136125636"
    }
  },
  {
    "service_request": "2026-1303172",
    "request_type": "Parks & Grass Service",
    "request_reason": "Request Grass Cutting Service (City Owned Property)",
    "date_created": "2026-07-23T18:16:24.000",
    "date_modified": "2026-07-23T18:16:25.000",
    "request_status": "Pending",
    "responsible_agency": "Department of Parks & Parkways",
    "final_address": "4700 BLK Painters St",
    "address_councildis": "D",
    "status": "Pending",
    "rowid": "1303172",
    "final_x": "3686205.59278",
    "final_y": "550568.726734",
    "longitude": "-90.05253945541193",
    "latitude": "30.007729237425398",
    "geocoded_column": {
      "latitude": "30.007729237425398",
      "longitude": "-90.05253945541193"
    }
  },
  {
    "service_request": "2026-1303171",
    "request_type": "Mosquito, Termite & Rodent Control",
    "request_reason": "Non-Rodent Complaint (Possums & Snakes)",
    "date_created": "2026-07-23T18:13:35.000",
    "date_modified": "2026-07-23T18:13:38.000",
    "request_status": "Pending",
    "responsible_agency": "Mosquito, Termite & Rodent Control Board",
    "final_address": "629 S Dupre St",
    "address_councildis": "B",
    "status": "Pending",
    "rowid": "1303171",
    "final_x": "3673251.45531",
    "final_y": "534017.090629",
    "longitude": "-90.09403102135644",
    "latitude": "29.962609716721616",
    "geocoded_column": {
      "latitude": "29.962609716721616",
      "longitude": "-90.09403102135644"
    }
  },
  {
    "service_request": "2026-1303170",
    "request_type": "Tree Service",
    "request_reason": "Street or Sidewalk Blocked",
    "date_created": "2026-07-23T18:13:35.000",
    "date_modified": "2026-07-23T18:13:38.000",
    "request_status": "Pending",
    "responsible_agency": "Department of Parks & Parkways",
    "final_address": "4638 Willow St",
    "address_councildis": "B",
    "status": "Pending",
    "rowid": "1303170",
    "final_x": "3669281.421",
    "final_y": "525259.220989",
    "longitude": "-90.10686391407584",
    "latitude": "29.938645910117852",
    "geocoded_column": {
      "latitude": "29.938645910117852",
      "longitude": "-90.10686391407584"
    }
  },
  {
    "service_request": "2026-1303169",
    "request_type": "Trash/Recycling",
    "request_reason": "Replace Recycling Cart",
    "date_created": "2026-07-23T18:07:13.000",
    "date_modified": "2026-07-23T18:07:16.000",
    "request_status": "Pending",
    "responsible_agency": "Department of Sanitation",
    "final_address": "6331 Caldwell Dr",
    "address_councildis": "D",
    "status": "Pending",
    "rowid": "1303169",
    "final_x": "3679082.49352",
    "final_y": "556963.875866",
    "longitude": "-90.07482150866606",
    "latitude": "30.02553058576362",
    "geocoded_column": {
      "latitude": "30.02553058576362",
      "longitude": "-90.07482150866606"
    }
  },
  {
    "service_request": "2026-1303168",
    "request_type": "Trash/Recycling",
    "request_reason": "Repair Trash Cart",
    "date_created": "2026-07-23T17:49:51.000",
    "date_modified": "2026-07-23T17:49:53.000",
    "request_status": "Pending",
    "responsible_agency": "Department of Sanitation",
    "final_address": "1418 Eagle St",
    "address_councildis": "A",
    "status": "Assigned to Contractor",
    "contractor": "IV Waste",
    "rowid": "1303168",
    "final_x": "3660696.46035",
    "final_y": "530729.647234",
    "longitude": "-90.13378689774633",
    "latitude": "29.95393771601917",
    "geocoded_column": {
      "latitude": "29.95393771601917",
      "longitude": "-90.13378689774633"
    }
  },
  {
    "service_request": "2026-1303167",
    "request_type": "Roads and Streets",
    "request_reason": "Pothole",
    "date_created": "2026-07-23T17:48:35.000",
    "date_modified": "2026-07-23T17:48:38.000",
    "request_status": "Pending",
    "responsible_agency": "Department of Public Works",
    "final_address": "6554 Argonne Blvd",
    "address_councildis": "A",
    "status": "Pending",
    "rowid": "1303167",
    "final_x": "3670451.92199",
    "final_y": "551062.737813",
    "longitude": "-90.10229328935854",
    "latitude": "30.009562373502806",
    "geocoded_column": {
      "latitude": "30.009562373502806",
      "longitude": "-90.10229328935854"
    }
  },
  {
    "service_request": "2026-1303166",
    "request_type": "Trash/Recycling",
    "request_reason": "Replace Trash Cart",
    "date_created": "2026-07-23T17:44:15.000",
    "date_modified": "2026-07-23T17:44:17.000",
    "request_status": "Pending",
    "responsible_agency": "Department of Sanitation",
    "final_address": "2617 Milan St",
    "address_councildis": "B",
    "status": "Assigned to Contractor",
    "contractor": "IV Waste",
    "rowid": "1303166",
    "final_x": "3671279.51329",
    "final_y": "524640.339772",
    "longitude": "-90.10057672908087",
    "latitude": "29.936885229046926",
    "geocoded_column": {
      "latitude": "29.936885229046926",
      "longitude": "-90.10057672908087"
    }
  },
  {
    "service_request": "2026-1303165",
    "request_type": "General Services",
    "request_reason": "General Service Request",
    "date_created": "2026-07-23T17:43:04.000",
    "date_modified": "2026-07-23T17:43:05.000",
    "request_status": "Pending",
    "responsible_agency": "Orleans Parish Communication District",
    "final_address": "90 Dove St",
    "address_councildis": "D",
    "status": "Pending",
    "rowid": "1303165",
    "final_x": "3673417.43841",
    "final_y": "555582.339481",
    "longitude": "-90.09276956998909",
    "latitude": "30.021901727183486",
    "geocoded_column": {
      "latitude": "30.021901727183486",
      "longitude": "-90.09276956998909"
    }
  },
  {
    "service_request": "2026-1303164",
    "request_type": "Trash/Recycling",
    "request_reason": "Replace Recycling Cart",
    "date_created": "2026-07-23T17:41:53.000",
    "date_modified": "2026-07-23T17:41:55.000",
    "request_status": "Pending",
    "responsible_agency": "Department of Sanitation",
    "final_address": "3042 Ursulines Ave",
    "address_councildis": "A",
    "status": "Pending",
    "rowid": "1303164",
    "final_x": "3676176.40808",
    "final_y": "539181.831434",
    "longitude": "-90.08461666835863",
    "latitude": "29.97672368657523",
    "geocoded_column": {
      "latitude": "29.97672368657523",
      "longitude": "-90.08461666835863"
    }
  },
  {
    "service_request": "2026-1303163",
    "request_type": "Trash/Recycling",
    "request_reason": "Replace Recycling Cart",
    "date_created": "2026-07-23T17:41:53.000",
    "date_modified": "2026-07-23T17:41:55.000",
    "request_status": "Pending",
    "responsible_agency": "Department of Sanitation",
    "final_address": "3042 Ursulines Ave",
    "address_councildis": "A",
    "status": "Pending",
    "rowid": "1303163",
    "final_x": "3676176.40808",
    "final_y": "539181.831434",
    "longitude": "-90.08461666835863",
    "latitude": "29.97672368657523",
    "geocoded_column": {
      "latitude": "29.97672368657523",
      "longitude": "-90.08461666835863"
    }
  },
  {
    "service_request": "2026-1303162",
    "request_type": "Trash/Recycling",
    "request_reason": "Replace Recycling Cart",
    "date_created": "2026-07-23T17:41:53.000",
    "date_modified": "2026-07-23T17:41:55.000",
    "request_status": "Pending",
    "responsible_agency": "Department of Sanitation",
    "final_address": "3042 Ursulines Ave",
    "address_councildis": "A",
    "status": "Pending",
    "rowid": "1303162",
    "final_x": "3676176.40808",
    "final_y": "539181.831434",
    "longitude": "-90.08461666835863",
    "latitude": "29.97672368657523",
    "geocoded_column": {
      "latitude": "29.97672368657523",
      "longitude": "-90.08461666835863"
    }
  },
  {
    "service_request": "2026-1303161",
    "request_type": "Trash/Recycling",
    "request_reason": "Request a Large Item Pick Up",
    "date_created": "2026-07-23T17:34:36.000",
    "date_modified": "2026-07-23T17:34:39.000",
    "request_status": "Pending",
    "responsible_agency": "Department of Sanitation",
    "final_address": "2927 Johnny Jackson Jr Blvd",
    "address_councildis": "D",
    "status": "Assigned to Contractor",
    "contractor": "IV Waste",
    "rowid": "1303161",
    "final_x": "3691472.59107",
    "final_y": "543224.557518",
    "longitude": "-90.0361621910732",
    "latitude": "29.987372516290684",
    "geocoded_column": {
      "latitude": "29.987372516290684",
      "longitude": "-90.0361621910732"
    }
  },
  {
    "service_request": "2026-1303160",
    "request_type": "Trash/Recycling",
    "request_reason": "Request a Large Item Pick Up",
    "date_created": "2026-07-23T17:27:47.000",
    "date_modified": "2026-07-23T17:27:49.000",
    "request_status": "Pending",
    "responsible_agency": "Department of Sanitation",
    "final_address": "1623 N Tonti St",
    "address_councildis": "D",
    "status": "Assigned to Contractor",
    "contractor": "IV Waste",
    "rowid": "1303160",
    "final_x": "3680311.30165",
    "final_y": "539473.918858",
    "longitude": "-90.07154723138889",
    "latitude": "29.97740227474914",
    "geocoded_column": {
      "latitude": "29.97740227474914",
      "longitude": "-90.07154723138889"
    }
  },
  {
    "service_request": "2026-1303159",
    "request_type": "General Services",
    "request_reason": "General Service Request",
    "date_created": "2026-07-23T17:26:13.000",
    "date_modified": "2026-07-23T17:26:16.000",
    "request_status": "Pending",
    "responsible_agency": "Orleans Parish Communication District",
    "final_address": "6501 E Hermes St",
    "address_councildis": "D",
    "status": "Pending",
    "rowid": "1303159",
    "final_x": "3698071.24573",
    "final_y": "555337.169817",
    "longitude": "-90.01487925129234",
    "latitude": "30.020470632187674",
    "geocoded_column": {
      "latitude": "30.020470632187674",
      "longitude": "-90.01487925129234"
    }
  },
  {
    "service_request": "2026-1303158",
    "request_type": "Drainage",
    "request_reason": "Catch Basin Not Draining",
    "date_created": "2026-07-23T17:18:49.000",
    "date_modified": "2026-07-23T17:18:50.000",
    "request_status": "Pending",
    "responsible_agency": "Sewerage & Water Board",
    "final_address": "8700 BLK Pritchard Pl",
    "address_councildis": "A",
    "status": "Pending",
    "rowid": "1303158",
    "final_x": "3664360.1883",
    "final_y": "534431.095296",
    "longitude": "-90.12209474649097",
    "latitude": "29.96400951952471",
    "geocoded_column": {
      "latitude": "29.96400951952471",
      "longitude": "-90.12209474649097"
    }
  },
  {
    "service_request": "2026-1303157",
    "request_type": "Drainage",
    "request_reason": "Catch Basin Not Draining",
    "date_created": "2026-07-23T17:18:16.000",
    "date_modified": "2026-07-23T17:18:18.000",
    "request_status": "Pending",
    "responsible_agency": "Sewerage & Water Board",
    "final_address": "8700 BLK Pritchard Pl",
    "address_councildis": "A",
    "status": "Pending",
    "rowid": "1303157",
    "final_x": "3664360.1883",
    "final_y": "534431.095296",
    "longitude": "-90.12209474649097",
    "latitude": "29.96400951952471",
    "geocoded_column": {
      "latitude": "29.96400951952471",
      "longitude": "-90.12209474649097"
    }
  },
  {
    "service_request": "2026-1303156",
    "request_type": "Drainage",
    "request_reason": "Catch Basin Not Draining",
    "date_created": "2026-07-23T17:17:36.000",
    "date_modified": "2026-07-23T17:17:38.000",
    "request_status": "Pending",
    "responsible_agency": "Sewerage & Water Board",
    "final_address": "8700 BLK Pritchard Pl",
    "address_councildis": "A",
    "status": "Pending",
    "rowid": "1303156",
    "final_x": "3664360.1883",
    "final_y": "534431.095296",
    "longitude": "-90.12209474649097",
    "latitude": "29.96400951952471",
    "geocoded_column": {
      "latitude": "29.96400951952471",
      "longitude": "-90.12209474649097"
    }
  },
  {
    "service_request": "2026-1303155",
    "request_type": "Drainage",
    "request_reason": "Catch Basin Not Draining",
    "date_created": "2026-07-23T17:16:30.000",
    "date_modified": "2026-07-23T17:16:33.000",
    "request_status": "Pending",
    "responsible_agency": "Sewerage & Water Board",
    "final_address": "8700 BLK Pritchard Pl",
    "address_councildis": "A",
    "status": "Pending",
    "rowid": "1303155",
    "final_x": "3664360.1883",
    "final_y": "534431.095296",
    "longitude": "-90.12209474649097",
    "latitude": "29.96400951952471",
    "geocoded_column": {
      "latitude": "29.96400951952471",
      "longitude": "-90.12209474649097"
    }
  },
  {
    "service_request": "2026-1303154",
    "request_type": "Tree Service",
    "request_reason": "Street or Sidewalk Blocked",
    "date_created": "2026-07-23T17:06:10.000",
    "date_modified": "2026-07-23T17:06:13.000",
    "request_status": "Pending",
    "responsible_agency": "Department of Parks & Parkways",
    "final_address": "7330 Martin Dr",
    "address_councildis": "E",
    "status": "Pending",
    "rowid": "1303154",
    "final_x": "3698551.96202",
    "final_y": "559081.01238",
    "longitude": "-90.01322405759704",
    "latitude": "30.0307495489085",
    "geocoded_column": {
      "latitude": "30.0307495489085",
      "longitude": "-90.01322405759704"
    }
  },
  {
    "service_request": "2026-1303153",
    "request_type": "Trash/Recycling",
    "request_reason": "Request a Large Item Pick Up",
    "date_created": "2026-07-23T17:02:57.000",
    "date_modified": "2026-07-23T17:02:59.000",
    "request_status": "Pending",
    "responsible_agency": "Department of Sanitation",
    "final_address": "219 N Scott St",
    "address_councildis": "A",
    "status": "Assigned to Contractor",
    "contractor": "IV Waste",
    "rowid": "1303153",
    "final_x": "3672077.38983",
    "final_y": "538338.055561",
    "longitude": "-90.09759141344554",
    "latitude": "29.974525780585225",
    "geocoded_column": {
      "latitude": "29.974525780585225",
      "longitude": "-90.09759141344554"
    }
  },
  {
    "service_request": "2026-1303152",
    "request_type": "Street and Traffic Signs",
    "request_reason": "Stop Sign Missing or Damaged",
    "date_created": "2026-07-23T17:00:08.000",
    "date_modified": "2026-07-23T17:00:10.000",
    "request_status": "Pending",
    "responsible_agency": "Department of Public Works",
    "final_address": "3031 Chippewa St",
    "address_councildis": "B",
    "status": "Pending",
    "rowid": "1303152",
    "final_x": "3676963.07765",
    "final_y": "519014.525047",
    "longitude": "-90.08282724658535",
    "latitude": "29.9212467121667",
    "geocoded_column": {
      "latitude": "29.9212467121667",
      "longitude": "-90.08282724658535"
    }
  },
  {
    "service_request": "2026-1303151",
    "request_type": "Trash/Recycling",
    "request_reason": "Request a Large Item Pick Up",
    "date_created": "2026-07-23T16:55:35.000",
    "date_modified": "2026-07-23T16:55:39.000",
    "request_status": "Pending",
    "responsible_agency": "Department of Sanitation",
    "final_address": "8419 Beechwood Ct",
    "address_councildis": "E",
    "status": "Assigned to Contractor",
    "contractor": "Waste Pro",
    "rowid": "1303151",
    "final_x": "3704155.51671",
    "final_y": "560668.513054",
    "longitude": "-89.99545826237454",
    "latitude": "30.03493585494704",
    "geocoded_column": {
      "latitude": "30.03493585494704",
      "longitude": "-89.99545826237454"
    }
  },
  {
    "service_request": "2026-1303150",
    "request_type": "Trash/Recycling",
    "request_reason": "Repair Trash Cart",
    "date_created": "2026-07-23T16:54:32.000",
    "date_modified": "2026-07-23T16:54:34.000",
    "request_status": "Pending",
    "responsible_agency": "Department of Sanitation",
    "final_address": "3334 Delachaise St",
    "address_councildis": "B",
    "status": "Assigned to Contractor",
    "contractor": "IV Waste",
    "rowid": "1303150",
    "final_x": "3671446.64468",
    "final_y": "527333.505343",
    "longitude": "-90.09995756545968",
    "latitude": "29.944285613451715",
    "geocoded_column": {
      "latitude": "29.944285613451715",
      "longitude": "-90.09995756545968"
    }
  },
  {
    "service_request": "2026-1303149",
    "request_type": "Trash/Recycling",
    "request_reason": "Repair Trash Cart",
    "date_created": "2026-07-23T16:52:49.000",
    "date_modified": "2026-07-23T16:52:57.000",
    "request_status": "Pending",
    "responsible_agency": "Department of Sanitation",
    "final_address": "3815 Nashville Ave",
    "address_councildis": "B",
    "status": "Assigned to Contractor",
    "contractor": "IV Waste",
    "rowid": "1303149",
    "final_x": "3668589.50964",
    "final_y": "529533.329921",
    "longitude": "-90.10890416584348",
    "latitude": "29.95041866943906",
    "geocoded_column": {
      "latitude": "29.95041866943906",
      "longitude": "-90.10890416584348"
    }
  },
  {
    "service_request": "2026-1303148",
    "request_type": "Trash/Recycling",
    "request_reason": "Request a Large Item Pick Up",
    "date_created": "2026-07-23T16:45:02.000",
    "date_modified": "2026-07-23T16:45:04.000",
    "request_status": "Pending",
    "responsible_agency": "Department of Sanitation",
    "final_address": "7400 Camberley Dr",
    "address_councildis": "E",
    "status": "Assigned to Contractor",
    "contractor": "Waste Pro",
    "rowid": "1303148",
    "final_x": "3712809.55864",
    "final_y": "565396.878498",
    "longitude": "-89.96793237978194",
    "latitude": "30.047656285523033",
    "geocoded_column": {
      "latitude": "30.047656285523033",
      "longitude": "-89.96793237978194"
    }
  },
  {
    "service_request": "2026-1303147",
    "request_type": "Trash/Recycling",
    "request_reason": "Request a Large Item Pick Up",
    "date_created": "2026-07-23T16:37:00.000",
    "date_modified": "2026-07-23T16:37:02.000",
    "request_status": "Pending",
    "responsible_agency": "Department of Sanitation",
    "final_address": "1520 Gallier St",
    "address_councildis": "D",
    "status": "Assigned to Contractor",
    "contractor": "IV Waste",
    "rowid": "1303147",
    "final_x": "3690826.25116",
    "final_y": "537317.129736",
    "longitude": "-90.03841461600602",
    "latitude": "29.971149298317208",
    "geocoded_column": {
      "latitude": "29.971149298317208",
      "longitude": "-90.03841461600602"
    }
  },
  {
    "service_request": "2026-1303144",
    "request_type": "Trash/Recycling",
    "request_reason": "Return Trash Cart",
    "date_created": "2026-07-23T16:36:44.000",
    "date_modified": "2026-07-23T16:36:46.000",
    "request_status": "Pending",
    "responsible_agency": "Department of Sanitation",
    "final_address": "43 Eugenie Ct",
    "address_councildis": "C",
    "status": "Assigned to Contractor",
    "contractor": "Richards Disposal",
    "rowid": "1303144",
    "final_x": "3700363.48605",
    "final_y": "511250.309168",
    "longitude": "-90.00924621699602",
    "latitude": "29.899174800195333",
    "geocoded_column": {
      "latitude": "29.899174800195333",
      "longitude": "-90.00924621699602"
    }
  },
  {
    "service_request": "2026-1303145",
    "request_type": "Trash/Recycling",
    "request_reason": "Return Trash Cart",
    "date_created": "2026-07-23T16:36:44.000",
    "date_modified": "2026-07-23T16:38:28.000",
    "case_close_date": "2026-07-23T11:38:26.000",
    "request_status": "Closed",
    "responsible_agency": "Department of Sanitation",
    "final_address": "43 Eugenie Ct",
    "address_councildis": "C",
    "status": "Duplicate Request",
    "contractor": "Richards Disposal",
    "rowid": "1303145",
    "final_x": "3700363.48605",
    "final_y": "511250.309168",
    "longitude": "-90.00924621699602",
    "latitude": "29.899174800195333",
    "geocoded_column": {
      "latitude": "29.899174800195333",
      "longitude": "-90.00924621699602"
    }
  },
  {
    "service_request": "2026-1303146",
    "request_type": "Trash/Recycling",
    "request_reason": "Return Trash Cart",
    "date_created": "2026-07-23T16:36:44.000",
    "date_modified": "2026-07-23T16:38:01.000",
    "case_close_date": "2026-07-23T11:38:00.000",
    "request_status": "Closed",
    "responsible_agency": "Department of Sanitation",
    "final_address": "43 Eugenie Ct",
    "address_councildis": "C",
    "status": "Duplicate Request",
    "contractor": "Richards Disposal",
    "rowid": "1303146",
    "final_x": "3700363.48605",
    "final_y": "511250.309168",
    "longitude": "-90.00924621699602",
    "latitude": "29.899174800195333",
    "geocoded_column": {
      "latitude": "29.899174800195333",
      "longitude": "-90.00924621699602"
    }
  },
  {
    "service_request": "2026-1303143",
    "request_type": "Parks & Grass Service",
    "request_reason": "Park Maintenance/Clean Up",
    "date_created": "2026-07-23T16:31:15.000",
    "date_modified": "2026-07-23T16:31:17.000",
    "request_status": "Pending",
    "responsible_agency": "Department of Parks & Parkways",
    "final_address": "1300 BLK Saint Roch Ave",
    "address_councildis": "C",
    "status": "Pending",
    "rowid": "1303143",
    "final_x": "3686456.11983",
    "final_y": "537347.087167",
    "longitude": "-90.05221499359936",
    "latitude": "29.971366744338408",
    "geocoded_column": {
      "latitude": "29.971366744338408",
      "longitude": "-90.05221499359936"
    }
  },
  {
    "service_request": "2026-1303142",
    "request_type": "Traffic Signals",
    "request_reason": "Traffic Signal Malfunctioning or Damaged",
    "date_created": "2026-07-23T16:29:50.000",
    "date_modified": "2026-07-23T16:29:52.000",
    "request_status": "Pending",
    "responsible_agency": "Department of Public Works",
    "final_address": "CITY PARK AVE & I 10 E & METAIRIE RD",
    "address_councildis": "A",
    "status": "Pending",
    "rowid": "1303142",
    "final_x": "3666908.3",
    "final_y": "540680.08",
    "longitude": "-90.11383798908375",
    "latitude": "29.981117832474713",
    "geocoded_column": {
      "latitude": "29.981117832474713",
      "longitude": "-90.11383798908375"
    }
  },
  {
    "service_request": "2026-1303141",
    "request_type": "Trash/Recycling",
    "request_reason": "Request a Large Item Pick Up",
    "date_created": "2026-07-23T16:24:39.000",
    "date_modified": "2026-07-23T16:24:41.000",
    "request_status": "Pending",
    "responsible_agency": "Department of Sanitation",
    "final_address": "1124 Barracks St",
    "address_councildis": "C",
    "status": "Assigned to Contractor",
    "contractor": "IV Waste",
    "rowid": "1303141",
    "final_x": "3682497.45672",
    "final_y": "535225.95143",
    "longitude": "-90.06479116395045",
    "latitude": "29.965655459402473",
    "geocoded_column": {
      "latitude": "29.965655459402473",
      "longitude": "-90.06479116395045"
    }
  },
  {
    "service_request": "2026-1303140",
    "request_type": "Trash/Recycling",
    "request_reason": "Replace Trash Cart",
    "date_created": "2026-07-23T16:23:41.000",
    "date_modified": "2026-07-23T16:24:22.000",
    "request_status": "Pending",
    "responsible_agency": "Department of Sanitation",
    "final_address": "2735 Allen St",
    "address_councildis": "D",
    "status": "Pending",
    "rowid": "1303140",
    "final_x": "3682323.17442",
    "final_y": "542316.707085",
    "longitude": "-90.06509369735902",
    "latitude": "29.985157877010337",
    "geocoded_column": {
      "latitude": "29.985157877010337",
      "longitude": "-90.06509369735902"
    }
  },
  {
    "service_request": "2026-1303139",
    "request_type": "Healthy Homes",
    "request_reason": "Healthy Homes",
    "date_created": "2026-07-23T16:14:17.000",
    "date_modified": "2026-07-23T16:14:19.000",
    "request_status": "Pending",
    "responsible_agency": "Department of Code Enforcement",
    "final_address": "2931 St Philip St Apt 1B",
    "address_councildis": "A",
    "status": "Pending",
    "rowid": "1303139",
    "final_x": "3676465.49333",
    "final_y": "538635.251081",
    "longitude": "-90.08372247234277",
    "latitude": "29.975212112353645",
    "geocoded_column": {
      "latitude": "29.975212112353645",
      "longitude": "-90.08372247234277"
    }
  },
  {
    "service_request": "2026-1303138",
    "request_type": "Trash/Recycling",
    "request_reason": "Return Trash Cart",
    "date_created": "2026-07-23T16:10:38.000",
    "date_modified": "2026-07-23T16:10:40.000",
    "request_status": "Pending",
    "responsible_agency": "Department of Sanitation",
    "final_address": "4617 Donna Dr",
    "address_councildis": "E",
    "status": "Assigned to Contractor",
    "contractor": "Waste Pro",
    "rowid": "1303138",
    "final_x": "3711123.84101",
    "final_y": "555180.902041",
    "longitude": "-89.97364327639094",
    "latitude": "30.01962153442217",
    "geocoded_column": {
      "latitude": "30.01962153442217",
      "longitude": "-89.97364327639094"
    }
  },
  {
    "service_request": "2026-1303137",
    "request_type": "Abandoned Vehicles",
    "request_reason": "Abandoned/Junk Vehicles",
    "date_created": "2026-07-23T16:10:13.000",
    "date_modified": "2026-07-23T16:10:15.000",
    "request_status": "Pending",
    "responsible_agency": "Department of Public Works",
    "final_address": "LOUISA ST & I 10 E ONRAMP",
    "address_councildis": "D",
    "status": "Pending",
    "rowid": "1303137",
    "final_x": "3691658.9",
    "final_y": "548799.38",
    "longitude": "-90.03537424293832",
    "latitude": "30.002695450865087",
    "geocoded_column": {
      "latitude": "30.002695450865087",
      "longitude": "-90.03537424293832"
    }
  },
  {
    "service_request": "2026-1303136",
    "request_type": "Trash/Recycling",
    "request_reason": "Repair Trash Cart",
    "date_created": "2026-07-23T16:09:47.000",
    "date_modified": "2026-07-23T16:09:48.000",
    "request_status": "Pending",
    "responsible_agency": "Department of Sanitation",
    "final_address": "4438 Carondelet St",
    "address_councildis": "B",
    "status": "Assigned to Contractor",
    "contractor": "IV Waste",
    "rowid": "1303136",
    "final_x": "3670471.85089",
    "final_y": "521156.633273",
    "longitude": "-90.10324463626748",
    "latitude": "29.92733002326596",
    "geocoded_column": {
      "latitude": "29.92733002326596",
      "longitude": "-90.10324463626748"
    }
  },
  {
    "service_request": "2026-1303135",
    "request_type": "Trash/Recycling",
    "request_reason": "Repair Recycling Cart",
    "date_created": "2026-07-23T16:07:30.000",
    "date_modified": "2026-07-23T16:07:32.000",
    "request_status": "Pending",
    "responsible_agency": "Department of Sanitation",
    "final_address": "4438 Carondelet St",
    "address_councildis": "B",
    "status": "Pending",
    "rowid": "1303135",
    "final_x": "3670471.85089",
    "final_y": "521156.633273",
    "longitude": "-90.10324463626748",
    "latitude": "29.92733002326596",
    "geocoded_column": {
      "latitude": "29.92733002326596",
      "longitude": "-90.10324463626748"
    }
  },
  {
    "service_request": "2026-1303134",
    "request_type": "Parks & Grass Service",
    "request_reason": "Request Grass Cutting Service (City Owned Property)",
    "date_created": "2026-07-23T16:03:01.000",
    "date_modified": "2026-07-23T16:03:03.000",
    "request_status": "Pending",
    "responsible_agency": "Department of Parks & Parkways",
    "final_address": "5439 Franklin Ave",
    "address_councildis": "D",
    "status": "Pending",
    "rowid": "1303134",
    "final_x": "3686669.71727",
    "final_y": "553219.542231",
    "longitude": "-90.05097942883624",
    "latitude": "30.015003736452822",
    "geocoded_column": {
      "latitude": "30.015003736452822",
      "longitude": "-90.05097942883624"
    }
  },
  {
    "service_request": "2026-1303133",
    "request_type": "Trash/Recycling",
    "request_reason": "MIssed Recycling Pick-Up",
    "date_created": "2026-07-23T15:57:06.000",
    "date_modified": "2026-07-23T15:57:08.000",
    "request_status": "Pending",
    "responsible_agency": "Department of Sanitation",
    "final_address": "6112 Todd Pl",
    "address_councildis": "E",
    "status": "Assigned to Contractor",
    "contractor": "Waste Pro",
    "rowid": "1303133",
    "final_x": "3699440.80426",
    "final_y": "532646.273476",
    "longitude": "-90.011379046051",
    "latitude": "29.958035615330015",
    "geocoded_column": {
      "latitude": "29.958035615330015",
      "longitude": "-90.011379046051"
    }
  },
  {
    "service_request": "2026-1303132",
    "request_type": "Trash/Recycling",
    "request_reason": "Order Trash Cart",
    "date_created": "2026-07-23T15:54:28.000",
    "date_modified": "2026-07-23T16:05:21.000",
    "request_status": "Pending",
    "responsible_agency": "Department of Sanitation",
    "final_address": "3315 Clermont Dr",
    "address_councildis": "D",
    "status": "Assigned to Contractor",
    "contractor": "IV Waste",
    "rowid": "1303132",
    "final_x": "3686357.87266",
    "final_y": "545072.700879",
    "longitude": "-90.05225248880181",
    "latitude": "29.99261246999853",
    "geocoded_column": {
      "latitude": "29.99261246999853",
      "longitude": "-90.05225248880181"
    }
  },
  {
    "service_request": "2026-1303131",
    "request_type": "Trash/Recycling",
    "request_reason": "Repair Trash Cart",
    "date_created": "2026-07-23T15:54:19.000",
    "date_modified": "2026-07-23T15:54:21.000",
    "request_status": "Pending",
    "responsible_agency": "Department of Sanitation",
    "final_address": "1326 Camp St",
    "address_councildis": "B",
    "status": "Assigned to Contractor",
    "contractor": "IV Waste",
    "rowid": "1303131",
    "final_x": "3680132.03496",
    "final_y": "525103.840765",
    "longitude": "-90.07261277286818",
    "latitude": "29.937894855657298",
    "geocoded_column": {
      "latitude": "29.937894855657298",
      "longitude": "-90.07261277286818"
    }
  },
  {
    "service_request": "2026-1303130",
    "request_type": "Trash/Recycling",
    "request_reason": "Repair Recycling Cart",
    "date_created": "2026-07-23T15:52:44.000",
    "date_modified": "2026-07-23T15:52:46.000",
    "request_status": "Pending",
    "responsible_agency": "Department of Sanitation",
    "final_address": "1326 Camp St",
    "address_councildis": "B",
    "status": "Pending",
    "rowid": "1303130",
    "final_x": "3680132.03496",
    "final_y": "525103.840765",
    "longitude": "-90.07261277286818",
    "latitude": "29.937894855657298",
    "geocoded_column": {
      "latitude": "29.937894855657298",
      "longitude": "-90.07261277286818"
    }
  },
  {
    "service_request": "2026-1303129",
    "request_type": "Trash/Recycling",
    "request_reason": "Missed Trash Pick-Up",
    "date_created": "2026-07-23T15:51:31.000",
    "date_modified": "2026-07-23T16:41:49.000",
    "case_close_date": "2026-07-23T11:41:47.000",
    "request_status": "Closed",
    "responsible_agency": "Department of Sanitation",
    "final_address": "1001 Gordon St",
    "address_councildis": "E",
    "status": "Invalid Request",
    "contractor": "Waste Pro",
    "contractor_action": "Invalid",
    "rowid": "1303129",
    "final_x": "3699031.9098",
    "final_y": "533045.295876",
    "longitude": "-90.01265568989022",
    "latitude": "29.959145750088272",
    "geocoded_column": {
      "latitude": "29.959145750088272",
      "longitude": "-90.01265568989022"
    }
  },
  {
    "service_request": "2026-1303128",
    "request_type": "Trash/Recycling",
    "request_reason": "Repair Trash Cart",
    "date_created": "2026-07-23T15:48:54.000",
    "date_modified": "2026-07-23T16:38:54.000",
    "request_status": "Pending",
    "responsible_agency": "Department of Sanitation",
    "final_address": "2521 Chelsea Dr",
    "address_councildis": "C",
    "status": "Assigned to Contractor",
    "contractor": "Richards Disposal",
    "rowid": "1303128",
    "final_x": "3704296.37271",
    "final_y": "521876.300858",
    "longitude": "-89.99644342662502",
    "latitude": "29.92826707838159",
    "geocoded_column": {
      "latitude": "29.92826707838159",
      "longitude": "-89.99644342662502"
    }
  },
  {
    "service_request": "2026-1303127",
    "request_type": "Trash/Recycling",
    "request_reason": "Order Trash Cart",
    "date_created": "2026-07-23T15:44:58.000",
    "date_modified": "2026-07-23T15:45:00.000",
    "request_status": "Pending",
    "responsible_agency": "Department of Sanitation",
    "final_address": "5242 Timber Crest Dr",
    "address_councildis": "C",
    "status": "Assigned to Contractor",
    "contractor": "Richards Disposal",
    "rowid": "1303127",
    "final_x": "3703641.93956",
    "final_y": "511246.53208",
    "longitude": "-89.99890009800862",
    "latitude": "29.899059837405",
    "geocoded_column": {
      "latitude": "29.899059837405",
      "longitude": "-89.99890009800862"
    }
  },
  {
    "service_request": "2026-1303126",
    "request_type": "Safety & Permits",
    "request_reason": "Zoning Enforcement",
    "date_created": "2026-07-23T15:44:44.000",
    "date_modified": "2026-07-23T15:44:45.000",
    "request_status": "Pending",
    "responsible_agency": "Safety and Permits",
    "final_address": "3735 Piedmont Dr",
    "address_councildis": "D",
    "status": "Pending",
    "rowid": "1303126",
    "final_x": "3685756.80802",
    "final_y": "546684.592337",
    "longitude": "-90.05409429250982",
    "latitude": "29.99706305792081",
    "geocoded_column": {
      "latitude": "29.99706305792081",
      "longitude": "-90.05409429250982"
    }
  },
  {
    "service_request": "2026-1303125",
    "request_type": "Trash/Recycling",
    "request_reason": "Request a Large Item Pick Up",
    "date_created": "2026-07-23T15:44:03.000",
    "date_modified": "2026-07-23T15:44:05.000",
    "request_status": "Pending",
    "responsible_agency": "Department of Sanitation",
    "final_address": "2217 Gentilly Blvd",
    "address_councildis": "D",
    "status": "Assigned to Contractor",
    "contractor": "IV Waste",
    "rowid": "1303125",
    "final_x": "3680731.51701",
    "final_y": "544588.407631",
    "longitude": "-90.07004196192133",
    "latitude": "29.991452599066147",
    "geocoded_column": {
      "latitude": "29.991452599066147",
      "longitude": "-90.07004196192133"
    }
  },
  {
    "service_request": "2026-1303124",
    "request_type": "Trash/Recycling",
    "request_reason": "Request a Large Item Pick Up",
    "date_created": "2026-07-23T15:43:52.000",
    "date_modified": "2026-07-23T15:43:54.000",
    "request_status": "Pending",
    "responsible_agency": "Department of Sanitation",
    "final_address": "4708 Bonita Dr",
    "address_councildis": "E",
    "status": "Assigned to Contractor",
    "contractor": "Waste Pro",
    "rowid": "1303124",
    "final_x": "3704470.64369",
    "final_y": "555042.767897",
    "longitude": "-89.99467011904031",
    "latitude": "30.019457120811442",
    "geocoded_column": {
      "latitude": "30.019457120811442",
      "longitude": "-89.99467011904031"
    }
  },
  {
    "service_request": "2026-1303123",
    "request_type": "Roads and Streets",
    "request_reason": "Pothole",
    "date_created": "2026-07-23T15:39:07.000",
    "date_modified": "2026-07-23T15:39:09.000",
    "request_status": "Pending",
    "responsible_agency": "Department of Public Works",
    "final_address": "2214 Joliet St",
    "address_councildis": "A",
    "status": "Pending",
    "rowid": "1303123",
    "final_x": "3663347.90803",
    "final_y": "532077.465219",
    "longitude": "-90.12536980610963",
    "latitude": "29.957567188861965",
    "geocoded_column": {
      "latitude": "29.957567188861965",
      "longitude": "-90.12536980610963"
    }
  },
  {
    "service_request": "2026-1303122",
    "request_type": "Trash/Recycling",
    "request_reason": "Repair Trash Cart",
    "date_created": "2026-07-23T15:38:36.000",
    "date_modified": "2026-07-23T15:38:37.000",
    "request_status": "Pending",
    "responsible_agency": "Department of Sanitation",
    "final_address": "7021 Manchester St",
    "address_councildis": "E",
    "status": "Assigned to Contractor",
    "contractor": "Waste Pro",
    "rowid": "1303122",
    "final_x": "3699081.99664",
    "final_y": "560147.977501",
    "longitude": "-90.01151025189549",
    "latitude": "30.03366648997878",
    "geocoded_column": {
      "latitude": "30.03366648997878",
      "longitude": "-90.01151025189549"
    }
  },
  {
    "service_request": "2026-1303121",
    "request_type": "Trash/Recycling",
    "request_reason": "Replace Trash Cart",
    "date_created": "2026-07-23T15:37:26.000",
    "date_modified": "2026-07-23T15:37:28.000",
    "request_status": "Pending",
    "responsible_agency": "Department of Sanitation",
    "final_address": "47 Marywood Ct",
    "address_councildis": "E",
    "status": "Assigned to Contractor",
    "contractor": "Waste Pro",
    "rowid": "1303121",
    "final_x": "3712179.97656",
    "final_y": "567072.598628",
    "longitude": "-89.96985916897015",
    "latitude": "30.052284449063876",
    "geocoded_column": {
      "latitude": "30.052284449063876",
      "longitude": "-89.96985916897015"
    }
  },
  {
    "service_request": "2026-1303120",
    "request_type": "Streetlights",
    "request_reason": "Streetlight Outage/Malfunction",
    "date_created": "2026-07-23T15:36:19.000",
    "date_modified": "2026-07-23T15:36:27.000",
    "request_status": "Pending",
    "responsible_agency": "Department of Public Works",
    "final_address": "ROSALIA DR & HAMMOND ST",
    "address_councildis": "E",
    "status": "Pending",
    "rowid": "1303120",
    "final_x": "3711153.2",
    "final_y": "556256.28",
    "longitude": "-89.97351018895894",
    "latitude": "30.02257744452057",
    "geocoded_column": {
      "latitude": "30.02257744452057",
      "longitude": "-89.97351018895894"
    }
  },
  {
    "service_request": "2026-1303119",
    "request_type": "Roads and Streets",
    "request_reason": "Sidewalk Damaged or Missing",
    "date_created": "2026-07-23T15:32:26.000",
    "date_modified": "2026-07-23T15:44:36.000",
    "request_status": "Pending",
    "responsible_agency": "Department of Public Works",
    "final_address": "1400 Peniston St",
    "address_councildis": "B",
    "status": "Pending",
    "rowid": "1303119",
    "final_x": "3672970.60744",
    "final_y": "520589.04716",
    "longitude": "-90.09537603203857",
    "latitude": "29.925695347861396",
    "geocoded_column": {
      "latitude": "29.925695347861396",
      "longitude": "-90.09537603203857"
    }
  },
  {
    "service_request": "2026-1303118",
    "request_type": "Trash/Recycling",
    "request_reason": "Request a Large Item Pick Up",
    "date_created": "2026-07-23T15:24:12.000",
    "date_modified": "2026-07-23T15:24:15.000",
    "request_status": "Pending",
    "responsible_agency": "Department of Sanitation",
    "final_address": "2529 Robert St",
    "address_councildis": "B",
    "status": "Assigned to Contractor",
    "contractor": "IV Waste",
    "rowid": "1303118",
    "final_x": "3668893.47521",
    "final_y": "524866.070524",
    "longitude": "-90.10810197634368",
    "latitude": "29.93757628515281",
    "geocoded_column": {
      "latitude": "29.93757628515281",
      "longitude": "-90.10810197634368"
    }
  },
  {
    "service_request": "2026-1303117",
    "request_type": "Traffic Signals",
    "request_reason": "Traffic Signal Malfunctioning or Damaged",
    "date_created": "2026-07-23T15:23:53.000",
    "date_modified": "2026-07-23T15:23:55.000",
    "request_status": "Pending",
    "responsible_agency": "Department of Public Works",
    "final_address": "100 BLK City Park Ave",
    "address_councildis": "A",
    "status": "Pending",
    "rowid": "1303117",
    "final_x": "3667460.85828",
    "final_y": "540848.234692",
    "longitude": "-90.11208709421294",
    "latitude": "29.98156401942775",
    "geocoded_column": {
      "latitude": "29.98156401942775",
      "longitude": "-90.11208709421294"
    }
  },
  {
    "service_request": "2026-1303116",
    "request_type": "Drainage",
    "request_reason": "Catch Basin Not Draining",
    "date_created": "2026-07-23T15:22:32.000",
    "date_modified": "2026-07-23T15:22:34.000",
    "request_status": "Pending",
    "responsible_agency": "Sewerage & Water Board",
    "final_address": "6800 Canal Blvd",
    "address_councildis": "A",
    "status": "Pending",
    "rowid": "1303116",
    "final_x": "3668861.78068",
    "final_y": "552747.021078",
    "longitude": "-90.10726018183784",
    "latitude": "30.014240438672495",
    "geocoded_column": {
      "latitude": "30.014240438672495",
      "longitude": "-90.10726018183784"
    }
  },
  {
    "service_request": "2026-1303115",
    "request_type": "Trash/Recycling",
    "request_reason": "Request a Large Item Pick Up",
    "date_created": "2026-07-23T15:21:45.000",
    "date_modified": "2026-07-23T15:21:49.000",
    "request_status": "Pending",
    "responsible_agency": "Department of Sanitation",
    "final_address": "7310 Lincoln Beach Blvd",
    "address_councildis": "E",
    "status": "Assigned to Contractor",
    "contractor": "Waste Pro",
    "rowid": "1303115",
    "final_x": "3699531.03447",
    "final_y": "561726.204767",
    "longitude": "-90.01003365180127",
    "latitude": "30.03799175177604",
    "geocoded_column": {
      "latitude": "30.03799175177604",
      "longitude": "-90.01003365180127"
    }
  },
  {
    "service_request": "2026-1303114",
    "request_type": "Tree Service",
    "request_reason": "Dead or Dying Tree",
    "date_created": "2026-07-23T15:20:19.000",
    "date_modified": "2026-07-23T15:20:23.000",
    "request_status": "Pending",
    "responsible_agency": "Department of Parks & Parkways",
    "final_address": "4634 Clara St",
    "address_councildis": "B",
    "status": "Pending",
    "rowid": "1303114",
    "final_x": "3669415.77767",
    "final_y": "524951.740477",
    "longitude": "-90.10645012855939",
    "latitude": "29.937796482900698",
    "geocoded_column": {
      "latitude": "29.937796482900698",
      "longitude": "-90.10645012855939"
    }
  },
  {
    "service_request": "2026-1303113",
    "request_type": "Trash/Recycling",
    "request_reason": "Request a Large Item Pick Up",
    "date_created": "2026-07-23T15:18:07.000",
    "date_modified": "2026-07-23T15:44:53.000",
    "request_status": "Pending",
    "responsible_agency": "Department of Sanitation",
    "final_address": "1024 Mazant St",
    "address_councildis": "C",
    "status": "Assigned to Contractor",
    "contractor": "IV Waste",
    "rowid": "1303113",
    "final_x": "3692022.06569",
    "final_y": "535014.519686",
    "longitude": "-90.03472050177581",
    "latitude": "29.964780720285678",
    "geocoded_column": {
      "latitude": "29.964780720285678",
      "longitude": "-90.03472050177581"
    }
  },
  {
    "service_request": "2026-1303112",
    "request_type": "Trash/Recycling",
    "request_reason": "Repair Recycling Cart",
    "date_created": "2026-07-23T15:17:58.000",
    "date_modified": "2026-07-23T15:18:00.000",
    "request_status": "Pending",
    "responsible_agency": "Department of Sanitation",
    "final_address": "1134 Amelia St",
    "address_councildis": "B",
    "status": "Pending",
    "rowid": "1303112",
    "final_x": "3673544.97883",
    "final_y": "519404.559607",
    "longitude": "-90.09360336683122",
    "latitude": "29.922421311636157",
    "geocoded_column": {
      "latitude": "29.922421311636157",
      "longitude": "-90.09360336683122"
    }
  },
  {
    "service_request": "2026-1303111",
    "request_type": "Property Maintenance",
    "request_reason": "Property Maintenance",
    "date_created": "2026-07-23T15:17:10.000",
    "date_modified": "2026-07-23T15:17:13.000",
    "request_status": "Pending",
    "responsible_agency": "Department of Code Enforcement",
    "final_address": "14413 Dwyer Blvd",
    "address_councildis": "E",
    "status": "Pending",
    "rowid": "1303111",
    "final_x": "3730115.46746",
    "final_y": "563664.135329",
    "longitude": "-89.9133048035293",
    "latitude": "30.04231358774764",
    "geocoded_column": {
      "latitude": "30.04231358774764",
      "longitude": "-89.9133048035293"
    }
  },
  {
    "service_request": "2026-1303110",
    "request_type": "Trash/Recycling",
    "request_reason": "Request a Large Item Pick Up",
    "date_created": "2026-07-23T15:15:04.000",
    "date_modified": "2026-07-23T15:15:07.000",
    "request_status": "Pending",
    "responsible_agency": "Department of Sanitation",
    "final_address": "13041 New Hampshire Dr",
    "address_councildis": "E",
    "status": "Assigned to Contractor",
    "contractor": "Waste Pro",
    "rowid": "1303110",
    "final_x": "3723520.23065",
    "final_y": "564851.008226",
    "longitude": "-89.9341022195143",
    "latitude": "30.04580008527531",
    "geocoded_column": {
      "latitude": "30.04580008527531",
      "longitude": "-89.9341022195143"
    }
  },
  {
    "service_request": "2026-1303109",
    "request_type": "Trash/Recycling",
    "request_reason": "Request a Large Item Pick Up",
    "date_created": "2026-07-23T15:13:54.000",
    "date_modified": "2026-07-23T15:13:56.000",
    "request_status": "Pending",
    "responsible_agency": "Department of Sanitation",
    "final_address": "5710 New England Dr",
    "address_councildis": "E",
    "status": "Assigned to Contractor",
    "contractor": "Waste Pro",
    "rowid": "1303109",
    "final_x": "3723528.74323",
    "final_y": "564692.384034",
    "longitude": "-89.93408143791062",
    "latitude": "30.0453636486076",
    "geocoded_column": {
      "latitude": "30.0453636486076",
      "longitude": "-89.93408143791062"
    }
  },
  {
    "service_request": "2026-1303108",
    "request_type": "Streetlights",
    "request_reason": "Streetlight Outage/Malfunction",
    "date_created": "2026-07-23T15:13:52.000",
    "date_modified": "2026-07-23T15:13:54.000",
    "request_status": "Pending",
    "responsible_agency": "Department of Public Works",
    "final_address": "5251 E Lemans St",
    "address_councildis": "E",
    "status": "Pending",
    "rowid": "1303108",
    "final_x": "3726993.41638",
    "final_y": "563609.713441",
    "longitude": "-89.9231736656419",
    "latitude": "30.04226996655075",
    "geocoded_column": {
      "latitude": "30.04226996655075",
      "longitude": "-89.9231736656419"
    }
  },
  {
    "service_request": "2026-1303107",
    "request_type": "Trash/Recycling",
    "request_reason": "Request a Large Item Pick Up",
    "date_created": "2026-07-23T15:13:14.000",
    "date_modified": "2026-07-23T15:44:23.000",
    "request_status": "Pending",
    "responsible_agency": "Department of Sanitation",
    "final_address": "2514 Erato St",
    "address_councildis": "B",
    "status": "Assigned to Contractor",
    "contractor": "IV Waste",
    "rowid": "1303107",
    "final_x": "3676520.34638",
    "final_y": "527896.229951",
    "longitude": "-90.08391905617697",
    "latitude": "29.945681777009437",
    "geocoded_column": {
      "latitude": "29.945681777009437",
      "longitude": "-90.08391905617697"
    }
  },
  {
    "service_request": "2026-1303106",
    "request_type": "Traffic Signals",
    "request_reason": "Traffic Signal Flashing",
    "date_created": "2026-07-23T15:10:33.000",
    "date_modified": "2026-07-23T15:10:36.000",
    "request_status": "Pending",
    "final_address": "100 BLK City Park Ave",
    "address_councildis": "A",
    "rowid": "1303106",
    "final_x": "3667460.85828",
    "final_y": "540848.234692",
    "longitude": "-90.11208709421294",
    "latitude": "29.98156401942775",
    "geocoded_column": {
      "latitude": "29.98156401942775",
      "longitude": "-90.11208709421294"
    }
  },
  {
    "service_request": "2026-1303105",
    "request_type": "Trash/Recycling",
    "request_reason": "Request a Large Item Pick Up",
    "date_created": "2026-07-23T15:05:13.000",
    "date_modified": "2026-07-23T15:05:15.000",
    "request_status": "Pending",
    "responsible_agency": "Department of Sanitation",
    "final_address": "7923 Tarpon St",
    "address_councildis": "E",
    "status": "Assigned to Contractor",
    "contractor": "Waste Pro",
    "rowid": "1303105",
    "final_x": "3698396.09008",
    "final_y": "560938.529566",
    "longitude": "-90.01364901021333",
    "latitude": "30.035861941143988",
    "geocoded_column": {
      "latitude": "30.035861941143988",
      "longitude": "-90.01364901021333"
    }
  },
  {
    "service_request": "2026-1303104",
    "request_type": "Trash/Recycling",
    "request_reason": "Request a Large Item Pick Up",
    "date_created": "2026-07-23T15:03:50.000",
    "date_modified": "2026-07-23T15:03:53.000",
    "request_status": "Pending",
    "responsible_agency": "Department of Sanitation",
    "final_address": "7620 Hansbrough Ave",
    "address_councildis": "E",
    "status": "Assigned to Contractor",
    "contractor": "Waste Pro",
    "rowid": "1303104",
    "final_x": "3707578.44171",
    "final_y": "564487.094049",
    "longitude": "-89.98449933284098",
    "latitude": "30.0453251012345",
    "geocoded_column": {
      "latitude": "30.0453251012345",
      "longitude": "-89.98449933284098"
    }
  },
  {
    "service_request": "2026-1303103",
    "request_type": "Trash/Recycling",
    "request_reason": "Illegal Dumping",
    "date_created": "2026-07-23T15:02:11.000",
    "date_modified": "2026-07-23T15:02:13.000",
    "request_status": "Pending",
    "responsible_agency": "Department of Sanitation",
    "final_address": "4875 Alsace St",
    "address_councildis": "E",
    "status": "Pending",
    "rowid": "1303103",
    "final_x": "3730570.44",
    "final_y": "562884.52144",
    "longitude": "-89.91189750174813",
    "latitude": "30.040154464624447",
    "geocoded_column": {
      "latitude": "30.040154464624447",
      "longitude": "-89.91189750174813"
    }
  },
  {
    "service_request": "2026-1303102",
    "request_type": "Trash/Recycling",
    "request_reason": "Illegal Dumping",
    "date_created": "2026-07-23T15:02:05.000",
    "date_modified": "2026-07-23T15:26:17.000",
    "case_close_date": "2026-07-23T10:26:16.000",
    "request_status": "Closed",
    "responsible_agency": "Department of Sanitation",
    "final_address": "14413 Dwyer Blvd",
    "address_councildis": "E",
    "status": "Canceled By Citizen",
    "rowid": "1303102",
    "final_x": "3730115.46746",
    "final_y": "563664.135329",
    "longitude": "-89.9133048035293",
    "latitude": "30.04231358774764",
    "geocoded_column": {
      "latitude": "30.04231358774764",
      "longitude": "-89.9133048035293"
    }
  },
  {
    "service_request": "2026-1303101",
    "request_type": "Trash/Recycling",
    "request_reason": "Order Recycling Cart",
    "date_created": "2026-07-23T14:59:37.000",
    "date_modified": "2026-07-23T14:59:39.000",
    "request_status": "Pending",
    "responsible_agency": "Department of Sanitation",
    "final_address": "2030 Bienville Ave",
    "address_councildis": "B",
    "status": "Pending",
    "rowid": "1303101",
    "final_x": "3677771.9083",
    "final_y": "534170.332613",
    "longitude": "-90.07975074060369",
    "latitude": "29.962895870429936",
    "geocoded_column": {
      "latitude": "29.962895870429936",
      "longitude": "-90.07975074060369"
    }
  },
  {
    "service_request": "2026-1303100",
    "request_type": "Abandoned Vehicles",
    "request_reason": "Abandoned/Junk Vehicles",
    "date_created": "2026-07-23T14:58:40.000",
    "date_modified": "2026-07-23T14:58:42.000",
    "request_status": "Pending",
    "responsible_agency": "Department of Public Works",
    "final_address": "2534 General Pershing St",
    "address_councildis": "B",
    "status": "Pending",
    "rowid": "1303100",
    "final_x": "3670857.75316",
    "final_y": "524349.096892",
    "longitude": "-90.10191813209579",
    "latitude": "29.936096875205436",
    "geocoded_column": {
      "latitude": "29.936096875205436",
      "longitude": "-90.10191813209579"
    }
  },
  {
    "service_request": "2026-1303099",
    "request_type": "Mosquito, Termite & Rodent Control",
    "request_reason": "Mosquito Complaint",
    "date_created": "2026-07-23T14:52:30.000",
    "date_modified": "2026-07-23T14:52:32.000",
    "request_status": "Pending",
    "responsible_agency": "Mosquito, Termite & Rodent Control Board",
    "final_address": "1539 St Maurice Ave",
    "address_councildis": "E",
    "status": "Pending",
    "rowid": "1303099",
    "final_x": "3700554.12497",
    "final_y": "534833.066694",
    "longitude": "-90.0077836314104",
    "latitude": "29.964013150290288",
    "geocoded_column": {
      "latitude": "29.964013150290288",
      "longitude": "-90.0077836314104"
    }
  },
  {
    "service_request": "2026-1303098",
    "request_type": "Trash/Recycling",
    "request_reason": "Request a Large Item Pick Up",
    "date_created": "2026-07-23T14:50:38.000",
    "date_modified": "2026-07-23T14:50:41.000",
    "request_status": "Pending",
    "responsible_agency": "Department of Sanitation",
    "final_address": "8 Curtis Dr",
    "address_councildis": "E",
    "status": "Assigned to Contractor",
    "contractor": "Waste Pro",
    "rowid": "1303098",
    "final_x": "3697689.92637",
    "final_y": "560638.780766",
    "longitude": "-90.01589149649521",
    "latitude": "30.035060091539236",
    "geocoded_column": {
      "latitude": "30.035060091539236",
      "longitude": "-90.01589149649521"
    }
  },
  {
    "service_request": "2026-1303097",
    "request_type": "Streetlights",
    "request_reason": "Streetlight Outage/Malfunction",
    "date_created": "2026-07-23T14:47:38.000",
    "date_modified": "2026-07-23T14:47:39.000",
    "request_status": "Pending",
    "responsible_agency": "Department of Public Works",
    "final_address": "4791 Rosalia Dr",
    "address_councildis": "E",
    "status": "Pending",
    "rowid": "1303097",
    "final_x": "3711226.29035",
    "final_y": "556195.688794",
    "longitude": "-89.9732815154903",
    "latitude": "30.02240845726258",
    "geocoded_column": {
      "latitude": "30.02240845726258",
      "longitude": "-89.9732815154903"
    }
  },
  {
    "service_request": "2026-1303096",
    "request_type": "Drainage",
    "request_reason": "Catch Basin Not Draining",
    "date_created": "2026-07-23T14:44:43.000",
    "date_modified": "2026-07-23T14:44:46.000",
    "request_status": "Pending",
    "responsible_agency": "Sewerage & Water Board",
    "final_address": "2759 Palmyra St",
    "address_councildis": "B",
    "status": "Pending",
    "rowid": "1303096",
    "final_x": "3674470.0708",
    "final_y": "534815.698886",
    "longitude": "-90.09015543136563",
    "latitude": "29.964769323595178",
    "geocoded_column": {
      "latitude": "29.964769323595178",
      "longitude": "-90.09015543136563"
    }
  },
  {
    "service_request": "2026-1303095",
    "request_type": "Tree Service",
    "request_reason": "Tree Trim",
    "date_created": "2026-07-23T14:44:19.000",
    "date_modified": "2026-07-23T14:44:21.000",
    "request_status": "Pending",
    "responsible_agency": "Department of Parks & Parkways",
    "final_address": "4900 BLK AlcÃ©e Fortier Blvd",
    "address_councildis": "E",
    "status": "Pending",
    "rowid": "1303095",
    "final_x": "3730140.75851",
    "final_y": "562961.929966",
    "longitude": "-89.91325237899046",
    "latitude": "30.040381954920647",
    "geocoded_column": {
      "latitude": "30.040381954920647",
      "longitude": "-89.91325237899046"
    }
  },
  {
    "service_request": "2026-1303094",
    "request_type": "Trash/Recycling",
    "request_reason": "Repair Trash Cart",
    "date_created": "2026-07-23T14:43:46.000",
    "date_modified": "2026-07-23T14:43:48.000",
    "request_status": "Pending",
    "responsible_agency": "Department of Sanitation",
    "final_address": "8018 Hickory St",
    "address_councildis": "A",
    "status": "Assigned to Contractor",
    "contractor": "IV Waste",
    "rowid": "1303094",
    "final_x": "3663569.55251",
    "final_y": "529702.228033",
    "longitude": "-90.12474902500071",
    "latitude": "29.951029629307683",
    "geocoded_column": {
      "latitude": "29.951029629307683",
      "longitude": "-90.12474902500071"
    }
  },
  {
    "service_request": "2026-1303093",
    "request_type": "Trash/Recycling",
    "request_reason": "Repair Recycling Cart",
    "date_created": "2026-07-23T14:35:31.000",
    "date_modified": "2026-07-23T14:35:33.000",
    "request_status": "Pending",
    "responsible_agency": "Department of Sanitation",
    "final_address": "8018 Hickory St",
    "address_councildis": "A",
    "status": "Pending",
    "rowid": "1303093",
    "final_x": "3663569.55251",
    "final_y": "529702.228033",
    "longitude": "-90.12474902500071",
    "latitude": "29.951029629307683",
    "geocoded_column": {
      "latitude": "29.951029629307683",
      "longitude": "-90.12474902500071"
    }
  },
  {
    "service_request": "2026-1303092",
    "request_type": "Property Maintenance",
    "request_reason": "Property Maintenance",
    "date_created": "2026-07-23T14:32:10.000",
    "date_modified": "2026-07-23T14:32:11.000",
    "request_status": "Pending",
    "responsible_agency": "Department of Code Enforcement",
    "final_address": "13900 Dwyer Blvd",
    "address_councildis": "E",
    "status": "Pending",
    "rowid": "1303092",
    "final_x": "3728194.38259",
    "final_y": "562643.810656",
    "longitude": "-89.91941587422451",
    "latitude": "30.039573441993255",
    "geocoded_column": {
      "latitude": "30.039573441993255",
      "longitude": "-89.91941587422451"
    }
  },
  {
    "service_request": "2026-1303091",
    "request_type": "Trash/Recycling",
    "request_reason": "Request a Large Item Pick Up",
    "date_created": "2026-07-23T14:31:12.000",
    "date_modified": "2026-07-23T15:43:50.000",
    "request_status": "Pending",
    "responsible_agency": "Department of Sanitation",
    "final_address": "822 First St",
    "address_councildis": "B",
    "status": "Assigned to Contractor",
    "contractor": "IV Waste",
    "rowid": "1303091",
    "final_x": "3678536.58542",
    "final_y": "520716.059129",
    "longitude": "-90.07780152773447",
    "latitude": "29.925878065984673",
    "geocoded_column": {
      "latitude": "29.925878065984673",
      "longitude": "-90.07780152773447"
    }
  },
  {
    "service_request": "2026-1303090",
    "request_type": "Safety & Permits",
    "request_reason": "Zoning Enforcement",
    "date_created": "2026-07-23T14:30:36.000",
    "date_modified": "2026-07-23T14:30:37.000",
    "request_status": "Pending",
    "responsible_agency": "Safety and Permits",
    "final_address": "7607 Tricia Ct",
    "address_councildis": "E",
    "status": "Pending",
    "rowid": "1303090",
    "final_x": "3717901.21055",
    "final_y": "570959.172263",
    "longitude": "-89.95162812733304",
    "latitude": "30.062782484015866",
    "geocoded_column": {
      "latitude": "30.062782484015866",
      "longitude": "-89.95162812733304"
    }
  },
  {
    "service_request": "2026-1303089",
    "request_type": "Trash/Recycling",
    "request_reason": "Order Recycling Cart",
    "date_created": "2026-07-23T14:30:14.000",
    "date_modified": "2026-07-23T14:30:24.000",
    "request_status": "Pending",
    "responsible_agency": "Department of Sanitation",
    "final_address": "240 Hillary St, New Orleans, Louisiana, 70118",
    "address_councildis": "A",
    "status": "Pending",
    "rowid": "1303089",
    "final_x": "3660984.78202",
    "final_y": "524676.514684",
    "longitude": "-90.13307670147987",
    "latitude": "29.937285227525543",
    "geocoded_column": {
      "latitude": "29.937285227525543",
      "longitude": "-90.13307670147987"
    }
  },
  {
    "service_request": "2026-1303088",
    "request_type": "Health Related Request",
    "request_reason": "Noise Ordinance Complaint",
    "date_created": "2026-07-23T14:29:22.000",
    "date_modified": "2026-07-23T14:29:24.000",
    "request_status": "Pending",
    "responsible_agency": "Health Department",
    "final_address": "7607 Tricia Ct",
    "address_councildis": "E",
    "status": "Pending",
    "rowid": "1303088",
    "final_x": "3717901.21055",
    "final_y": "570959.172263",
    "longitude": "-89.95162812733304",
    "latitude": "30.062782484015866",
    "geocoded_column": {
      "latitude": "30.062782484015866",
      "longitude": "-89.95162812733304"
    }
  },
  {
    "service_request": "2026-1303087",
    "request_type": "Trash/Recycling",
    "request_reason": "Request a Large Item Pick Up",
    "date_created": "2026-07-23T14:28:35.000",
    "date_modified": "2026-07-23T14:34:22.000",
    "request_status": "Pending",
    "responsible_agency": "Department of Sanitation",
    "final_address": "1630 Clouet St",
    "address_councildis": "D",
    "status": "Assigned to Contractor",
    "contractor": "IV Waste",
    "rowid": "1303087",
    "final_x": "3689489.29961",
    "final_y": "538133.640457",
    "longitude": "-90.04260782949522",
    "latitude": "29.973435891685835",
    "geocoded_column": {
      "latitude": "29.973435891685835",
      "longitude": "-90.04260782949522"
    }
  },
  {
    "service_request": "2026-1303086",
    "request_type": "Trash/Recycling",
    "request_reason": "Repair Trash Cart",
    "date_created": "2026-07-23T14:26:41.000",
    "date_modified": "2026-07-23T14:26:43.000",
    "request_status": "Pending",
    "responsible_agency": "Department of Sanitation",
    "final_address": "240 Hillary St, New Orleans, Louisiana, 70118",
    "address_councildis": "A",
    "status": "Assigned to Contractor",
    "contractor": "IV Waste",
    "rowid": "1303086",
    "final_x": "3660984.78202",
    "final_y": "524676.514684",
    "longitude": "-90.13307670147987",
    "latitude": "29.937285227525543",
    "geocoded_column": {
      "latitude": "29.937285227525543",
      "longitude": "-90.13307670147987"
    }
  },
  {
    "service_request": "2026-1303085",
    "request_type": "Trash/Recycling",
    "request_reason": "Replace Trash Cart",
    "date_created": "2026-07-23T14:24:08.000",
    "date_modified": "2026-07-23T14:24:11.000",
    "request_status": "Pending",
    "responsible_agency": "Department of Sanitation",
    "final_address": "1524 Leontine St",
    "address_councildis": "B",
    "status": "Assigned to Contractor",
    "contractor": "IV Waste",
    "rowid": "1303085",
    "final_x": "3667386.3945",
    "final_y": "520702.428217",
    "longitude": "-90.11299995211668",
    "latitude": "29.926171820626752",
    "geocoded_column": {
      "latitude": "29.926171820626752",
      "longitude": "-90.11299995211668"
    }
  },
  {
    "service_request": "2026-1303084",
    "request_type": "Streetlights",
    "request_reason": "Streetlight Outage/Malfunction",
    "date_created": "2026-07-23T14:23:56.000",
    "date_modified": "2026-07-23T14:23:58.000",
    "request_status": "Pending",
    "responsible_agency": "Department of Public Works",
    "final_address": "2865 Allen St",
    "address_councildis": "D",
    "status": "Pending",
    "rowid": "1303084",
    "final_x": "3682271.17724",
    "final_y": "542938.307597",
    "longitude": "-90.06523620581422",
    "latitude": "29.986868642093253",
    "geocoded_column": {
      "latitude": "29.986868642093253",
      "longitude": "-90.06523620581422"
    }
  },
  {
    "service_request": "2026-1303083",
    "request_type": "Roads and Streets",
    "request_reason": "Sidewalk Damaged or Missing",
    "date_created": "2026-07-23T14:17:23.000",
    "date_modified": "2026-07-23T14:17:25.000",
    "request_status": "Pending",
    "responsible_agency": "Department of Public Works",
    "final_address": "13907 Dwyer Blvd",
    "address_councildis": "E",
    "status": "Pending",
    "rowid": "1303083",
    "final_x": "3727688.59667",
    "final_y": "562730.248864",
    "longitude": "-89.92101091881032",
    "latitude": "30.03982826229823",
    "geocoded_column": {
      "latitude": "30.03982826229823",
      "longitude": "-89.92101091881032"
    }
  },
  {
    "service_request": "2026-1303082",
    "request_type": "Trash/Recycling",
    "request_reason": "Request a Large Item Pick Up",
    "date_created": "2026-07-23T14:17:15.000",
    "date_modified": "2026-07-23T14:31:28.000",
    "request_status": "Pending",
    "responsible_agency": "Department of Sanitation",
    "final_address": "2008 Carondelet St Apt A",
    "address_councildis": "B",
    "status": "Assigned to Contractor",
    "contractor": "IV Waste",
    "rowid": "1303082",
    "final_x": "3677837.17275",
    "final_y": "524431.360252",
    "longitude": "-90.07988107122166",
    "latitude": "29.936114983609777",
    "geocoded_column": {
      "latitude": "29.936114983609777",
      "longitude": "-90.07988107122166"
    }
  },
  {
    "service_request": "2026-1303081",
    "request_type": "Trash/Recycling",
    "request_reason": "Request a Large Item Pick Up",
    "date_created": "2026-07-23T14:16:47.000",
    "date_modified": "2026-07-23T14:31:49.000",
    "request_status": "Pending",
    "responsible_agency": "Department of Sanitation",
    "final_address": "2519 Loyola Ave",
    "address_councildis": "B",
    "status": "Assigned to Contractor",
    "contractor": "IV Waste",
    "rowid": "1303081",
    "final_x": "3675325.86101",
    "final_y": "524742.52422",
    "longitude": "-90.08779868069543",
    "latitude": "29.937045881826396",
    "geocoded_column": {
      "latitude": "29.937045881826396",
      "longitude": "-90.08779868069543"
    }
  },
  {
    "service_request": "2026-1303080",
    "request_type": "Trash/Recycling",
    "request_reason": "Request a Large Item Pick Up",
    "date_created": "2026-07-23T14:12:03.000",
    "date_modified": "2026-07-23T14:12:05.000",
    "request_status": "Pending",
    "responsible_agency": "Department of Sanitation",
    "final_address": "733 Nunez St",
    "address_councildis": "C",
    "status": "Assigned to Contractor",
    "contractor": "Richards Disposal",
    "rowid": "1303080",
    "final_x": "3686831.96495",
    "final_y": "528801.323072",
    "longitude": "-90.05132998250556",
    "latitude": "29.947857282980838",
    "geocoded_column": {
      "latitude": "29.947857282980838",
      "longitude": "-90.05132998250556"
    }
  },
  {
    "service_request": "2026-1303079",
    "request_type": "Parks & Grass Service",
    "request_reason": "Request Grass Cutting Service (City Owned Property)",
    "date_created": "2026-07-23T14:11:41.000",
    "date_modified": "2026-07-23T14:12:22.000",
    "request_status": "Pending",
    "responsible_agency": "Department of Parks & Parkways",
    "final_address": "133 Morrison Ct",
    "address_councildis": "E",
    "status": "Pending",
    "rowid": "1303079",
    "final_x": "3703944.42212",
    "final_y": "561706.131359",
    "longitude": "-89.99608708125612",
    "latitude": "30.03779567374169",
    "geocoded_column": {
      "latitude": "30.03779567374169",
      "longitude": "-89.99608708125612"
    }
  },
  {
    "service_request": "2026-1303078",
    "request_type": "Trash/Recycling",
    "request_reason": "Request a Large Item Pick Up",
    "date_created": "2026-07-23T14:11:18.000",
    "date_modified": "2026-07-23T14:11:21.000",
    "request_status": "Pending",
    "responsible_agency": "Department of Sanitation",
    "final_address": "3210 Plymouth Pl",
    "address_councildis": "C",
    "status": "Assigned to Contractor",
    "contractor": "Richards Disposal",
    "rowid": "1303078",
    "final_x": "3702882.43607",
    "final_y": "519350.510711",
    "longitude": "-90.00099958923266",
    "latitude": "29.92136731477042",
    "geocoded_column": {
      "latitude": "29.92136731477042",
      "longitude": "-90.00099958923266"
    }
  },
  {
    "service_request": "2026-1303077",
    "request_type": "Trash/Recycling",
    "request_reason": "Request a Large Item Pick Up",
    "date_created": "2026-07-23T14:10:52.000",
    "date_modified": "2026-07-23T14:10:54.000",
    "request_status": "Pending",
    "responsible_agency": "Department of Sanitation",
    "final_address": "3209 State Street Dr",
    "address_councildis": "B",
    "status": "Assigned to Contractor",
    "contractor": "IV Waste",
    "rowid": "1303077",
    "final_x": "3667610.05165",
    "final_y": "528016.661119",
    "longitude": "-90.1120478365076",
    "latitude": "29.94627706572024",
    "geocoded_column": {
      "latitude": "29.94627706572024",
      "longitude": "-90.1120478365076"
    }
  },
  {
    "service_request": "2026-1303076",
    "request_type": "Trash/Recycling",
    "request_reason": "Repair Recycling Cart",
    "date_created": "2026-07-23T14:10:23.000",
    "date_modified": "2026-07-23T14:10:25.000",
    "request_status": "Pending",
    "responsible_agency": "Department of Sanitation",
    "final_address": "4719 Congress Dr",
    "address_councildis": "D",
    "status": "Pending",
    "rowid": "1303076",
    "final_x": "3692429.98653",
    "final_y": "551612.894485",
    "longitude": "-90.03283740799166",
    "latitude": "30.010407538073846",
    "geocoded_column": {
      "latitude": "30.010407538073846",
      "longitude": "-90.03283740799166"
    }
  },
  {
    "service_request": "2026-1303075",
    "request_type": "Trash/Recycling",
    "request_reason": "Missed Trash Pick-Up",
    "date_created": "2026-07-23T14:05:40.000",
    "date_modified": "2026-07-23T15:14:29.000",
    "case_close_date": "2026-07-23T10:14:28.000",
    "request_status": "Closed",
    "responsible_agency": "Department of Sanitation",
    "final_address": "5432 N Roman St Apt A",
    "address_councildis": "E",
    "status": "Invalid Request",
    "contractor": "Waste Pro",
    "contractor_action": "Invalid",
    "rowid": "1303075",
    "final_x": "3698149.74307",
    "final_y": "536464.507719",
    "longitude": "-90.01531714636975",
    "latitude": "29.96857529177118",
    "geocoded_column": {
      "latitude": "29.96857529177118",
      "longitude": "-90.01531714636975"
    }
  },
  {
    "service_request": "2026-1303074",
    "request_type": "Trash/Recycling",
    "request_reason": "Request a Large Item Pick Up",
    "date_created": "2026-07-23T14:05:17.000",
    "date_modified": "2026-07-23T14:05:19.000",
    "request_status": "Pending",
    "responsible_agency": "Department of Sanitation",
    "final_address": "7533 Woodbine Dr",
    "address_councildis": "E",
    "status": "Assigned to Contractor",
    "contractor": "Waste Pro",
    "rowid": "1303074",
    "final_x": "3702093.28778",
    "final_y": "561167.794462",
    "longitude": "-90.00195684711281",
    "latitude": "30.036374729361494",
    "geocoded_column": {
      "latitude": "30.036374729361494",
      "longitude": "-90.00195684711281"
    }
  },
  {
    "service_request": "2026-1303073",
    "request_type": "Trash/Recycling",
    "request_reason": "Request a Large Item Pick Up",
    "date_created": "2026-07-23T14:05:12.000",
    "date_modified": "2026-07-23T14:05:14.000",
    "request_status": "Pending",
    "responsible_agency": "Department of Sanitation",
    "final_address": "7417 Dogwood Dr",
    "address_councildis": "E",
    "status": "Assigned to Contractor",
    "contractor": "Waste Pro",
    "rowid": "1303073",
    "final_x": "3701574.11645",
    "final_y": "560491.900702",
    "longitude": "-90.00362230856314",
    "latitude": "30.03453286139486",
    "geocoded_column": {
      "latitude": "30.03453286139486",
      "longitude": "-90.00362230856314"
    }
  },