[
  {
    "service_request": "2024-1145969",
    "request_type": "Trash/Recycling",
    "request_reason": "Request a Large Item Pick Up",
    "date_created": "2024-11-03T23:24:42.000",
    "date_modified": "2024-11-03T23:24:44.000",
    "request_status": "Pending",
    "responsible_agency": "Department of Sanitation",
    "final_address": "5551 New England Dr",
    "address_councildis": "E",
    "status": "Assigned to Contractor",
    "contractor": "Waste Pro",
    "rowid": "1145969",
    "final_x": "3723766.96454",
    "final_y": "563869.154849",
    "longitude": "-89.93336034188842",
    "latitude": "30.04309210798505",
    "geocoded_column": {
      "latitude": "30.04309210798505",
      "longitude": "-89.93336034188842"
    }
  },
  {
    "service_request": "2024-1145968",
    "request_type": "Parks & Parkways",
    "request_reason": "Request Tree Service (Right of Way/Public Property)",
    "date_created": "2024-11-03T22:12:10.000",
    "date_modified": "2024-11-03T22:12:10.000",
    "request_status": "Pending",
    "responsible_agency": "Department of Parks & Parkway",
    "final_address": "1307 St Andrew St",
    "address_councildis": "B",
    "status": "Pending",
    "rowid": "1145968",
    "final_x": "3679024.66594",
    "final_y": "523250.165371",
    "longitude": "-90.07617303665367",
    "latitude": "29.932831314371477",
    "geocoded_column": {
      "latitude": "29.932831314371477",
      "longitude": "-90.07617303665367"
    }
  },
  {
    "service_request": "2024-1145967",
    "request_type": "Healthy Homes",
    "request_reason": "Healthy Homes",
    "date_created": "2024-11-03T22:10:38.000",
    "date_modified": "2024-11-03T22:10:38.000",
    "request_status": "Pending",
    "responsible_agency": "Department of Code Enforcement",
    "final_address": "4600 S Johnson St",
    "address_councildis": "B",
    "status": "Pending",
    "rowid": "1145967",
    "final_x": "3669420.57985",
    "final_y": "527096.215999",
    "longitude": "-90.10636247112458",
    "latitude": "29.943692955317424",
    "geocoded_column": {
      "latitude": "29.943692955317424",
      "longitude": "-90.10636247112458"
    }
  },
  {
    "service_request": "2024-1145966",
    "request_type": "Parks & Parkways",
    "request_reason": "Request Tree Service (Right of Way/Public Property)",
    "date_created": "2024-11-03T22:10:01.000",
    "date_modified": "2024-11-03T22:10:01.000",
    "request_status": "Pending",
    "responsible_agency": "Department of Parks & Parkway",
    "final_address": "1307 St Andrew St",
    "address_councildis": "B",
    "status": "Pending",
    "rowid": "1145966",
    "final_x": "3679024.66594",
    "final_y": "523250.165371",
    "longitude": "-90.07617303665367",
    "latitude": "29.932831314371477",
    "geocoded_column": {
      "latitude": "29.932831314371477",
      "longitude": "-90.07617303665367"
    }
  },
  {
    "service_request": "2024-1145965",
    "request_type": "Abandoned Vehicles",
    "request_reason": "Abandoned/Junk Vehicles",
    "date_created": "2024-11-03T21:56:12.000",
    "date_modified": "2024-11-03T21:56:12.000",
    "request_status": "Pending",
    "responsible_agency": "Department of Public Works",
    "final_address": "8415 S Claiborne Ave",
    "address_councildis": "A",
    "status": "Pending",
    "rowid": "1145965",
    "final_x": "3664028.86919",
    "final_y": "532414.782915",
    "longitude": "-90.12320827256829",
    "latitude": "29.9584749457659",
    "geocoded_column": {
      "latitude": "29.9584749457659",
      "longitude": "-90.12320827256829"
    }
  },
  {
    "service_request": "2024-1145964",
    "request_type": "Property Maintenance",
    "request_reason": "Property Maintenance",
    "date_created": "2024-11-03T21:52:49.000",
    "date_modified": "2024-11-03T21:52:49.000",
    "request_status": "Pending",
    "responsible_agency": "Department of Code Enforcement",
    "final_address": "2605 Memorial Park Dr",
    "address_councildis": "C",
    "status": "Pending",
    "rowid": "1145964",
    "final_x": "3692837.01699",
    "final_y": "521008.039161",
    "longitude": "-90.03264903748617",
    "latitude": "29.926242309385856",
    "geocoded_column": {
      "latitude": "29.926242309385856",
      "longitude": "-90.03264903748617"
    }
  },
  {
    "service_request": "2024-1145963",
    "request_type": "Property Maintenance",
    "request_reason": "Property Maintenance",
    "date_created": "2024-11-03T21:51:39.000",
    "date_modified": "2024-11-03T21:51:39.000",
    "request_status": "Pending",
    "responsible_agency": "Department of Code Enforcement",
    "final_address": "2535 Memorial Park Dr",
    "address_councildis": "C",
    "status": "Pending",
    "rowid": "1145963",
    "final_x": "3692796.73923",
    "final_y": "521052.483641",
    "longitude": "-90.03277458992366",
    "latitude": "29.92636577379837",
    "geocoded_column": {
      "latitude": "29.92636577379837",
      "longitude": "-90.03277458992366"
    }
  },
  {
    "service_request": "2024-1145962",
    "request_type": "Property Maintenance",
    "request_reason": "Property Maintenance",
    "date_created": "2024-11-03T21:50:48.000",
    "date_modified": "2024-11-03T21:50:48.000",
    "request_status": "Pending",
    "responsible_agency": "Department of Code Enforcement",
    "final_address": "2525 Memorial Park Dr",
    "address_councildis": "C",
    "status": "Pending",
    "rowid": "1145962",
    "final_x": "3692766.18371",
    "final_y": "521079.566969",
    "longitude": "-90.03287007438414",
    "latitude": "29.92644119738659",
    "geocoded_column": {
      "latitude": "29.92644119738659",
      "longitude": "-90.03287007438414"
    }
  },
  {
    "service_request": "2024-1145961",
    "request_type": "Trash/Recycling",
    "request_reason": "Request a Large Item Pick Up",
    "date_created": "2024-11-03T21:34:34.000",
    "date_modified": "2024-11-03T21:34:35.000",
    "request_status": "Pending",
    "responsible_agency": "Department of Sanitation",
    "final_address": "2144 Esplanade Ave",
    "address_councildis": "D",
    "status": "Assigned to Contractor",
    "contractor": "IV Waste",
    "rowid": "1145961",
    "final_x": "3679709.02895",
    "final_y": "537651.708552",
    "longitude": "-90.07351268526448",
    "latitude": "29.97241004780171",
    "geocoded_column": {
      "latitude": "29.97241004780171",
      "longitude": "-90.07351268526448"
    }
  },
  {
    "service_request": "2024-1145960",
    "request_type": "Trash/Recycling",
    "request_reason": "Replace Trash Cart",
    "date_created": "2024-11-03T21:28:24.000",
    "date_modified": "2024-11-03T21:28:25.000",
    "request_status": "Pending",
    "responsible_agency": "Department of Sanitation",
    "final_address": "3302 Napoleon Ave",
    "address_councildis": "B",
    "status": "Assigned to Contractor",
    "contractor": "IV Waste",
    "rowid": "1145960",
    "final_x": "3670140.84801",
    "final_y": "526944.172542",
    "longitude": "-90.10409353624746",
    "latitude": "29.943253658321904",
    "geocoded_column": {
      "latitude": "29.943253658321904",
      "longitude": "-90.10409353624746"
    }
  },
  {
    "service_request": "2024-1145959",
    "request_type": "Abandoned Vehicles",
    "request_reason": "Abandoned/Junk Vehicles",
    "date_created": "2024-11-03T21:27:10.000",
    "date_modified": "2024-11-03T21:27:10.000",
    "request_status": "Pending",
    "responsible_agency": "Department of Public Works",
    "final_address": "534 S Telemachus St",
    "address_councildis": "B",
    "status": "Pending",
    "rowid": "1145959",
    "final_x": "3671222.32423",
    "final_y": "535861.903943",
    "longitude": "-90.10037607274316",
    "latitude": "29.967742525683168",
    "geocoded_column": {
      "latitude": "29.967742525683168",
      "longitude": "-90.10037607274316"
    }
  },
  {
    "service_request": "2024-1145958",
    "request_type": "Trash/Recycling",
    "request_reason": "Request a Large Item Pick Up",
    "date_created": "2024-11-03T21:14:08.000",
    "date_modified": "2024-11-03T21:14:09.000",
    "request_status": "Pending",
    "responsible_agency": "Department of Sanitation",
    "final_address": "7940 Windward Ct",
    "address_councildis": "E",
    "status": "Assigned to Contractor",
    "contractor": "Waste Pro",
    "rowid": "1145958",
    "final_x": "3715033.05528",
    "final_y": "570421.242023",
    "longitude": "-89.96071474244071",
    "latitude": "30.06139818305431",
    "geocoded_column": {
      "latitude": "30.06139818305431",
      "longitude": "-89.96071474244071"
    }
  },
  {
    "service_request": "2024-1145957",
    "request_type": "Road Striping",
    "request_reason": "Bike Lane",
    "date_created": "2024-11-03T21:04:37.000",
    "date_modified": "2024-11-03T21:04:37.000",
    "request_status": "Pending",
    "responsible_agency": "Department of Public Works",
    "final_address": "540 S Broad St",
    "address_councildis": "B",
    "status": "Pending",
    "rowid": "1145957",
    "final_x": "3674171.78241",
    "final_y": "533407.733636",
    "longitude": "-90.09114560889088",
    "latitude": "29.96090678730102",
    "geocoded_column": {
      "latitude": "29.96090678730102",
      "longitude": "-90.09114560889088"
    }
  },
  {
    "service_request": "2024-1145956",
    "request_type": "Trash/Recycling",
    "request_reason": "Request a Large Item Pick Up",
    "date_created": "2024-11-03T20:37:20.000",
    "date_modified": "2024-11-03T20:37:21.000",
    "request_status": "Pending",
    "responsible_agency": "Department of Sanitation",
    "final_address": "6239 Warrington Dr",
    "address_councildis": "D",
    "status": "Assigned to Contractor",
    "contractor": "IV Waste",
    "rowid": "1145956",
    "final_x": "3680862.65013",
    "final_y": "556057.222297",
    "longitude": "-90.06922807622949",
    "latitude": "30.022983740073325",
    "geocoded_column": {
      "latitude": "30.022983740073325",
      "longitude": "-90.06922807622949"
    }
  },
  {
    "service_request": "2024-1145955",
    "request_type": "Trash/Recycling",
    "request_reason": "Return Recycling Cart",
    "date_created": "2024-11-03T20:34:01.000",
    "date_modified": "2024-11-03T20:34:01.000",
    "request_status": "Pending",
    "responsible_agency": "Department of Sanitation",
    "final_address": "1101 Dante St",
    "address_councildis": "A",
    "status": "Pending",
    "rowid": "1145955",
    "final_x": "3661250.9392",
    "final_y": "528609.11136",
    "longitude": "-90.13210626574336",
    "latitude": "29.948090950174095",
    "geocoded_column": {
      "latitude": "29.948090950174095",
      "longitude": "-90.13210626574336"
    }
  },
  {
    "service_request": "2024-1145954",
    "request_type": "Trash/Recycling",
    "request_reason": "Request a Large Item Pick Up",
    "date_created": "2024-11-03T19:42:11.000",
    "date_modified": "2024-11-03T19:42:12.000",
    "request_status": "Pending",
    "responsible_agency": "Department of Sanitation",
    "final_address": "7917 Redfish St",
    "address_councildis": "E",
    "status": "Assigned to Contractor",
    "contractor": "Waste Pro",
    "rowid": "1145954",
    "final_x": "3698642.52983",
    "final_y": "560953.74851",
    "longitude": "-90.0128696655094",
    "latitude": "30.035895980814814",
    "geocoded_column": {
      "latitude": "30.035895980814814",
      "longitude": "-90.0128696655094"
    }
  },
  {
    "service_request": "2024-1145953",
    "request_type": "Roads and Streets",
    "request_reason": "Street Subsidence (Sinking)",
    "date_created": "2024-11-03T19:29:25.000",
    "date_modified": "2024-11-03T19:29:25.000",
    "request_status": "Pending",
    "responsible_agency": "Department of Public Works",
    "final_address": "6074 Colbert St",
    "address_councildis": "A",
    "status": "Pending",
    "rowid": "1145953",
    "final_x": "3667375.62842",
    "final_y": "547982.166034",
    "longitude": "-90.11211614529189",
    "latitude": "30.00118238994596",
    "geocoded_column": {
      "latitude": "30.00118238994596",
      "longitude": "-90.11211614529189"
    }
  },
  {
    "service_request": "2024-1145952",
    "request_type": "Trash/Recycling",
    "request_reason": "Order Recycling Cart",
    "date_created": "2024-11-03T18:51:32.000",
    "date_modified": "2024-11-03T18:51:32.000",
    "request_status": "Pending",
    "responsible_agency": "Department of Sanitation",
    "final_address": "2620 Magazine St Unit A",
    "address_councildis": "B",
    "status": "Pending",
    "rowid": "1145952",
    "final_x": "3677426.80853",
    "final_y": "521010.887673",
    "longitude": "-90.08129459626359",
    "latitude": "29.926722138525253",
    "geocoded_column": {
      "latitude": "29.926722138525253",
      "longitude": "-90.08129459626359"
    }
  },
  {
    "service_request": "2024-1145951",
    "request_type": "Trash/Recycling",
    "request_reason": "Replace Trash Cart",
    "date_created": "2024-11-03T18:50:43.000",
    "date_modified": "2024-11-03T18:50:44.000",
    "request_status": "Pending",
    "responsible_agency": "Department of Sanitation",
    "final_address": "2620 Magazine St Unit A",
    "address_councildis": "B",
    "status": "Assigned to Contractor",
    "contractor": "IV Waste",
    "rowid": "1145951",
    "final_x": "3677426.80853",
    "final_y": "521010.887673",
    "longitude": "-90.08129459626359",
    "latitude": "29.926722138525253",
    "geocoded_column": {
      "latitude": "29.926722138525253",
      "longitude": "-90.08129459626359"
    }
  },
  {
    "service_request": "2024-1145950",
    "request_type": "Trash/Recycling",
    "request_reason": "Order Trash Cart",
    "date_created": "2024-11-03T18:12:27.000",
    "date_modified": "2024-11-03T18:12:28.000",
    "request_status": "Pending",
    "responsible_agency": "Department of Sanitation",
    "final_address": "8042 Gus St",
    "address_councildis": "E",
    "status": "Assigned to Contractor",
    "contractor": "Waste Pro",
    "rowid": "1145950",
    "final_x": "3703220.73553",
    "final_y": "563300.552736",
    "longitude": "-89.99831538537799",
    "latitude": "30.042202908371934",
    "geocoded_column": {
      "latitude": "30.042202908371934",
      "longitude": "-89.99831538537799"
    }
  },
  {
    "service_request": "2024-1145949",
    "request_type": "Trash/Recycling",
    "request_reason": "Request a Large Item Pick Up",
    "date_created": "2024-11-03T18:08:36.000",
    "date_modified": "2024-11-03T18:08:37.000",
    "request_status": "Pending",
    "responsible_agency": "Department of Sanitation",
    "final_address": "1027 Pacific Ave",
    "address_councildis": "C",
    "status": "Assigned to Contractor",
    "contractor": "Richards Disposal",
    "rowid": "1145949",
    "final_x": "3688361.36892",
    "final_y": "527689.953535",
    "longitude": "-90.04654046549264",
    "latitude": "29.944754256764668",
    "geocoded_column": {
      "latitude": "29.944754256764668",
      "longitude": "-90.04654046549264"
    }
  },
  {
    "service_request": "2024-1145948",
    "request_type": "Trash/Recycling",
    "request_reason": "Illegal Dumping",
    "date_created": "2024-11-03T17:39:03.000",
    "date_modified": "2024-11-03T17:39:03.000",
    "request_status": "Pending",
    "responsible_agency": "Department of Sanitation",
    "final_address": "2405 Rex Pl",
    "address_councildis": "B",
    "status": "Pending",
    "rowid": "1145948",
    "final_x": "3673807.9892",
    "final_y": "527851.531263",
    "longitude": "-90.09248440346929",
    "latitude": "29.945639913871247",
    "geocoded_column": {
      "latitude": "29.945639913871247",
      "longitude": "-90.09248440346929"
    }
  },
  {
    "service_request": "2024-1145947",
    "request_type": "Trash/Recycling",
    "request_reason": "Order Recycling Cart",
    "date_created": "2024-11-03T17:34:43.000",
    "date_modified": "2024-11-03T17:34:43.000",
    "request_status": "Pending",
    "responsible_agency": "Department of Sanitation",
    "final_address": "3034 Marais St",
    "address_councildis": "C",
    "status": "Pending",
    "rowid": "1145947",
    "final_x": "3688791.7622",
    "final_y": "536395.005895",
    "longitude": "-90.04487253514812",
    "latitude": "29.968676844047295",
    "geocoded_column": {
      "latitude": "29.968676844047295",
      "longitude": "-90.04487253514812"
    }
  },
  {
    "service_request": "2024-1145946",
    "request_type": "Trash/Recycling",
    "request_reason": "Order Trash Cart",
    "date_created": "2024-11-03T17:32:13.000",
    "date_modified": "2024-11-03T17:32:14.000",
    "request_status": "Pending",
    "responsible_agency": "Department of Sanitation",
    "final_address": "3034 Marais St",
    "address_councildis": "C",
    "status": "Assigned to Contractor",
    "contractor": "IV Waste",
    "rowid": "1145946",
    "final_x": "3688791.7622",
    "final_y": "536395.005895",
    "longitude": "-90.04487253514812",
    "latitude": "29.968676844047295",
    "geocoded_column": {
      "latitude": "29.968676844047295",
      "longitude": "-90.04487253514812"
    }
  },
  {
    "service_request": "2024-1145945",
    "request_type": "General Services",
    "request_reason": "General Service Request",
    "date_created": "2024-11-03T17:26:56.000",
    "date_modified": "2024-11-03T17:26:56.000",
    "request_status": "Pending",
    "responsible_agency": "Orleans Parish Communication District",
    "final_address": "301 Alix St",
    "address_councildis": "C",
    "status": "Pending",
    "rowid": "1145945",
    "final_x": "3686472.76502",
    "final_y": "529951.998849",
    "longitude": "-90.05242350314853",
    "latitude": "29.951032294609277",
    "geocoded_column": {
      "latitude": "29.951032294609277",
      "longitude": "-90.05242350314853"
    }
  },
  {
    "service_request": "2024-1145944",
    "request_type": "Trash/Recycling",
    "request_reason": "Repair Trash Cart",
    "date_created": "2024-11-03T17:23:15.000",
    "date_modified": "2024-11-03T17:23:16.000",
    "request_status": "Pending",
    "responsible_agency": "Department of Sanitation",
    "final_address": "104 Constitution St, New Orleans, Louisiana, 70114",
    "address_councildis": "C",
    "status": "Assigned to Contractor",
    "contractor": "Richards Disposal",
    "rowid": "1145944",
    "final_x": "3693206.05846",
    "final_y": "528247.77728",
    "longitude": "-90.03122437871811",
    "latitude": "29.946137590915686",
    "geocoded_column": {
      "latitude": "29.946137590915686",
      "longitude": "-90.03122437871811"
    }
  },
  {
    "service_request": "2024-1145943",
    "request_type": "Trash/Recycling",
    "request_reason": "Request a Large Item Pick Up",
    "date_created": "2024-11-03T16:54:04.000",
    "date_modified": "2024-11-03T16:54:05.000",
    "request_status": "Pending",
    "responsible_agency": "Department of Sanitation",
    "final_address": "7812 Star St",
    "address_councildis": "E",
    "status": "Assigned to Contractor",
    "contractor": "Waste Pro",
    "rowid": "1145943",
    "final_x": "3720659.98335",
    "final_y": "574413.582571",
    "longitude": "-89.9427751408715",
    "latitude": "30.072188897201016",
    "geocoded_column": {
      "latitude": "30.072188897201016",
      "longitude": "-89.9427751408715"
    }
  },
  {
    "service_request": "2024-1145942",
    "request_type": "Roads and Streets",
    "request_reason": "Pothole",
    "date_created": "2024-11-03T16:47:21.000",
    "date_modified": "2024-11-03T16:47:21.000",
    "request_status": "Pending",
    "responsible_agency": "Department of Public Works",
    "final_address": "NAVARRE ST & ORLEANS AVE",
    "address_councildis": "A",
    "status": "Pending",
    "rowid": "1145942",
    "final_x": "3670590.6",
    "final_y": "543643.88",
    "longitude": "-90.10210700979252",
    "latitude": "29.989158996670124",
    "geocoded_column": {
      "latitude": "29.989158996670124",
      "longitude": "-90.10210700979252"
    }
  },
  {
    "service_request": "2024-1145941",
    "request_type": "Trash/Recycling",
    "request_reason": "Replace Trash Cart",
    "date_created": "2024-11-03T16:44:34.000",
    "date_modified": "2024-11-03T16:44:34.000",
    "request_status": "Pending",
    "responsible_agency": "Department of Sanitation",
    "final_address": "918 N Salcedo St",
    "address_councildis": "A",
    "status": "Assigned to Contractor",
    "contractor": "IV Waste",
    "rowid": "1145941",
    "final_x": "3676046.1963",
    "final_y": "538550.830729",
    "longitude": "-90.0850496288574",
    "latitude": "29.974992551957722",
    "geocoded_column": {
      "latitude": "29.974992551957722",
      "longitude": "-90.0850496288574"
    }
  },
  {
    "service_request": "2024-1145940",
    "request_type": "Trash/Recycling",
    "request_reason": "Request a Large Item Pick Up",
    "date_created": "2024-11-03T16:34:15.000",
    "date_modified": "2024-11-03T16:34:16.000",
    "request_status": "Pending",
    "responsible_agency": "Department of Sanitation",
    "final_address": "3000 BLK Saint Peter St",
    "address_councildis": "A",
    "status": "Assigned to Contractor",
    "contractor": "IV Waste",
    "rowid": "1145940",
    "final_x": "3675293.29111",
    "final_y": "537887.486349",
    "longitude": "-90.08745027896542",
    "latitude": "29.973191112949287",
    "geocoded_column": {
      "latitude": "29.973191112949287",
      "longitude": "-90.08745027896542"
    }
  },
  {
    "service_request": "2024-1145939",
    "request_type": "Trash/Recycling",
    "request_reason": "Request a Large Item Pick Up",
    "date_created": "2024-11-03T16:31:02.000",
    "date_modified": "2024-11-03T16:31:03.000",
    "request_status": "Pending",
    "responsible_agency": "Department of Sanitation",
    "final_address": "5445 Grand Bayou Dr",
    "address_councildis": "E",
    "status": "Assigned to Contractor",
    "contractor": "Waste Pro",
    "rowid": "1145939",
    "final_x": "3725782.70931",
    "final_y": "563918.063905",
    "longitude": "-89.9269879519494",
    "latitude": "30.043158715755137",
    "geocoded_column": {
      "latitude": "30.043158715755137",
      "longitude": "-89.9269879519494"
    }
  },
  {
    "service_request": "2024-1145938",
    "request_type": "Roads and Streets",
    "request_reason": "Street Subsidence (Sinking)",
    "date_created": "2024-11-03T16:29:35.000",
    "date_modified": "2024-11-03T16:29:35.000",
    "request_status": "Pending",
    "responsible_agency": "Department of Public Works",
    "final_address": "3127 Orleans Ave",
    "address_councildis": "A",
    "status": "Pending",
    "rowid": "1145938",
    "final_x": "3675138.43285",
    "final_y": "538322.814665",
    "longitude": "-90.08792440967386",
    "latitude": "29.974392746323943",
    "geocoded_column": {
      "latitude": "29.974392746323943",
      "longitude": "-90.08792440967386"
    }
  },
  {
    "service_request": "2024-1145937",
    "request_type": "Streetlights",
    "request_reason": "Streetlight Outage/Malfunction",
    "date_created": "2024-11-03T15:47:06.000",
    "date_modified": "2024-11-03T15:47:08.000",
    "request_status": "Pending",
    "responsible_agency": "Department of Public Works",
    "final_address": "840 Ursulines Ave",
    "address_councildis": "C",
    "status": "Pending",
    "contractor": "Legacy Professional Services",
    "rowid": "1145937",
    "final_x": "3682887.1972",
    "final_y": "534027.134085",
    "longitude": "-90.06360233140681",
    "latitude": "29.962347253677134",
    "geocoded_column": {
      "latitude": "29.962347253677134",
      "longitude": "-90.06360233140681"
    }
  },
  {
    "service_request": "2024-1145936",
    "request_type": "Trash/Recycling",
    "request_reason": "Request a Large Item Pick Up",
    "date_created": "2024-11-03T15:16:22.000",
    "date_modified": "2024-11-03T15:16:23.000",
    "request_status": "Pending",
    "responsible_agency": "Department of Sanitation",
    "final_address": "5906 Patton St",
    "address_councildis": "A",
    "status": "Assigned to Contractor",
    "contractor": "IV Waste",
    "rowid": "1145936",
    "final_x": "3664972.3442",
    "final_y": "518398.797686",
    "longitude": "-90.12069740491624",
    "latitude": "29.919908032242542",
    "geocoded_column": {
      "latitude": "29.919908032242542",
      "longitude": "-90.12069740491624"
    }
  },
  {
    "service_request": "2024-1145935",
    "request_type": "Trash/Recycling",
    "request_reason": "Replace Trash Cart",
    "date_created": "2024-11-03T15:12:49.000",
    "date_modified": "2024-11-03T15:12:50.000",
    "request_status": "Pending",
    "responsible_agency": "Department of Sanitation",
    "final_address": "14050 Linden St",
    "address_councildis": "E",
    "status": "Assigned to Contractor",
    "contractor": "Waste Pro",
    "rowid": "1145935",
    "final_x": "3718560.4309",
    "final_y": "572546.039273",
    "longitude": "-89.94948375214332",
    "latitude": "30.06712383048706",
    "geocoded_column": {
      "latitude": "30.06712383048706",
      "longitude": "-89.94948375214332"
    }
  },
  {
    "service_request": "2024-1145934",
    "request_type": "Drainage",
    "request_reason": "Ditch and Culvert Maintenance",
    "date_created": "2024-11-03T15:08:58.000",
    "date_modified": "2024-11-03T15:08:58.000",
    "request_status": "Pending",
    "responsible_agency": "Department of Public Works",
    "final_address": "1030 Tricou St",
    "address_councildis": "E",
    "status": "Pending",
    "rowid": "1145934",
    "final_x": "3700013.42359",
    "final_y": "532859.020612",
    "longitude": "-90.00956312494074",
    "latitude": "29.958602416737786",
    "geocoded_column": {
      "latitude": "29.958602416737786",
      "longitude": "-90.00956312494074"
    }
  },
  {
    "service_request": "2024-1145933",
    "request_type": "Trash/Recycling",
    "request_reason": "Request a Large Item Pick Up",
    "date_created": "2024-11-03T15:06:14.000",
    "date_modified": "2024-11-03T15:06:16.000",
    "request_status": "Pending",
    "responsible_agency": "Department of Sanitation",
    "final_address": "14050 Linden St",
    "address_councildis": "E",
    "status": "Assigned to Contractor",
    "contractor": "Waste Pro",
    "rowid": "1145933",
    "final_x": "3718560.4309",
    "final_y": "572546.039273",
    "longitude": "-89.94948375214332",
    "latitude": "30.06712383048706",
    "geocoded_column": {
      "latitude": "30.06712383048706",
      "longitude": "-89.94948375214332"
    }
  },
  {
    "service_request": "2024-1145932",
    "request_type": "Trash/Recycling",
    "request_reason": "Request a Large Item Pick Up",
    "date_created": "2024-11-03T15:01:33.000",
    "date_modified": "2024-11-03T15:01:34.000",
    "request_status": "Pending",
    "responsible_agency": "Department of Sanitation",
    "final_address": "2407 Soniat St",
    "address_councildis": "B",
    "status": "Assigned to Contractor",
    "contractor": "IV Waste",
    "rowid": "1145932",
    "final_x": "3668563.36807",
    "final_y": "524351.0407",
    "longitude": "-90.10916152343275",
    "latitude": "29.936169820329134",
    "geocoded_column": {
      "latitude": "29.936169820329134",
      "longitude": "-90.10916152343275"
    }
  },
  {
    "service_request": "2024-1145931",
    "request_type": "Abandoned Vehicles",
    "request_reason": "Abandoned/Junk Vehicles",
    "date_created": "2024-11-03T14:59:05.000",
    "date_modified": "2024-11-03T14:59:05.000",
    "request_status": "Pending",
    "responsible_agency": "Department of Public Works",
    "final_address": "2711 Lavender St",
    "address_councildis": "D",
    "status": "Pending",
    "rowid": "1145931",
    "final_x": "3687942.14262",
    "final_y": "547042.202897",
    "longitude": "-90.04717825570667",
    "latitude": "29.997979092259154",
    "geocoded_column": {
      "latitude": "29.997979092259154",
      "longitude": "-90.04717825570667"
    }
  },
  {
    "service_request": "2024-1145930",
    "request_type": "Trash/Recycling",
    "request_reason": "Request a Large Item Pick Up",
    "date_created": "2024-11-03T14:58:50.000",
    "date_modified": "2024-11-03T14:58:51.000",
    "request_status": "Pending",
    "responsible_agency": "Department of Sanitation",
    "final_address": "6223 Memphis St",
    "address_councildis": "A",
    "status": "Assigned to Contractor",
    "contractor": "IV Waste",
    "rowid": "1145930",
    "final_x": "3669389.17012",
    "final_y": "548702.484883",
    "longitude": "-90.10573079568755",
    "latitude": "30.003103855135976",
    "geocoded_column": {
      "latitude": "30.003103855135976",
      "longitude": "-90.10573079568755"
    }
  },
  {
    "service_request": "2024-1145929",
    "request_type": "Abandoned Vehicles",
    "request_reason": "Abandoned/Junk Vehicles",
    "date_created": "2024-11-03T14:52:02.000",
    "date_modified": "2024-11-03T14:52:02.000",
    "request_status": "Pending",
    "responsible_agency": "Department of Public Works",
    "final_address": "1710 Touro St",
    "address_councildis": "D",
    "status": "Pending",
    "rowid": "1145929",
    "final_x": "3684015.35682",
    "final_y": "538549.032841",
    "longitude": "-90.05988107221816",
    "latitude": "29.974746486710963",
    "geocoded_column": {
      "latitude": "29.974746486710963",
      "longitude": "-90.05988107221816"
    }
  },
  {
    "service_request": "2024-1145928",
    "request_type": "Abandoned Vehicles",
    "request_reason": "Abandoned/Junk Vehicles",
    "date_created": "2024-11-03T14:50:36.000",
    "date_modified": "2024-11-03T14:50:36.000",
    "request_status": "Pending",
    "responsible_agency": "Department of Public Works",
    "final_address": "1710 Touro St",
    "address_councildis": "D",
    "status": "Pending",
    "rowid": "1145928",
    "final_x": "3684015.35682",
    "final_y": "538549.032841",
    "longitude": "-90.05988107221816",
    "latitude": "29.974746486710963",
    "geocoded_column": {
      "latitude": "29.974746486710963",
      "longitude": "-90.05988107221816"
    }
  },
  {
    "service_request": "2024-1145927",
    "request_type": "Abandoned Vehicles",
    "request_reason": "Abandoned/Junk Vehicles",
    "date_created": "2024-11-03T14:46:07.000",
    "date_modified": "2024-11-03T14:46:07.000",
    "request_status": "Pending",
    "responsible_agency": "Department of Public Works",
    "final_address": "1710 Touro St",
    "address_councildis": "D",
    "status": "Pending",
    "rowid": "1145927",
    "final_x": "3684015.35682",
    "final_y": "538549.032841",
    "longitude": "-90.05988107221816",
    "latitude": "29.974746486710963",
    "geocoded_column": {
      "latitude": "29.974746486710963",
      "longitude": "-90.05988107221816"
    }
  },
  {
    "service_request": "2024-1145926",
    "request_type": "Abandoned Vehicles",
    "request_reason": "Abandoned/Junk Vehicles",
    "date_created": "2024-11-03T14:44:38.000",
    "date_modified": "2024-11-03T14:44:38.000",
    "request_status": "Pending",
    "responsible_agency": "Department of Public Works",
    "final_address": "1710 Touro St",
    "address_councildis": "D",
    "status": "Pending",
    "rowid": "1145926",
    "final_x": "3684015.35682",
    "final_y": "538549.032841",
    "longitude": "-90.05988107221816",
    "latitude": "29.974746486710963",
    "geocoded_column": {
      "latitude": "29.974746486710963",
      "longitude": "-90.05988107221816"
    }
  },
  {
    "service_request": "2024-1145925",
    "request_type": "General Services",
    "request_reason": "General Service Request",
    "date_created": "2024-11-03T14:44:12.000",
    "date_modified": "2024-11-03T14:44:12.000",
    "request_status": "Pending",
    "responsible_agency": "Orleans Parish Communication District",
    "final_address": "17 Oriole St",
    "address_councildis": "D",
    "status": "Pending",
    "rowid": "1145925",
    "final_x": "3675910.10318",
    "final_y": "556645.373786",
    "longitude": "-90.08485678560452",
    "latitude": "30.024750245606448",
    "geocoded_column": {
      "latitude": "30.024750245606448",
      "longitude": "-90.08485678560452"
    }
  },
  {
    "service_request": "2024-1145924",
    "request_type": "Trash/Recycling",
    "request_reason": "Request a Large Item Pick Up",
    "date_created": "2024-11-03T14:41:02.000",
    "date_modified": "2024-11-03T14:41:03.000",
    "request_status": "Pending",
    "responsible_agency": "Department of Sanitation",
    "final_address": "1939 Mazant St",
    "address_councildis": "D",
    "status": "Assigned to Contractor",
    "contractor": "IV Waste",
    "rowid": "1145924",
    "final_x": "3692970.12176",
    "final_y": "538516.140041",
    "longitude": "-90.03160099331829",
    "latitude": "29.974379357687717",
    "geocoded_column": {
      "latitude": "29.974379357687717",
      "longitude": "-90.03160099331829"
    }
  },
  {
    "service_request": "2024-1145923",
    "request_type": "Abandoned Vehicles",
    "request_reason": "Abandoned/Junk Vehicles",
    "date_created": "2024-11-03T14:38:43.000",
    "date_modified": "2024-11-03T14:38:43.000",
    "request_status": "Pending",
    "responsible_agency": "Department of Public Works",
    "final_address": "1710 Touro St",
    "address_councildis": "D",
    "status": "Pending",
    "rowid": "1145923",
    "final_x": "3684015.35682",
    "final_y": "538549.032841",
    "longitude": "-90.05988107221816",
    "latitude": "29.974746486710963",
    "geocoded_column": {
      "latitude": "29.974746486710963",
      "longitude": "-90.05988107221816"
    }
  },
  {
    "service_request": "2024-1145922",
    "request_type": "Utility Poles",
    "request_reason": "Utility Pole Leaning",
    "date_created": "2024-11-03T14:34:16.000",
    "date_modified": "2024-11-03T14:34:22.000",
    "request_status": "Pending",
    "responsible_agency": "Utility Company Collective",
    "final_address": "4901 Bancroft Dr",
    "address_councildis": "D",
    "status": "Pending",
    "rowid": "1145922",
    "final_x": "3676434.42337",
    "final_y": "550223.77858",
    "longitude": "-90.08342136137864",
    "latitude": "30.007077449080274",
    "geocoded_column": {
      "latitude": "30.007077449080274",
      "longitude": "-90.08342136137864"
    }
  },
  {
    "service_request": "2024-1145921",
    "request_type": "Property Maintenance",
    "request_reason": "Property Maintenance",
    "date_created": "2024-11-03T14:31:54.000",
    "date_modified": "2024-11-03T14:31:54.000",
    "request_status": "Pending",
    "responsible_agency": "Department of Code Enforcement",
    "final_address": "1211 France St",
    "address_councildis": "D",
    "status": "Pending",
    "rowid": "1145921",
    "final_x": "3692549.57296",
    "final_y": "535620.402822",
    "longitude": "-90.03303296307601",
    "latitude": "29.966430236367017",
    "geocoded_column": {
      "latitude": "29.966430236367017",
      "longitude": "-90.03303296307601"
    }
  },
  {
    "service_request": "2024-1145920",
    "request_type": "Roads and Streets",
    "request_reason": "Street Subsidence (Sinking)",
    "date_created": "2024-11-03T14:30:08.000",
    "date_modified": "2024-11-03T14:30:08.000",
    "request_status": "Pending",
    "responsible_agency": "Department of Public Works",
    "final_address": "4840 St Bernard Ave",
    "address_councildis": "D",
    "status": "Pending",
    "rowid": "1145920",
    "final_x": "3676602.07483",
    "final_y": "550027.122196",
    "longitude": "-90.08289848429477",
    "latitude": "30.00653168441902",
    "geocoded_column": {
      "latitude": "30.00653168441902",
      "longitude": "-90.08289848429477"
    }
  },
  {
    "service_request": "2024-1145919",
    "request_type": "Parks & Parkways",
    "request_reason": "Request Tree Service (Right of Way/Public Property)",
    "date_created": "2024-11-03T14:29:27.000",
    "date_modified": "2024-11-03T14:29:27.000",
    "request_status": "Pending",
    "responsible_agency": "Department of Parks & Parkway",
    "final_address": "48 Versailles Blvd",
    "address_councildis": "A",
    "status": "Pending",
    "rowid": "1145919",
    "final_x": "3667532.03354",
    "final_y": "530112.372417",
    "longitude": "-90.11222365214594",
    "latitude": "29.952041876545856",
    "geocoded_column": {
      "latitude": "29.952041876545856",
      "longitude": "-90.11222365214594"
    }
  },
  {
    "service_request": "2024-1145918",
    "request_type": "Abandoned Vehicles",
    "request_reason": "Abandoned/Junk Vehicles",
    "date_created": "2024-11-03T14:27:21.000",
    "date_modified": "2024-11-03T14:27:21.000",
    "request_status": "Pending",
    "responsible_agency": "Department of Public Works",
    "final_address": "1710 Touro St",
    "address_councildis": "D",
    "status": "Pending",
    "rowid": "1145918",
    "final_x": "3684015.35682",
    "final_y": "538549.032841",
    "longitude": "-90.05988107221816",
    "latitude": "29.974746486710963",
    "geocoded_column": {
      "latitude": "29.974746486710963",
      "longitude": "-90.05988107221816"
    }
  },
  {
    "service_request": "2024-1145917",
    "request_type": "Trash/Recycling",
    "request_reason": "Request a Large Item Pick Up",
    "date_created": "2024-11-03T14:25:09.000",
    "date_modified": "2024-11-03T14:25:10.000",
    "request_status": "Pending",
    "responsible_agency": "Department of Sanitation",
    "final_address": "7032 E Tamaron Blvd",
    "address_councildis": "E",
    "status": "Assigned to Contractor",
    "contractor": "Waste Pro",
    "rowid": "1145917",
    "final_x": "3718914.33522",
    "final_y": "568354.888613",
    "longitude": "-89.94852513246578",
    "latitude": "30.0555881577649",
    "geocoded_column": {
      "latitude": "30.0555881577649",
      "longitude": "-89.94852513246578"
    }
  },
  {
    "service_request": "2024-1145916",
    "request_type": "General Services",
    "request_reason": "General Service Request",
    "date_created": "2024-11-03T14:22:06.000",
    "date_modified": "2024-11-03T14:22:06.000",
    "request_status": "Pending",
    "responsible_agency": "Orleans Parish Communication District",
    "final_address": "0 BLK Claiborne Dr",
    "address_councildis": "A",
    "status": "Pending",
    "rowid": "1145916",
    "final_x": "3674085.17443",
    "final_y": "541752.972384",
    "longitude": "-90.09113341263269",
    "latitude": "29.983855941679376",
    "geocoded_column": {
      "latitude": "29.983855941679376",
      "longitude": "-90.09113341263269"
    }
  },
  {
    "service_request": "2024-1145915",
    "request_type": "General Services",
    "request_reason": "General Service Request",
    "date_created": "2024-11-03T14:12:14.000",
    "date_modified": "2024-11-03T14:12:14.000",
    "request_status": "Pending",
    "responsible_agency": "Orleans Parish Communication District",
    "final_address": "Milne, Illinois",
    "status": "Pending",
    "rowid": "1145915",
    "longitude": "0.0",
    "latitude": "0.0",
    "geocoded_column": {
      "latitude": "0.0",
      "longitude": "0.0"
    }
  },
  {
    "service_request": "2024-1145914",
    "request_type": "Trash/Recycling",
    "request_reason": "Request a Large Item Pick Up",
    "date_created": "2024-11-03T14:06:59.000",
    "date_modified": "2024-11-03T14:07:00.000",
    "request_status": "Pending",
    "responsible_agency": "Department of Sanitation",
    "final_address": "1251 Esplanade Ave",
    "address_councildis": "C",
    "status": "Assigned to Contractor",
    "contractor": "IV Waste",
    "rowid": "1145914",
    "final_x": "3682298.08783",
    "final_y": "535863.070343",
    "longitude": "-90.06539849878249",
    "latitude": "29.967413384712877",
    "geocoded_column": {
      "latitude": "29.967413384712877",
      "longitude": "-90.06539849878249"
    }
  },
  {
    "service_request": "2024-1145913",
    "request_type": "Drainage",
    "request_reason": "Catch Basin Clogged",
    "date_created": "2024-11-03T13:45:05.000",
    "date_modified": "2024-11-03T13:45:05.000",
    "request_status": "Pending",
    "responsible_agency": "Department of Public Works",
    "final_address": "1340 St Anthony St",
    "address_councildis": "C",
    "status": "Pending",
    "rowid": "1145913",
    "final_x": "3683396.12745",
    "final_y": "536884.075528",
    "longitude": "-90.06189509761259",
    "latitude": "29.970187340731506",
    "geocoded_column": {
      "latitude": "29.970187340731506",
      "longitude": "-90.06189509761259"
    }
  },
  {
    "service_request": "2024-1145912",
    "request_type": "Trash/Recycling",
    "request_reason": "Order Recycling Cart",
    "date_created": "2024-11-03T13:41:44.000",
    "date_modified": "2024-11-03T13:41:44.000",
    "request_status": "Pending",
    "responsible_agency": "Department of Sanitation",
    "final_address": "1305 St Anthony St",
    "address_councildis": "C",
    "status": "Pending",
    "rowid": "1145912",
    "final_x": "3683503.92745",
    "final_y": "536614.646151",
    "longitude": "-90.06156409834564",
    "latitude": "29.969443213784615",
    "geocoded_column": {
      "latitude": "29.969443213784615",
      "longitude": "-90.06156409834564"
    }
  },
  {
    "service_request": "2024-1145911",
    "request_type": "Trash/Recycling",
    "request_reason": "Request a Large Item Pick Up",
    "date_created": "2024-11-03T13:32:22.000",
    "date_modified": "2024-11-03T13:32:22.000",
    "request_status": "Pending",
    "responsible_agency": "Department of Sanitation",
    "final_address": "133 N Rendon St",
    "address_councildis": "B",
    "status": "Assigned to Contractor",
    "contractor": "IV Waste",
    "rowid": "1145911",
    "final_x": "3673721.94772",
    "final_y": "536777.355784",
    "longitude": "-90.0924508719436",
    "latitude": "29.970185515515027",
    "geocoded_column": {
      "latitude": "29.970185515515027",
      "longitude": "-90.0924508719436"
    }
  },
  {
    "service_request": "2024-1145910",
    "request_type": "Property Maintenance",
    "request_reason": "Property Maintenance",
    "date_created": "2024-11-03T13:26:24.000",
    "date_modified": "2024-11-03T13:26:24.000",
    "request_status": "Pending",
    "responsible_agency": "Department of Code Enforcement",
    "final_address": "4041 State Street Dr",
    "address_councildis": "B",
    "status": "Pending",
    "rowid": "1145910",
    "final_x": "3668330.87988",
    "final_y": "530499.85805",
    "longitude": "-90.10968819641269",
    "latitude": "29.95308390258863",
    "geocoded_column": {
      "latitude": "29.95308390258863",
      "longitude": "-90.10968819641269"
    }
  },
  {
    "service_request": "2024-1145909",
    "request_type": "Abandoned Vehicles",
    "request_reason": "Abandoned/Junk Vehicles",
    "date_created": "2024-11-03T13:23:37.000",
    "date_modified": "2024-11-03T13:23:37.000",
    "request_status": "Pending",
    "responsible_agency": "Department of Public Works",
    "final_address": "7311 Cohn St",
    "address_councildis": "A",
    "status": "Pending",
    "rowid": "1145909",
    "final_x": "3665228.53364",
    "final_y": "528820.340096",
    "longitude": "-90.11954026961976",
    "latitude": "29.948556504212327",
    "geocoded_column": {
      "latitude": "29.948556504212327",
      "longitude": "-90.11954026961976"
    }
  },
  {
    "service_request": "2024-1145908",
    "request_type": "Trash/Recycling",
    "request_reason": "Request a Large Item Pick Up",
    "date_created": "2024-11-03T12:43:34.000",
    "date_modified": "2024-11-03T12:43:35.000",
    "request_status": "Pending",
    "responsible_agency": "Department of Sanitation",
    "final_address": "5043 E Lemans St",
    "address_councildis": "E",
    "status": "Assigned to Contractor",
    "contractor": "Waste Pro",
    "rowid": "1145908",
    "final_x": "3727319.73331",
    "final_y": "562948.93968",
    "longitude": "-89.92216811193978",
    "latitude": "30.040442067156807",
    "geocoded_column": {
      "latitude": "30.040442067156807",
      "longitude": "-89.92216811193978"
    }
  },
  {
    "service_request": "2024-1145907",
    "request_type": "Trash/Recycling",
    "request_reason": "Missed Trash Pick-Up",
    "date_created": "2024-11-03T12:26:46.000",
    "date_modified": "2024-11-03T12:26:47.000",
    "request_status": "Pending",
    "responsible_agency": "Department of Sanitation",
    "final_address": "7678 Forum Blvd",
    "address_councildis": "E",
    "status": "Assigned to Contractor",
    "contractor": "Waste Pro",
    "rowid": "1145907",
    "final_x": "3719784.03941",
    "final_y": "573247.472297",
    "longitude": "-89.9455889058327",
    "latitude": "30.069011786231687",
    "geocoded_column": {
      "latitude": "30.069011786231687",
      "longitude": "-89.9455889058327"
    }
  },
  {
    "service_request": "2024-1145906",
    "request_type": "Trash/Recycling",
    "request_reason": "Return Trash Cart",
    "date_created": "2024-11-03T12:23:21.000",
    "date_modified": "2024-11-03T12:23:22.000",
    "request_status": "Pending",
    "responsible_agency": "Department of Sanitation",
    "final_address": "724 Marengo St",
    "address_councildis": "B",
    "status": "Assigned to Contractor",
    "contractor": "IV Waste",
    "rowid": "1145906",
    "final_x": "3672169.65543",
    "final_y": "518371.648118",
    "longitude": "-90.09797986516588",
    "latitude": "29.919621978200443",
    "geocoded_column": {
      "latitude": "29.919621978200443",
      "longitude": "-90.09797986516588"
    }
  },
  {
    "service_request": "2024-1145905",
    "request_type": "Trash/Recycling",
    "request_reason": "Return Trash Cart",
    "date_created": "2024-11-03T12:19:31.000",
    "date_modified": "2024-11-03T12:19:32.000",
    "request_status": "Pending",
    "responsible_agency": "Department of Sanitation",
    "final_address": "607 Bordeaux St",
    "address_councildis": "B",
    "status": "Assigned to Contractor",
    "contractor": "IV Waste",
    "rowid": "1145905",
    "final_x": "3669716.66977",
    "final_y": "517730.20799",
    "longitude": "-90.10574444080785",
    "latitude": "29.9179307109184",
    "geocoded_column": {
      "latitude": "29.9179307109184",
      "longitude": "-90.10574444080785"
    }
  },
  {
    "service_request": "2024-1145904",
    "request_type": "Trash/Recycling",
    "request_reason": "Missed Trash Pick-Up",
    "date_created": "2024-11-03T12:12:40.000",
    "date_modified": "2024-11-03T12:12:41.000",
    "request_status": "Pending",
    "responsible_agency": "Department of Sanitation",
    "final_address": "10900 Roger Dr Apt A",
    "address_councildis": "E",
    "status": "Assigned to Contractor",
    "contractor": "Waste Pro",
    "rowid": "1145904",
    "final_x": "3711945.91794",
    "final_y": "563203.6168",
    "longitude": "-89.97074437028046",
    "latitude": "30.041653968701016",
    "geocoded_column": {
      "latitude": "30.041653968701016",
      "longitude": "-89.97074437028046"
    }
  },
  {
    "service_request": "2024-1145903",
    "request_type": "Trash/Recycling",
    "request_reason": "Request a Large Item Pick Up",
    "date_created": "2024-11-03T11:38:12.000",
    "date_modified": "2024-11-03T11:38:13.000",
    "request_status": "Pending",
    "responsible_agency": "Department of Sanitation",
    "final_address": "706 N Alexander St",
    "address_councildis": "A",
    "status": "Assigned to Contractor",
    "contractor": "IV Waste",
    "rowid": "1145903",
    "final_x": "3671380.34318",
    "final_y": "540944.807243",
    "longitude": "-90.09970422557163",
    "latitude": "29.981714114194766",
    "geocoded_column": {
      "latitude": "29.981714114194766",
      "longitude": "-90.09970422557163"
    }
  },
  {
    "service_request": "2024-1145902",
    "request_type": "Property Maintenance",
    "request_reason": "Property Maintenance",
    "date_created": "2024-11-03T11:32:02.000",
    "date_modified": "2024-11-03T11:32:02.000",
    "request_status": "Pending",
    "responsible_agency": "Department of Code Enforcement",
    "final_address": "1111 Poland Ave",
    "address_councildis": "D",
    "status": "Pending",
    "rowid": "1145902",
    "final_x": "3693198.2847",
    "final_y": "535193.421126",
    "longitude": "-90.03099967493971",
    "latitude": "29.965235929674588",
    "geocoded_column": {
      "latitude": "29.965235929674588",
      "longitude": "-90.03099967493971"
    }
  },
  {
    "service_request": "2024-1145901",
    "request_type": "Abandoned Vehicles",
    "request_reason": "Abandoned/Junk Vehicles",
    "date_created": "2024-11-03T11:30:18.000",
    "date_modified": "2024-11-03T11:30:18.000",
    "request_status": "Pending",
    "responsible_agency": "Department of Public Works",
    "final_address": "426 Delery St",
    "address_councildis": "E",
    "status": "Pending",
    "rowid": "1145901",
    "final_x": "3699533.31895",
    "final_y": "530787.871874",
    "longitude": "-90.0111546263561",
    "latitude": "29.95292273459336",
    "geocoded_column": {
      "latitude": "29.95292273459336",
      "longitude": "-90.0111546263561"
    }
  },
  {
    "service_request": "2024-1145900",
    "request_type": "Trash/Recycling",
    "request_reason": "Illegal Dumping",
    "date_created": "2024-11-03T11:24:25.000",
    "date_modified": "2024-11-03T11:24:25.000",
    "request_status": "Pending",
    "responsible_agency": "Department of Sanitation",
    "final_address": "7301 Dogwood Dr",
    "address_councildis": "E",
    "status": "Pending",
    "rowid": "1145900",
    "final_x": "3701706.24708",
    "final_y": "560045.505629",
    "longitude": "-90.00322113513974",
    "latitude": "30.033301231877566",
    "geocoded_column": {
      "latitude": "30.033301231877566",
      "longitude": "-90.00322113513974"
    }
  },
  {
    "service_request": "2024-1145899",
    "request_type": "Trash/Recycling",
    "request_reason": "Request a Large Item Pick Up",
    "date_created": "2024-11-03T11:19:41.000",
    "date_modified": "2024-11-03T11:19:43.000",
    "request_status": "Pending",
    "responsible_agency": "Department of Sanitation",
    "final_address": "7540 Ligustrum Dr",
    "address_councildis": "E",
    "status": "Assigned to Contractor",
    "contractor": "Waste Pro",
    "rowid": "1145899",
    "final_x": "3701508.27255",
    "final_y": "560958.916638",
    "longitude": "-90.00381325912241",
    "latitude": "30.03581907414187",
    "geocoded_column": {
      "latitude": "30.03581907414187",
      "longitude": "-90.00381325912241"
    }
  },
  {
    "service_request": "2024-1145898",
    "request_type": "Mosquito, Termite & Rodent Control",
    "request_reason": "Rodent Complaint (Rats)",
    "date_created": "2024-11-03T11:15:14.000",
    "date_modified": "2024-11-03T11:15:14.000",
    "request_status": "Pending",
    "responsible_agency": "Mosquito, Termite & Rodent Control Board",
    "final_address": "2706 Edna St",
    "address_councildis": "D",
    "status": "Pending",
    "rowid": "1145898",
    "final_x": "3689460.07158",
    "final_y": "545216.540431",
    "longitude": "-90.0424481291147",
    "latitude": "29.99291224500831",
    "geocoded_column": {
      "latitude": "29.99291224500831",
      "longitude": "-90.0424481291147"
    }
  },
  {
    "service_request": "2024-1145897",
    "request_type": "Trash/Recycling",
    "request_reason": "Request a Large Item Pick Up",
    "date_created": "2024-11-03T10:58:07.000",
    "date_modified": "2024-11-03T10:58:08.000",
    "request_status": "Pending",
    "responsible_agency": "Department of Sanitation",
    "final_address": "127 Country Club Dr",
    "address_councildis": "A",
    "status": "Assigned to Contractor",
    "contractor": "IV Waste",
    "rowid": "1145897",
    "final_x": "3665593.68276",
    "final_y": "544415.725071",
    "longitude": "-90.1178650014143",
    "latitude": "29.991427998431163",
    "geocoded_column": {
      "latitude": "29.991427998431163",
      "longitude": "-90.1178650014143"
    }
  },
  {
    "service_request": "2024-1145896",
    "request_type": "Trash/Recycling",
    "request_reason": "Request a Large Item Pick Up",
    "date_created": "2024-11-03T10:55:22.000",
    "date_modified": "2024-11-03T10:55:23.000",
    "request_status": "Pending",
    "responsible_agency": "Department of Sanitation",
    "final_address": "2907 Banks St",
    "address_councildis": "B",
    "status": "Assigned to Contractor",
    "contractor": "IV Waste",
    "rowid": "1145896",
    "final_x": "3673865.23361",
    "final_y": "534800.996934",
    "longitude": "-90.09206597291343",
    "latitude": "29.964746928056908",
    "geocoded_column": {
      "latitude": "29.964746928056908",
      "longitude": "-90.09206597291343"
    }
  },
  {
    "service_request": "2024-1145895",
    "request_type": "Trash/Recycling",
    "request_reason": "Request a Large Item Pick Up",
    "date_created": "2024-11-03T10:43:34.000",
    "date_modified": "2024-11-03T10:43:35.000",
    "request_status": "Pending",
    "responsible_agency": "Department of Sanitation",
    "final_address": "1454 N Prieur St",
    "address_councildis": "D",
    "status": "Assigned to Contractor",
    "contractor": "IV Waste",
    "rowid": "1145895",
    "final_x": "3680797.26331",
    "final_y": "537625.3394",
    "longitude": "-90.07007677029556",
    "latitude": "29.972304597656066",
    "geocoded_column": {
      "latitude": "29.972304597656066",
      "longitude": "-90.07007677029556"
    }
  },
  {
    "service_request": "2024-1145894",
    "request_type": "Trash/Recycling",
    "request_reason": "Missed Trash Pick-Up",
    "date_created": "2024-11-03T10:13:28.000",
    "date_modified": "2024-11-03T10:13:29.000",
    "request_status": "Pending",
    "responsible_agency": "Department of Sanitation",
    "final_address": "1800 BLK Charbonnet St",
    "address_councildis": "E",
    "status": "Assigned to Contractor",
    "contractor": "Waste Pro",
    "rowid": "1145894",
    "final_x": "3699376.43618",
    "final_y": "536412.052948",
    "longitude": "-90.0114451188277",
    "latitude": "29.9683922049019",
    "geocoded_column": {
      "latitude": "29.9683922049019",
      "longitude": "-90.0114451188277"
    }
  },
  {
    "service_request": "2024-1145893",
    "request_type": "Property Maintenance",
    "request_reason": "Property Maintenance",
    "date_created": "2024-11-03T09:45:34.000",
    "date_modified": "2024-11-03T09:45:34.000",
    "request_status": "Pending",
    "responsible_agency": "Department of Code Enforcement",
    "final_address": "4136 Constance St",
    "address_councildis": "B",
    "status": "Pending",
    "rowid": "1145893",
    "final_x": "3671889.21947",
    "final_y": "518464.622902",
    "longitude": "-90.0988619029197",
    "latitude": "29.919885939788873",
    "geocoded_column": {
      "latitude": "29.919885939788873",
      "longitude": "-90.0988619029197"
    }
  },
  {
    "service_request": "2024-1145892",
    "request_type": "Abandoned Vehicles",
    "request_reason": "Abandoned/Junk Vehicles",
    "date_created": "2024-11-03T09:43:28.000",
    "date_modified": "2024-11-03T09:43:28.000",
    "request_status": "Pending",
    "responsible_agency": "Department of Public Works",
    "final_address": "1213 Third St",
    "address_councildis": "B",
    "status": "Pending",
    "rowid": "1145892",
    "final_x": "3677365.20078",
    "final_y": "521621.053241",
    "longitude": "-90.08146803185676",
    "latitude": "29.92840174624419",
    "geocoded_column": {
      "latitude": "29.92840174624419",
      "longitude": "-90.08146803185676"
    }
  },
  {
    "service_request": "2024-1145891",
    "request_type": "Trash/Recycling",
    "request_reason": "Request a Large Item Pick Up",
    "date_created": "2024-11-03T09:35:36.000",
    "date_modified": "2024-11-03T09:35:38.000",
    "request_status": "Pending",
    "responsible_agency": "Department of Sanitation",
    "final_address": "5315 Marigny St",
    "address_councildis": "D",
    "status": "Assigned to Contractor",
    "contractor": "IV Waste",
    "rowid": "1145891",
    "final_x": "3684161.82889",
    "final_y": "552491.456406",
    "longitude": "-90.05892873535495",
    "latitude": "30.01307870125284",
    "geocoded_column": {
      "latitude": "30.01307870125284",
      "longitude": "-90.05892873535495"
    }
  },
  {
    "service_request": "2024-1145890",
    "request_type": "Property Maintenance",
    "request_reason": "Property Maintenance",
    "date_created": "2024-11-03T08:59:52.000",
    "date_modified": "2024-11-03T08:59:52.000",
    "request_status": "Pending",
    "responsible_agency": "Department of Code Enforcement",
    "final_address": "205 N Tonti St",
    "address_councildis": "B",
    "status": "Pending",
    "rowid": "1145890",
    "final_x": "3676720.48296",
    "final_y": "534736.145158",
    "longitude": "-90.08305151564602",
    "latitude": "29.96448325070106",
    "geocoded_column": {
      "latitude": "29.96448325070106",
      "longitude": "-90.08305151564602"
    }
  },
  {
    "service_request": "2024-1145889",
    "request_type": "Health Related Request",
    "request_reason": "Noise Ordinance Complaint",
    "date_created": "2024-11-03T08:49:12.000",
    "date_modified": "2024-11-03T08:49:12.000",
    "request_status": "Pending",
    "responsible_agency": "Health Department",
    "final_address": "1317 Bartholomew St",
    "address_councildis": "D",
    "status": "Pending",
    "rowid": "1145889",
    "final_x": "3692056.67677",
    "final_y": "536151.601223",
    "longitude": "-90.03457050221184",
    "latitude": "29.967906215369617",
    "geocoded_column": {
      "latitude": "29.967906215369617",
      "longitude": "-90.03457050221184"
    }
  },
  {
    "service_request": "2024-1145888",
    "request_type": "Trash/Recycling",
    "request_reason": "Order Recycling Cart",
    "date_created": "2024-11-03T08:34:00.000",
    "date_modified": "2024-11-03T08:34:00.000",
    "request_status": "Pending",
    "responsible_agency": "Department of Sanitation",
    "final_address": "2433 Almonaster Ave",
    "address_councildis": "D",
    "status": "Pending",
    "rowid": "1145888",
    "final_x": "3688477.88566",
    "final_y": "541648.059916",
    "longitude": "-90.04567734605337",
    "latitude": "29.983130589398247",
    "geocoded_column": {
      "latitude": "29.983130589398247",
      "longitude": "-90.04567734605337"
    }
  },
  {
    "service_request": "2024-1145887",
    "request_type": "Trash/Recycling",
    "request_reason": "Order Recycling Cart",
    "date_created": "2024-11-03T08:32:58.000",
    "date_modified": "2024-11-03T08:32:58.000",
    "request_status": "Pending",
    "responsible_agency": "Department of Sanitation",
    "final_address": "2435 Almonaster Ave",
    "address_councildis": "D",
    "status": "Pending",
    "rowid": "1145887",
    "final_x": "3688480.31222",
    "final_y": "541659.785228",
    "longitude": "-90.04566926556618",
    "latitude": "29.983162754853247",
    "geocoded_column": {
      "latitude": "29.983162754853247",
      "longitude": "-90.04566926556618"
    }
  },
  {
    "service_request": "2024-1145886",
    "request_type": "Abandoned Vehicles",
    "request_reason": "Abandoned/Junk Vehicles",
    "date_created": "2024-11-03T08:21:07.000",
    "date_modified": "2024-11-03T08:21:07.000",
    "request_status": "Pending",
    "responsible_agency": "Department of Public Works",
    "final_address": "201 S Solomon St",
    "address_councildis": "A",
    "status": "Pending",
    "rowid": "1145886",
    "final_x": "3670241.26241",
    "final_y": "538411.785737",
    "longitude": "-90.10338786451712",
    "latitude": "29.97478283433782",
    "geocoded_column": {
      "latitude": "29.97478283433782",
      "longitude": "-90.10338786451712"
    }
  },
  {
    "service_request": "2024-1145885",
    "request_type": "Trash/Recycling",
    "request_reason": "Request a Large Item Pick Up",
    "date_created": "2024-11-03T08:20:46.000",
    "date_modified": "2024-11-03T08:20:47.000",
    "request_status": "Pending",
    "responsible_agency": "Department of Sanitation",
    "final_address": "7725 Devine Ave",
    "address_councildis": "E",
    "status": "Assigned to Contractor",
    "contractor": "Waste Pro",
    "rowid": "1145885",
    "final_x": "3705524.681",
    "final_y": "563462.81872",
    "longitude": "-89.9910280812975",
    "latitude": "30.04257506551489",
    "geocoded_column": {
      "latitude": "30.04257506551489",
      "longitude": "-89.9910280812975"
    }
  },
  {
    "service_request": "2024-1145884",
    "request_type": "Abandoned Vehicles",
    "request_reason": "Abandoned/Junk Vehicles",
    "date_created": "2024-11-03T07:59:00.000",
    "date_modified": "2024-11-03T07:59:00.000",
    "request_status": "Pending",
    "responsible_agency": "Department of Public Works",
    "final_address": "2727 Carondelet St",
    "address_councildis": "B",
    "status": "Pending",
    "rowid": "1145884",
    "final_x": "3675763.04885",
    "final_y": "522948.021947",
    "longitude": "-90.0864801004693",
    "latitude": "29.932098512070176",
    "geocoded_column": {
      "latitude": "29.932098512070176",
      "longitude": "-90.0864801004693"
    }
  },
  {
    "service_request": "2024-1145883",
    "request_type": "Trash/Recycling",
    "request_reason": "Request a Large Item Pick Up",
    "date_created": "2024-11-03T07:49:06.000",
    "date_modified": "2024-11-03T07:49:07.000",
    "request_status": "Pending",
    "responsible_agency": "Department of Sanitation",
    "final_address": "7301 Wayside Dr",
    "address_councildis": "E",
    "status": "Assigned to Contractor",
    "contractor": "Waste Pro",
    "rowid": "1145883",
    "final_x": "3717127.64383",
    "final_y": "568646.471845",
    "longitude": "-89.9541613635904",
    "latitude": "30.056449142733285",
    "geocoded_column": {
      "latitude": "30.056449142733285",
      "longitude": "-89.9541613635904"
    }
  },
  {
    "service_request": "2024-1145882",
    "request_type": "Streetlights",
    "request_reason": "Streetlight Outage/Malfunction",
    "date_created": "2024-11-03T07:44:57.000",
    "date_modified": "2024-11-03T07:44:58.000",
    "request_status": "Pending",
    "responsible_agency": "Department of Public Works",
    "final_address": "7918 Spruce St",
    "address_councildis": "A",
    "status": "Pending",
    "contractor": "Legacy Professional Services",
    "rowid": "1145882",
    "final_x": "3664285.813",
    "final_y": "529999.387073",
    "longitude": "-90.1224775083034",
    "latitude": "29.951825927884688",
    "geocoded_column": {
      "latitude": "29.951825927884688",
      "longitude": "-90.1224775083034"
    }
  },
  {
    "service_request": "2024-1145881",
    "request_type": "Abandoned Vehicles",
    "request_reason": "Abandoned/Junk Vehicles",
    "date_created": "2024-11-03T07:42:53.000",
    "date_modified": "2024-11-03T07:42:53.000",
    "request_status": "Pending",
    "responsible_agency": "Department of Public Works",
    "final_address": "225 S Solomon St",
    "address_councildis": "A",
    "status": "Pending",
    "rowid": "1145881",
    "final_x": "3670134.33722",
    "final_y": "538271.726537",
    "longitude": "-90.10373030872863",
    "latitude": "29.97440087420824",
    "geocoded_column": {
      "latitude": "29.97440087420824",
      "longitude": "-90.10373030872863"
    }
  },
  {
    "service_request": "2024-1145880",
    "request_type": "Abandoned Vehicles",
    "request_reason": "Abandoned/Junk Vehicles",
    "date_created": "2024-11-03T07:41:21.000",
    "date_modified": "2024-11-03T07:41:21.000",
    "request_status": "Pending",
    "responsible_agency": "Department of Public Works",
    "final_address": "225 S Solomon St",
    "address_councildis": "A",
    "status": "Pending",
    "rowid": "1145880",
    "final_x": "3670134.33722",
    "final_y": "538271.726537",
    "longitude": "-90.10373030872863",
    "latitude": "29.97440087420824",
    "geocoded_column": {
      "latitude": "29.97440087420824",
      "longitude": "-90.10373030872863"
    }
  },
  {
    "service_request": "2024-1145879",
    "request_type": "Safety & Permits",
    "request_reason": "Licenses & Permits",
    "date_created": "2024-11-03T07:39:18.000",
    "date_modified": "2024-11-03T07:39:18.000",
    "request_status": "Pending",
    "responsible_agency": "Safety and Permits",
    "final_address": "225 S Solomon St",
    "address_councildis": "A",
    "status": "Pending",
    "rowid": "1145879",
    "final_x": "3670134.33722",
    "final_y": "538271.726537",
    "longitude": "-90.10373030872863",
    "latitude": "29.97440087420824",
    "geocoded_column": {
      "latitude": "29.97440087420824",
      "longitude": "-90.10373030872863"
    }
  },
  {
    "service_request": "2024-1145878",
    "request_type": "Trash/Recycling",
    "request_reason": "Replace Trash Cart",
    "date_created": "2024-11-03T07:35:08.000",
    "date_modified": "2024-11-03T07:35:08.000",
    "request_status": "Pending",
    "responsible_agency": "Department of Sanitation",
    "final_address": "319 N Diamond St",
    "address_councildis": "B",
    "status": "Assigned to Contractor",
    "contractor": "Empire Services",
    "rowid": "1145878",
    "final_x": "3682106.18415",
    "final_y": "526862.191486",
    "longitude": "-90.06631884226624",
    "latitude": "29.942669860646202",
    "geocoded_column": {
      "latitude": "29.942669860646202",
      "longitude": "-90.06631884226624"
    }
  },
  {
    "service_request": "2024-1145877",
    "request_type": "Drainage",
    "request_reason": "Street Flooding",
    "date_created": "2024-11-03T07:13:49.000",
    "date_modified": "2024-11-03T07:13:49.000",
    "request_status": "Pending",
    "responsible_agency": "Department of Public Works",
    "final_address": "1600 BLK Saint Ann St",
    "address_councildis": "C",
    "status": "Pending",
    "rowid": "1145877",
    "final_x": "3680167.90045",
    "final_y": "534748.97983",
    "longitude": "-90.07216438922391",
    "latitude": "29.964414658961406",
    "geocoded_column": {
      "latitude": "29.964414658961406",
      "longitude": "-90.07216438922391"
    }
  },
  {
    "service_request": "2024-1145876",
    "request_type": "Property Maintenance",
    "request_reason": "Property Maintenance",
    "date_created": "2024-11-03T07:06:37.000",
    "date_modified": "2024-11-03T07:06:37.000",
    "request_status": "Pending",
    "responsible_agency": "Department of Code Enforcement",
    "final_address": "4036 General Ogden St",
    "address_councildis": "A",
    "status": "Pending",
    "rowid": "1145876",
    "final_x": "3666749.48129",
    "final_y": "537883.013961",
    "longitude": "-90.1144335889574",
    "latitude": "29.97343148603221",
    "geocoded_column": {
      "latitude": "29.97343148603221",
      "longitude": "-90.1144335889574"
    }
  },
  {
    "service_request": "2024-1145875",
    "request_type": "Parks & Parkways",
    "request_reason": "Request Grass Cutting Service (City Owned Property)",
    "date_created": "2024-11-03T07:01:14.000",
    "date_modified": "2024-11-03T07:01:14.000",
    "request_status": "Pending",
    "responsible_agency": "Department of Parks & Parkway",
    "final_address": "4400 BLK Martin Luther King, Jr. Blvd",
    "address_councildis": "B",
    "status": "Pending",
    "rowid": "1145875",
    "final_x": "3670131.662",
    "final_y": "531197.804518",
    "longitude": "-90.10397845256277",
    "latitude": "29.954950025108623",
    "geocoded_column": {
      "latitude": "29.954950025108623",
      "longitude": "-90.10397845256277"
    }
  },
  {
    "service_request": "2024-1145874",
    "request_type": "Traffic Safety",
    "request_reason": "Request for Traffic Calming due to Speeding",
    "date_created": "2024-11-03T00:56:09.000",
    "date_modified": "2024-11-03T00:56:09.000",
    "request_status": "Pending",
    "responsible_agency": "Department of Public Works",
    "final_address": "4214 N Robertson St",
    "address_councildis": "D",
    "status": "Pending",
    "rowid": "1145874",
    "final_x": "3692892.94569",
    "final_y": "536547.633863",
    "longitude": "-90.03191534385628",
    "latitude": "29.968969075202295",
    "geocoded_column": {
      "latitude": "29.968969075202295",
      "longitude": "-90.03191534385628"
    }
  },
  {
    "service_request": "2024-1145873",
    "request_type": "Trash/Recycling",
    "request_reason": "Order Recycling Cart",
    "date_created": "2024-11-03T00:53:46.000",
    "date_modified": "2024-11-03T00:53:46.000",
    "request_status": "Pending",
    "responsible_agency": "Department of Sanitation",
    "final_address": "4214 N Robertson St",
    "address_councildis": "D",
    "status": "Pending",
    "rowid": "1145873",
    "final_x": "3692892.94569",
    "final_y": "536547.633863",
    "longitude": "-90.03191534385628",
    "latitude": "29.968969075202295",
    "geocoded_column": {
      "latitude": "29.968969075202295",
      "longitude": "-90.03191534385628"
    }
  },
  {
    "service_request": "2024-1145793",
    "request_type": "Trash/Recycling",
    "request_reason": "Replace Trash Cart",
    "date_created": "2024-11-01T21:57:27.000",
    "date_modified": "2024-11-01T21:57:28.000",
    "request_status": "Pending",
    "responsible_agency": "Department of Sanitation",
    "final_address": "4720 Pitt St",
    "address_councildis": "B",
    "status": "Assigned to Contractor",
    "contractor": "IV Waste",
    "rowid": "1145793",
    "final_x": "3669570.69332",
    "final_y": "520372.625208",
    "longitude": "-90.10611587954998",
    "latitude": "29.925200820755936",
    "geocoded_column": {
      "latitude": "29.925200820755936",
      "longitude": "-90.10611587954998"
    }
  },
  {
    "service_request": "2024-1145792",
    "request_type": "Trash/Recycling",
    "request_reason": "Replace Recycling Cart",
    "date_created": "2024-11-01T21:56:31.000",
    "date_modified": "2024-11-01T21:56:31.000",
    "request_status": "Pending",
    "responsible_agency": "Department of Sanitation",
    "final_address": "4720 Pitt St",
    "address_councildis": "B",
    "status": "Pending",
    "rowid": "1145792",
    "final_x": "3669570.69332",
    "final_y": "520372.625208",
    "longitude": "-90.10611587954998",
    "latitude": "29.925200820755936",
    "geocoded_column": {
      "latitude": "29.925200820755936",
      "longitude": "-90.10611587954998"
    }
  },
  {
    "service_request": "2024-1145791",
    "request_type": "Abandoned Vehicles",
    "request_reason": "Abandoned/Junk Vehicles",
    "date_created": "2024-11-01T21:40:08.000",
    "date_modified": "2024-11-01T21:40:08.000",
    "request_status": "Pending",
    "responsible_agency": "Department of Public Works",
    "final_address": "926 Spain St",
    "address_councildis": "C",
    "status": "Pending",
    "rowid": "1145791",
    "final_x": "3686137.31759",
    "final_y": "535901.672967",
    "longitude": "-90.05327280955518",
    "latitude": "29.967402155877114",
    "geocoded_column": {
      "latitude": "29.967402155877114",
      "longitude": "-90.05327280955518"
    }
  },
  {
    "service_request": "2024-1145790",
    "request_type": "Abandoned Vehicles",
    "request_reason": "Abandoned/Junk Vehicles",
    "date_created": "2024-11-01T21:37:16.000",
    "date_modified": "2024-11-01T21:37:16.000",
    "request_status": "Pending",
    "responsible_agency": "Department of Public Works",
    "final_address": "926 Spain St",
    "address_councildis": "C",
    "status": "Pending",
    "rowid": "1145790",
    "final_x": "3686137.31759",
    "final_y": "535901.672967",
    "longitude": "-90.05327280955518",
    "latitude": "29.967402155877114",
    "geocoded_column": {
      "latitude": "29.967402155877114",
      "longitude": "-90.05327280955518"
    }
  },
  {
    "service_request": "2024-1145789",
    "request_type": "Roads and Streets",
    "request_reason": "Debris in Driving Lanes",
    "date_created": "2024-11-01T21:22:42.000",
    "date_modified": "2024-11-01T21:22:42.000",
    "request_status": "Pending",
    "responsible_agency": "Department of Public Works",
    "final_address": "1000 BLK N Peters St",
    "address_councildis": "C",
    "status": "Pending",
    "rowid": "1145789",
    "final_x": "3684032.37665",
    "final_y": "532933.178016",
    "longitude": "-90.06002441265031",
    "latitude": "29.959304307172378",
    "geocoded_column": {
      "latitude": "29.959304307172378",
      "longitude": "-90.06002441265031"
    }
  },
  {
    "service_request": "2024-1145788",
    "request_type": "Streetlights",
    "request_reason": "Streetlight Outage/Malfunction",
    "date_created": "2024-11-01T19:55:13.000",
    "date_modified": "2024-11-01T19:55:14.000",
    "request_status": "Pending",
    "responsible_agency": "Department of Public Works",
    "final_address": "6401 General Diaz St",
    "address_councildis": "A",
    "status": "Pending",
    "contractor": "Legacy Professional Services",
    "rowid": "1145788",
    "final_x": "3669804.22906",
    "final_y": "550006.62434",
    "longitude": "-90.10437537151131",
    "latitude": "30.00667754945972",
    "geocoded_column": {
      "latitude": "30.00667754945972",
      "longitude": "-90.10437537151131"
    }
  },
  {
    "service_request": "2024-1145787",
    "request_type": "Streetlights",
    "request_reason": "Streetlight Knocked Down/Leaning",
    "date_created": "2024-11-01T19:45:36.000",
    "date_modified": "2024-11-01T19:45:37.000",
    "request_status": "Pending",
    "responsible_agency": "Department of Public Works",
    "final_address": "731 St Charles Ave",
    "address_councildis": "B",
    "status": "Pending",
    "contractor": "Legacy Professional Services",
    "rowid": "1145787",
    "final_x": "3680421.59887",
    "final_y": "528332.272576",
    "longitude": "-90.07158636157024",
    "latitude": "29.94676320390921",
    "geocoded_column": {
      "latitude": "29.94676320390921",
      "longitude": "-90.07158636157024"
    }
  },
  {
    "service_request": "2024-1145786",
    "request_type": "General Services",
    "request_reason": "General Service Request",
    "date_created": "2024-11-01T19:40:08.000",
    "date_modified": "2024-11-01T19:40:08.000",
    "request_status": "Pending",
    "responsible_agency": "Orleans Parish Communication District",
    "final_address": "1940 Pauger St",
    "address_councildis": "C",
    "status": "Pending",
    "rowid": "1145786",
    "final_x": "3683792.36905",
    "final_y": "536898.78516",
    "longitude": "-90.06064321087628",
    "latitude": "29.97021569163672",
    "geocoded_column": {
      "latitude": "29.97021569163672",
      "longitude": "-90.06064321087628"
    }
  },
  {
    "service_request": "2024-1145785",
    "request_type": "Abandoned Vehicles",
    "request_reason": "Abandoned/Junk Vehicles",
    "date_created": "2024-11-01T19:31:44.000",
    "date_modified": "2024-11-01T19:31:44.000",
    "request_status": "Pending",
    "responsible_agency": "Department of Public Works",
    "final_address": "6984 Queensway Dr",
    "address_councildis": "E",
    "status": "Pending",
    "rowid": "1145785",
    "final_x": "3719355.27429",
    "final_y": "569152.90007",
    "longitude": "-89.94710091030844",
    "latitude": "30.057767697791764",
    "geocoded_column": {
      "latitude": "30.057767697791764",
      "longitude": "-89.94710091030844"
    }
  },
  {
    "service_request": "2024-1145784",
    "request_type": "Trash/Recycling",
    "request_reason": "Request a Large Item Pick Up",
    "date_created": "2024-11-01T19:29:41.000",
    "date_modified": "2024-11-01T19:29:42.000",
    "request_status": "Pending",
    "responsible_agency": "Department of Sanitation",
    "final_address": "6984 Queensway Dr",
    "address_councildis": "E",
    "status": "Assigned to Contractor",
    "contractor": "Waste Pro",
    "rowid": "1145784",
    "final_x": "3719355.27429",
    "final_y": "569152.90007",
    "longitude": "-89.94710091030844",
    "latitude": "30.057767697791764",
    "geocoded_column": {
      "latitude": "30.057767697791764",
      "longitude": "-89.94710091030844"
    }
  },
  {
    "service_request": "2024-1145783",
    "request_type": "Trash/Recycling",
    "request_reason": "Request a Large Item Pick Up",
    "date_created": "2024-11-01T19:23:44.000",
    "date_modified": "2024-11-01T19:23:45.000",
    "request_status": "Pending",
    "responsible_agency": "Department of Sanitation",
    "final_address": "7915 Means Ave",
    "address_councildis": "E",
    "status": "Assigned to Contractor",
    "contractor": "Waste Pro",
    "rowid": "1145783",
    "final_x": "3707639.03889",
    "final_y": "565606.397922",
    "longitude": "-89.9842661685792",
    "latitude": "30.048400777390995",
    "geocoded_column": {
      "latitude": "30.048400777390995",
      "longitude": "-89.9842661685792"
    }
  },
  {
    "service_request": "2024-1145782",
    "request_type": "Trash/Recycling",
    "request_reason": "Request a Large Item Pick Up",
    "date_created": "2024-11-01T18:52:37.000",
    "date_modified": "2024-11-01T18:52:38.000",
    "request_status": "Pending",
    "responsible_agency": "Department of Sanitation",
    "final_address": "4900 Lancelot Dr",
    "address_councildis": "E",
    "status": "Assigned to Contractor",
    "contractor": "Waste Pro",
    "rowid": "1145782",
    "final_x": "3707280.49937",
    "final_y": "556462.766682",
    "longitude": "-89.98573922751619",
    "latitude": "30.023271004518307",
    "geocoded_column": {
      "latitude": "30.023271004518307",
      "longitude": "-89.98573922751619"
    }
  },
  {
    "service_request": "2024-1145781",
    "request_type": "Trash/Recycling",
    "request_reason": "Request a Large Item Pick Up",
    "date_created": "2024-11-01T18:51:23.000",
    "date_modified": "2024-11-01T18:51:25.000",
    "request_status": "Pending",
    "responsible_agency": "Department of Sanitation",
    "final_address": "4900 Lancelot Dr",
    "address_councildis": "E",
    "status": "Assigned to Contractor",
    "contractor": "Waste Pro",
    "rowid": "1145781",
    "final_x": "3707280.49937",
    "final_y": "556462.766682",
    "longitude": "-89.98573922751619",
    "latitude": "30.023271004518307",
    "geocoded_column": {
      "latitude": "30.023271004518307",
      "longitude": "-89.98573922751619"
    }
  },
  {
    "service_request": "2024-1145780",
    "request_type": "Trash/Recycling",
    "request_reason": "Order Recycling Cart",
    "date_created": "2024-11-01T18:22:56.000",
    "date_modified": "2024-11-01T18:22:56.000",
    "request_status": "Pending",
    "responsible_agency": "Department of Sanitation",
    "final_address": "8329 Hickory St",
    "address_councildis": "A",
    "status": "Pending",
    "rowid": "1145780",
    "final_x": "3662684.26682",
    "final_y": "530626.369858",
    "longitude": "-90.12751361976352",
    "latitude": "29.95359636696716",
    "geocoded_column": {
      "latitude": "29.95359636696716",
      "longitude": "-90.12751361976352"
    }
  },
  {
    "service_request": "2024-1145779",
    "request_type": "Trash/Recycling",
    "request_reason": "Illegal Dumping",
    "date_created": "2024-11-01T18:10:28.000",
    "date_modified": "2024-11-01T18:10:28.000",
    "request_status": "Pending",
    "responsible_agency": "Department of Sanitation",
    "final_address": "1302 Arts St",
    "address_councildis": "C",
    "status": "Pending",
    "rowid": "1145779",
    "final_x": "3687080.32694",
    "final_y": "537249.01204",
    "longitude": "-90.05024713189506",
    "latitude": "29.971077867426676",
    "geocoded_column": {
      "latitude": "29.971077867426676",
      "longitude": "-90.05024713189506"
    }
  },
  {
    "service_request": "2024-1145778",
    "request_type": "Property Maintenance",
    "request_reason": "Property Maintenance",
    "date_created": "2024-11-01T18:00:04.000",
    "date_modified": "2024-11-01T18:00:04.000",
    "request_status": "Pending",
    "responsible_agency": "Department of Code Enforcement",
    "final_address": "2070 Florida Ave",
    "address_councildis": "D",
    "status": "Pending",
    "rowid": "1145778",
    "final_x": "3683566.72418",
    "final_y": "542687.707405",
    "longitude": "-90.06115284236782",
    "latitude": "29.98614009260832",
    "geocoded_column": {
      "latitude": "29.98614009260832",
      "longitude": "-90.06115284236782"
    }
  },
  {
    "service_request": "2024-1145777",
    "request_type": "Road Striping",
    "request_reason": "Lane Striping or other Pavement Markings",
    "date_created": "2024-11-01T17:58:36.000",
    "date_modified": "2024-11-01T17:58:36.000",
    "request_status": "Pending",
    "responsible_agency": "Department of Public Works",
    "final_address": "5200 BLK Crowder Blvd",
    "address_councildis": "E",
    "status": "Pending",
    "rowid": "1145777",
    "final_x": "3706195.66205",
    "final_y": "557005.437614",
    "longitude": "-89.98914693676235",
    "latitude": "30.024798175161155",
    "geocoded_column": {
      "latitude": "30.024798175161155",
      "longitude": "-89.98914693676235"
    }
  },
  {
    "service_request": "2024-1145776",
    "request_type": "Abandoned Vehicles",
    "request_reason": "Abandoned/Junk Vehicles",
    "date_created": "2024-11-01T17:52:06.000",
    "date_modified": "2024-11-01T17:52:06.000",
    "request_status": "Pending",
    "responsible_agency": "Department of Public Works",
    "final_address": "2506 Monroe St",
    "address_councildis": "A",
    "status": "Pending",
    "rowid": "1145776",
    "final_x": "3663572.61479",
    "final_y": "533362.348676",
    "longitude": "-90.12461744581769",
    "latitude": "29.9610936840548",
    "geocoded_column": {
      "latitude": "29.9610936840548",
      "longitude": "-90.12461744581769"
    }
  },
  {
    "service_request": "2024-1145775",
    "request_type": "Trash/Recycling",
    "request_reason": "Illegal Dumping",
    "date_created": "2024-11-01T17:50:16.000",
    "date_modified": "2024-11-01T17:50:16.000",
    "request_status": "Pending",
    "responsible_agency": "Department of Sanitation",
    "final_address": "2070 Florida Ave",
    "address_councildis": "D",
    "status": "Pending",
    "rowid": "1145775",
    "final_x": "3683566.72418",
    "final_y": "542687.707405",
    "longitude": "-90.06115284236782",
    "latitude": "29.98614009260832",
    "geocoded_column": {
      "latitude": "29.98614009260832",
      "longitude": "-90.06115284236782"
    }
  },
  {
    "service_request": "2024-1145774",
    "request_type": "Trash/Recycling",
    "request_reason": "Illegal Dumping",
    "date_created": "2024-11-01T17:48:20.000",
    "date_modified": "2024-11-01T17:48:20.000",
    "request_status": "Pending",
    "responsible_agency": "Department of Sanitation",
    "final_address": "2070 Florida Ave",
    "address_councildis": "D",
    "status": "Pending",
    "rowid": "1145774",
    "final_x": "3683566.72418",
    "final_y": "542687.707405",
    "longitude": "-90.06115284236782",
    "latitude": "29.98614009260832",
    "geocoded_column": {
      "latitude": "29.98614009260832",
      "longitude": "-90.06115284236782"
    }
  },
  {
    "service_request": "2024-1145773",
    "request_type": "Utility Poles",
    "request_reason": "Utility Pole Leaning",
    "date_created": "2024-11-01T17:09:51.000",
    "date_modified": "2024-11-01T17:09:55.000",
    "request_status": "Pending",
    "responsible_agency": "Utility Company Collective",
    "final_address": "1000 BLK City Park Ave",
    "address_councildis": "A",
    "status": "Pending",
    "rowid": "1145773",
    "final_x": "3672736.60068",
    "final_y": "541547.131916",
    "longitude": "-90.09539996577469",
    "latitude": "29.983330081496987",
    "geocoded_column": {
      "latitude": "29.983330081496987",
      "longitude": "-90.09539996577469"
    }
  },
  {
    "service_request": "2024-1145772",
    "request_type": "Trash/Recycling",
    "request_reason": "Request a Large Item Pick Up",
    "date_created": "2024-11-01T17:06:26.000",
    "date_modified": "2024-11-01T17:06:27.000",
    "request_status": "Pending",
    "responsible_agency": "Department of Sanitation",
    "final_address": "8632 Chase St",
    "address_councildis": "E",
    "status": "Assigned to Contractor",
    "contractor": "Waste Pro",
    "rowid": "1145772",
    "final_x": "3703807.86142",
    "final_y": "563459.67248",
    "longitude": "-89.99645398810384",
    "latitude": "30.04262160273077",
    "geocoded_column": {
      "latitude": "30.04262160273077",
      "longitude": "-89.99645398810384"
    }
  },
  {
    "service_request": "2024-1145771",
    "request_type": "Street and Traffic Signs",
    "request_reason": "Stop Sign Missing or Damaged",
    "date_created": "2024-11-01T16:56:50.000",
    "date_modified": "2024-11-01T16:56:51.000",
    "request_status": "Pending",
    "responsible_agency": "Department of Public Works",
    "final_address": "840 Tchoupitoulas St",
    "address_councildis": "B",
    "status": "Pending",
    "rowid": "1145771",
    "final_x": "3681759.29852",
    "final_y": "527383.151551",
    "longitude": "-90.06739586871346",
    "latitude": "29.9441128687647",
    "geocoded_column": {
      "latitude": "29.9441128687647",
      "longitude": "-90.06739586871346"
    }
  },
  {
    "service_request": "2024-1145770",
    "request_type": "Property Maintenance",
    "request_reason": "Property Maintenance",
    "date_created": "2024-11-01T16:54:26.000",
    "date_modified": "2024-11-01T16:54:26.000",
    "request_status": "Pending",
    "responsible_agency": "Department of Code Enforcement",
    "final_address": "4913 St Claude Ave",
    "address_councildis": "E",
    "status": "Pending",
    "rowid": "1145770",
    "final_x": "3695545.06557",
    "final_y": "534493.073925",
    "longitude": "-90.02361397975926",
    "latitude": "29.96323667306883",
    "geocoded_column": {
      "latitude": "29.96323667306883",
      "longitude": "-90.02361397975926"
    }
  },
  {
    "service_request": "2024-1145769",
    "request_type": "Traffic Signals",
    "request_reason": "Traffic Signal Malfunctioning or Damaged",
    "date_created": "2024-11-01T16:43:20.000",
    "date_modified": "2024-11-01T16:43:20.000",
    "request_status": "Pending",
    "responsible_agency": "Department of Public Works",
    "final_address": "3300 St Bernard Ave",
    "address_councildis": "D",
    "status": "Pending",
    "rowid": "1145769",
    "final_x": "3678634.0141",
    "final_y": "544727.647247",
    "longitude": "-90.07666268549036",
    "latitude": "29.991898878027502",
    "geocoded_column": {
      "latitude": "29.991898878027502",
      "longitude": "-90.07666268549036"
    }
  },
  {
    "service_request": "2024-1145768",
    "request_type": "Traffic Signals",
    "request_reason": "Traffic Signal Malfunctioning or Damaged",
    "date_created": "2024-11-01T16:42:25.000",
    "date_modified": "2024-11-01T16:42:25.000",
    "request_status": "Pending",
    "responsible_agency": "Department of Public Works",
    "final_address": "3300 St Bernard Ave",
    "address_councildis": "D",
    "status": "Pending",
    "rowid": "1145768",
    "final_x": "3678634.0141",
    "final_y": "544727.647247",
    "longitude": "-90.07666268549036",
    "latitude": "29.991898878027502",
    "geocoded_column": {
      "latitude": "29.991898878027502",
      "longitude": "-90.07666268549036"
    }
  },
  {
    "service_request": "2024-1145767",
    "request_type": "Drainage",
    "request_reason": "Catch Basin Clogged",
    "date_created": "2024-11-01T16:41:55.000",
    "date_modified": "2024-11-01T16:41:57.000",
    "request_status": "Pending",
    "responsible_agency": "Department of Public Works",
    "final_address": "2713 Jasmine St",
    "address_councildis": "D",
    "status": "Pending",
    "rowid": "1145767",
    "final_x": "3687843.13788",
    "final_y": "548237.530514",
    "longitude": "-90.04744863411604",
    "latitude": "30.00126886556038",
    "geocoded_column": {
      "latitude": "30.00126886556038",
      "longitude": "-90.04744863411604"
    }
  },
  {
    "service_request": "2024-1145766",
    "request_type": "Traffic Signals",
    "request_reason": "Traffic Signal Malfunctioning or Damaged",
    "date_created": "2024-11-01T16:39:09.000",
    "date_modified": "2024-11-01T16:39:09.000",
    "request_status": "Pending",
    "responsible_agency": "Department of Public Works",
    "final_address": "3300 St Bernard Ave",
    "address_councildis": "D",
    "status": "Pending",
    "rowid": "1145766",
    "final_x": "3678634.0141",
    "final_y": "544727.647247",
    "longitude": "-90.07666268549036",
    "latitude": "29.991898878027502",
    "geocoded_column": {
      "latitude": "29.991898878027502",
      "longitude": "-90.07666268549036"
    }
  },
  {
    "service_request": "2024-1145765",
    "request_type": "Trash/Recycling",
    "request_reason": "Request a Large Item Pick Up",
    "date_created": "2024-11-01T16:34:37.000",
    "date_modified": "2024-11-01T16:34:38.000",
    "request_status": "Pending",
    "responsible_agency": "Department of Sanitation",
    "final_address": "11259 Midpoint Dr",
    "address_councildis": "E",
    "status": "Assigned to Contractor",
    "contractor": "Waste Pro",
    "rowid": "1145765",
    "final_x": "3718020.9413",
    "final_y": "559373.829213",
    "longitude": "-89.95169123739944",
    "latitude": "30.030923566250944",
    "geocoded_column": {
      "latitude": "30.030923566250944",
      "longitude": "-89.95169123739944"
    }
  },
  {
    "service_request": "2024-1145764",
    "request_type": "Trash/Recycling",
    "request_reason": "Return Recycling Cart",
    "date_created": "2024-11-01T16:28:23.000",
    "date_modified": "2024-11-01T16:28:24.000",
    "request_status": "Pending",
    "responsible_agency": "Department of Sanitation",
    "final_address": "2461 N Robertson St",
    "address_councildis": "C",
    "status": "Pending",
    "rowid": "1145764",
    "final_x": "3686915.98914",
    "final_y": "537976.991945",
    "longitude": "-90.05074039689615",
    "latitude": "29.97308461622518",
    "geocoded_column": {
      "latitude": "29.97308461622518",
      "longitude": "-90.05074039689615"
    }
  },
  {
    "service_request": "2024-1145763",
    "request_type": "Trash/Recycling",
    "request_reason": "Repair Trash Cart",
    "date_created": "2024-11-01T16:27:34.000",
    "date_modified": "2024-11-01T16:27:35.000",
    "request_status": "Pending",
    "responsible_agency": "Department of Sanitation",
    "final_address": "7331 Beryl St",
    "address_councildis": "D",
    "status": "Assigned to Contractor",
    "contractor": "IV Waste",
    "rowid": "1145763",
    "final_x": "3668677.87783",
    "final_y": "555829.153305",
    "longitude": "-90.10773706650042",
    "latitude": "30.02272061968885",
    "geocoded_column": {
      "latitude": "30.02272061968885",
      "longitude": "-90.10773706650042"
    }
  },
  {
    "service_request": "2024-1145762",
    "request_type": "Trash/Recycling",
    "request_reason": "Request a Large Item Pick Up",
    "date_created": "2024-11-01T16:23:14.000",
    "date_modified": "2024-11-01T16:23:15.000",
    "request_status": "Pending",
    "responsible_agency": "Department of Sanitation",
    "final_address": "7095 Edgefield Dr",
    "address_councildis": "E",
    "status": "Assigned to Contractor",
    "contractor": "Waste Pro",
    "rowid": "1145762",
    "final_x": "3718586.25023",
    "final_y": "569528.63703",
    "longitude": "-89.94951732889695",
    "latitude": "30.05882637719464",
    "geocoded_column": {
      "latitude": "30.05882637719464",
      "longitude": "-89.94951732889695"
    }
  },
  {
    "service_request": "2024-1145761",
    "request_type": "Trash/Recycling",
    "request_reason": "Repair Trash Cart",
    "date_created": "2024-11-01T16:17:04.000",
    "date_modified": "2024-11-01T16:17:05.000",
    "request_status": "Pending",
    "responsible_agency": "Department of Sanitation",
    "final_address": "1539 Cambronne St",
    "address_councildis": "A",
    "status": "Assigned to Contractor",
    "contractor": "IV Waste",
    "rowid": "1145761",
    "final_x": "3662112.70215",
    "final_y": "530077.578305",
    "longitude": "-90.12933659801806",
    "latitude": "29.95210389345977",
    "geocoded_column": {
      "latitude": "29.95210389345977",
      "longitude": "-90.12933659801806"
    }
  },
  {
    "service_request": "2024-1145760",
    "request_type": "Drainage",
    "request_reason": "Catch Basin Clogged",
    "date_created": "2024-11-01T16:15:49.000",
    "date_modified": "2024-11-01T16:15:49.000",
    "request_status": "Pending",
    "responsible_agency": "Department of Public Works",
    "final_address": "4115 S Carrollton Ave",
    "address_councildis": "A",
    "status": "Pending",
    "rowid": "1145760",
    "final_x": "3669231.28954",
    "final_y": "536574.153991",
    "longitude": "-90.1066397534481",
    "latitude": "29.96975973413392",
    "geocoded_column": {
      "latitude": "29.96975973413392",
      "longitude": "-90.1066397534481"
    }
  },
  {
    "service_request": "2024-1145759",
    "request_type": "Roads and Streets",
    "request_reason": "Sidewalk Damaged or Missing",
    "date_created": "2024-11-01T16:14:33.000",
    "date_modified": "2024-11-01T16:14:33.000",
    "request_status": "Pending",
    "responsible_agency": "Department of Public Works",
    "final_address": "5834 Mandeville St",
    "address_councildis": "D",
    "status": "Inspected",
    "rowid": "1145759",
    "final_x": "3684234.375",
    "final_y": "554599.020824",
    "longitude": "-90.05862545246438",
    "latitude": "30.01887151305883",
    "geocoded_column": {
      "latitude": "30.01887151305883",
      "longitude": "-90.05862545246438"
    }
  },
  {
    "service_request": "2024-1145758",
    "request_type": "Trash/Recycling",
    "request_reason": "Request a Large Item Pick Up",
    "date_created": "2024-11-01T16:08:47.000",
    "date_modified": "2024-11-01T16:10:06.000",
    "request_status": "Pending",
    "responsible_agency": "Department of Sanitation",
    "final_address": "7700 Henley St",
    "address_councildis": "E",
    "status": "Assigned to Contractor",
    "contractor": "Waste Pro",
    "rowid": "1145758",
    "final_x": "3696728.18992",
    "final_y": "559441.318429",
    "longitude": "-90.01897412755082",
    "latitude": "30.031797899911837",
    "geocoded_column": {
      "latitude": "30.031797899911837",
      "longitude": "-90.01897412755082"
    }
  },
  {
    "service_request": "2024-1145757",
    "request_type": "Trash/Recycling",
    "request_reason": "Request a Large Item Pick Up",
    "date_created": "2024-11-01T16:08:15.000",
    "date_modified": "2024-11-01T16:08:16.000",
    "request_status": "Pending",
    "responsible_agency": "Department of Sanitation",
    "final_address": "14055 Partridge Ln",
    "address_councildis": "E",
    "status": "Assigned to Contractor",
    "contractor": "Waste Pro",
    "rowid": "1145757",
    "final_x": "3719488.48633",
    "final_y": "571838.461416",
    "longitude": "-89.94657711385112",
    "latitude": "30.0651474375917",
    "geocoded_column": {
      "latitude": "30.0651474375917",
      "longitude": "-89.94657711385112"
    }
  },
  {
    "service_request": "2024-1145756",
    "request_type": "Roads and Streets",
    "request_reason": "Street Subsidence (Sinking)",
    "date_created": "2024-11-01T15:58:02.000",
    "date_modified": "2024-11-01T15:58:02.000",
    "request_status": "Pending",
    "responsible_agency": "Department of Public Works",
    "final_address": "4001 Vendome Pl",
    "address_councildis": "B",
    "status": "Pending",
    "rowid": "1145756",
    "final_x": "3668753.29319",
    "final_y": "529810.854145",
    "longitude": "-90.10837765325668",
    "latitude": "29.951176956964733",
    "geocoded_column": {
      "latitude": "29.951176956964733",
      "longitude": "-90.10837765325668"
    }
  },
  {
    "service_request": "2024-1145755",
    "request_type": "Abandoned Vehicles",
    "request_reason": "Abandoned/Junk Vehicles",
    "date_created": "2024-11-01T15:54:41.000",
    "date_modified": "2024-11-01T15:54:41.000",
    "request_status": "Pending",
    "responsible_agency": "Department of Public Works",
    "final_address": "2900 BLK Baudin St",
    "address_councildis": "B",
    "status": "Pending",
    "rowid": "1145755",
    "final_x": "3673506.69987",
    "final_y": "534486.739869",
    "longitude": "-90.09320894087394",
    "latitude": "29.9638935012941",
    "geocoded_column": {
      "latitude": "29.9638935012941",
      "longitude": "-90.09320894087394"
    }
  },
  {
    "service_request": "2024-1145754",
    "request_type": "Property Maintenance",
    "request_reason": "Property Maintenance",
    "date_created": "2024-11-01T15:52:21.000",
    "date_modified": "2024-11-01T15:52:21.000",
    "request_status": "Pending",
    "responsible_agency": "Department of Code Enforcement",
    "final_address": "2518 Constance St",
    "address_councildis": "B",
    "status": "Pending",
    "rowid": "1145754",
    "final_x": "3677898.38907",
    "final_y": "520907.463417",
    "longitude": "-90.07980951500602",
    "latitude": "29.926423578325192",
    "geocoded_column": {
      "latitude": "29.926423578325192",
      "longitude": "-90.07980951500602"
    }
  },
  {
    "service_request": "2024-1145753",
    "request_type": "Trash/Recycling",
    "request_reason": "Request a Large Item Pick Up",
    "date_created": "2024-11-01T15:52:14.000",
    "date_modified": "2024-11-01T15:52:15.000",
    "request_status": "Pending",
    "responsible_agency": "Department of Sanitation",
    "final_address": "2048 St Denis St",
    "address_councildis": "D",
    "status": "Assigned to Contractor",
    "contractor": "IV Waste",
    "rowid": "1145753",
    "final_x": "3683141.943",
    "final_y": "546098.738896",
    "longitude": "-90.06237505303609",
    "latitude": "29.995532180869247",
    "geocoded_column": {
      "latitude": "29.995532180869247",
      "longitude": "-90.06237505303609"
    }
  },
  {
    "service_request": "2024-1145752",
    "request_type": "Traffic Safety",
    "request_reason": "Request for Traffic Calming due to Speeding",
    "date_created": "2024-11-01T15:49:06.000",
    "date_modified": "2024-11-01T15:49:06.000",
    "request_status": "Pending",
    "responsible_agency": "Department of Public Works",
    "final_address": "1846 Gentilly Blvd",
    "address_councildis": "D",
    "status": "Pending",
    "rowid": "1145752",
    "final_x": "3678848.99906",
    "final_y": "542616.700237",
    "longitude": "-90.07605675789256",
    "latitude": "29.986088028109",
    "geocoded_column": {
      "latitude": "29.986088028109",
      "longitude": "-90.07605675789256"
    }
  },
  {
    "service_request": "2024-1145751",
    "request_type": "Abandoned Vehicles",
    "request_reason": "Abandoned/Junk Vehicles",
    "date_created": "2024-11-01T15:47:47.000",
    "date_modified": "2024-11-01T15:47:47.000",
    "request_status": "Pending",
    "responsible_agency": "Department of Public Works",
    "final_address": "2700 BLK Baudin St",
    "address_councildis": "B",
    "status": "Pending",
    "rowid": "1145751",
    "final_x": "3674135.1599",
    "final_y": "534009.182754",
    "longitude": "-90.09124066799161",
    "latitude": "29.962561662277327",
    "geocoded_column": {
      "latitude": "29.962561662277327",
      "longitude": "-90.09124066799161"
    }
  },