[
  {
    "service_request": "2023-994319",
    "request_type": "Trash/Recycling",
    "request_reason": "Missed Trash Pick-Up",
    "date_created": "2023-04-26T00:48:32.000",
    "date_modified": "2023-04-26T00:48:33.000",
    "request_status": "Pending",
    "responsible_agency": "Department of Sanitation",
    "status": "Assigned to Contractor",
    "rowid": "994319",
    "longitude": "0.0",
    "latitude": "0.0",
    "geocoded_column": {
      "latitude": "0.0",
      "longitude": "0.0"
    }
  },
  {
    "service_request": "2023-994318",
    "request_type": "Property Maintenance",
    "request_reason": "Property Maintenance",
    "date_created": "2023-04-25T23:39:30.000",
    "date_modified": "2023-04-25T23:39:30.000",
    "request_status": "Pending",
    "responsible_agency": "Department of Code Enforcement",
    "final_address": "4808 St Claude Ave",
    "address_councildis": "E",
    "status": "Pending",
    "rowid": "994318",
    "final_x": "3695140.33008",
    "final_y": "534421.409861",
    "longitude": "-90.0248946657472",
    "latitude": "29.963052336513883",
    "geocoded_column": {
      "latitude": "29.963052336513883",
      "longitude": "-90.0248946657472"
    }
  },
  {
    "service_request": "2023-994317",
    "request_type": "Trash/Recycling",
    "request_reason": "Repair Trash Cart",
    "date_created": "2023-04-25T23:20:03.000",
    "date_modified": "2023-04-25T23:20:04.000",
    "request_status": "Pending",
    "responsible_agency": "Department of Sanitation",
    "final_address": "3706 Vincennes Pl",
    "address_councildis": "A",
    "status": "Assigned to Contractor",
    "contractor": "Richards Disposal",
    "rowid": "994317",
    "final_x": "3668103.85159",
    "final_y": "529242.563585",
    "longitude": "-90.11044742436067",
    "latitude": "29.949633417743065",
    "geocoded_column": {
      "latitude": "29.949633417743065",
      "longitude": "-90.11044742436067"
    }
  },
  {
    "service_request": "2023-994316",
    "request_type": "Trash/Recycling",
    "request_reason": "Illegal Dumping",
    "date_created": "2023-04-25T23:16:46.000",
    "date_modified": "2023-04-25T23:16:46.000",
    "request_status": "Pending",
    "responsible_agency": "Department of Sanitation",
    "final_address": "528 S St Patrick St",
    "address_councildis": "A",
    "status": "Pending",
    "rowid": "994316",
    "final_x": "3668037.85146",
    "final_y": "538295.202121",
    "longitude": "-90.11035074087481",
    "latitude": "29.974527117847355",
    "geocoded_column": {
      "latitude": "29.974527117847355",
      "longitude": "-90.11035074087481"
    }
  },
  {
    "service_request": "2023-994315",
    "request_type": "Traffic Signals/Signs/Striping/Streetlights",
    "request_reason": "Street Light Outage/Malfunction",
    "date_created": "2023-04-25T23:15:05.000",
    "date_modified": "2023-04-25T23:15:06.000",
    "request_status": "Pending",
    "responsible_agency": "Department of Public Works",
    "final_address": "3706 Vincennes Pl",
    "address_councildis": "A",
    "status": "Assigned to Contractor",
    "contractor": "Legacy Professional Services",
    "rowid": "994315",
    "final_x": "3668103.85159",
    "final_y": "529242.563585",
    "longitude": "-90.11044742436067",
    "latitude": "29.949633417743065",
    "geocoded_column": {
      "latitude": "29.949633417743065",
      "longitude": "-90.11044742436067"
    }
  },
  {
    "service_request": "2023-994314",
    "request_type": "Trash/Recycling",
    "request_reason": "Replace Trash Cart",
    "date_created": "2023-04-25T22:50:48.000",
    "date_modified": "2023-04-25T22:50:49.000",
    "request_status": "Pending",
    "responsible_agency": "Department of Sanitation",
    "final_address": "9942 E Rockton Cir",
    "address_councildis": "E",
    "status": "Assigned to Contractor",
    "contractor": "Waste Pro",
    "rowid": "994314",
    "final_x": "3708713.97707",
    "final_y": "562763.554656",
    "longitude": "-89.98097481356413",
    "latitude": "30.04054925315276",
    "geocoded_column": {
      "latitude": "30.04054925315276",
      "longitude": "-89.98097481356413"
    }
  },
  {
    "service_request": "2023-994313",
    "request_type": "Trash/Recycling",
    "request_reason": "Repair Trash Cart",
    "date_created": "2023-04-25T22:49:01.000",
    "date_modified": "2023-04-25T22:49:01.000",
    "request_status": "Pending",
    "responsible_agency": "Department of Sanitation",
    "final_address": "316 Audubon Blvd",
    "address_councildis": "A",
    "status": "Assigned to Contractor",
    "contractor": "Richards Disposal",
    "rowid": "994313",
    "final_x": "3667125.78599",
    "final_y": "530001.843137",
    "longitude": "-90.11351011117956",
    "latitude": "29.95174985502801",
    "geocoded_column": {
      "latitude": "29.95174985502801",
      "longitude": "-90.11351011117956"
    }
  },
  {
    "service_request": "2023-994312",
    "request_type": "Trash/Recycling",
    "request_reason": "Order Recycling Cart",
    "date_created": "2023-04-25T22:09:06.000",
    "date_modified": "2023-04-25T22:09:06.000",
    "request_status": "Pending",
    "responsible_agency": "Department of Sanitation",
    "final_address": "1633 Tropic Dr",
    "address_councildis": "C",
    "status": "Pending",
    "rowid": "994312",
    "final_x": "3699441.24791",
    "final_y": "524688.232124",
    "longitude": "-90.01166749723583",
    "latitude": "29.93615378283697",
    "geocoded_column": {
      "latitude": "29.93615378283697",
      "longitude": "-90.01166749723583"
    }
  },
  {
    "service_request": "2023-994311",
    "request_type": "Trash/Recycling",
    "request_reason": "Request a Large Item Pick Up",
    "date_created": "2023-04-25T22:00:19.000",
    "date_modified": "2023-04-25T22:00:20.000",
    "request_status": "Pending",
    "responsible_agency": "Department of Sanitation",
    "final_address": "4164 Bienville Ave",
    "address_councildis": "A",
    "status": "Assigned to Contractor",
    "contractor": "Richards Disposal",
    "rowid": "994311",
    "final_x": "3671125.56327",
    "final_y": "539219.61761",
    "longitude": "-90.10056756545903",
    "latitude": "29.976977968919776",
    "geocoded_column": {
      "latitude": "29.976977968919776",
      "longitude": "-90.10056756545903"
    }
  },
  {
    "service_request": "2023-994310",
    "request_type": "Property Maintenance",
    "request_reason": "Property Maintenance",
    "date_created": "2023-04-25T21:52:18.000",
    "date_modified": "2023-04-25T21:52:18.000",
    "request_status": "Pending",
    "responsible_agency": "Department of Code Enforcement",
    "final_address": "4739 Louisa Dr",
    "address_councildis": "D",
    "status": "Pending",
    "rowid": "994310",
    "final_x": "3690936.00041",
    "final_y": "551200.000021",
    "longitude": "-90.03757221002688",
    "latitude": "30.009318769821995",
    "geocoded_column": {
      "latitude": "30.009318769821995",
      "longitude": "-90.03757221002688"
    }
  },
  {
    "service_request": "2023-994309",
    "request_type": "Mosquito, Termite & Rodent Control",
    "request_reason": "Mosquito Complaint",
    "date_created": "2023-04-25T21:51:20.000",
    "date_modified": "2023-04-25T21:51:20.000",
    "request_status": "Pending",
    "responsible_agency": "Mosquito, Termite & Rodent Control Board",
    "final_address": "4739 Louisa Dr",
    "address_councildis": "D",
    "status": "Pending",
    "rowid": "994309",
    "final_x": "3690936.00041",
    "final_y": "551200.000021",
    "longitude": "-90.03757221002688",
    "latitude": "30.009318769821995",
    "geocoded_column": {
      "latitude": "30.009318769821995",
      "longitude": "-90.03757221002688"
    }
  },
  {
    "service_request": "2023-994308",
    "request_type": "Property Maintenance",
    "request_reason": "Property Maintenance",
    "date_created": "2023-04-25T21:50:13.000",
    "date_modified": "2023-04-25T21:50:13.000",
    "request_status": "Pending",
    "responsible_agency": "Department of Code Enforcement",
    "final_address": "4700 Mark Twain Dr",
    "address_councildis": "D",
    "status": "Pending",
    "rowid": "994308",
    "final_x": "3691359.24022",
    "final_y": "551041.033365",
    "longitude": "-90.03624074017903",
    "latitude": "30.008868503207584",
    "geocoded_column": {
      "latitude": "30.008868503207584",
      "longitude": "-90.03624074017903"
    }
  },
  {
    "service_request": "2023-994307",
    "request_type": "Mosquito, Termite & Rodent Control",
    "request_reason": "Mosquito Complaint",
    "date_created": "2023-04-25T21:47:41.000",
    "date_modified": "2023-04-25T21:47:41.000",
    "request_status": "Pending",
    "responsible_agency": "Mosquito, Termite & Rodent Control Board",
    "final_address": "4700 Mark Twain Dr",
    "address_councildis": "D",
    "status": "Pending",
    "rowid": "994307",
    "final_x": "3691359.24022",
    "final_y": "551041.033365",
    "longitude": "-90.03624074017903",
    "latitude": "30.008868503207584",
    "geocoded_column": {
      "latitude": "30.008868503207584",
      "longitude": "-90.03624074017903"
    }
  },
  {
    "service_request": "2023-994306",
    "request_type": "Traffic Signals/Signs/Striping/Streetlights",
    "request_reason": "Street Light Outage/Malfunction",
    "date_created": "2023-04-25T21:46:25.000",
    "date_modified": "2023-04-25T21:46:25.000",
    "request_status": "Pending",
    "responsible_agency": "Department of Public Works",
    "final_address": "300 Fairway Dr",
    "address_councildis": "A",
    "status": "Assigned to Contractor",
    "contractor": "Legacy Professional Services",
    "rowid": "994306",
    "final_x": "3664126.09255",
    "final_y": "541541.286156",
    "longitude": "-90.12259675247088",
    "latitude": "29.983566985817145",
    "geocoded_column": {
      "latitude": "29.983566985817145",
      "longitude": "-90.12259675247088"
    }
  },
  {
    "service_request": "2023-994305",
    "request_type": "Trash/Recycling",
    "request_reason": "Missed Trash Pick-Up",
    "date_created": "2023-04-25T21:33:10.000",
    "date_modified": "2023-04-25T21:33:11.000",
    "request_status": "Pending",
    "responsible_agency": "Department of Sanitation",
    "final_address": "617 Red Allen Way",
    "address_councildis": "C",
    "status": "Assigned to Contractor",
    "contractor": "Richards Disposal",
    "rowid": "994305",
    "final_x": "3687274.28649",
    "final_y": "528688.006784",
    "longitude": "-90.04993740805541",
    "latitude": "29.947532086780793",
    "geocoded_column": {
      "latitude": "29.947532086780793",
      "longitude": "-90.04993740805541"
    }
  },
  {
    "service_request": "2023-994304",
    "request_type": "Trash/Recycling",
    "request_reason": "Change Size of Trash Cart",
    "date_created": "2023-04-25T20:40:46.000",
    "date_modified": "2023-04-25T20:40:47.000",
    "request_status": "Pending",
    "responsible_agency": "Department of Sanitation",
    "final_address": "7700 Mayo Rd",
    "address_councildis": "E",
    "status": "Assigned to Contractor",
    "contractor": "Waste Pro",
    "rowid": "994304",
    "final_x": "3700607.19249",
    "final_y": "560981.092638",
    "longitude": "-90.0066600070818",
    "latitude": "30.035908766708015",
    "geocoded_column": {
      "latitude": "30.035908766708015",
      "longitude": "-90.0066600070818"
    }
  },
  {
    "service_request": "2023-994303",
    "request_type": "Traffic Signals/Signs/Striping/Streetlights",
    "request_reason": "Street Light Outage/Malfunction",
    "date_created": "2023-04-25T20:39:41.000",
    "date_modified": "2023-04-25T20:39:42.000",
    "request_status": "Pending",
    "responsible_agency": "Department of Public Works",
    "final_address": "615 Milan St",
    "address_councildis": "B",
    "status": "Assigned to Contractor",
    "contractor": "Legacy Professional Services",
    "rowid": "994303",
    "final_x": "3671932.81537",
    "final_y": "517961.980406",
    "longitude": "-90.09874138646502",
    "latitude": "29.918502541132145",
    "geocoded_column": {
      "latitude": "29.918502541132145",
      "longitude": "-90.09874138646502"
    }
  },
  {
    "service_request": "2023-994302",
    "request_type": "Trash/Recycling",
    "request_reason": "Replace Trash Cart",
    "date_created": "2023-04-25T20:37:54.000",
    "date_modified": "2023-04-25T20:37:55.000",
    "request_status": "Pending",
    "responsible_agency": "Department of Sanitation",
    "final_address": "7700 Mayo Rd",
    "address_councildis": "E",
    "status": "Assigned to Contractor",
    "contractor": "Waste Pro",
    "rowid": "994302",
    "final_x": "3700607.19249",
    "final_y": "560981.092638",
    "longitude": "-90.0066600070818",
    "latitude": "30.035908766708015",
    "geocoded_column": {
      "latitude": "30.035908766708015",
      "longitude": "-90.0066600070818"
    }
  },
  {
    "service_request": "2023-994301",
    "request_type": "Traffic Signals/Signs/Striping/Streetlights",
    "request_reason": "Street Light Outage/Malfunction",
    "date_created": "2023-04-25T20:35:47.000",
    "date_modified": "2023-04-25T20:35:48.000",
    "request_status": "Pending",
    "responsible_agency": "Department of Public Works",
    "final_address": "7230 Camberley Dr",
    "address_councildis": "E",
    "status": "Assigned to Contractor",
    "contractor": "Legacy Professional Services",
    "rowid": "994301",
    "final_x": "3712987.98795",
    "final_y": "565077.490274",
    "longitude": "-89.96738048301975",
    "latitude": "30.046772249912514",
    "geocoded_column": {
      "latitude": "30.046772249912514",
      "longitude": "-89.96738048301975"
    }
  },
  {
    "service_request": "2023-994300",
    "request_type": "Traffic Signals/Signs/Striping/Streetlights",
    "request_reason": "Street Light Outage/Malfunction",
    "date_created": "2023-04-25T20:28:57.000",
    "date_modified": "2023-04-25T20:28:58.000",
    "request_status": "Pending",
    "responsible_agency": "Department of Public Works",
    "final_address": "3528 Clematis St",
    "address_councildis": "D",
    "status": "Assigned to Contractor",
    "contractor": "Legacy Professional Services",
    "rowid": "994300",
    "final_x": "3686403.68834",
    "final_y": "545946.01384",
    "longitude": "-90.05207691939151",
    "latitude": "29.995012359009692",
    "geocoded_column": {
      "latitude": "29.995012359009692",
      "longitude": "-90.05207691939151"
    }
  },
  {
    "service_request": "2023-994299",
    "request_type": "Traffic Signals/Signs/Striping/Streetlights",
    "request_reason": "Street Light Outage/Malfunction",
    "date_created": "2023-04-25T20:27:00.000",
    "date_modified": "2023-04-25T20:27:00.000",
    "request_status": "Pending",
    "responsible_agency": "Department of Public Works",
    "final_address": "3528 Clematis St",
    "address_councildis": "D",
    "status": "Assigned to Contractor",
    "contractor": "Legacy Professional Services",
    "rowid": "994299",
    "final_x": "3686403.68834",
    "final_y": "545946.01384",
    "longitude": "-90.05207691939151",
    "latitude": "29.995012359009692",
    "geocoded_column": {
      "latitude": "29.995012359009692",
      "longitude": "-90.05207691939151"
    }
  },
  {
    "service_request": "2023-994298",
    "request_type": "Property Maintenance",
    "request_reason": "Property Maintenance",
    "date_created": "2023-04-25T20:22:33.000",
    "date_modified": "2023-04-25T20:22:33.000",
    "request_status": "Pending",
    "responsible_agency": "Department of Code Enforcement",
    "final_address": "3228 Somerset Dr",
    "address_councildis": "C",
    "status": "Pending",
    "rowid": "994298",
    "final_x": "3702608.50986",
    "final_y": "519247.930551",
    "longitude": "-90.00186801011367",
    "latitude": "29.921094009790863",
    "geocoded_column": {
      "latitude": "29.921094009790863",
      "longitude": "-90.00186801011367"
    }
  },
  {
    "service_request": "2023-994297",
    "request_type": "Trash/Recycling",
    "request_reason": "Replace Recycling Cart",
    "date_created": "2023-04-25T20:20:19.000",
    "date_modified": "2023-04-25T20:20:19.000",
    "request_status": "Pending",
    "responsible_agency": "Department of Sanitation",
    "final_address": "2306 Camp St",
    "address_councildis": "B",
    "status": "Pending",
    "rowid": "994297",
    "final_x": "3678284.17979",
    "final_y": "522076.443194",
    "longitude": "-90.07855127142224",
    "latitude": "29.929626280864753",
    "geocoded_column": {
      "latitude": "29.929626280864753",
      "longitude": "-90.07855127142224"
    }
  },
  {
    "service_request": "2023-994296",
    "request_type": "Health Related Request",
    "request_reason": "Noise Ordinance Complaint",
    "date_created": "2023-04-25T20:18:07.000",
    "date_modified": "2023-04-25T20:18:07.000",
    "request_status": "Pending",
    "responsible_agency": "Health Department",
    "final_address": "711 Bourbon St, New Orleans, Louisiana, 70116",
    "address_councildis": "C",
    "status": "Pending",
    "rowid": "994296",
    "final_x": "3682299.38447",
    "final_y": "532765.705988",
    "longitude": "-90.06550263299877",
    "latitude": "29.95889665479323",
    "geocoded_column": {
      "latitude": "29.95889665479323",
      "longitude": "-90.06550263299877"
    }
  },
  {
    "service_request": "2023-994295",
    "request_type": "Trash/Recycling",
    "request_reason": "Order Recycling Cart",
    "date_created": "2023-04-25T19:46:10.000",
    "date_modified": "2023-04-25T19:46:10.000",
    "request_status": "Pending",
    "responsible_agency": "Department of Sanitation",
    "final_address": "3104 Toulouse St",
    "address_councildis": "A",
    "status": "Pending",
    "rowid": "994295",
    "final_x": "3675107.67336",
    "final_y": "537535.905992",
    "longitude": "-90.08804856491675",
    "latitude": "29.972229934839348",
    "geocoded_column": {
      "latitude": "29.972229934839348",
      "longitude": "-90.08804856491675"
    }
  },
  {
    "service_request": "2023-994294",
    "request_type": "Trash/Recycling",
    "request_reason": "Order Trash Cart",
    "date_created": "2023-04-25T19:39:44.000",
    "date_modified": "2023-04-25T19:44:35.000",
    "request_status": "Pending",
    "responsible_agency": "Department of Sanitation",
    "final_address": "4721 De Montluzin St",
    "address_councildis": "D",
    "contractor": "IV Waste",
    "rowid": "994294",
    "final_x": "3687207.24841",
    "final_y": "550527.430804",
    "longitude": "-90.0493764009546",
    "latitude": "30.007584864940466",
    "geocoded_column": {
      "latitude": "30.007584864940466",
      "longitude": "-90.0493764009546"
    }
  },
  {
    "service_request": "2023-994293",
    "request_type": "Abandoned Vehicles",
    "request_reason": "Abandoned/Junk Vehicles",
    "date_created": "2023-04-25T19:38:59.000",
    "date_modified": "2023-04-25T19:38:59.000",
    "request_status": "Pending",
    "responsible_agency": "Department of Public Works",
    "status": "Pending",
    "rowid": "994293",
    "longitude": "0.0",
    "latitude": "0.0",
    "geocoded_column": {
      "latitude": "0.0",
      "longitude": "0.0"
    }
  },
  {
    "service_request": "2023-994292",
    "request_type": "Health Related Request",
    "request_reason": "Noise Ordinance Complaint",
    "date_created": "2023-04-25T19:29:10.000",
    "date_modified": "2023-04-25T19:29:10.000",
    "request_status": "Pending",
    "responsible_agency": "Health Department",
    "final_address": "5134 Paris Ave",
    "address_councildis": "D",
    "status": "Pending",
    "rowid": "994292",
    "final_x": "3679142.41999",
    "final_y": "551128.688597",
    "longitude": "-90.07483466163104",
    "latitude": "30.009484126134296",
    "geocoded_column": {
      "latitude": "30.009484126134296",
      "longitude": "-90.07483466163104"
    }
  },
  {
    "service_request": "2023-994291",
    "request_type": "Abandoned Vehicles",
    "request_reason": "Abandoned/Junk Vehicles",
    "date_created": "2023-04-25T19:17:11.000",
    "date_modified": "2023-04-25T19:17:11.000",
    "request_status": "Pending",
    "responsible_agency": "Department of Public Works",
    "final_address": "3114 Ursulines Ave",
    "address_councildis": "A",
    "status": "Pending",
    "rowid": "994291",
    "final_x": "3676028.01813",
    "final_y": "539312.03777",
    "longitude": "-90.08508085065472",
    "latitude": "29.977086155056224",
    "geocoded_column": {
      "latitude": "29.977086155056224",
      "longitude": "-90.08508085065472"
    }
  },
  {
    "service_request": "2023-994290",
    "request_type": "Abandoned Vehicles",
    "request_reason": "Abandoned/Junk Vehicles",
    "date_created": "2023-04-25T19:13:54.000",
    "date_modified": "2023-04-25T19:13:54.000",
    "request_status": "Pending",
    "responsible_agency": "Department of Public Works",
    "final_address": "3007 Annunciation St",
    "address_councildis": "B",
    "status": "Pending",
    "rowid": "994290",
    "final_x": "3676897.00578",
    "final_y": "519449.852279",
    "longitude": "-90.0830208121058",
    "latitude": "29.922445704063037",
    "geocoded_column": {
      "latitude": "29.922445704063037",
      "longitude": "-90.0830208121058"
    }
  },
  {
    "service_request": "2023-994289",
    "request_type": "Abandoned Vehicles",
    "request_reason": "Abandoned/Junk Vehicles",
    "date_created": "2023-04-25T19:06:25.000",
    "date_modified": "2023-04-25T19:06:25.000",
    "request_status": "Pending",
    "responsible_agency": "Department of Public Works",
    "final_address": "3114 Ursulines Ave",
    "address_councildis": "A",
    "status": "Pending",
    "rowid": "994289",
    "final_x": "3676028.01813",
    "final_y": "539312.03777",
    "longitude": "-90.08508085065472",
    "latitude": "29.977086155056224",
    "geocoded_column": {
      "latitude": "29.977086155056224",
      "longitude": "-90.08508085065472"
    }
  },
  {
    "service_request": "2023-994288",
    "request_type": "Abandoned Vehicles",
    "request_reason": "Abandoned/Junk Vehicles",
    "date_created": "2023-04-25T19:01:02.000",
    "date_modified": "2023-04-25T19:01:02.000",
    "request_status": "Pending",
    "responsible_agency": "Department of Public Works",
    "final_address": "1338 Spain St",
    "address_councildis": "C",
    "status": "Pending",
    "rowid": "994288",
    "final_x": "3686019.59215",
    "final_y": "537443.6738",
    "longitude": "-90.05359020039802",
    "latitude": "29.971645736714954",
    "geocoded_column": {
      "latitude": "29.971645736714954",
      "longitude": "-90.05359020039802"
    }
  },
  {
    "service_request": "2023-994287",
    "request_type": "Abandoned Vehicles",
    "request_reason": "Abandoned/Junk Vehicles",
    "date_created": "2023-04-25T19:01:01.000",
    "date_modified": "2023-04-25T19:01:01.000",
    "request_status": "Pending",
    "responsible_agency": "Department of Public Works",
    "final_address": "1338 Spain St",
    "address_councildis": "C",
    "status": "Pending",
    "rowid": "994287",
    "final_x": "3686019.59215",
    "final_y": "537443.6738",
    "longitude": "-90.05359020039802",
    "latitude": "29.971645736714954",
    "geocoded_column": {
      "latitude": "29.971645736714954",
      "longitude": "-90.05359020039802"
    }
  },
  {
    "service_request": "2023-994286",
    "request_type": "Property Maintenance",
    "request_reason": "Property Maintenance",
    "date_created": "2023-04-25T18:59:50.000",
    "date_modified": "2023-04-25T18:59:50.000",
    "request_status": "Pending",
    "responsible_agency": "Department of Code Enforcement",
    "final_address": "2016 Simon Bolivar Ave",
    "address_councildis": "B",
    "status": "Pending",
    "rowid": "994286",
    "final_x": "3676725.78549",
    "final_y": "525779.983357",
    "longitude": "-90.08334330686334",
    "latitude": "29.939856636776053",
    "geocoded_column": {
      "latitude": "29.939856636776053",
      "longitude": "-90.08334330686334"
    }
  },
  {
    "service_request": "2023-994285",
    "request_type": "Property Maintenance",
    "request_reason": "Property Maintenance",
    "date_created": "2023-04-25T18:56:47.000",
    "date_modified": "2023-04-25T18:56:47.000",
    "request_status": "Pending",
    "responsible_agency": "Department of Code Enforcement",
    "final_address": "2016 Simon Bolivar Ave",
    "address_councildis": "B",
    "status": "Pending",
    "rowid": "994285",
    "final_x": "3676725.78549",
    "final_y": "525779.983357",
    "longitude": "-90.08334330686334",
    "latitude": "29.939856636776053",
    "geocoded_column": {
      "latitude": "29.939856636776053",
      "longitude": "-90.08334330686334"
    }
  },
  {
    "service_request": "2023-994284",
    "request_type": "Property Maintenance",
    "request_reason": "Property Maintenance",
    "date_created": "2023-04-25T18:56:16.000",
    "date_modified": "2023-04-25T18:56:16.000",
    "request_status": "Pending",
    "responsible_agency": "Department of Code Enforcement",
    "final_address": "2016 Simon Bolivar Ave",
    "address_councildis": "B",
    "status": "Pending",
    "rowid": "994284",
    "final_x": "3676725.78549",
    "final_y": "525779.983357",
    "longitude": "-90.08334330686334",
    "latitude": "29.939856636776053",
    "geocoded_column": {
      "latitude": "29.939856636776053",
      "longitude": "-90.08334330686334"
    }
  },
  {
    "service_request": "2023-994283",
    "request_type": "Trash/Recycling",
    "request_reason": "Request a Large Item Pick Up",
    "date_created": "2023-04-25T18:53:16.000",
    "date_modified": "2023-04-25T18:53:16.000",
    "request_status": "Pending",
    "responsible_agency": "Department of Sanitation",
    "final_address": "1940 Laurel St",
    "address_councildis": "B",
    "status": "Assigned to Contractor",
    "contractor": "Richards Disposal",
    "rowid": "994283",
    "final_x": "3680126.3181",
    "final_y": "522102.137402",
    "longitude": "-90.07273507871959",
    "latitude": "29.929641334349807",
    "geocoded_column": {
      "latitude": "29.929641334349807",
      "longitude": "-90.07273507871959"
    }
  },
  {
    "service_request": "2023-994282",
    "request_type": "Trash/Recycling",
    "request_reason": "Repair Trash Cart",
    "date_created": "2023-04-25T18:34:31.000",
    "date_modified": "2023-04-25T18:34:31.000",
    "request_status": "Pending",
    "responsible_agency": "Department of Sanitation",
    "final_address": "1018 Thayer St",
    "address_councildis": "C",
    "status": "Assigned to Contractor",
    "contractor": "Richards Disposal",
    "rowid": "994282",
    "final_x": "3689486.73615",
    "final_y": "527709.692223",
    "longitude": "-90.04298665285069",
    "latitude": "29.94477373314657",
    "geocoded_column": {
      "latitude": "29.94477373314657",
      "longitude": "-90.04298665285069"
    }
  },
  {
    "service_request": "2023-994281",
    "request_type": "Abandoned Vehicles",
    "request_reason": "Abandoned/Junk Vehicles",
    "date_created": "2023-04-25T18:30:57.000",
    "date_modified": "2023-04-25T18:30:57.000",
    "request_status": "Pending",
    "responsible_agency": "Department of Public Works",
    "final_address": "523 S Tonti St",
    "address_councildis": "B",
    "status": "Pending",
    "rowid": "994281",
    "final_x": "3675373.28264",
    "final_y": "532981.143428",
    "longitude": "-90.08736614175905",
    "latitude": "29.959697937691594",
    "geocoded_column": {
      "latitude": "29.959697937691594",
      "longitude": "-90.08736614175905"
    }
  },
  {
    "service_request": "2023-994280",
    "request_type": "Abandoned Vehicles",
    "request_reason": "Vehicle Blocking Your Driveway",
    "date_created": "2023-04-25T18:25:55.000",
    "date_modified": "2023-04-25T18:25:55.000",
    "request_status": "Pending",
    "responsible_agency": "Department of Public Works",
    "final_address": "1010 Harmony St",
    "address_councildis": "B",
    "status": "Pending",
    "rowid": "994280",
    "final_x": "3675886.1076",
    "final_y": "519734.86892",
    "longitude": "-90.086202018809",
    "latitude": "29.923259700004266",
    "geocoded_column": {
      "latitude": "29.923259700004266",
      "longitude": "-90.086202018809"
    }
  },
  {
    "service_request": "2023-994279",
    "request_type": "Trash/Recycling",
    "request_reason": "Return Trash Cart",
    "date_created": "2023-04-25T18:14:56.000",
    "date_modified": "2023-04-25T18:14:57.000",
    "case_close_date": "2023-01-16T18:00:00.000",
    "request_status": "Pending",
    "responsible_agency": "Department of Sanitation",
    "final_address": "2311 Bienville Ave",
    "address_councildis": "B",
    "status": "Assigned to Contractor",
    "contractor": "Richards Disposal",
    "rowid": "994279",
    "final_x": "3677129.64386",
    "final_y": "534815.585542",
    "longitude": "-90.08175667552327",
    "latitude": "29.964689402486623",
    "geocoded_column": {
      "latitude": "29.964689402486623",
      "longitude": "-90.08175667552327"
    }
  },
  {
    "service_request": "2023-994278",
    "request_type": "Trash/Recycling",
    "request_reason": "Request a Large Item Pick Up",
    "date_created": "2023-04-25T18:14:13.000",
    "date_modified": "2023-04-25T18:14:14.000",
    "case_close_date": "2023-01-16T18:00:00.000",
    "request_status": "Pending",
    "responsible_agency": "Department of Sanitation",
    "final_address": "2311 Bienville Ave",
    "address_councildis": "B",
    "status": "Assigned to Contractor",
    "contractor": "Richards Disposal",
    "rowid": "994278",
    "final_x": "3677129.64386",
    "final_y": "534815.585542",
    "longitude": "-90.08175667552327",
    "latitude": "29.964689402486623",
    "geocoded_column": {
      "latitude": "29.964689402486623",
      "longitude": "-90.08175667552327"
    }
  },
  {
    "service_request": "2023-994277",
    "request_type": "Trash/Recycling",
    "request_reason": "Repair Trash Cart",
    "date_created": "2023-04-25T18:08:09.000",
    "date_modified": "2023-04-25T18:08:10.000",
    "request_status": "Pending",
    "responsible_agency": "Department of Sanitation",
    "final_address": "415 Red Allen Way",
    "address_councildis": "C",
    "status": "Assigned to Contractor",
    "contractor": "Richards Disposal",
    "rowid": "994277",
    "final_x": "3686671.44201",
    "final_y": "528661.202368",
    "longitude": "-90.05184176412031",
    "latitude": "29.947476936122307",
    "geocoded_column": {
      "latitude": "29.947476936122307",
      "longitude": "-90.05184176412031"
    }
  },
  {
    "service_request": "2023-994276",
    "request_type": "Trash/Recycling",
    "request_reason": "Missed Trash Pick-Up",
    "date_created": "2023-04-25T18:07:41.000",
    "date_modified": "2023-04-25T18:07:42.000",
    "request_status": "Pending",
    "responsible_agency": "Department of Sanitation",
    "final_address": "1111 N Prieur St",
    "address_councildis": "D",
    "status": "Assigned to Contractor",
    "contractor": "Richards Disposal",
    "rowid": "994276",
    "final_x": "3679857.15688",
    "final_y": "536548.475463",
    "longitude": "-90.07308319233553",
    "latitude": "29.969372057002886",
    "geocoded_column": {
      "latitude": "29.969372057002886",
      "longitude": "-90.07308319233553"
    }
  },
  {
    "service_request": "2023-994275",
    "request_type": "Trash/Recycling",
    "request_reason": "Missed Trash Pick-Up",
    "date_created": "2023-04-25T18:07:05.000",
    "date_modified": "2023-04-25T18:07:06.000",
    "request_status": "Pending",
    "responsible_agency": "Department of Sanitation",
    "final_address": "415 Red Allen Way",
    "address_councildis": "C",
    "status": "Assigned to Contractor",
    "contractor": "Richards Disposal",
    "rowid": "994275",
    "final_x": "3686671.44201",
    "final_y": "528661.202368",
    "longitude": "-90.05184176412031",
    "latitude": "29.947476936122307",
    "geocoded_column": {
      "latitude": "29.947476936122307",
      "longitude": "-90.05184176412031"
    }
  },
  {
    "service_request": "2023-994274",
    "request_type": "Trash/Recycling",
    "request_reason": "Request a Large Item Pick Up",
    "date_created": "2023-04-25T18:02:45.000",
    "date_modified": "2023-04-25T18:02:46.000",
    "request_status": "Pending",
    "responsible_agency": "Department of Sanitation",
    "final_address": "3418 LaSalle St",
    "address_councildis": "B",
    "status": "Assigned to Contractor",
    "contractor": "Richards Disposal",
    "rowid": "994274",
    "final_x": "3672946.2482",
    "final_y": "523970.724924",
    "longitude": "-90.09533759211719",
    "latitude": "29.934994594291894",
    "geocoded_column": {
      "latitude": "29.934994594291894",
      "longitude": "-90.09533759211719"
    }
  },
  {
    "service_request": "2023-994272",
    "request_type": "Trash/Recycling",
    "request_reason": "Missed Trash Pick-Up",
    "date_created": "2023-04-25T17:51:48.000",
    "date_modified": "2023-04-25T17:51:49.000",
    "request_status": "Pending",
    "responsible_agency": "Department of Sanitation",
    "final_address": "4718 Iberville St",
    "address_councildis": "A",
    "status": "Assigned to Contractor",
    "contractor": "Richards Disposal",
    "rowid": "994272",
    "final_x": "3669202.4329",
    "final_y": "540216.899403",
    "longitude": "-90.1066077234874",
    "latitude": "29.979776907681767",
    "geocoded_column": {
      "latitude": "29.979776907681767",
      "longitude": "-90.1066077234874"
    }
  },
  {
    "service_request": "2023-994271",
    "request_type": "Safety & Permits",
    "request_reason": "Safety & Permits Request (Cyber Incident Back Up)",
    "date_created": "2023-04-25T17:36:02.000",
    "date_modified": "2023-04-25T17:36:02.000",
    "request_status": "Pending",
    "responsible_agency": "Safety and Permits",
    "status": "Pending",
    "rowid": "994271",
    "longitude": "0.0",
    "latitude": "0.0",
    "geocoded_column": {
      "latitude": "0.0",
      "longitude": "0.0"
    }
  },
  {
    "service_request": "2023-994270",
    "request_type": "Trash/Recycling",
    "request_reason": "Replace Recycling Cart",
    "date_created": "2023-04-25T17:35:17.000",
    "date_modified": "2023-04-25T17:35:18.000",
    "request_status": "Pending",
    "responsible_agency": "Department of Sanitation",
    "final_address": "404 Bragg St",
    "address_councildis": "A",
    "status": "Pending",
    "rowid": "994270",
    "final_x": "3667799.62004",
    "final_y": "550074.424404",
    "longitude": "-90.11070618902592",
    "latitude": "30.00692294160339",
    "geocoded_column": {
      "latitude": "30.00692294160339",
      "longitude": "-90.11070618902592"
    }
  },
  {
    "service_request": "2023-994269",
    "request_type": "Trash/Recycling",
    "request_reason": "Order Recycling Cart",
    "date_created": "2023-04-25T17:31:19.000",
    "date_modified": "2023-04-25T17:31:19.000",
    "request_status": "Pending",
    "responsible_agency": "Department of Sanitation",
    "final_address": "11041 Guildford Rd",
    "address_councildis": "E",
    "status": "Pending",
    "rowid": "994269",
    "final_x": "3711772.85342",
    "final_y": "564321.771681",
    "longitude": "-89.97124930566",
    "latitude": "30.04473410245114",
    "geocoded_column": {
      "latitude": "30.04473410245114",
      "longitude": "-89.97124930566"
    }
  },
  {
    "service_request": "2023-994268",
    "request_type": "Trash/Recycling",
    "request_reason": "Request a Large Item Pick Up",
    "date_created": "2023-04-25T17:24:59.000",
    "date_modified": "2023-04-25T17:25:00.000",
    "request_status": "Pending",
    "responsible_agency": "Department of Sanitation",
    "final_address": "2808 Banks St",
    "address_councildis": "B",
    "status": "Assigned to Contractor",
    "contractor": "Richards Disposal",
    "rowid": "994268",
    "final_x": "3674027.73992",
    "final_y": "534519.433029",
    "longitude": "-90.09156242414558",
    "latitude": "29.963967880508235",
    "geocoded_column": {
      "latitude": "29.963967880508235",
      "longitude": "-90.09156242414558"
    }
  },
  {
    "service_request": "2023-994267",
    "request_type": "Trash/Recycling",
    "request_reason": "Repair Recycling Cart",
    "date_created": "2023-04-25T17:08:50.000",
    "date_modified": "2023-04-25T17:08:50.000",
    "request_status": "Pending",
    "responsible_agency": "Department of Sanitation",
    "final_address": "837 Sumner St",
    "address_councildis": "C",
    "status": "Pending",
    "rowid": "994267",
    "final_x": "3691098.01859",
    "final_y": "528277.698368",
    "longitude": "-90.03787909302869",
    "latitude": "29.946285564329482",
    "geocoded_column": {
      "latitude": "29.946285564329482",
      "longitude": "-90.03787909302869"
    }
  },
  {
    "service_request": "2023-994266",
    "request_type": "Trash/Recycling",
    "request_reason": "Missed Trash Pick-Up",
    "date_created": "2023-04-25T17:08:33.000",
    "date_modified": "2023-04-25T17:08:34.000",
    "request_status": "Pending",
    "responsible_agency": "Department of Sanitation",
    "final_address": "8013 Lafourche St",
    "address_councildis": "E",
    "status": "Assigned to Contractor",
    "contractor": "Waste Pro",
    "rowid": "994266",
    "final_x": "3709507.18808",
    "final_y": "566764.837155",
    "longitude": "-89.97831848856349",
    "latitude": "30.05152540833414",
    "geocoded_column": {
      "latitude": "30.05152540833414",
      "longitude": "-89.97831848856349"
    }
  },
  {
    "service_request": "2023-994265",
    "request_type": "Trash/Recycling",
    "request_reason": "Request a Large Item Pick Up",
    "date_created": "2023-04-25T17:06:34.000",
    "date_modified": "2023-04-25T17:06:34.000",
    "request_status": "Pending",
    "responsible_agency": "Department of Sanitation",
    "final_address": "1620 Charlton Dr",
    "address_councildis": "D",
    "status": "Assigned to Contractor",
    "contractor": "IV Waste",
    "rowid": "994265",
    "final_x": "3680027.43707",
    "final_y": "550675.290196",
    "longitude": "-90.07205435198303",
    "latitude": "30.008210686461382",
    "geocoded_column": {
      "latitude": "30.008210686461382",
      "longitude": "-90.07205435198303"
    }
  },
  {
    "service_request": "2023-994264",
    "request_type": "Traffic Signals/Signs/Striping/Streetlights",
    "request_reason": "Street Light Outage/Malfunction",
    "date_created": "2023-04-25T17:04:50.000",
    "date_modified": "2023-04-25T17:04:50.000",
    "request_status": "Pending",
    "responsible_agency": "Department of Public Works",
    "final_address": "4400 Canal St",
    "address_councildis": "A",
    "status": "Assigned to Contractor",
    "contractor": "Legacy Professional Services",
    "rowid": "994264",
    "final_x": "3669921.30778",
    "final_y": "539132.76897",
    "longitude": "-90.10437394188354",
    "latitude": "29.976774734441904",
    "geocoded_column": {
      "latitude": "29.976774734441904",
      "longitude": "-90.10437394188354"
    }
  },
  {
    "service_request": "2023-994263",
    "request_type": "Trash/Recycling",
    "request_reason": "Missed Trash Pick-Up",
    "date_created": "2023-04-25T17:04:08.000",
    "date_modified": "2023-04-25T17:04:08.000",
    "request_status": "Pending",
    "responsible_agency": "Department of Sanitation",
    "final_address": "2019 N Roman St",
    "address_councildis": "D",
    "status": "Assigned to Contractor",
    "contractor": "IV Waste",
    "rowid": "994263",
    "final_x": "3684199.4493",
    "final_y": "538865.853897",
    "longitude": "-90.05928853765614",
    "latitude": "29.975612007094377",
    "geocoded_column": {
      "latitude": "29.975612007094377",
      "longitude": "-90.05928853765614"
    }
  },
  {
    "service_request": "2023-994262",
    "request_type": "Abandoned Vehicles",
    "request_reason": "Abandoned/Junk Vehicles",
    "date_created": "2023-04-25T16:56:05.000",
    "date_modified": "2023-04-25T16:56:05.000",
    "request_status": "Pending",
    "responsible_agency": "Department of Public Works",
    "final_address": "400 BLK Mandeville St",
    "address_councildis": "C",
    "status": "Pending",
    "rowid": "994262",
    "final_x": "3685960.74484",
    "final_y": "534072.871931",
    "longitude": "-90.05389491563949",
    "latitude": "29.962379009340307",
    "geocoded_column": {
      "latitude": "29.962379009340307",
      "longitude": "-90.05389491563949"
    }
  },
  {
    "service_request": "2023-994261",
    "request_type": "Trash/Recycling",
    "request_reason": "Replace Trash Cart",
    "date_created": "2023-04-25T16:48:33.000",
    "date_modified": "2023-04-25T16:48:34.000",
    "request_status": "Pending",
    "responsible_agency": "Department of Sanitation",
    "final_address": "1026 Burdette St",
    "address_councildis": "A",
    "status": "Assigned to Contractor",
    "contractor": "Richards Disposal",
    "rowid": "994261",
    "final_x": "3662430.14983",
    "final_y": "527279.549119",
    "longitude": "-90.1284271446656",
    "latitude": "29.94440103507459",
    "geocoded_column": {
      "latitude": "29.94440103507459",
      "longitude": "-90.1284271446656"
    }
  },
  {
    "service_request": "2023-994260",
    "request_type": "Traffic Signals/Signs/Striping/Streetlights",
    "request_reason": "Traffic Sign Missing/Damaged",
    "date_created": "2023-04-25T16:37:24.000",
    "date_modified": "2023-04-25T16:37:24.000",
    "request_status": "Pending",
    "responsible_agency": "Department of Public Works",
    "final_address": "1735 Washington Ave",
    "address_councildis": "B",
    "status": "Pending",
    "rowid": "994260",
    "final_x": "3675578.93013",
    "final_y": "523125.411707",
    "longitude": "-90.0870552545637",
    "latitude": "29.93259178384826",
    "geocoded_column": {
      "latitude": "29.93259178384826",
      "longitude": "-90.0870552545637"
    }
  },
  {
    "service_request": "2023-994259",
    "request_type": "Property Maintenance",
    "request_reason": "Property Maintenance",
    "date_created": "2023-04-25T16:35:35.000",
    "date_modified": "2023-04-25T16:35:35.000",
    "request_status": "Pending",
    "responsible_agency": "Department of Code Enforcement",
    "final_address": "4726 St Claude Ave",
    "address_councildis": "E",
    "status": "Pending",
    "rowid": "994259",
    "final_x": "3694865.29616",
    "final_y": "534502.144581",
    "longitude": "-90.02576027603942",
    "latitude": "29.963282961219036",
    "geocoded_column": {
      "latitude": "29.963282961219036",
      "longitude": "-90.02576027603942"
    }
  },
  {
    "service_request": "2023-994258",
    "request_type": "Trash/Recycling",
    "request_reason": "Replace Trash Cart",
    "date_created": "2023-04-25T16:29:51.000",
    "date_modified": "2023-04-25T16:29:52.000",
    "request_status": "Pending",
    "responsible_agency": "Department of Sanitation",
    "final_address": "3645 Magazine St",
    "address_councildis": "B",
    "status": "Assigned to Contractor",
    "contractor": "Richards Disposal",
    "rowid": "994258",
    "final_x": "3673734.19835",
    "final_y": "519227.604919",
    "longitude": "-90.09301212301546",
    "latitude": "29.921929112325657",
    "geocoded_column": {
      "latitude": "29.921929112325657",
      "longitude": "-90.09301212301546"
    }
  },
  {
    "service_request": "2023-994257",
    "request_type": "Abandoned Vehicles",
    "request_reason": "Abandoned/Junk Vehicles",
    "date_created": "2023-04-25T16:28:42.000",
    "date_modified": "2023-04-25T16:29:36.000",
    "request_status": "Pending",
    "responsible_agency": "Department of Public Works",
    "final_address": "11800 Morrison Rd",
    "address_councildis": "E",
    "status": "Pending",
    "rowid": "994257",
    "final_x": "3713413.32319",
    "final_y": "566427.045923",
    "longitude": "-89.96598531409377",
    "latitude": "30.050469031178366",
    "geocoded_column": {
      "latitude": "30.050469031178366",
      "longitude": "-89.96598531409377"
    }
  },
  {
    "service_request": "2023-994256",
    "request_type": "Trash/Recycling",
    "request_reason": "Replace Recycling Cart",
    "date_created": "2023-04-25T16:28:10.000",
    "date_modified": "2023-04-25T16:28:10.000",
    "request_status": "Pending",
    "responsible_agency": "Department of Sanitation",
    "final_address": "3645 Magazine St",
    "address_councildis": "B",
    "status": "Pending",
    "rowid": "994256",
    "final_x": "3673734.19835",
    "final_y": "519227.604919",
    "longitude": "-90.09301212301546",
    "latitude": "29.921929112325657",
    "geocoded_column": {
      "latitude": "29.921929112325657",
      "longitude": "-90.09301212301546"
    }
  },
  {
    "service_request": "2023-994255",
    "request_type": "Trash/Recycling",
    "request_reason": "Request a Large Item Pick Up",
    "date_created": "2023-04-25T16:27:27.000",
    "date_modified": "2023-04-25T16:27:28.000",
    "request_status": "Pending",
    "responsible_agency": "Department of Sanitation",
    "final_address": "1131 Orange St",
    "address_councildis": "B",
    "status": "Assigned to Contractor",
    "contractor": "Richards Disposal",
    "rowid": "994255",
    "final_x": "3679856.47944",
    "final_y": "523577.759035",
    "longitude": "-90.07353569564594",
    "latitude": "29.933706968638734",
    "geocoded_column": {
      "latitude": "29.933706968638734",
      "longitude": "-90.07353569564594"
    }
  },
  {
    "service_request": "2023-994254",
    "request_type": "Trash/Recycling",
    "request_reason": "Return Recycling Cart",
    "date_created": "2023-04-25T16:26:08.000",
    "date_modified": "2023-04-25T16:26:08.000",
    "request_status": "Pending",
    "responsible_agency": "Department of Sanitation",
    "final_address": "3645 Magazine St",
    "address_councildis": "B",
    "status": "Pending",
    "rowid": "994254",
    "final_x": "3673734.19835",
    "final_y": "519227.604919",
    "longitude": "-90.09301212301546",
    "latitude": "29.921929112325657",
    "geocoded_column": {
      "latitude": "29.921929112325657",
      "longitude": "-90.09301212301546"
    }
  },
  {
    "service_request": "2023-994253",
    "request_type": "Trash/Recycling",
    "request_reason": "Repair Trash Cart",
    "date_created": "2023-04-25T16:25:37.000",
    "date_modified": "2023-04-25T16:25:38.000",
    "request_status": "Pending",
    "responsible_agency": "Department of Sanitation",
    "final_address": "1910 Beck St",
    "address_councildis": "C",
    "status": "Assigned to Contractor",
    "contractor": "Richards Disposal",
    "rowid": "994253",
    "final_x": "3700136.87159",
    "final_y": "523924.616508",
    "longitude": "-90.00949926038817",
    "latitude": "29.934032024494353",
    "geocoded_column": {
      "latitude": "29.934032024494353",
      "longitude": "-90.00949926038817"
    }
  },
  {
    "service_request": "2023-994252",
    "request_type": "Trash/Recycling",
    "request_reason": "Missed Trash Pick-Up",
    "date_created": "2023-04-25T16:19:18.000",
    "date_modified": "2023-04-25T16:19:19.000",
    "request_status": "Pending",
    "responsible_agency": "Department of Sanitation",
    "final_address": "4110 Fontainebleau Dr",
    "address_councildis": "B",
    "status": "Assigned to Contractor",
    "contractor": "Richards Disposal",
    "rowid": "994252",
    "final_x": "3669864.2155",
    "final_y": "529032.100992",
    "longitude": "-90.10489626429896",
    "latitude": "29.949002938240366",
    "geocoded_column": {
      "latitude": "29.949002938240366",
      "longitude": "-90.10489626429896"
    }
  },
  {
    "service_request": "2023-994251",
    "request_type": "Trash/Recycling",
    "request_reason": "Repair Trash Cart",
    "date_created": "2023-04-25T16:17:34.000",
    "date_modified": "2023-04-25T16:17:35.000",
    "request_status": "Pending",
    "responsible_agency": "Department of Sanitation",
    "final_address": "2121 Mediamolle Dr",
    "address_councildis": "C",
    "status": "Assigned to Contractor",
    "contractor": "Richards Disposal",
    "rowid": "994251",
    "final_x": "3699167.99511",
    "final_y": "523562.420731",
    "longitude": "-90.01257112654166",
    "latitude": "29.933066855082693",
    "geocoded_column": {
      "latitude": "29.933066855082693",
      "longitude": "-90.01257112654166"
    }
  },
  {
    "service_request": "2023-994250",
    "request_type": "Trash/Recycling",
    "request_reason": "Repair Recycling Cart",
    "date_created": "2023-04-25T16:16:53.000",
    "date_modified": "2023-04-25T16:16:54.000",
    "request_status": "Pending",
    "responsible_agency": "Department of Sanitation",
    "final_address": "2256 Dreux Ave",
    "address_councildis": "D",
    "status": "Pending",
    "rowid": "994250",
    "final_x": "3684368.66895",
    "final_y": "551989.058454",
    "longitude": "-90.0582928957237",
    "latitude": "30.011690962987274",
    "geocoded_column": {
      "latitude": "30.011690962987274",
      "longitude": "-90.0582928957237"
    }
  },
  {
    "service_request": "2023-994249",
    "request_type": "Trash/Recycling",
    "request_reason": "Replace Trash Cart",
    "date_created": "2023-04-25T16:15:27.000",
    "date_modified": "2023-04-25T16:15:27.000",
    "request_status": "Pending",
    "responsible_agency": "Department of Sanitation",
    "final_address": "7837 Freret St",
    "address_councildis": "A",
    "status": "Assigned to Contractor",
    "contractor": "Richards Disposal",
    "rowid": "994249",
    "final_x": "3662138.56167",
    "final_y": "527322.121215",
    "longitude": "-90.12934636504077",
    "latitude": "29.944526522546525",
    "geocoded_column": {
      "latitude": "29.944526522546525",
      "longitude": "-90.12934636504077"
    }
  },
  {
    "service_request": "2023-994248",
    "request_type": "Trash/Recycling",
    "request_reason": "Illegal Dumping",
    "date_created": "2023-04-25T16:14:17.000",
    "date_modified": "2023-04-25T16:14:17.000",
    "request_status": "Pending",
    "responsible_agency": "Department of Sanitation",
    "final_address": "Dublin Street & Nelson Street",
    "address_councildis": "A",
    "status": "Pending",
    "rowid": "994248",
    "final_x": "3664860.27456",
    "final_y": "532076.009347",
    "longitude": "-90.12059422637809",
    "latitude": "29.957519259419097",
    "geocoded_column": {
      "latitude": "29.957519259419097",
      "longitude": "-90.12059422637809"
    }
  },
  {
    "service_request": "2023-994247",
    "request_type": "Trash/Recycling",
    "request_reason": "Missed Trash Pick-Up",
    "date_created": "2023-04-25T16:13:08.000",
    "date_modified": "2023-04-25T16:13:09.000",
    "request_status": "Pending",
    "responsible_agency": "Department of Sanitation",
    "final_address": "3638 Metropolitan St",
    "address_councildis": "D",
    "status": "Assigned to Contractor",
    "contractor": "IV Waste",
    "rowid": "994247",
    "final_x": "3691629.33974",
    "final_y": "545801.786576",
    "longitude": "-90.03557488053252",
    "latitude": "29.99445408363884",
    "geocoded_column": {
      "latitude": "29.99445408363884",
      "longitude": "-90.03557488053252"
    }
  },
  {
    "service_request": "2023-994246",
    "request_type": "Trash/Recycling",
    "request_reason": "Request a Large Item Pick Up",
    "date_created": "2023-04-25T16:11:16.000",
    "date_modified": "2023-04-25T16:11:16.000",
    "request_status": "Pending",
    "responsible_agency": "Department of Sanitation",
    "final_address": "7940 Windward Ct",
    "address_councildis": "E",
    "status": "Assigned to Contractor",
    "contractor": "Waste Pro",
    "rowid": "994246",
    "final_x": "3715010.91986",
    "final_y": "570403.880935",
    "longitude": "-89.96078536894342",
    "latitude": "30.061351176320255",
    "geocoded_column": {
      "latitude": "30.061351176320255",
      "longitude": "-89.96078536894342"
    }
  },
  {
    "service_request": "2023-994245",
    "request_type": "Property Maintenance",
    "request_reason": "Property Maintenance",
    "date_created": "2023-04-25T15:59:33.000",
    "date_modified": "2023-04-25T15:59:33.000",
    "request_status": "Pending",
    "responsible_agency": "Department of Code Enforcement",
    "final_address": "1139 Kerlerec St",
    "address_councildis": "C",
    "status": "Pending",
    "rowid": "994245",
    "final_x": "3682866.32616",
    "final_y": "535831.512007",
    "longitude": "-90.0636050988241",
    "latitude": "29.967309308458706",
    "geocoded_column": {
      "latitude": "29.967309308458706",
      "longitude": "-90.0636050988241"
    }
  },
  {
    "service_request": "2023-994244",
    "request_type": "Trash/Recycling",
    "request_reason": "Order Trash Cart",
    "date_created": "2023-04-25T15:55:28.000",
    "date_modified": "2023-04-25T15:55:29.000",
    "request_status": "Pending",
    "responsible_agency": "Department of Sanitation",
    "final_address": "7520 E Oak Ridge Ct",
    "address_councildis": "E",
    "status": "Assigned to Contractor",
    "contractor": "Waste Pro",
    "rowid": "994244",
    "final_x": "3713794.75013",
    "final_y": "568038.740709",
    "longitude": "-89.96471892753779",
    "latitude": "30.054888012799623",
    "geocoded_column": {
      "latitude": "30.054888012799623",
      "longitude": "-89.96471892753779"
    }
  },
  {
    "service_request": "2023-994243",
    "request_type": "Trash/Recycling",
    "request_reason": "Order Trash Cart",
    "date_created": "2023-04-25T15:51:42.000",
    "date_modified": "2023-04-25T15:51:43.000",
    "request_status": "Pending",
    "responsible_agency": "Department of Sanitation",
    "final_address": "2535 Gravier St",
    "address_councildis": "B",
    "status": "Assigned to Contractor",
    "contractor": "Richards Disposal",
    "rowid": "994243",
    "final_x": "3674671.8244",
    "final_y": "533046.898564",
    "longitude": "-90.08957893674994",
    "latitude": "29.959899696788746",
    "geocoded_column": {
      "latitude": "29.959899696788746",
      "longitude": "-90.08957893674994"
    }
  },
  {
    "service_request": "2023-994242",
    "request_type": "Trash/Recycling",
    "request_reason": "Missed Trash Pick-Up",
    "date_created": "2023-04-25T15:51:29.000",
    "date_modified": "2023-04-25T15:51:30.000",
    "request_status": "Pending",
    "responsible_agency": "Department of Sanitation",
    "final_address": "7520 E Oak Ridge Ct",
    "address_councildis": "E",
    "status": "Assigned to Contractor",
    "contractor": "Waste Pro",
    "rowid": "994242",
    "final_x": "3713794.75013",
    "final_y": "568038.740709",
    "longitude": "-89.96471892753779",
    "latitude": "30.054888012799623",
    "geocoded_column": {
      "latitude": "30.054888012799623",
      "longitude": "-89.96471892753779"
    }
  },
  {
    "service_request": "2023-994241",
    "request_type": "Trash/Recycling",
    "request_reason": "Request a Large Item Pick Up",
    "date_created": "2023-04-25T15:51:22.000",
    "date_modified": "2023-04-25T15:51:22.000",
    "request_status": "Pending",
    "responsible_agency": "Department of Sanitation",
    "final_address": "706 Austerlitz St",
    "address_councildis": "B",
    "status": "Assigned to Contractor",
    "contractor": "Richards Disposal",
    "rowid": "994241",
    "final_x": "3672893.53915",
    "final_y": "518302.890038",
    "longitude": "-90.09569726231776",
    "latitude": "29.919411436142575",
    "geocoded_column": {
      "latitude": "29.919411436142575",
      "longitude": "-90.09569726231776"
    }
  },
  {
    "service_request": "2023-994240",
    "request_type": "Traffic Signals/Signs/Striping/Streetlights",
    "request_reason": "Street Light Outage/Malfunction",
    "date_created": "2023-04-25T15:51:17.000",
    "date_modified": "2023-04-25T15:51:18.000",
    "request_status": "Pending",
    "responsible_agency": "Department of Public Works",
    "final_address": "6417 Praro St",
    "address_councildis": "E",
    "status": "Assigned to Contractor",
    "contractor": "Legacy Professional Services",
    "rowid": "994240",
    "final_x": "3701699.26909",
    "final_y": "535646.98439",
    "longitude": "-90.00413757969494",
    "latitude": "29.966214655279323",
    "geocoded_column": {
      "latitude": "29.966214655279323",
      "longitude": "-90.00413757969494"
    }
  },
  {
    "service_request": "2023-994239",
    "request_type": "Trash/Recycling",
    "request_reason": "Request a Large Item Pick Up",
    "date_created": "2023-04-25T15:47:56.000",
    "date_modified": "2023-04-25T15:47:57.000",
    "request_status": "Pending",
    "responsible_agency": "Department of Sanitation",
    "final_address": "6620 Harbourview Dr",
    "address_councildis": "E",
    "status": "Assigned to Contractor",
    "contractor": "Waste Pro",
    "rowid": "994239",
    "final_x": "3699119.99364",
    "final_y": "555943.140505",
    "longitude": "-90.01154345914635",
    "latitude": "30.022103598126943",
    "geocoded_column": {
      "latitude": "30.022103598126943",
      "longitude": "-90.01154345914635"
    }
  },
  {
    "service_request": "2023-994238",
    "request_type": "Trash/Recycling",
    "request_reason": "Request a Large Item Pick Up",
    "date_created": "2023-04-25T15:47:25.000",
    "date_modified": "2023-04-25T15:47:25.000",
    "request_status": "Pending",
    "responsible_agency": "Department of Sanitation",
    "final_address": "2941 Elmwood Park Dr",
    "address_councildis": "C",
    "status": "Assigned to Contractor",
    "contractor": "Richards Disposal",
    "rowid": "994238",
    "final_x": "3693480.50237",
    "final_y": "519573.202616",
    "longitude": "-90.03066923939683",
    "latitude": "29.922276892954596",
    "geocoded_column": {
      "latitude": "29.922276892954596",
      "longitude": "-90.03066923939683"
    }
  },
  {
    "service_request": "2023-994237",
    "request_type": "Abandoned Vehicles",
    "request_reason": "Abandoned/Junk Vehicles",
    "date_created": "2023-04-25T15:44:43.000",
    "date_modified": "2023-04-25T15:45:31.000",
    "request_status": "Pending",
    "responsible_agency": "Department of Public Works",
    "final_address": "2400 BLK N Galvez St",
    "address_councildis": "D",
    "status": "Pending",
    "rowid": "994237",
    "final_x": "3686393.53827",
    "final_y": "540121.800778",
    "longitude": "-90.05231466739704",
    "latitude": "29.978998156868734",
    "geocoded_column": {
      "latitude": "29.978998156868734",
      "longitude": "-90.05231466739704"
    }
  },
  {
    "service_request": "2023-994236",
    "request_type": "Tax and Revenue",
    "request_reason": "Pay Property Tax",
    "date_created": "2023-04-25T15:36:50.000",
    "date_modified": "2023-04-25T15:36:51.000",
    "request_status": "Pending",
    "responsible_agency": "Bureau of Treasury",
    "final_address": "2240 Magazine St",
    "address_councildis": "B",
    "status": "Pending",
    "rowid": "994236",
    "final_x": "3678602.17992",
    "final_y": "521837.538234",
    "longitude": "-90.07755566696517",
    "latitude": "29.9289597911944",
    "geocoded_column": {
      "latitude": "29.9289597911944",
      "longitude": "-90.07755566696517"
    }
  },
  {
    "service_request": "2023-994235",
    "request_type": "Trash/Recycling",
    "request_reason": "Missed Trash Pick-Up",
    "date_created": "2023-04-25T15:36:26.000",
    "date_modified": "2023-04-25T15:36:27.000",
    "request_status": "Pending",
    "responsible_agency": "Department of Sanitation",
    "final_address": "2528 Marengo St",
    "address_councildis": "B",
    "status": "Assigned to Contractor",
    "contractor": "Richards Disposal",
    "rowid": "994235",
    "final_x": "3671565.93742",
    "final_y": "524387.417468",
    "longitude": "-90.09968106819686",
    "latitude": "29.936181298362843",
    "geocoded_column": {
      "latitude": "29.936181298362843",
      "longitude": "-90.09968106819686"
    }
  },
  {
    "service_request": "2023-994234",
    "request_type": "Trash/Recycling",
    "request_reason": "Repair Trash Cart",
    "date_created": "2023-04-25T15:35:57.000",
    "date_modified": "2023-04-25T15:35:58.000",
    "request_status": "Pending",
    "responsible_agency": "Department of Sanitation",
    "final_address": "4145 Vendome Pl",
    "address_councildis": "B",
    "status": "Assigned to Contractor",
    "contractor": "Richards Disposal",
    "rowid": "994234",
    "final_x": "3668985.6875",
    "final_y": "530754.70093",
    "longitude": "-90.10761198559317",
    "latitude": "29.953765393080296",
    "geocoded_column": {
      "latitude": "29.953765393080296",
      "longitude": "-90.10761198559317"
    }
  },
  {
    "service_request": "2023-994233",
    "request_type": "Abandoned Vehicles",
    "request_reason": "Abandoned/Junk Vehicles",
    "date_created": "2023-04-25T15:35:00.000",
    "date_modified": "2023-04-25T15:35:00.000",
    "request_status": "Pending",
    "responsible_agency": "Department of Public Works",
    "final_address": "2916 Banks St",
    "address_councildis": "B",
    "status": "Pending",
    "rowid": "994233",
    "final_x": "3673708.98344",
    "final_y": "534740.542726",
    "longitude": "-90.09256146851278",
    "latitude": "29.964585352537508",
    "geocoded_column": {
      "latitude": "29.964585352537508",
      "longitude": "-90.09256146851278"
    }
  },
  {
    "service_request": "2023-994232",
    "request_type": "Traffic Signals/Signs/Striping/Streetlights",
    "request_reason": "Additional signage",
    "date_created": "2023-04-25T15:32:38.000",
    "date_modified": "2023-04-25T15:32:38.000",
    "request_status": "Pending",
    "responsible_agency": "Department of Public Works",
    "final_address": "1000 BLK Leboeuf St",
    "address_councildis": "C",
    "status": "Pending",
    "rowid": "994232",
    "final_x": "3689750.46101",
    "final_y": "527680.471002",
    "longitude": "-90.04215503648426",
    "latitude": "29.94468521607996",
    "geocoded_column": {
      "latitude": "29.94468521607996",
      "longitude": "-90.04215503648426"
    }
  },
  {
    "service_request": "2023-994231",
    "request_type": "Trash/Recycling",
    "request_reason": "Return Recycling Cart",
    "date_created": "2023-04-25T15:30:30.000",
    "date_modified": "2023-04-25T15:30:30.000",
    "request_status": "Pending",
    "responsible_agency": "Department of Sanitation",
    "final_address": "3135 Royal St",
    "address_councildis": "C",
    "status": "Pending",
    "rowid": "994231",
    "final_x": "3688913.26172",
    "final_y": "534469.099653",
    "longitude": "-90.04455724204797",
    "latitude": "29.963377517642567",
    "geocoded_column": {
      "latitude": "29.963377517642567",
      "longitude": "-90.04455724204797"
    }
  },
  {
    "service_request": "2023-994230",
    "request_type": "Traffic Signals/Signs/Striping/Streetlights",
    "request_reason": "Street Light Outage/Malfunction",
    "date_created": "2023-04-25T15:27:52.000",
    "date_modified": "2023-04-25T15:27:53.000",
    "request_status": "Pending",
    "responsible_agency": "Department of Public Works",
    "final_address": "2133 First St",
    "address_councildis": "B",
    "status": "Assigned to Contractor",
    "contractor": "Legacy Professional Services",
    "rowid": "994230",
    "final_x": "3675836.13147",
    "final_y": "524955.490493",
    "longitude": "-90.08618040858323",
    "latitude": "29.937616207949112",
    "geocoded_column": {
      "latitude": "29.937616207949112",
      "longitude": "-90.08618040858323"
    }
  },
  {
    "service_request": "2023-994229",
    "request_type": "Trash/Recycling",
    "request_reason": "Request a Large Item Pick Up",
    "date_created": "2023-04-25T15:26:33.000",
    "date_modified": "2023-04-25T15:26:34.000",
    "request_status": "Pending",
    "responsible_agency": "Department of Sanitation",
    "final_address": "7110 Camberley Dr",
    "address_councildis": "E",
    "status": "Assigned to Contractor",
    "contractor": "Waste Pro",
    "rowid": "994229",
    "final_x": "3713287.06174",
    "final_y": "564674.902114",
    "longitude": "-89.96645043974165",
    "latitude": "30.045655489072413",
    "geocoded_column": {
      "latitude": "30.045655489072413",
      "longitude": "-89.96645043974165"
    }
  },
  {
    "service_request": "2023-994228",
    "request_type": "Trash/Recycling",
    "request_reason": "Replace Recycling Cart",
    "date_created": "2023-04-25T15:23:46.000",
    "date_modified": "2023-04-25T15:23:46.000",
    "request_status": "Pending",
    "responsible_agency": "Department of Sanitation",
    "final_address": "4901 Perrier St",
    "address_councildis": "B",
    "status": "Pending",
    "rowid": "994228",
    "final_x": "3668985.0859",
    "final_y": "519955.912632",
    "longitude": "-90.10797852850848",
    "latitude": "29.924072226317765",
    "geocoded_column": {
      "latitude": "29.924072226317765",
      "longitude": "-90.10797852850848"
    }
  },
  {
    "service_request": "2023-994227",
    "request_type": "Trash/Recycling",
    "request_reason": "Request a Large Item Pick Up",
    "date_created": "2023-04-25T15:23:32.000",
    "date_modified": "2023-04-25T15:23:33.000",
    "request_status": "Pending",
    "responsible_agency": "Department of Sanitation",
    "final_address": "4838 Laurel St",
    "address_councildis": "B",
    "status": "Assigned to Contractor",
    "contractor": "Richards Disposal",
    "rowid": "994227",
    "final_x": "3669367.1643",
    "final_y": "517838.076982",
    "longitude": "-90.10684399672023",
    "latitude": "29.91823760791575",
    "geocoded_column": {
      "latitude": "29.91823760791575",
      "longitude": "-90.10684399672023"
    }
  },
  {
    "service_request": "2023-994226",
    "request_type": "Roads/Drainage",
    "request_reason": "Catch Basin - Broken/Damage",
    "date_created": "2023-04-25T15:22:22.000",
    "date_modified": "2023-04-25T15:22:22.000",
    "request_status": "Pending",
    "responsible_agency": "Department of Public Works",
    "final_address": "HAMMOND ST & WERNER DR",
    "address_councildis": "E",
    "status": "Pending",
    "rowid": "994226",
    "final_x": "3704733.3",
    "final_y": "555620.58",
    "longitude": "-89.99381887699023",
    "latitude": "30.02103744121229",
    "geocoded_column": {
      "latitude": "30.02103744121229",
      "longitude": "-89.99381887699023"
    }
  },
  {
    "service_request": "2023-994225",
    "request_type": "Trash/Recycling",
    "request_reason": "Damaged Caused By Contractor",
    "date_created": "2023-04-25T15:22:08.000",
    "date_modified": "2023-04-25T15:22:09.000",
    "request_status": "Pending",
    "responsible_agency": "Department of Sanitation",
    "final_address": "2310 St Nick Dr",
    "address_councildis": "C",
    "status": "Assigned to Contractor",
    "contractor": "Richards Disposal",
    "rowid": "994225",
    "final_x": "3699701.48317",
    "final_y": "522496.91353",
    "longitude": "-90.01092577312052",
    "latitude": "29.930120159376845",
    "geocoded_column": {
      "latitude": "29.930120159376845",
      "longitude": "-90.01092577312052"
    }
  },
  {
    "service_request": "2023-994224",
    "request_type": "Safety & Permits",
    "request_reason": "Licenses & Permits",
    "date_created": "2023-04-25T15:18:59.000",
    "date_modified": "2023-04-25T15:18:59.000",
    "request_status": "Pending",
    "responsible_agency": "Safety and Permits",
    "final_address": "CANAL BLVD & ROBERT E LEE BLVD",
    "address_councildis": "A",
    "status": "Pending",
    "rowid": "994224",
    "final_x": "3669092.6",
    "final_y": "554652.58",
    "longitude": "-90.10646644246677",
    "latitude": "30.0194732581145",
    "geocoded_column": {
      "latitude": "30.0194732581145",
      "longitude": "-90.10646644246677"
    }
  },
  {
    "service_request": "2023-994223",
    "request_type": "Trash/Recycling",
    "request_reason": "Repair Trash Cart",
    "date_created": "2023-04-25T15:18:08.000",
    "date_modified": "2023-04-25T15:18:08.000",
    "request_status": "Pending",
    "responsible_agency": "Department of Sanitation",
    "final_address": "2930 Blair St",
    "address_councildis": "C",
    "status": "Assigned to Contractor",
    "contractor": "Richards Disposal",
    "rowid": "994223",
    "final_x": "3709602.61541",
    "final_y": "519837.436024",
    "longitude": "-89.9797689830772",
    "latitude": "29.92248962086891",
    "geocoded_column": {
      "latitude": "29.92248962086891",
      "longitude": "-89.9797689830772"
    }
  },
  {
    "service_request": "2023-994221",
    "request_type": "Roads/Drainage",
    "request_reason": "Pothole",
    "date_created": "2023-04-25T15:14:55.000",
    "date_modified": "2023-04-25T15:14:56.000",
    "request_status": "Pending",
    "responsible_agency": "Department of Public Works",
    "final_address": "NELSON ST & S CARROLLTON AVE",
    "address_councildis": "A",
    "status": "Pending",
    "rowid": "994221",
    "final_x": "3665156.9",
    "final_y": "531811.98",
    "longitude": "-90.11966639793846",
    "latitude": "29.95678462913896",
    "geocoded_column": {
      "latitude": "29.95678462913896",
      "longitude": "-90.11966639793846"
    }
  },
  {
    "service_request": "2023-994220",
    "request_type": "Traffic Signals/Signs/Striping/Streetlights",
    "request_reason": "Street Light Outage/Malfunction",
    "date_created": "2023-04-25T15:13:20.000",
    "date_modified": "2023-04-25T15:13:21.000",
    "request_status": "Pending",
    "responsible_agency": "Department of Public Works",
    "final_address": "3810 Gentilly Blvd",
    "address_councildis": "D",
    "status": "Assigned to Contractor",
    "contractor": "Legacy Professional Services",
    "rowid": "994220",
    "final_x": "3687849.60822",
    "final_y": "548775.485907",
    "longitude": "-90.04740912167146",
    "latitude": "30.002747847860743",
    "geocoded_column": {
      "latitude": "30.002747847860743",
      "longitude": "-90.04740912167146"
    }
  },
  {
    "service_request": "2023-994219",
    "request_type": "Trash/Recycling",
    "request_reason": "Request a Large Item Pick Up",
    "date_created": "2023-04-25T15:12:52.000",
    "date_modified": "2023-04-25T15:12:53.000",
    "request_status": "Pending",
    "responsible_agency": "Department of Sanitation",
    "final_address": "1439 Tennessee St, New Orleans, Louisiana, 70117",
    "address_councildis": "E",
    "status": "Assigned to Contractor",
    "contractor": "Waste Pro",
    "rowid": "994219",
    "final_x": "3696101.03222",
    "final_y": "535674.390855",
    "longitude": "-90.02181561183428",
    "latitude": "29.966467389831116",
    "geocoded_column": {
      "latitude": "29.966467389831116",
      "longitude": "-90.02181561183428"
    }
  },
  {
    "service_request": "2023-994218",
    "request_type": "Trash/Recycling",
    "request_reason": "Missed Trash Pick-Up",
    "date_created": "2023-04-25T15:06:53.000",
    "date_modified": "2023-04-25T15:06:54.000",
    "request_status": "Pending",
    "responsible_agency": "Department of Sanitation",
    "final_address": "6711 Morrison Rd",
    "address_councildis": "E",
    "status": "Assigned to Contractor",
    "contractor": "Waste Pro",
    "rowid": "994218",
    "final_x": "3698294.33463",
    "final_y": "558652.907484",
    "longitude": "-90.01405373707804",
    "latitude": "30.0295805836494",
    "geocoded_column": {
      "latitude": "30.0295805836494",
      "longitude": "-90.01405373707804"
    }
  },
  {
    "service_request": "2023-994217",
    "request_type": "Trash/Recycling",
    "request_reason": "Request a Large Item Pick Up",
    "date_created": "2023-04-25T15:01:52.000",
    "date_modified": "2023-04-25T15:01:53.000",
    "request_status": "Pending",
    "responsible_agency": "Department of Sanitation",
    "final_address": "7613 Dominican St",
    "address_councildis": "A",
    "status": "Assigned to Contractor",
    "contractor": "Richards Disposal",
    "rowid": "994217",
    "final_x": "3661314.7239",
    "final_y": "525218.627645",
    "longitude": "-90.13201710490601",
    "latitude": "29.938766359533616",
    "geocoded_column": {
      "latitude": "29.938766359533616",
      "longitude": "-90.13201710490601"
    }
  },
  {
    "service_request": "2023-994216",
    "request_type": "Safety & Permits",
    "request_reason": "Licenses & Permits",
    "date_created": "2023-04-25T14:59:28.000",
    "date_modified": "2023-04-25T14:59:28.000",
    "request_status": "Pending",
    "responsible_agency": "Safety and Permits",
    "final_address": "6600 Franklin Ave Ste A9",
    "address_councildis": "D",
    "status": "Pending",
    "rowid": "994216",
    "final_x": "3685770.96879",
    "final_y": "557995.344731",
    "longitude": "-90.05365052257622",
    "latitude": "30.02816305284493",
    "geocoded_column": {
      "latitude": "30.02816305284493",
      "longitude": "-90.05365052257622"
    }
  },
  {
    "service_request": "2023-994215",
    "request_type": "Trash/Recycling",
    "request_reason": "Repair Recycling Cart",
    "date_created": "2023-04-25T14:59:00.000",
    "date_modified": "2023-04-25T14:59:00.000",
    "request_status": "Pending",
    "responsible_agency": "Department of Sanitation",
    "final_address": "1012 City Park Ave",
    "address_councildis": "A",
    "status": "Pending",
    "rowid": "994215",
    "final_x": "3672381.69287",
    "final_y": "541527.040076",
    "longitude": "-90.09652163678034",
    "latitude": "29.98328537410522",
    "geocoded_column": {
      "latitude": "29.98328537410522",
      "longitude": "-90.09652163678034"
    }
  },
  {
    "service_request": "2023-994214",
    "request_type": "Abandoned Vehicles",
    "request_reason": "Abandoned/Junk Vehicles",
    "date_created": "2023-04-25T14:57:51.000",
    "date_modified": "2023-04-25T14:57:51.000",
    "request_status": "Pending",
    "responsible_agency": "Department of Public Works",
    "final_address": "6729 Catina St",
    "address_councildis": "A",
    "status": "Pending",
    "rowid": "994214",
    "final_x": "3667111.87649",
    "final_y": "552372.385302",
    "longitude": "-90.11280163184858",
    "latitude": "30.013261690935835",
    "geocoded_column": {
      "latitude": "30.013261690935835",
      "longitude": "-90.11280163184858"
    }
  },
  {
    "service_request": "2023-994212",
    "request_type": "Tax and Revenue",
    "request_reason": "Sales Tax Question",
    "date_created": "2023-04-25T14:55:31.000",
    "date_modified": "2023-04-25T14:55:31.000",
    "request_status": "Pending",
    "responsible_agency": "Bureau of Revenue",
    "final_address": "3950 Metropolitan St",
    "address_councildis": "D",
    "status": "Pending",
    "rowid": "994212",
    "final_x": "3691438.41161",
    "final_y": "547943.736018",
    "longitude": "-90.0361013950067",
    "latitude": "30.0003496087696",
    "geocoded_column": {
      "latitude": "30.0003496087696",
      "longitude": "-90.0361013950067"
    }
  },
  {
    "service_request": "2023-994211",
    "request_type": "Trash/Recycling",
    "request_reason": "Replace Trash Cart",
    "date_created": "2023-04-25T14:54:17.000",
    "date_modified": "2023-04-25T14:54:17.000",
    "request_status": "Pending",
    "responsible_agency": "Department of Sanitation",
    "final_address": "1613 Dumaine St",
    "address_councildis": "C",
    "status": "Assigned to Contractor",
    "contractor": "Richards Disposal",
    "rowid": "994211",
    "final_x": "3680434.39573",
    "final_y": "535057.851782",
    "longitude": "-90.07131207527497",
    "latitude": "29.96525588332092",
    "geocoded_column": {
      "latitude": "29.96525588332092",
      "longitude": "-90.07131207527497"
    }
  },
  {
    "service_request": "2023-994210",
    "request_type": "Abandoned Vehicles",
    "request_reason": "Abandoned/Junk Vehicles",
    "date_created": "2023-04-25T14:53:35.000",
    "date_modified": "2023-04-25T14:56:14.000",
    "request_status": "Pending",
    "responsible_agency": "Department of Public Works",
    "final_address": "6725 Wuerpel St",
    "address_councildis": "A",
    "status": "Pending",
    "rowid": "994210",
    "final_x": "3667265.37479",
    "final_y": "552390.149334",
    "longitude": "-90.11231605896656",
    "latitude": "30.013306039120096",
    "geocoded_column": {
      "latitude": "30.013306039120096",
      "longitude": "-90.11231605896656"
    }
  },
  {
    "service_request": "2023-994209",
    "request_type": "Trash/Recycling",
    "request_reason": "Request a Large Item Pick Up",
    "date_created": "2023-04-25T14:53:18.000",
    "date_modified": "2023-04-25T16:22:49.000",
    "case_close_date": "2023-04-25T11:22:49.000",
    "request_status": "Closed",
    "responsible_agency": "Department of Sanitation",
    "final_address": "11800 Morrison Rd",
    "address_councildis": "E",
    "status": "Assigned to Contractor",
    "contractor": "Waste Pro",
    "contractor_action": "Completed",
    "rowid": "994209",
    "final_x": "3713413.32319",
    "final_y": "566427.045923",
    "longitude": "-89.96598531409377",
    "latitude": "30.050469031178366",
    "geocoded_column": {
      "latitude": "30.050469031178366",
      "longitude": "-89.96598531409377"
    }
  },
  {
    "service_request": "2023-994208",
    "request_type": "Property Maintenance",
    "request_reason": "Property Maintenance",
    "date_created": "2023-04-25T14:52:51.000",
    "date_modified": "2023-04-25T14:52:52.000",
    "request_status": "Pending",
    "responsible_agency": "Department of Code Enforcement",
    "final_address": "5260 Revel St",
    "address_councildis": "E",
    "status": "Pending",
    "rowid": "994208",
    "final_x": "3725015.19097",
    "final_y": "562870.764512",
    "longitude": "-89.92945414626176",
    "latitude": "30.0403049550689",
    "geocoded_column": {
      "latitude": "30.0403049550689",
      "longitude": "-89.92945414626176"
    }
  },
  {
    "service_request": "2023-994207",
    "request_type": "Traffic Signals/Signs/Striping/Streetlights",
    "request_reason": "Street Light Outage/Malfunction",
    "date_created": "2023-04-25T14:50:01.000",
    "date_modified": "2023-04-25T14:50:01.000",
    "request_status": "Pending",
    "responsible_agency": "Department of Public Works",
    "final_address": "1625 Independence St",
    "address_councildis": "D",
    "status": "Assigned to Contractor",
    "contractor": "Legacy Professional Services",
    "rowid": "994207",
    "final_x": "3691536.38512",
    "final_y": "537583.495496",
    "longitude": "-90.03616240222502",
    "latitude": "29.971859624142116",
    "geocoded_column": {
      "latitude": "29.971859624142116",
      "longitude": "-90.03616240222502"
    }
  },
  {
    "service_request": "2023-994206",
    "request_type": "Traffic Signals/Signs/Striping/Streetlights",
    "request_reason": "Street Light Knocked Down/Leaning",
    "date_created": "2023-04-25T14:49:17.000",
    "date_modified": "2023-04-25T14:49:18.000",
    "request_status": "Pending",
    "responsible_agency": "Department of Public Works",
    "final_address": "4156 Vendome Pl",
    "address_councildis": "B",
    "status": "Pending",
    "contractor": "Legacy Professional Services",
    "rowid": "994206",
    "final_x": "3668848.32762",
    "final_y": "530935.98829",
    "longitude": "-90.10803959121654",
    "latitude": "29.954267913368636",
    "geocoded_column": {
      "latitude": "29.954267913368636",
      "longitude": "-90.10803959121654"
    }
  },
  {
    "service_request": "2023-994205",
    "request_type": "Trash/Recycling",
    "request_reason": "Request a Large Item Pick Up",
    "date_created": "2023-04-25T14:40:47.000",
    "date_modified": "2023-04-25T14:40:48.000",
    "request_status": "Pending",
    "responsible_agency": "Department of Sanitation",
    "final_address": "2000 St Nick Dr",
    "address_councildis": "C",
    "status": "Assigned to Contractor",
    "contractor": "Richards Disposal",
    "rowid": "994205",
    "final_x": "3700050.03402",
    "final_y": "523837.633019",
    "longitude": "-90.0097765733584",
    "latitude": "29.93379560843833",
    "geocoded_column": {
      "latitude": "29.93379560843833",
      "longitude": "-90.0097765733584"
    }
  },
  {
    "service_request": "2023-994204",
    "request_type": "Trash/Recycling",
    "request_reason": "Repair Trash Cart",
    "date_created": "2023-04-25T14:40:32.000",
    "date_modified": "2023-04-25T14:40:33.000",
    "request_status": "Pending",
    "responsible_agency": "Department of Sanitation",
    "final_address": "7616 Berg Rd",
    "address_councildis": "E",
    "status": "Assigned to Contractor",
    "contractor": "Waste Pro",
    "rowid": "994204",
    "final_x": "3712022.34802",
    "final_y": "566561.362275",
    "longitude": "-89.97037660157777",
    "latitude": "30.05088391327538",
    "geocoded_column": {
      "latitude": "30.05088391327538",
      "longitude": "-89.97037660157777"
    }
  },
  {
    "service_request": "2023-994203",
    "request_type": "Trash/Recycling",
    "request_reason": "Illegal Dumping",
    "date_created": "2023-04-25T14:40:00.000",
    "date_modified": "2023-04-25T14:40:00.000",
    "request_status": "Pending",
    "responsible_agency": "Department of Code Enforcement",
    "final_address": "2100 BLK Touro St",
    "address_councildis": "D",
    "status": "Pending",
    "rowid": "994203",
    "final_x": "3683922.14098",
    "final_y": "540109.957954",
    "longitude": "-90.06012069278317",
    "latitude": "29.979041333449995",
    "geocoded_column": {
      "latitude": "29.979041333449995",
      "longitude": "-90.06012069278317"
    }
  },
  {
    "service_request": "2023-994202",
    "request_type": "Trash/Recycling",
    "request_reason": "MIssed Recycling Pick-Up",
    "date_created": "2023-04-25T14:39:59.000",
    "date_modified": "2023-04-25T14:40:00.000",
    "request_status": "Pending",
    "responsible_agency": "Department of Sanitation",
    "final_address": "2523 Broadway St",
    "address_councildis": "A",
    "status": "Assigned to Contractor",
    "contractor": "Richards Disposal",
    "rowid": "994202",
    "final_x": "3666959.88679",
    "final_y": "530534.84429",
    "longitude": "-90.1140160345171",
    "latitude": "29.953220289611963",
    "geocoded_column": {
      "latitude": "29.953220289611963",
      "longitude": "-90.1140160345171"
    }
  },
  {
    "service_request": "2023-994201",
    "request_type": "Abandoned Vehicles",
    "request_reason": "Vehicle Blocking Your Driveway",
    "date_created": "2023-04-25T14:38:28.000",
    "date_modified": "2023-04-25T14:38:28.000",
    "request_status": "Pending",
    "responsible_agency": "Department of Public Works",
    "final_address": "926 Chartres St",
    "address_councildis": "C",
    "status": "Pending",
    "rowid": "994201",
    "final_x": "3683444.16975",
    "final_y": "532986.24698",
    "longitude": "-90.0618799672208",
    "latitude": "29.959468188478247",
    "geocoded_column": {
      "latitude": "29.959468188478247",
      "longitude": "-90.0618799672208"
    }
  },
  {
    "service_request": "2023-994200",
    "request_type": "Property Maintenance",
    "request_reason": "Property Maintenance",
    "date_created": "2023-04-25T14:37:46.000",
    "date_modified": "2023-04-25T14:37:46.000",
    "request_status": "Pending",
    "responsible_agency": "Department of Code Enforcement",
    "final_address": "1001 Howard Ave",
    "address_councildis": "B",
    "status": "Pending",
    "rowid": "994200",
    "final_x": "3678909.42094",
    "final_y": "528062.176767",
    "longitude": "-90.07637021252258",
    "latitude": "29.94606622969476",
    "geocoded_column": {
      "latitude": "29.94606622969476",
      "longitude": "-90.07637021252258"
    }
  },
  {
    "service_request": "2023-994199",
    "request_type": "Trash/Recycling",
    "request_reason": "Illegal Dumping",
    "date_created": "2023-04-25T14:37:05.000",
    "date_modified": "2023-04-25T14:37:05.000",
    "request_status": "Pending",
    "responsible_agency": "Department of Sanitation",
    "final_address": "7837 Sand St",
    "address_councildis": "E",
    "status": "Pending",
    "rowid": "994199",
    "final_x": "3720236.21081",
    "final_y": "574288.665194",
    "longitude": "-89.9441195987731",
    "latitude": "30.07185956109437",
    "geocoded_column": {
      "latitude": "30.07185956109437",
      "longitude": "-89.9441195987731"
    }
  },
  {
    "service_request": "2023-994198",
    "request_type": "Trash/Recycling",
    "request_reason": "Request a Large Item Pick Up",
    "date_created": "2023-04-25T14:36:22.000",
    "date_modified": "2023-04-25T14:36:23.000",
    "request_status": "Pending",
    "responsible_agency": "Department of Sanitation",
    "final_address": "4701 Coliseum St",
    "address_councildis": "B",
    "status": "Assigned to Contractor",
    "contractor": "Richards Disposal",
    "rowid": "994198",
    "final_x": "3669799.41537",
    "final_y": "519744.738488",
    "longitude": "-90.10541511498437",
    "latitude": "29.923467594136167",
    "geocoded_column": {
      "latitude": "29.923467594136167",
      "longitude": "-90.10541511498437"
    }
  },
  {
    "service_request": "2023-994196",
    "request_type": "Property Maintenance",
    "request_reason": "Property Maintenance",
    "date_created": "2023-04-25T14:34:51.000",
    "date_modified": "2023-04-25T14:34:51.000",
    "request_status": "Pending",
    "responsible_agency": "Department of Code Enforcement",
    "final_address": "3011 St Claude Ave",
    "address_councildis": "C",
    "status": "Pending",
    "rowid": "994196",
    "final_x": "3688558.73481",
    "final_y": "536217.302279",
    "longitude": "-90.04561475367828",
    "latitude": "29.96819542422598",
    "geocoded_column": {
      "latitude": "29.96819542422598",
      "longitude": "-90.04561475367828"
    }
  },
  {
    "service_request": "2023-994195",
    "request_type": "Trash/Recycling",
    "request_reason": "Illegal Dumping",
    "date_created": "2023-04-25T14:33:25.000",
    "date_modified": "2023-04-25T14:33:25.000",
    "request_status": "Pending",
    "responsible_agency": "Department of Sanitation",
    "final_address": "VENICE BLVD & S LITTLEWOODS DR",
    "address_councildis": "E",
    "status": "Pending",
    "rowid": "994195",
    "final_x": "3720436.2",
    "final_y": "575060.38",
    "longitude": "-89.94345778392481",
    "latitude": "30.073974781131813",
    "geocoded_column": {
      "latitude": "30.073974781131813",
      "longitude": "-89.94345778392481"
    }
  },
  {
    "service_request": "2023-994194",
    "request_type": "Trash/Recycling",
    "request_reason": "Request a Large Item Pick Up",
    "date_created": "2023-04-25T14:32:12.000",
    "date_modified": "2023-04-25T14:32:13.000",
    "request_status": "Pending",
    "responsible_agency": "Department of Sanitation",
    "final_address": "628 Dauphine St",
    "address_councildis": "C",
    "status": "Assigned to Contractor",
    "contractor": "Empire Services",
    "rowid": "994194",
    "final_x": "3681932.03714",
    "final_y": "532744.745732",
    "longitude": "-90.06666335382361",
    "latitude": "29.958850192291248",
    "geocoded_column": {
      "latitude": "29.958850192291248",
      "longitude": "-90.06666335382361"
    }
  },
  {
    "service_request": "2023-994193",
    "request_type": "Trash/Recycling",
    "request_reason": "Start Trash Service",
    "date_created": "2023-04-25T14:31:14.000",
    "date_modified": "2023-04-25T14:31:15.000",
    "request_status": "Pending",
    "responsible_agency": "Department of Sanitation",
    "final_address": "1110 Valmont St",
    "address_councildis": "B",
    "status": "Assigned to Contractor",
    "contractor": "Richards Disposal",
    "rowid": "994193",
    "final_x": "3667561.31617",
    "final_y": "519486.984759",
    "longitude": "-90.11248865239399",
    "latitude": "29.922824611750997",
    "geocoded_column": {
      "latitude": "29.922824611750997",
      "longitude": "-90.11248865239399"
    }
  },
  {
    "service_request": "2023-994192",
    "request_type": "Trash/Recycling",
    "request_reason": "Request a Large Item Pick Up",
    "date_created": "2023-04-25T14:30:39.000",
    "date_modified": "2023-04-25T14:30:40.000",
    "request_status": "Pending",
    "responsible_agency": "Department of Sanitation",
    "final_address": "3053 Mercedes Blvd",
    "address_councildis": "C",
    "status": "Assigned to Contractor",
    "contractor": "Richards Disposal",
    "rowid": "994192",
    "final_x": "3697891.04227",
    "final_y": "520029.072376",
    "longitude": "-90.016730522985",
    "latitude": "29.923391769133943",
    "geocoded_column": {
      "latitude": "29.923391769133943",
      "longitude": "-90.016730522985"
    }
  },
  {
    "service_request": "2023-994191",
    "request_type": "Trash/Recycling",
    "request_reason": "Request a Large Item Pick Up",
    "date_created": "2023-04-25T14:29:00.000",
    "date_modified": "2023-04-25T14:29:01.000",
    "request_status": "Pending",
    "responsible_agency": "Department of Sanitation",
    "final_address": "5900 Painters St",
    "address_councildis": "D",
    "status": "Assigned to Contractor",
    "contractor": "IV Waste",
    "rowid": "994191",
    "final_x": "3686014.71062",
    "final_y": "554837.458712",
    "longitude": "-90.05299181489838",
    "latitude": "30.019472550883613",
    "geocoded_column": {
      "latitude": "30.019472550883613",
      "longitude": "-90.05299181489838"
    }
  },
  {
    "service_request": "2023-994190",
    "request_type": "Abandoned Vehicles",
    "request_reason": "Abandoned/Junk Vehicles",
    "date_created": "2023-04-25T14:28:12.000",
    "date_modified": "2023-04-25T14:28:12.000",
    "request_status": "Pending",
    "responsible_agency": "Department of Public Works",
    "final_address": "3200 Ponce De Leon St",
    "address_councildis": "A",
    "status": "Pending",
    "rowid": "994190",
    "final_x": "3676002.38248",
    "final_y": "540513.923147",
    "longitude": "-90.08512046556733",
    "latitude": "29.9803916946881",
    "geocoded_column": {
      "latitude": "29.9803916946881",
      "longitude": "-90.08512046556733"
    }
  },
  {
    "service_request": "2023-994189",
    "request_type": "Roads/Drainage",
    "request_reason": "Pothole",
    "date_created": "2023-04-25T14:28:04.000",
    "date_modified": "2023-04-25T14:28:04.000",
    "request_status": "Pending",
    "responsible_agency": "Department of Public Works",
    "final_address": "119 David St, New Orleans, Louisiana, 70119",
    "address_councildis": "A",
    "status": "Pending",
    "rowid": "994189",
    "final_x": "3671008.87668",
    "final_y": "538734.672457",
    "longitude": "-90.10095257282039",
    "latitude": "29.975647985304526",
    "geocoded_column": {
      "latitude": "29.975647985304526",
      "longitude": "-90.10095257282039"
    }
  },
  {
    "service_request": "2023-994188",
    "request_type": "Trash/Recycling",
    "request_reason": "Request a Large Item Pick Up",
    "date_created": "2023-04-25T14:26:01.000",
    "date_modified": "2023-04-25T14:26:01.000",
    "request_status": "Pending",
    "responsible_agency": "Department of Sanitation",
    "final_address": "2216 Camp St",
    "address_councildis": "B",
    "status": "Assigned to Contractor",
    "contractor": "Richards Disposal",
    "rowid": "994188",
    "final_x": "3678502.41262",
    "final_y": "522245.417978",
    "longitude": "-90.07785650454653",
    "latitude": "29.93008433324849",
    "geocoded_column": {
      "latitude": "29.93008433324849",
      "longitude": "-90.07785650454653"
    }
  },
  {
    "service_request": "2023-994186",
    "request_type": "Parks & Parkways",
    "request_reason": "Request Tree Service (Right of Way/Public Property)",
    "date_created": "2023-04-25T14:25:57.000",
    "date_modified": "2023-04-25T14:25:57.000",
    "request_status": "Pending",
    "responsible_agency": "Department of Parks & Parkway",
    "final_address": "5230 Chestnut St",
    "address_councildis": "B",
    "status": "Pending",
    "rowid": "994186",
    "final_x": "3667816.88525",
    "final_y": "519316.857463",
    "longitude": "-90.11168764417242",
    "latitude": "29.922349325598304",
    "geocoded_column": {
      "latitude": "29.922349325598304",
      "longitude": "-90.11168764417242"
    }
  },
  {
    "service_request": "2023-994185",
    "request_type": "Trash/Recycling",
    "request_reason": "Order Trash Cart",
    "date_created": "2023-04-25T14:25:10.000",
    "date_modified": "2023-04-25T14:25:11.000",
    "request_status": "Pending",
    "responsible_agency": "Department of Sanitation",
    "final_address": "2961 Mansfield Ave",
    "address_councildis": "C",
    "status": "Assigned to Contractor",
    "contractor": "Richards Disposal",
    "rowid": "994185",
    "final_x": "3709081.81425",
    "final_y": "518905.918391",
    "longitude": "-89.98144761809644",
    "latitude": "29.91994517976688",
    "geocoded_column": {
      "latitude": "29.91994517976688",
      "longitude": "-89.98144761809644"
    }
  },
  {
    "service_request": "2023-994184",
    "request_type": "Trash/Recycling",
    "request_reason": "Missed Trash Pick-Up",
    "date_created": "2023-04-25T14:22:54.000",
    "date_modified": "2023-04-25T14:22:54.000",
    "request_status": "Pending",
    "responsible_agency": "Department of Sanitation",
    "final_address": "826 N Rocheblave St",
    "address_councildis": "D",
    "status": "Assigned to Contractor",
    "contractor": "Richards Disposal",
    "rowid": "994184",
    "final_x": "3677902.4347",
    "final_y": "536773.85108",
    "longitude": "-90.07924857196839",
    "latitude": "29.970050732974858",
    "geocoded_column": {
      "latitude": "29.970050732974858",
      "longitude": "-90.07924857196839"
    }
  },
  {
    "service_request": "2023-994183",
    "request_type": "Trash/Recycling",
    "request_reason": "Missed Trash Pick-Up",
    "date_created": "2023-04-25T14:21:09.000",
    "date_modified": "2023-04-25T16:02:25.000",
    "case_close_date": "2023-04-25T11:02:25.000",
    "request_status": "Closed",
    "responsible_agency": "Department of Sanitation",
    "final_address": "11550 Hayne Blvd",
    "address_councildis": "E",
    "status": "Assigned to Contractor",
    "contractor": "Waste Pro",
    "contractor_action": "Completed",
    "rowid": "994183",
    "final_x": "3711258.80805",
    "final_y": "568116.864741",
    "longitude": "-89.97273148951896",
    "latitude": "30.055185863329502",
    "geocoded_column": {
      "latitude": "30.055185863329502",
      "longitude": "-89.97273148951896"
    }
  },
  {
    "service_request": "2023-994182",
    "request_type": "Trash/Recycling",
    "request_reason": "Replace Trash Cart",
    "date_created": "2023-04-25T14:20:11.000",
    "date_modified": "2023-04-25T14:20:12.000",
    "request_status": "Pending",
    "responsible_agency": "Department of Sanitation",
    "final_address": "1837 Peniston St",
    "address_councildis": "B",
    "status": "Assigned to Contractor",
    "contractor": "Richards Disposal",
    "rowid": "994182",
    "final_x": "3672679.19841",
    "final_y": "522134.137466",
    "longitude": "-90.09624326593851",
    "latitude": "29.929952503203452",
    "geocoded_column": {
      "latitude": "29.929952503203452",
      "longitude": "-90.09624326593851"
    }
  },
  {
    "service_request": "2023-994181",
    "request_type": "Trash/Recycling",
    "request_reason": "Illegal Dumping",
    "date_created": "2023-04-25T14:17:23.000",
    "date_modified": "2023-04-25T14:17:24.000",
    "request_status": "Pending",
    "responsible_agency": "Department of Sanitation",
    "final_address": "1713 Pleasure St",
    "address_councildis": "D",
    "status": "Pending",
    "rowid": "994181",
    "final_x": "3680658.61019",
    "final_y": "544890.975119",
    "longitude": "-90.07026172302393",
    "latitude": "29.992286762853062",
    "geocoded_column": {
      "latitude": "29.992286762853062",
      "longitude": "-90.07026172302393"
    }
  },
  {
    "service_request": "2023-994180",
    "request_type": "Roads/Drainage",
    "request_reason": "Man hole cover issue",
    "date_created": "2023-04-25T14:15:44.000",
    "date_modified": "2023-04-25T16:32:30.000",
    "case_close_date": "2023-04-25T11:32:30.000",
    "request_status": "Closed",
    "responsible_agency": "Department of Public Works",
    "final_address": " & BALDWIN ST",
    "address_councildis": "D",
    "status": "Referred to External Agency",
    "rowid": "994180",
    "final_x": "3687880.8",
    "final_y": "560035.64",
    "longitude": "-90.04691121641319",
    "latitude": "30.03370814054373",
    "geocoded_column": {
      "latitude": "30.03370814054373",
      "longitude": "-90.04691121641319"
    }
  },
  {
    "service_request": "2023-994179",
    "request_type": "Trash/Recycling",
    "request_reason": "Request a Large Item Pick Up",
    "date_created": "2023-04-25T14:13:28.000",
    "date_modified": "2023-04-25T14:13:29.000",
    "request_status": "Pending",
    "responsible_agency": "Department of Sanitation",
    "final_address": "11000 Curran Rd",
    "address_councildis": "E",
    "status": "Assigned to Contractor",
    "contractor": "Waste Pro",
    "rowid": "994179",
    "final_x": "3710409.65457",
    "final_y": "565995.236643",
    "longitude": "-89.9754949325553",
    "latitude": "30.049379943021524",
    "geocoded_column": {
      "latitude": "30.049379943021524",
      "longitude": "-89.9754949325553"
    }
  },
  {
    "service_request": "2023-994178",
    "request_type": "Trash/Recycling",
    "request_reason": "Request a Large Item Pick Up",
    "date_created": "2023-04-25T14:12:13.000",
    "date_modified": "2023-04-25T14:12:13.000",
    "request_status": "Pending",
    "responsible_agency": "Department of Sanitation",
    "final_address": "4650 Good Dr",
    "address_councildis": "E",
    "status": "Assigned to Contractor",
    "contractor": "Waste Pro",
    "rowid": "994178",
    "final_x": "3714756.94687",
    "final_y": "556383.27337",
    "longitude": "-89.96211852595196",
    "latitude": "30.02280853941986",
    "geocoded_column": {
      "latitude": "30.02280853941986",
      "longitude": "-89.96211852595196"
    }
  },
  {
    "service_request": "2023-994177",
    "request_type": "Trash/Recycling",
    "request_reason": "Illegal Dumping",
    "date_created": "2023-04-25T14:11:34.000",
    "date_modified": "2023-04-25T14:11:34.000",
    "request_status": "Pending",
    "responsible_agency": "Department of Sanitation",
    "final_address": "1412 Willow St",
    "address_councildis": "B",
    "status": "Pending",
    "rowid": "994177",
    "final_x": "3675510.55841",
    "final_y": "528081.345855",
    "longitude": "-90.08710093617522",
    "latitude": "29.94622102153078",
    "geocoded_column": {
      "latitude": "29.94622102153078",
      "longitude": "-90.08710093617522"
    }
  },