[
  {
    "service_request": "2022-858218",
    "request_type": "Trash/Recycling",
    "request_reason": "Request a Large Item Pick Up",
    "date_created": "2022-02-01T23:15:54.000",
    "date_modified": "2022-02-01T23:15:54.000",
    "request_status": "Pending",
    "responsible_agency": "Department of Sanitation",
    "final_address": "4320 Annunciation St",
    "address_councildis": "B",
    "status": "Assigned to Contractor",
    "contractor": "Richards Disposal",
    "rowid": "858218",
    "final_x": "3671390.66139",
    "final_y": "517739.359158",
    "longitude": "-90.10046024386679",
    "latitude": "29.917906454301942",
    "geocoded_column": {
      "latitude": "29.917906454301942",
      "longitude": "-90.10046024386679"
    }
  },
  {
    "service_request": "2022-858217",
    "request_type": "Traffic Signals/Signs/Striping/Streetlights",
    "request_reason": "Street Light Outage/Malfunction",
    "date_created": "2022-02-01T22:59:56.000",
    "date_modified": "2022-02-01T22:59:57.000",
    "request_status": "Pending",
    "responsible_agency": "Department of Public Works",
    "final_address": "7513 Burthe St",
    "address_councildis": "A",
    "status": "Pending",
    "contractor": "Royal Engineering",
    "rowid": "858217",
    "final_x": "3662779.98637",
    "final_y": "526263.749438",
    "longitude": "-90.12735635925243",
    "latitude": "29.94159779020456",
    "geocoded_column": {
      "latitude": "29.94159779020456",
      "longitude": "-90.12735635925243"
    }
  },
  {
    "service_request": "2022-858216",
    "request_type": "Safety & Permits",
    "request_reason": "Licenses & Permits",
    "date_created": "2022-02-01T22:53:19.000",
    "date_modified": "2022-02-01T22:53:19.000",
    "request_status": "Pending",
    "responsible_agency": "Safety and Permits",
    "final_address": "7600 Gannon Rd",
    "address_councildis": "E",
    "status": "Pending",
    "rowid": "858216",
    "final_x": "3716469.08671",
    "final_y": "569659.73431",
    "longitude": "-89.95620443875303",
    "latitude": "30.059256974348585",
    "geocoded_column": {
      "latitude": "30.059256974348585",
      "longitude": "-89.95620443875303"
    }
  },
  {
    "service_request": "2022-858215",
    "request_type": "COVID-19",
    "request_reason": "COVID-19 Business Non-Compliance",
    "date_created": "2022-02-01T22:51:53.000",
    "date_modified": "2022-02-01T22:51:54.000",
    "request_status": "Pending",
    "responsible_agency": "Safety and Permits",
    "final_address": "3823 Magazine St",
    "address_councildis": "B",
    "status": "Pending",
    "rowid": "858215",
    "final_x": "3673176.70056",
    "final_y": "519054.316599",
    "longitude": "-90.09477782414285",
    "latitude": "29.92146920645654",
    "geocoded_column": {
      "latitude": "29.92146920645654",
      "longitude": "-90.09477782414285"
    }
  },
  {
    "service_request": "2022-858214",
    "request_type": "Trash/Recycling",
    "request_reason": "Missed Trash Pick-Up",
    "date_created": "2022-02-01T22:46:34.000",
    "date_modified": "2022-02-01T22:46:35.000",
    "request_status": "Pending",
    "responsible_agency": "Department of Sanitation",
    "final_address": "4816 Pauline Dr, New Orleans, Louisiana, 70126",
    "address_councildis": "D",
    "status": "Assigned to Contractor",
    "contractor": "Metro Disposal",
    "rowid": "858214",
    "final_x": "3692727.83408",
    "final_y": "551868.674006",
    "longitude": "-90.03188722037561",
    "latitude": "30.01110153837615",
    "geocoded_column": {
      "latitude": "30.01110153837615",
      "longitude": "-90.03188722037561"
    }
  },
  {
    "service_request": "2022-858213",
    "request_type": "Property Maintenance",
    "request_reason": "Property Maintenance",
    "date_created": "2022-02-01T22:45:31.000",
    "date_modified": "2022-02-01T22:45:31.000",
    "request_status": "Pending",
    "responsible_agency": "Department of Code Enforcement",
    "final_address": "3725 Delachaise St",
    "address_councildis": "B",
    "status": "Pending",
    "rowid": "858213",
    "final_x": "3671182.29607",
    "final_y": "528535.110528",
    "longitude": "-90.10075138133209",
    "latitude": "29.947597456209472",
    "geocoded_column": {
      "latitude": "29.947597456209472",
      "longitude": "-90.10075138133209"
    }
  },
  {
    "service_request": "2022-858212",
    "request_type": "Safety & Permits",
    "request_reason": "Safety & Permits Request (Cyber Incident Back Up)",
    "date_created": "2022-02-01T22:33:02.000",
    "date_modified": "2022-02-01T22:33:02.000",
    "request_status": "Pending",
    "responsible_agency": "Safety and Permits",
    "status": "Pending",
    "rowid": "858212",
    "longitude": "0.0",
    "latitude": "0.0",
    "geocoded_column": {
      "latitude": "0.0",
      "longitude": "0.0"
    }
  },
  {
    "service_request": "2022-858211",
    "request_type": "Trash/Recycling",
    "request_reason": "Return Recycling Cart",
    "date_created": "2022-02-01T21:48:27.000",
    "date_modified": "2022-02-01T21:48:27.000",
    "request_status": "Pending",
    "responsible_agency": "Department of Sanitation",
    "final_address": "5415 Urquhart St",
    "address_councildis": "E",
    "status": "Pending",
    "rowid": "858211",
    "final_x": "3697506.87267",
    "final_y": "534704.836614",
    "longitude": "-90.01741117411463",
    "latitude": "29.963757141408035",
    "geocoded_column": {
      "latitude": "29.963757141408035",
      "longitude": "-90.01741117411463"
    }
  },
  {
    "service_request": "2022-858210",
    "request_type": "Trash/Recycling",
    "request_reason": "Stop Trash Service",
    "date_created": "2022-02-01T21:46:40.000",
    "date_modified": "2022-02-01T21:46:41.000",
    "request_status": "Pending",
    "responsible_agency": "Department of Sanitation",
    "final_address": "5415 Urquhart St",
    "address_councildis": "E",
    "status": "Assigned to Contractor",
    "contractor": "Metro Disposal",
    "rowid": "858210",
    "final_x": "3697506.87267",
    "final_y": "534704.836614",
    "longitude": "-90.01741117411463",
    "latitude": "29.963757141408035",
    "geocoded_column": {
      "latitude": "29.963757141408035",
      "longitude": "-90.01741117411463"
    }
  },
  {
    "service_request": "2022-858209",
    "request_type": "Trash/Recycling",
    "request_reason": "Order Recycling Cart",
    "date_created": "2022-02-01T21:31:16.000",
    "date_modified": "2022-02-01T21:31:16.000",
    "request_status": "Pending",
    "responsible_agency": "Department of Sanitation",
    "final_address": "4929 Desire Dr",
    "address_councildis": "D",
    "status": "Pending",
    "rowid": "858209",
    "final_x": "3691675.87465",
    "final_y": "552152.384086",
    "longitude": "-90.03520061372417",
    "latitude": "30.011914447128856",
    "geocoded_column": {
      "latitude": "30.011914447128856",
      "longitude": "-90.03520061372417"
    }
  },
  {
    "service_request": "2022-858208",
    "request_type": "Trash/Recycling",
    "request_reason": "Order Trash Cart",
    "date_created": "2022-02-01T21:30:47.000",
    "date_modified": "2022-02-01T21:30:48.000",
    "request_status": "Pending",
    "responsible_agency": "Department of Sanitation",
    "final_address": "4929 Desire Dr",
    "address_councildis": "D",
    "status": "Assigned to Contractor",
    "contractor": "Metro Disposal",
    "rowid": "858208",
    "final_x": "3691675.87465",
    "final_y": "552152.384086",
    "longitude": "-90.03520061372417",
    "latitude": "30.011914447128856",
    "geocoded_column": {
      "latitude": "30.011914447128856",
      "longitude": "-90.03520061372417"
    }
  },
  {
    "service_request": "2022-858207",
    "request_type": "Trash/Recycling",
    "request_reason": "Replace Recycling Cart",
    "date_created": "2022-02-01T21:11:00.000",
    "date_modified": "2022-02-01T21:11:00.000",
    "request_status": "Pending",
    "responsible_agency": "Department of Sanitation",
    "final_address": "2357 Magazine St",
    "address_councildis": "B",
    "status": "Pending",
    "rowid": "858207",
    "final_x": "3678154.60411",
    "final_y": "521599.963257",
    "longitude": "-90.07897678498516",
    "latitude": "29.92832001759112",
    "geocoded_column": {
      "latitude": "29.92832001759112",
      "longitude": "-90.07897678498516"
    }
  },
  {
    "service_request": "2022-858206",
    "request_type": "Trash/Recycling",
    "request_reason": "Missed Trash Pick-Up",
    "date_created": "2022-02-01T21:07:46.000",
    "date_modified": "2022-02-01T21:07:47.000",
    "request_status": "Pending",
    "responsible_agency": "Department of Sanitation",
    "final_address": "2357 Magazine St",
    "address_councildis": "B",
    "status": "Assigned to Contractor",
    "contractor": "Richards Disposal",
    "rowid": "858206",
    "final_x": "3678154.60411",
    "final_y": "521599.963257",
    "longitude": "-90.07897678498516",
    "latitude": "29.92832001759112",
    "geocoded_column": {
      "latitude": "29.92832001759112",
      "longitude": "-90.07897678498516"
    }
  },
  {
    "service_request": "2022-858205",
    "request_type": "Trash/Recycling",
    "request_reason": "Request a Large Item Pick Up",
    "date_created": "2022-02-01T20:53:02.000",
    "date_modified": "2022-02-01T20:53:03.000",
    "request_status": "Pending",
    "responsible_agency": "Department of Sanitation",
    "final_address": "7220 W Renaissance Ct",
    "address_councildis": "E",
    "status": "Assigned to Contractor",
    "contractor": "Metro Disposal",
    "rowid": "858205",
    "final_x": "3716415.29368",
    "final_y": "567829.356516",
    "longitude": "-89.95644399553201",
    "latitude": "30.054225968446996",
    "geocoded_column": {
      "latitude": "30.054225968446996",
      "longitude": "-89.95644399553201"
    }
  },
  {
    "service_request": "2022-858204",
    "request_type": "Trash/Recycling",
    "request_reason": "Request a Large Item Pick Up",
    "date_created": "2022-02-01T20:40:35.000",
    "date_modified": "2022-02-01T20:40:36.000",
    "request_status": "Pending",
    "responsible_agency": "Department of Sanitation",
    "final_address": "5022 Chestnut St",
    "address_councildis": "B",
    "status": "Assigned to Contractor",
    "contractor": "Richards Disposal",
    "rowid": "858204",
    "final_x": "3668536.48519",
    "final_y": "519303.228983",
    "longitude": "-90.10941661342329",
    "latitude": "29.92229073626848",
    "geocoded_column": {
      "latitude": "29.92229073626848",
      "longitude": "-90.10941661342329"
    }
  },
  {
    "service_request": "2022-858203",
    "request_type": "Traffic Signals/Signs/Striping/Streetlights",
    "request_reason": "Street Light Outage/Malfunction",
    "date_created": "2022-02-01T20:38:53.000",
    "date_modified": "2022-02-01T20:38:54.000",
    "request_status": "Pending",
    "responsible_agency": "Department of Public Works",
    "final_address": "5022 Chestnut St",
    "address_councildis": "B",
    "status": "Pending",
    "contractor": "Royal Engineering",
    "rowid": "858203",
    "final_x": "3668536.48519",
    "final_y": "519303.228983",
    "longitude": "-90.10941661342329",
    "latitude": "29.92229073626848",
    "geocoded_column": {
      "latitude": "29.92229073626848",
      "longitude": "-90.10941661342329"
    }
  },
  {
    "service_request": "2022-858202",
    "request_type": "Traffic Signals/Signs/Striping/Streetlights",
    "request_reason": "Street Light Outage/Malfunction",
    "date_created": "2022-02-01T20:01:39.000",
    "date_modified": "2022-02-01T20:01:40.000",
    "request_status": "Pending",
    "responsible_agency": "Department of Public Works",
    "final_address": "1700 N Rampart St",
    "address_councildis": "C",
    "status": "Pending",
    "contractor": "Royal Engineering",
    "rowid": "858202",
    "final_x": "3683162.43733",
    "final_y": "535610.629126",
    "longitude": "-90.0626777121484",
    "latitude": "29.96669293104856",
    "geocoded_column": {
      "latitude": "29.96669293104856",
      "longitude": "-90.0626777121484"
    }
  },
  {
    "service_request": "2022-858201",
    "request_type": "Trash/Recycling",
    "request_reason": "Order Recycling Cart",
    "date_created": "2022-02-01T19:59:04.000",
    "date_modified": "2022-02-01T19:59:04.000",
    "request_status": "Pending",
    "responsible_agency": "Department of Sanitation",
    "final_address": "3400 Octavia St",
    "address_councildis": "A",
    "status": "Pending",
    "rowid": "858201",
    "final_x": "3668420.15118",
    "final_y": "528066.626495",
    "longitude": "-90.10948837697084",
    "latitude": "29.94639068770748",
    "geocoded_column": {
      "latitude": "29.94639068770748",
      "longitude": "-90.10948837697084"
    }
  },
  {
    "service_request": "2022-858200",
    "request_type": "Trash/Recycling",
    "request_reason": "Replace Trash Cart",
    "date_created": "2022-02-01T19:58:03.000",
    "date_modified": "2022-02-01T19:58:04.000",
    "request_status": "Pending",
    "responsible_agency": "Department of Sanitation",
    "final_address": "232 Walnut St",
    "address_councildis": "A",
    "status": "Assigned to Contractor",
    "contractor": "Richards Disposal",
    "rowid": "858200",
    "final_x": "3661375.88966",
    "final_y": "521348.299513",
    "longitude": "-90.13195211035314",
    "latitude": "29.928122410687646",
    "geocoded_column": {
      "latitude": "29.928122410687646",
      "longitude": "-90.13195211035314"
    }
  },
  {
    "service_request": "2022-858199",
    "request_type": "Roads/Drainage",
    "request_reason": "Street Subsidence (Sinking)",
    "date_created": "2022-02-01T19:57:46.000",
    "date_modified": "2022-02-01T19:57:46.000",
    "request_status": "Pending",
    "responsible_agency": "Department of Public Works",
    "final_address": "7361 Hansbrough Ave",
    "address_councildis": "E",
    "status": "Pending",
    "rowid": "858199",
    "final_x": "3708085.26372",
    "final_y": "563764.082657",
    "longitude": "-89.98292447426105",
    "latitude": "30.043320694521288",
    "geocoded_column": {
      "latitude": "30.043320694521288",
      "longitude": "-89.98292447426105"
    }
  },
  {
    "service_request": "2022-858198",
    "request_type": "Trash/Recycling",
    "request_reason": "Order Trash Cart",
    "date_created": "2022-02-01T19:46:39.000",
    "date_modified": "2022-02-01T19:46:40.000",
    "request_status": "Pending",
    "responsible_agency": "Department of Sanitation",
    "final_address": "2658 Cadiz St",
    "address_councildis": "B",
    "status": "Assigned to Contractor",
    "contractor": "Richards Disposal",
    "rowid": "858198",
    "final_x": "3669690.37153",
    "final_y": "524552.522556",
    "longitude": "-90.10559671577066",
    "latitude": "29.936690675050592",
    "geocoded_column": {
      "latitude": "29.936690675050592",
      "longitude": "-90.10559671577066"
    }
  },
  {
    "service_request": "2022-858197",
    "request_type": "Roads/Drainage",
    "request_reason": "Street Subsidence (Sinking)",
    "date_created": "2022-02-01T19:33:02.000",
    "date_modified": "2022-02-01T19:33:02.000",
    "request_status": "Pending",
    "responsible_agency": "Department of Public Works",
    "final_address": "5540 Rickert Dr",
    "address_councildis": "E",
    "status": "Pending",
    "rowid": "858197",
    "final_x": "3703107.20842",
    "final_y": "556315.102554",
    "longitude": "-89.99893126858456",
    "latitude": "30.022999279349815",
    "geocoded_column": {
      "latitude": "30.022999279349815",
      "longitude": "-89.99893126858456"
    }
  },
  {
    "service_request": "2022-858196",
    "request_type": "Trash/Recycling",
    "request_reason": "Replace Trash Cart",
    "date_created": "2022-02-01T19:31:28.000",
    "date_modified": "2022-02-01T19:31:30.000",
    "request_status": "Pending",
    "responsible_agency": "Department of Sanitation",
    "final_address": "1824 Octavia St, New Orleans, Louisiana, 70115",
    "address_councildis": "A",
    "status": "Assigned to Contractor",
    "contractor": "Richards Disposal",
    "rowid": "858196",
    "final_x": "3667166.83329",
    "final_y": "522561.132154",
    "longitude": "-90.11363058997482",
    "latitude": "29.931289094473087",
    "geocoded_column": {
      "latitude": "29.931289094473087",
      "longitude": "-90.11363058997482"
    }
  },
  {
    "service_request": "2022-858194",
    "request_type": "Roads/Drainage",
    "request_reason": "Man hole cover issue",
    "date_created": "2022-02-01T19:12:34.000",
    "date_modified": "2022-02-01T19:12:34.000",
    "request_status": "Pending",
    "responsible_agency": "Department of Public Works",
    "final_address": "2422 Conti St",
    "address_councildis": "B",
    "status": "Pending",
    "rowid": "858194",
    "final_x": "3676913.46562",
    "final_y": "535337.576134",
    "longitude": "-90.0824213562541",
    "latitude": "29.966131190517032",
    "geocoded_column": {
      "latitude": "29.966131190517032",
      "longitude": "-90.0824213562541"
    }
  },
  {
    "service_request": "2022-858193",
    "request_type": "Property Maintenance",
    "request_reason": "Property Maintenance",
    "date_created": "2022-02-01T19:10:00.000",
    "date_modified": "2022-02-01T19:10:00.000",
    "request_status": "Pending",
    "responsible_agency": "Department of Code Enforcement",
    "final_address": "2606 St Louis St",
    "address_councildis": "B",
    "status": "Pending",
    "rowid": "858193",
    "final_x": "3676591.32277",
    "final_y": "535984.007303",
    "longitude": "-90.08341640822742",
    "latitude": "29.967918322931137",
    "geocoded_column": {
      "latitude": "29.967918322931137",
      "longitude": "-90.08341640822742"
    }
  },
  {
    "service_request": "2022-858191",
    "request_type": "Traffic Signals/Signs/Striping/Streetlights",
    "request_reason": "Street Light Outage/Malfunction",
    "date_created": "2022-02-01T18:54:27.000",
    "date_modified": "2022-02-01T18:54:27.000",
    "request_status": "Pending",
    "responsible_agency": "Department of Public Works",
    "final_address": "1732 N Gayoso St",
    "address_councildis": "D",
    "status": "Pending",
    "contractor": "Royal Engineering",
    "rowid": "858191",
    "final_x": "3678899.91266",
    "final_y": "541543.184908",
    "longitude": "-90.07593315122594",
    "latitude": "29.98313469880232",
    "geocoded_column": {
      "latitude": "29.98313469880232",
      "longitude": "-90.07593315122594"
    }
  },
  {
    "service_request": "2022-858190",
    "request_type": "Trash/Recycling",
    "request_reason": "Order Trash Cart",
    "date_created": "2022-02-01T18:44:51.000",
    "date_modified": "2022-02-01T18:44:52.000",
    "request_status": "Pending",
    "responsible_agency": "Department of Sanitation",
    "final_address": "3930 Prytania St",
    "address_councildis": "B",
    "status": "Assigned to Contractor",
    "contractor": "Richards Disposal",
    "rowid": "858190",
    "final_x": "3672507.38279",
    "final_y": "520441.962296",
    "longitude": "-90.09684330530885",
    "latitude": "29.925304664650184",
    "geocoded_column": {
      "latitude": "29.925304664650184",
      "longitude": "-90.09684330530885"
    }
  },
  {
    "service_request": "2022-858189",
    "request_type": "Traffic Signals/Signs/Striping/Streetlights",
    "request_reason": "Traffic Signal Malfunctioning/Damaged",
    "date_created": "2022-02-01T18:41:47.000",
    "date_modified": "2022-02-01T18:41:47.000",
    "request_status": "Pending",
    "responsible_agency": "Department of Public Works",
    "final_address": "GENERAL DE GAULLE DR & GEN DE GAULLE EXIT",
    "address_councildis": "C",
    "status": "Pending",
    "rowid": "858189",
    "final_x": "3690829.28",
    "final_y": "522570.9",
    "longitude": "-90.03893113602048",
    "latitude": "29.93060216391561",
    "geocoded_column": {
      "latitude": "29.93060216391561",
      "longitude": "-90.03893113602048"
    }
  },
  {
    "service_request": "2022-858188",
    "request_type": "Roads/Drainage",
    "request_reason": "Catch Basin - Broken/Damage",
    "date_created": "2022-02-01T18:26:13.000",
    "date_modified": "2022-02-01T18:26:13.000",
    "request_status": "Pending",
    "responsible_agency": "Department of Public Works",
    "final_address": "1416 S Liberty St",
    "address_councildis": "B",
    "status": "Pending",
    "rowid": "858188",
    "final_x": "3677097.24686",
    "final_y": "527086.620479",
    "longitude": "-90.08212550279848",
    "latitude": "29.943438309852894",
    "geocoded_column": {
      "latitude": "29.943438309852894",
      "longitude": "-90.08212550279848"
    }
  },
  {
    "service_request": "2022-858187",
    "request_type": "Trash/Recycling",
    "request_reason": "Missed Trash Pick-Up",
    "date_created": "2022-02-01T18:19:54.000",
    "date_modified": "2022-02-01T18:19:55.000",
    "request_status": "Pending",
    "responsible_agency": "Department of Sanitation",
    "final_address": "7434 Canal Blvd",
    "address_councildis": "D",
    "status": "Assigned to Contractor",
    "contractor": "Metro Disposal",
    "rowid": "858187",
    "final_x": "3669142.27841",
    "final_y": "556238.874842",
    "longitude": "-90.10625579967761",
    "latitude": "30.02383354141289",
    "geocoded_column": {
      "latitude": "30.02383354141289",
      "longitude": "-90.10625579967761"
    }
  },
  {
    "service_request": "2022-858186",
    "request_type": "Abandoned Vehicles",
    "request_reason": "Abandoned/Junk Vehicles",
    "date_created": "2022-02-01T18:18:54.000",
    "date_modified": "2022-02-01T18:18:54.000",
    "request_status": "Pending",
    "responsible_agency": "Department of Public Works",
    "final_address": "4201 Burgundy St",
    "address_councildis": "C",
    "status": "Pending",
    "rowid": "858186",
    "final_x": "3692245.59344",
    "final_y": "534446.643141",
    "longitude": "-90.03403495364326",
    "latitude": "29.96321229178392",
    "geocoded_column": {
      "latitude": "29.96321229178392",
      "longitude": "-90.03403495364326"
    }
  },
  {
    "service_request": "2022-858185",
    "request_type": "Abandoned Vehicles",
    "request_reason": "Abandoned/Junk Vehicles",
    "date_created": "2022-02-01T18:15:10.000",
    "date_modified": "2022-02-01T18:15:10.000",
    "request_status": "Pending",
    "responsible_agency": "Department of Public Works",
    "final_address": "4201 Burgundy St",
    "address_councildis": "C",
    "status": "Pending",
    "rowid": "858185",
    "final_x": "3692245.59344",
    "final_y": "534446.643141",
    "longitude": "-90.03403495364326",
    "latitude": "29.96321229178392",
    "geocoded_column": {
      "latitude": "29.96321229178392",
      "longitude": "-90.03403495364326"
    }
  },
  {
    "service_request": "2022-858184",
    "request_type": "Trash/Recycling",
    "request_reason": "Order Trash Cart",
    "date_created": "2022-02-01T18:11:38.000",
    "date_modified": "2022-02-01T18:11:39.000",
    "request_status": "Pending",
    "responsible_agency": "Department of Sanitation",
    "final_address": "2221 Iberville St",
    "address_councildis": "B",
    "status": "Assigned to Contractor",
    "contractor": "Richards Disposal",
    "rowid": "858184",
    "final_x": "3677081.35861",
    "final_y": "534378.717829",
    "longitude": "-90.08192422413629",
    "latitude": "29.963489614363294",
    "geocoded_column": {
      "latitude": "29.963489614363294",
      "longitude": "-90.08192422413629"
    }
  },
  {
    "service_request": "2022-858183",
    "request_type": "Traffic Signals/Signs/Striping/Streetlights",
    "request_reason": "Street Light Knocked Down/Leaning",
    "date_created": "2022-02-01T18:09:22.000",
    "date_modified": "2022-02-01T18:09:23.000",
    "request_status": "Pending",
    "responsible_agency": "Department of Public Works",
    "final_address": "6601 Franklin Ave",
    "address_councildis": "D",
    "status": "Pending",
    "contractor": "Royal Engineering",
    "rowid": "858183",
    "final_x": "3686519.5773",
    "final_y": "557735.051611",
    "longitude": "-90.05129417201006",
    "latitude": "30.027424334336786",
    "geocoded_column": {
      "latitude": "30.027424334336786",
      "longitude": "-90.05129417201006"
    }
  },
  {
    "service_request": "2022-858182",
    "request_type": "Trash/Recycling",
    "request_reason": "MIssed Recycling Pick-Up",
    "date_created": "2022-02-01T17:59:40.000",
    "date_modified": "2022-02-01T17:59:41.000",
    "request_status": "Pending",
    "responsible_agency": "Department of Sanitation",
    "final_address": "2126 Valmont St",
    "address_councildis": "B",
    "status": "Assigned to Contractor",
    "contractor": "Richards Disposal",
    "rowid": "858182",
    "final_x": "3668093.53377",
    "final_y": "523466.683195",
    "longitude": "-90.11067459983748",
    "latitude": "29.93375191420886",
    "geocoded_column": {
      "latitude": "29.93375191420886",
      "longitude": "-90.11067459983748"
    }
  },
  {
    "service_request": "2022-858181",
    "request_type": "Abandoned Vehicles",
    "request_reason": "Abandoned/Junk Vehicles",
    "date_created": "2022-02-01T17:52:27.000",
    "date_modified": "2022-02-01T17:52:27.000",
    "request_status": "Pending",
    "responsible_agency": "Department of Public Works",
    "final_address": "2227 St Ann St",
    "address_councildis": "D",
    "status": "Pending",
    "rowid": "858181",
    "final_x": "3678446.67746",
    "final_y": "536200.996999",
    "longitude": "-90.07754962540244",
    "latitude": "29.968459190383633",
    "geocoded_column": {
      "latitude": "29.968459190383633",
      "longitude": "-90.07754962540244"
    }
  },
  {
    "service_request": "2022-858180",
    "request_type": "Abandoned Vehicles",
    "request_reason": "Abandoned/Junk Vehicles",
    "date_created": "2022-02-01T17:50:29.000",
    "date_modified": "2022-02-01T17:50:29.000",
    "request_status": "Pending",
    "responsible_agency": "Department of Public Works",
    "final_address": "2226 St Ann St",
    "address_councildis": "D",
    "status": "Pending",
    "rowid": "858180",
    "final_x": "3678360.03758",
    "final_y": "536048.345159",
    "longitude": "-90.07782852076315",
    "latitude": "29.968042060539542",
    "geocoded_column": {
      "latitude": "29.968042060539542",
      "longitude": "-90.07782852076315"
    }
  },
  {
    "service_request": "2022-858179",
    "request_type": "Abandoned Vehicles",
    "request_reason": "Abandoned/Junk Vehicles",
    "date_created": "2022-02-01T17:48:28.000",
    "date_modified": "2022-02-01T17:48:28.000",
    "request_status": "Pending",
    "responsible_agency": "Department of Public Works",
    "final_address": "2226 St Ann St",
    "address_councildis": "D",
    "status": "Pending",
    "rowid": "858179",
    "final_x": "3678360.03758",
    "final_y": "536048.345159",
    "longitude": "-90.07782852076315",
    "latitude": "29.968042060539542",
    "geocoded_column": {
      "latitude": "29.968042060539542",
      "longitude": "-90.07782852076315"
    }
  },
  {
    "service_request": "2022-858178",
    "request_type": "Trash/Recycling",
    "request_reason": "Request a Large Item Pick Up",
    "date_created": "2022-02-01T17:47:40.000",
    "date_modified": "2022-02-01T17:47:41.000",
    "request_status": "Pending",
    "responsible_agency": "Department of Sanitation",
    "final_address": "2105 Rousseau St",
    "address_councildis": "B",
    "status": "Assigned to Contractor",
    "contractor": "Richards Disposal",
    "rowid": "858178",
    "final_x": "3680460.66869",
    "final_y": "520517.322296",
    "longitude": "-90.07173467782835",
    "latitude": "29.925273493778985",
    "geocoded_column": {
      "latitude": "29.925273493778985",
      "longitude": "-90.07173467782835"
    }
  },
  {
    "service_request": "2022-858177",
    "request_type": "Abandoned Vehicles",
    "request_reason": "Abandoned/Junk Vehicles",
    "date_created": "2022-02-01T17:44:50.000",
    "date_modified": "2022-02-01T17:44:50.000",
    "request_status": "Pending",
    "responsible_agency": "Department of Public Works",
    "final_address": "2227 St Ann St",
    "address_councildis": "D",
    "status": "Pending",
    "rowid": "858177",
    "final_x": "3678446.67746",
    "final_y": "536200.996999",
    "longitude": "-90.07754962540244",
    "latitude": "29.968459190383633",
    "geocoded_column": {
      "latitude": "29.968459190383633",
      "longitude": "-90.07754962540244"
    }
  },
  {
    "service_request": "2022-858176",
    "request_type": "Property Maintenance",
    "request_reason": "Property Maintenance",
    "date_created": "2022-02-01T17:39:01.000",
    "date_modified": "2022-02-01T17:39:01.000",
    "request_status": "Pending",
    "responsible_agency": "Department of Code Enforcement",
    "final_address": "6020 Hayne Blvd",
    "address_councildis": "E",
    "status": "Pending",
    "rowid": "858176",
    "final_x": "3694894.15811",
    "final_y": "559938.836253",
    "longitude": "-90.02475178800994",
    "latitude": "30.03322360170624",
    "geocoded_column": {
      "latitude": "30.03322360170624",
      "longitude": "-90.02475178800994"
    }
  },
  {
    "service_request": "2022-858175",
    "request_type": "Trash/Recycling",
    "request_reason": "MIssed Recycling Pick-Up",
    "date_created": "2022-02-01T17:37:25.000",
    "date_modified": "2022-02-01T17:37:25.000",
    "request_status": "Pending",
    "responsible_agency": "Department of Sanitation",
    "final_address": "332 Millaudon St",
    "address_councildis": "A",
    "status": "Assigned to Contractor",
    "contractor": "Richards Disposal",
    "rowid": "858175",
    "final_x": "3661581.48211",
    "final_y": "524339.537596",
    "longitude": "-90.13120403261557",
    "latitude": "29.936341446973596",
    "geocoded_column": {
      "latitude": "29.936341446973596",
      "longitude": "-90.13120403261557"
    }
  },
  {
    "service_request": "2022-858174",
    "request_type": "Trash/Recycling",
    "request_reason": "Request a Large Item Pick Up",
    "date_created": "2022-02-01T17:36:37.000",
    "date_modified": "2022-02-01T17:36:38.000",
    "request_status": "Pending",
    "responsible_agency": "Department of Sanitation",
    "final_address": "2648 Ursulines Ave",
    "address_councildis": "D",
    "status": "Assigned to Contractor",
    "contractor": "Richards Disposal",
    "rowid": "858174",
    "final_x": "3677704.54517",
    "final_y": "538005.202377",
    "longitude": "-90.07983098614791",
    "latitude": "29.973442481422435",
    "geocoded_column": {
      "latitude": "29.973442481422435",
      "longitude": "-90.07983098614791"
    }
  },
  {
    "service_request": "2022-858173",
    "request_type": "Roads/Drainage",
    "request_reason": "Pothole",
    "date_created": "2022-02-01T17:35:38.000",
    "date_modified": "2022-02-01T17:35:38.000",
    "request_status": "Pending",
    "responsible_agency": "Department of Public Works",
    "final_address": "HAYNE BLVD & BURKE RD",
    "address_councildis": "E",
    "status": "Pending",
    "rowid": "858173",
    "final_x": "3704699.0",
    "final_y": "564276.08",
    "longitude": "-89.99360748949708",
    "latitude": "30.04483778171941",
    "geocoded_column": {
      "latitude": "30.04483778171941",
      "longitude": "-89.99360748949708"
    }
  },
  {
    "service_request": "2022-858171",
    "request_type": "Traffic Signals/Signs/Striping/Streetlights",
    "request_reason": "Street Light Outage/Malfunction",
    "date_created": "2022-02-01T17:04:29.000",
    "date_modified": "2022-02-01T17:04:30.000",
    "request_status": "Pending",
    "responsible_agency": "Department of Public Works",
    "final_address": "5857 Marshal Foch St",
    "address_councildis": "A",
    "status": "Pending",
    "contractor": "Royal Engineering",
    "rowid": "858171",
    "final_x": "3669831.93908",
    "final_y": "546291.087568",
    "longitude": "-90.1044137225855",
    "latitude": "29.996460299137073",
    "geocoded_column": {
      "latitude": "29.996460299137073",
      "longitude": "-90.1044137225855"
    }
  },
  {
    "service_request": "2022-858170",
    "request_type": "Roads/Drainage",
    "request_reason": "Catch Basin - Broken/Damage",
    "date_created": "2022-02-01T16:53:02.000",
    "date_modified": "2022-02-01T16:53:02.000",
    "request_status": "Pending",
    "responsible_agency": "Department of Public Works",
    "final_address": "3644 Franklin Ave",
    "address_councildis": "D",
    "status": "Pending",
    "rowid": "858170",
    "final_x": "3687052.77033",
    "final_y": "546478.780689",
    "longitude": "-90.05000769639967",
    "latitude": "29.99645730348321",
    "geocoded_column": {
      "latitude": "29.99645730348321",
      "longitude": "-90.05000769639967"
    }
  },
  {
    "service_request": "2022-858169",
    "request_type": "Abandoned Vehicles",
    "request_reason": "Abandoned/Junk Vehicles",
    "date_created": "2022-02-01T16:49:19.000",
    "date_modified": "2022-02-01T16:50:11.000",
    "request_status": "Pending",
    "responsible_agency": "Department of Public Works",
    "final_address": "HAYNE BLVD & MACKENZIE ST",
    "address_councildis": "E",
    "status": "Pending",
    "rowid": "858169",
    "final_x": "3710114.7",
    "final_y": "567431.58",
    "longitude": "-89.97637339935034",
    "latitude": "30.053338913507105",
    "geocoded_column": {
      "latitude": "30.053338913507105",
      "longitude": "-89.97637339935034"
    }
  },
  {
    "service_request": "2022-858168",
    "request_type": "Parks & Parkways",
    "request_reason": "Request Tree Service (Right of Way/Public Property)",
    "date_created": "2022-02-01T16:47:34.000",
    "date_modified": "2022-02-01T16:50:26.000",
    "request_status": "Pending",
    "responsible_agency": "Department of Parks & Parkway",
    "final_address": "6125 General Diaz St",
    "address_councildis": "A",
    "status": "Pending",
    "rowid": "858168",
    "final_x": "3669647.30241",
    "final_y": "548031.497874",
    "longitude": "-90.10493804021442",
    "latitude": "30.001251267723486",
    "geocoded_column": {
      "latitude": "30.001251267723486",
      "longitude": "-90.10493804021442"
    }
  },
  {
    "service_request": "2022-858167",
    "request_type": "Trash/Recycling",
    "request_reason": "Order Recycling Cart",
    "date_created": "2022-02-01T16:40:56.000",
    "date_modified": "2022-02-01T16:40:56.000",
    "request_status": "Pending",
    "responsible_agency": "Department of Sanitation",
    "final_address": "822 Upperline St",
    "address_councildis": "B",
    "status": "Pending",
    "rowid": "858167",
    "final_x": "3668919.53569",
    "final_y": "518414.57343",
    "longitude": "-90.10823746796123",
    "latitude": "29.919835958442476",
    "geocoded_column": {
      "latitude": "29.919835958442476",
      "longitude": "-90.10823746796123"
    }
  },
  {
    "service_request": "2022-858166",
    "request_type": "Trash/Recycling",
    "request_reason": "Repair Trash Cart",
    "date_created": "2022-02-01T16:39:02.000",
    "date_modified": "2022-02-01T16:39:03.000",
    "request_status": "Pending",
    "responsible_agency": "Department of Sanitation",
    "final_address": "1613 Pace Blvd",
    "address_councildis": "C",
    "status": "Assigned to Contractor",
    "contractor": "Richards Disposal",
    "rowid": "858166",
    "final_x": "3694291.30166",
    "final_y": "525320.397053",
    "longitude": "-90.02790320904465",
    "latitude": "29.93805435015464",
    "geocoded_column": {
      "latitude": "29.93805435015464",
      "longitude": "-90.02790320904465"
    }
  },
  {
    "service_request": "2022-858165",
    "request_type": "Abandoned Vehicles",
    "request_reason": "Abandoned/Junk Vehicles",
    "date_created": "2022-02-01T16:37:59.000",
    "date_modified": "2022-02-01T16:37:59.000",
    "request_status": "Pending",
    "responsible_agency": "Department of Public Works",
    "final_address": "6110 S Hermes St",
    "address_councildis": "D",
    "status": "Pending",
    "rowid": "858165",
    "final_x": "3696609.06967",
    "final_y": "554956.246488",
    "longitude": "-90.01951306038359",
    "latitude": "30.01946941713466",
    "geocoded_column": {
      "latitude": "30.01946941713466",
      "longitude": "-90.01951306038359"
    }
  },
  {
    "service_request": "2022-858164",
    "request_type": "Abandoned Vehicles",
    "request_reason": "Abandoned/Junk Vehicles",
    "date_created": "2022-02-01T16:36:39.000",
    "date_modified": "2022-02-01T16:36:39.000",
    "request_status": "Pending",
    "responsible_agency": "Department of Public Works",
    "final_address": "6110 S Hermes St",
    "address_councildis": "D",
    "status": "Pending",
    "rowid": "858164",
    "final_x": "3696609.06967",
    "final_y": "554956.246488",
    "longitude": "-90.01951306038359",
    "latitude": "30.01946941713466",
    "geocoded_column": {
      "latitude": "30.01946941713466",
      "longitude": "-90.01951306038359"
    }
  },
  {
    "service_request": "2022-858163",
    "request_type": "Trash/Recycling",
    "request_reason": "Replace Recycling Cart",
    "date_created": "2022-02-01T16:35:57.000",
    "date_modified": "2022-02-01T16:35:57.000",
    "request_status": "Pending",
    "responsible_agency": "Department of Sanitation",
    "final_address": "2623 Barracks St, New Orleans, Louisiana, 70119",
    "address_councildis": "D",
    "status": "Pending",
    "rowid": "858163",
    "final_x": "3678350.91957",
    "final_y": "538531.825161",
    "longitude": "-90.07777137646458",
    "latitude": "29.974871054208297",
    "geocoded_column": {
      "latitude": "29.974871054208297",
      "longitude": "-90.07777137646458"
    }
  },
  {
    "service_request": "2022-858162",
    "request_type": "Trash/Recycling",
    "request_reason": "MIssed Recycling Pick-Up",
    "date_created": "2022-02-01T16:34:55.000",
    "date_modified": "2022-02-01T16:34:57.000",
    "request_status": "Pending",
    "responsible_agency": "Department of Sanitation",
    "final_address": "2623 Barracks St, New Orleans, Louisiana, 70119",
    "address_councildis": "D",
    "status": "Assigned to Contractor",
    "contractor": "Richards Disposal",
    "rowid": "858162",
    "final_x": "3678350.91957",
    "final_y": "538531.825161",
    "longitude": "-90.07777137646458",
    "latitude": "29.974871054208297",
    "geocoded_column": {
      "latitude": "29.974871054208297",
      "longitude": "-90.07777137646458"
    }
  },
  {
    "service_request": "2022-858161",
    "request_type": "Abandoned Vehicles",
    "request_reason": "Abandoned/Junk Vehicles",
    "date_created": "2022-02-01T16:34:43.000",
    "date_modified": "2022-02-01T16:34:43.000",
    "request_status": "Pending",
    "responsible_agency": "Department of Public Works",
    "final_address": "6110 S Hermes St",
    "address_councildis": "D",
    "status": "Pending",
    "rowid": "858161",
    "final_x": "3696609.06967",
    "final_y": "554956.246488",
    "longitude": "-90.01951306038359",
    "latitude": "30.01946941713466",
    "geocoded_column": {
      "latitude": "30.01946941713466",
      "longitude": "-90.01951306038359"
    }
  },
  {
    "service_request": "2022-858160",
    "request_type": "Trash/Recycling",
    "request_reason": "MIssed Recycling Pick-Up",
    "date_created": "2022-02-01T16:34:35.000",
    "date_modified": "2022-02-01T16:34:35.000",
    "request_status": "Pending",
    "responsible_agency": "Department of Sanitation",
    "final_address": "118 N Olympia St",
    "address_councildis": "A",
    "status": "Assigned to Contractor",
    "contractor": "Richards Disposal",
    "rowid": "858160",
    "final_x": "3669643.43182",
    "final_y": "539752.49089",
    "longitude": "-90.10523058579287",
    "latitude": "29.97848695221938",
    "geocoded_column": {
      "latitude": "29.97848695221938",
      "longitude": "-90.10523058579287"
    }
  },
  {
    "service_request": "2022-858159",
    "request_type": "Trash/Recycling",
    "request_reason": "Replace Trash Cart",
    "date_created": "2022-02-01T16:29:51.000",
    "date_modified": "2022-02-01T16:29:52.000",
    "request_status": "Pending",
    "responsible_agency": "Department of Sanitation",
    "final_address": "815 1/2 Roosevelt Pl, New Orleans, Louisiana, 70119",
    "status": "Assigned to Contractor",
    "rowid": "858159",
    "longitude": "0.0",
    "latitude": "0.0",
    "geocoded_column": {
      "latitude": "0.0",
      "longitude": "0.0"
    }
  },
  {
    "service_request": "2022-858158",
    "request_type": "Traffic Signals/Signs/Striping/Streetlights",
    "request_reason": "Street Light Outage/Malfunction",
    "date_created": "2022-02-01T16:22:21.000",
    "date_modified": "2022-02-01T16:22:22.000",
    "request_status": "Pending",
    "responsible_agency": "Department of Public Works",
    "final_address": "WREN ST & MARCONI DR",
    "address_councildis": "D",
    "status": "Pending",
    "contractor": "Royal Engineering",
    "rowid": "858158",
    "final_x": "3671981.5",
    "final_y": "555886.88",
    "longitude": "-90.09729639523842",
    "latitude": "30.02278177325173",
    "geocoded_column": {
      "latitude": "30.02278177325173",
      "longitude": "-90.09729639523842"
    }
  },
  {
    "service_request": "2022-858157",
    "request_type": "Trash/Recycling",
    "request_reason": "Illegal Dumping",
    "date_created": "2022-02-01T16:19:51.000",
    "date_modified": "2022-02-01T16:19:51.000",
    "request_status": "Pending",
    "responsible_agency": "Department of Sanitation",
    "final_address": "2000 BLK First St",
    "address_councildis": "B",
    "status": "Pending",
    "rowid": "858157",
    "final_x": "3676060.31648",
    "final_y": "524555.666556",
    "longitude": "-90.0854863856438",
    "latitude": "29.93651011183095",
    "geocoded_column": {
      "latitude": "29.93651011183095",
      "longitude": "-90.0854863856438"
    }
  },
  {
    "service_request": "2022-858156",
    "request_type": "Trash/Recycling",
    "request_reason": "Illegal Dumping",
    "date_created": "2022-02-01T16:19:39.000",
    "date_modified": "2022-02-01T16:19:39.000",
    "request_status": "Pending",
    "responsible_agency": "Department of Sanitation",
    "final_address": "2400 BLK Danneel St",
    "address_councildis": "B",
    "status": "Pending",
    "rowid": "858156",
    "final_x": "3676030.67546",
    "final_y": "524326.575478",
    "longitude": "-90.08558783931598",
    "latitude": "29.935881073901403",
    "geocoded_column": {
      "latitude": "29.935881073901403",
      "longitude": "-90.08558783931598"
    }
  },
  {
    "service_request": "2022-858155",
    "request_type": "Trash/Recycling",
    "request_reason": "Illegal Dumping",
    "date_created": "2022-02-01T16:19:23.000",
    "date_modified": "2022-02-01T16:19:23.000",
    "request_status": "Pending",
    "responsible_agency": "Department of Sanitation",
    "final_address": "2325 Danneel St",
    "address_councildis": "B",
    "status": "Pending",
    "rowid": "858155",
    "final_x": "3676222.68539",
    "final_y": "524503.082108",
    "longitude": "-90.08497558879525",
    "latitude": "29.936360658759302",
    "geocoded_column": {
      "latitude": "29.936360658759302",
      "longitude": "-90.08497558879525"
    }
  },
  {
    "service_request": "2022-858154",
    "request_type": "Trash/Recycling",
    "request_reason": "Order Trash Cart",
    "date_created": "2022-02-01T16:16:40.000",
    "date_modified": "2022-02-01T16:16:41.000",
    "request_status": "Pending",
    "responsible_agency": "Department of Sanitation",
    "final_address": "1715 Feliciana St",
    "address_councildis": "D",
    "status": "Assigned to Contractor",
    "contractor": "Metro Disposal",
    "rowid": "858154",
    "final_x": "3689355.52521",
    "final_y": "538403.363337",
    "longitude": "-90.04302072308025",
    "latitude": "29.974181677183395",
    "geocoded_column": {
      "latitude": "29.974181677183395",
      "longitude": "-90.04302072308025"
    }
  },
  {
    "service_request": "2022-858153",
    "request_type": "Property Maintenance",
    "request_reason": "Property Maintenance",
    "date_created": "2022-02-01T16:15:52.000",
    "date_modified": "2022-02-01T16:15:52.000",
    "request_status": "Pending",
    "responsible_agency": "Department of Code Enforcement",
    "final_address": "46 English Turn Dr",
    "address_councildis": "C",
    "status": "Pending",
    "rowid": "858153",
    "final_x": "3721204.54182",
    "final_y": "514185.228659",
    "longitude": "-89.94336330735345",
    "latitude": "29.906566134459506",
    "geocoded_column": {
      "latitude": "29.906566134459506",
      "longitude": "-89.94336330735345"
    }
  },
  {
    "service_request": "2022-858152",
    "request_type": "Traffic Signals/Signs/Striping/Streetlights",
    "request_reason": "Street Light Outage/Malfunction",
    "date_created": "2022-02-01T16:10:42.000",
    "date_modified": "2022-02-01T16:10:43.000",
    "request_status": "Pending",
    "responsible_agency": "Department of Public Works",
    "final_address": "1 Marywood Ct",
    "address_councildis": "E",
    "status": "Pending",
    "contractor": "Royal Engineering",
    "rowid": "858152",
    "final_x": "3712883.22974",
    "final_y": "566309.500835",
    "longitude": "-89.96766516291125",
    "latitude": "30.050163212495477",
    "geocoded_column": {
      "latitude": "30.050163212495477",
      "longitude": "-89.96766516291125"
    }
  },
  {
    "service_request": "2022-858151",
    "request_type": "Traffic Signals/Signs/Striping/Streetlights",
    "request_reason": "Street Light Outage/Malfunction",
    "date_created": "2022-02-01T16:09:46.000",
    "date_modified": "2022-02-01T16:11:12.000",
    "request_status": "Pending",
    "responsible_agency": "Department of Public Works",
    "final_address": "1 Marywood Ct",
    "address_councildis": "E",
    "status": "Pending",
    "contractor": "Royal Engineering",
    "rowid": "858151",
    "final_x": "3712883.22974",
    "final_y": "566309.500835",
    "longitude": "-89.96766516291125",
    "latitude": "30.050163212495477",
    "geocoded_column": {
      "latitude": "30.050163212495477",
      "longitude": "-89.96766516291125"
    }
  },
  {
    "service_request": "2022-858150",
    "request_type": "Abandoned Vehicles",
    "request_reason": "Abandoned/Junk Vehicles",
    "date_created": "2022-02-01T16:08:34.000",
    "date_modified": "2022-02-01T16:08:34.000",
    "request_status": "Pending",
    "responsible_agency": "Department of Public Works",
    "final_address": "1 Marywood Ct",
    "address_councildis": "E",
    "status": "Pending",
    "rowid": "858150",
    "final_x": "3712883.22974",
    "final_y": "566309.500835",
    "longitude": "-89.96766516291125",
    "latitude": "30.050163212495477",
    "geocoded_column": {
      "latitude": "30.050163212495477",
      "longitude": "-89.96766516291125"
    }
  },
  {
    "service_request": "2022-858149",
    "request_type": "Property Maintenance",
    "request_reason": "Property Maintenance",
    "date_created": "2022-02-01T16:08:12.000",
    "date_modified": "2022-02-01T16:08:12.000",
    "request_status": "Pending",
    "responsible_agency": "Department of Code Enforcement",
    "final_address": "2037 Iberville St",
    "address_councildis": "B",
    "status": "Pending",
    "rowid": "858149",
    "final_x": "3677587.6388",
    "final_y": "534029.956421",
    "longitude": "-90.08033748821924",
    "latitude": "29.962515425357818",
    "geocoded_column": {
      "latitude": "29.962515425357818",
      "longitude": "-90.08033748821924"
    }
  },
  {
    "service_request": "2022-858147",
    "request_type": "Abandoned Vehicles",
    "request_reason": "Abandoned/Junk Vehicles",
    "date_created": "2022-02-01T16:02:50.000",
    "date_modified": "2022-02-01T16:02:50.000",
    "request_status": "Pending",
    "responsible_agency": "Department of Public Works",
    "final_address": "1020 Piety St, New Orleans, Louisiana, 70117",
    "address_councildis": "C",
    "status": "Pending",
    "rowid": "858147",
    "final_x": "3689748.78377",
    "final_y": "535534.012614",
    "longitude": "-90.04188086220162",
    "latitude": "29.966279789636655",
    "geocoded_column": {
      "latitude": "29.966279789636655",
      "longitude": "-90.04188086220162"
    }
  },
  {
    "service_request": "2022-858146",
    "request_type": "Abandoned Vehicles",
    "request_reason": "Abandoned/Junk Vehicles",
    "date_created": "2022-02-01T16:01:21.000",
    "date_modified": "2022-02-01T16:01:21.000",
    "request_status": "Pending",
    "responsible_agency": "Department of Public Works",
    "final_address": "1702 Dante St",
    "address_councildis": "A",
    "status": "Pending",
    "rowid": "858146",
    "final_x": "3662599.92192",
    "final_y": "530222.876161",
    "longitude": "-90.12779335128518",
    "latitude": "29.952489329843495",
    "geocoded_column": {
      "latitude": "29.952489329843495",
      "longitude": "-90.12779335128518"
    }
  },
  {
    "service_request": "2022-858145",
    "request_type": "Trash/Recycling",
    "request_reason": "Repair Trash Cart",
    "date_created": "2022-02-01T15:57:10.000",
    "date_modified": "2022-02-01T15:57:10.000",
    "request_status": "Pending",
    "responsible_agency": "Department of Sanitation",
    "final_address": "6001 Carlisle Ct",
    "address_councildis": "C",
    "status": "Assigned to Contractor",
    "contractor": "Richards Disposal",
    "rowid": "858145",
    "final_x": "3705968.85297",
    "final_y": "516417.225909",
    "longitude": "-89.99136564807486",
    "latitude": "29.9132027572796",
    "geocoded_column": {
      "latitude": "29.9132027572796",
      "longitude": "-89.99136564807486"
    }
  },
  {
    "service_request": "2022-858144",
    "request_type": "Abandoned Vehicles",
    "request_reason": "Abandoned/Junk Vehicles",
    "date_created": "2022-02-01T15:50:07.000",
    "date_modified": "2022-02-01T15:50:36.000",
    "request_status": "Pending",
    "responsible_agency": "Department of Public Works",
    "final_address": "2111 Beck St",
    "address_councildis": "C",
    "status": "Pending",
    "rowid": "858144",
    "final_x": "3700422.27447",
    "final_y": "523282.986043",
    "longitude": "-90.00862167861818",
    "latitude": "29.932258693564073",
    "geocoded_column": {
      "latitude": "29.932258693564073",
      "longitude": "-90.00862167861818"
    }
  },
  {
    "service_request": "2022-858143",
    "request_type": "Property Maintenance",
    "request_reason": "Property Maintenance",
    "date_created": "2022-02-01T15:42:59.000",
    "date_modified": "2022-02-01T15:42:59.000",
    "request_status": "Pending",
    "responsible_agency": "Department of Code Enforcement",
    "final_address": "4636 Magazine St",
    "address_councildis": "B",
    "status": "Pending",
    "rowid": "858143",
    "final_x": "3670023.69396",
    "final_y": "518639.749367",
    "longitude": "-90.10474454857285",
    "latitude": "29.920422614010253",
    "geocoded_column": {
      "latitude": "29.920422614010253",
      "longitude": "-90.10474454857285"
    }
  },
  {
    "service_request": "2022-858142",
    "request_type": "Trash/Recycling",
    "request_reason": "Request a Large Item Pick Up",
    "date_created": "2022-02-01T15:42:27.000",
    "date_modified": "2022-02-01T15:42:27.000",
    "request_status": "Pending",
    "responsible_agency": "Department of Sanitation",
    "final_address": "5122 St Bernard Ave",
    "address_councildis": "D",
    "status": "Assigned to Contractor",
    "contractor": "Metro Disposal",
    "rowid": "858142",
    "final_x": "3676608.53601",
    "final_y": "551083.463573",
    "longitude": "-90.08284165126595",
    "latitude": "30.00943605296995",
    "geocoded_column": {
      "latitude": "30.00943605296995",
      "longitude": "-90.08284165126595"
    }
  },
  {
    "service_request": "2022-858141",
    "request_type": "Trash/Recycling",
    "request_reason": "Request a Large Item Pick Up",
    "date_created": "2022-02-01T15:32:44.000",
    "date_modified": "2022-02-01T15:34:30.000",
    "request_status": "Pending",
    "responsible_agency": "Department of Sanitation",
    "final_address": "New Orleans,LA",
    "address_councildis": "A",
    "status": "Assigned to Contractor",
    "contractor": "Richards Disposal",
    "rowid": "858141",
    "final_x": "3662928.73587",
    "final_y": "524836.241788",
    "longitude": "-90.1269341763332",
    "latitude": "29.93766829239644",
    "geocoded_column": {
      "latitude": "29.93766829239644",
      "longitude": "-90.1269341763332"
    }
  },
  {
    "service_request": "2022-858140",
    "request_type": "Abandoned Vehicles",
    "request_reason": "Abandoned/Junk Vehicles",
    "date_created": "2022-02-01T15:30:59.000",
    "date_modified": "2022-02-01T15:30:59.000",
    "request_status": "Pending",
    "responsible_agency": "Department of Public Works",
    "final_address": "1379 St Bernard Ave",
    "address_councildis": "C",
    "status": "Pending",
    "rowid": "858140",
    "final_x": "3682631.73",
    "final_y": "537098.644232",
    "longitude": "-90.06430163754207",
    "latitude": "29.97080063046964",
    "geocoded_column": {
      "latitude": "29.97080063046964",
      "longitude": "-90.06430163754207"
    }
  },
  {
    "service_request": "2022-858139",
    "request_type": "Trash/Recycling",
    "request_reason": "Order Recycling Cart",
    "date_created": "2022-02-01T15:30:21.000",
    "date_modified": "2022-02-01T15:30:21.000",
    "request_status": "Pending",
    "responsible_agency": "Department of Sanitation",
    "final_address": "127 Pinehurst Dr",
    "address_councildis": "C",
    "status": "Pending",
    "rowid": "858139",
    "final_x": "3714702.60191",
    "final_y": "515664.395636",
    "longitude": "-89.96382800475693",
    "latitude": "29.910848596155745",
    "geocoded_column": {
      "latitude": "29.910848596155745",
      "longitude": "-89.96382800475693"
    }
  },
  {
    "service_request": "2022-858138",
    "request_type": "Trash/Recycling",
    "request_reason": "Order Trash Cart",
    "date_created": "2022-02-01T15:30:02.000",
    "date_modified": "2022-02-01T15:30:02.000",
    "request_status": "Pending",
    "responsible_agency": "Department of Sanitation",
    "final_address": "2109 Martin Luther King, Jr. Blvd",
    "address_councildis": "B",
    "status": "Assigned to Contractor",
    "contractor": "Richards Disposal",
    "rowid": "858138",
    "final_x": "3677515.54126",
    "final_y": "526676.910526",
    "longitude": "-90.08081897846394",
    "latitude": "29.942299177101543",
    "geocoded_column": {
      "latitude": "29.942299177101543",
      "longitude": "-90.08081897846394"
    }
  },
  {
    "service_request": "2022-858137",
    "request_type": "Abandoned Vehicles",
    "request_reason": "Abandoned/Junk Vehicles",
    "date_created": "2022-02-01T15:29:39.000",
    "date_modified": "2022-02-01T15:29:39.000",
    "request_status": "Pending",
    "responsible_agency": "Department of Public Works",
    "final_address": "1327 St Bernard Ave",
    "address_councildis": "C",
    "status": "Pending",
    "rowid": "858137",
    "final_x": "3682807.66191",
    "final_y": "536750.708168",
    "longitude": "-90.06375819814589",
    "latitude": "29.969838567877073",
    "geocoded_column": {
      "latitude": "29.969838567877073",
      "longitude": "-90.06375819814589"
    }
  },
  {
    "service_request": "2022-858136",
    "request_type": "Trash/Recycling",
    "request_reason": "Order Recycling Cart",
    "date_created": "2022-02-01T15:29:32.000",
    "date_modified": "2022-02-01T15:29:32.000",
    "request_status": "Pending",
    "responsible_agency": "Department of Sanitation",
    "final_address": "2107 Martin Luther King, Jr. Blvd",
    "address_councildis": "B",
    "status": "Pending",
    "rowid": "858136",
    "final_x": "3677529.60373",
    "final_y": "526667.535486",
    "longitude": "-90.08077490365419",
    "latitude": "29.942272976166134",
    "geocoded_column": {
      "latitude": "29.942272976166134",
      "longitude": "-90.08077490365419"
    }
  },
  {
    "service_request": "2022-858135",
    "request_type": "Trash/Recycling",
    "request_reason": "Order Trash Cart",
    "date_created": "2022-02-01T15:29:08.000",
    "date_modified": "2022-02-01T15:29:08.000",
    "request_status": "Pending",
    "responsible_agency": "Department of Sanitation",
    "final_address": "2107 Martin Luther King, Jr. Blvd",
    "address_councildis": "B",
    "status": "Assigned to Contractor",
    "contractor": "Richards Disposal",
    "rowid": "858135",
    "final_x": "3677529.60373",
    "final_y": "526667.535486",
    "longitude": "-90.08077490365419",
    "latitude": "29.942272976166134",
    "geocoded_column": {
      "latitude": "29.942272976166134",
      "longitude": "-90.08077490365419"
    }
  },
  {
    "service_request": "2022-858134",
    "request_type": "Trash/Recycling",
    "request_reason": "Request a Large Item Pick Up",
    "date_created": "2022-02-01T15:23:40.000",
    "date_modified": "2022-02-01T15:23:41.000",
    "request_status": "Pending",
    "responsible_agency": "Department of Sanitation",
    "final_address": "1821 St Roch Ave",
    "address_councildis": "D",
    "status": "Assigned to Contractor",
    "contractor": "Metro Disposal",
    "rowid": "858134",
    "final_x": "3686474.53282",
    "final_y": "539209.200074",
    "longitude": "-90.05209108551472",
    "latitude": "29.97648633612269",
    "geocoded_column": {
      "latitude": "29.97648633612269",
      "longitude": "-90.05209108551472"
    }
  },
  {
    "service_request": "2022-858133",
    "request_type": "Abandoned Vehicles",
    "request_reason": "Vehicle Blocking Your Driveway",
    "date_created": "2022-02-01T15:23:05.000",
    "date_modified": "2022-02-01T15:23:05.000",
    "request_status": "Pending",
    "responsible_agency": "Department of Public Works",
    "final_address": "3 Marywood Ct, New Orleans, Louisiana, 70128",
    "address_councildis": "E",
    "status": "Pending",
    "rowid": "858133",
    "final_x": "3712431.8771",
    "final_y": "566973.637028",
    "longitude": "-89.96906671805289",
    "latitude": "30.05200410070936",
    "geocoded_column": {
      "latitude": "30.05200410070936",
      "longitude": "-89.96906671805289"
    }
  },
  {
    "service_request": "2022-858132",
    "request_type": "Property Maintenance",
    "request_reason": "Property Maintenance",
    "date_created": "2022-02-01T15:19:52.000",
    "date_modified": "2022-02-01T15:19:52.000",
    "request_status": "Pending",
    "responsible_agency": "Department of Code Enforcement",
    "final_address": "3039 N Galvez St",
    "address_councildis": "D",
    "status": "Pending",
    "rowid": "858132",
    "final_x": "3689726.63766",
    "final_y": "539872.926218",
    "longitude": "-90.04179635436185",
    "latitude": "29.978210958537975",
    "geocoded_column": {
      "latitude": "29.978210958537975",
      "longitude": "-90.04179635436185"
    }
  },
  {
    "service_request": "2022-858131",
    "request_type": "Trash/Recycling",
    "request_reason": "Request a Large Item Pick Up",
    "date_created": "2022-02-01T15:18:11.000",
    "date_modified": "2022-02-01T15:18:11.000",
    "request_status": "Pending",
    "responsible_agency": "Department of Sanitation",
    "final_address": "3507 Nashville Ave",
    "address_councildis": "A",
    "status": "Assigned to Contractor",
    "contractor": "Richards Disposal",
    "rowid": "858131",
    "final_x": "3668279.3778",
    "final_y": "528505.468224",
    "longitude": "-90.10991805566245",
    "latitude": "29.94760149341001",
    "geocoded_column": {
      "latitude": "29.94760149341001",
      "longitude": "-90.10991805566245"
    }
  },
  {
    "service_request": "2022-858130",
    "request_type": "Property Maintenance",
    "request_reason": "Property Maintenance",
    "date_created": "2022-02-01T15:17:02.000",
    "date_modified": "2022-02-01T15:17:02.000",
    "request_status": "Pending",
    "responsible_agency": "Department of Code Enforcement",
    "final_address": "4224 Hollygrove St",
    "address_councildis": "A",
    "status": "Pending",
    "rowid": "858130",
    "final_x": "3666895.46311",
    "final_y": "538576.010761",
    "longitude": "-90.11394925535127",
    "latitude": "29.975332724703527",
    "geocoded_column": {
      "latitude": "29.975332724703527",
      "longitude": "-90.11394925535127"
    }
  },
  {
    "service_request": "2022-858128",
    "request_type": "Traffic Signals/Signs/Striping/Streetlights",
    "request_reason": "Street Light Outage/Malfunction",
    "date_created": "2022-02-01T15:14:44.000",
    "date_modified": "2022-02-01T15:14:45.000",
    "request_status": "Pending",
    "responsible_agency": "Department of Public Works",
    "final_address": "507 State St",
    "address_councildis": "A",
    "status": "Pending",
    "contractor": "Royal Engineering",
    "rowid": "858128",
    "final_x": "3664462.53997",
    "final_y": "518322.32863",
    "longitude": "-90.12230916735747",
    "latitude": "29.919712591499753",
    "geocoded_column": {
      "latitude": "29.919712591499753",
      "longitude": "-90.12230916735747"
    }
  },
  {
    "service_request": "2022-858127",
    "request_type": "Trash/Recycling",
    "request_reason": "Request a Large Item Pick Up",
    "date_created": "2022-02-01T15:11:37.000",
    "date_modified": "2022-02-01T15:11:41.000",
    "request_status": "Pending",
    "responsible_agency": "Department of Sanitation",
    "final_address": "3822 Royal St, New Orleans, Louisiana, 70117",
    "address_councildis": "C",
    "status": "Assigned to Contractor",
    "contractor": "Metro Disposal",
    "rowid": "858127",
    "final_x": "3691026.45756",
    "final_y": "533875.619589",
    "longitude": "-90.03790521578479",
    "latitude": "29.961680131991322",
    "geocoded_column": {
      "latitude": "29.961680131991322",
      "longitude": "-90.03790521578479"
    }
  },
  {
    "service_request": "2022-858126",
    "request_type": "Traffic Signals/Signs/Striping/Streetlights",
    "request_reason": "Street Light Outage/Malfunction",
    "date_created": "2022-02-01T15:10:48.000",
    "date_modified": "2022-02-01T15:10:49.000",
    "request_status": "Pending",
    "responsible_agency": "Department of Public Works",
    "final_address": "11801 N Interstate 10 Service Rd",
    "address_councildis": "E",
    "status": "Pending",
    "contractor": "Royal Engineering",
    "rowid": "858126",
    "final_x": "3714206.96927",
    "final_y": "564826.67389",
    "longitude": "-89.96353737431399",
    "latitude": "30.0460425944689",
    "geocoded_column": {
      "latitude": "30.0460425944689",
      "longitude": "-89.96353737431399"
    }
  },
  {
    "service_request": "2022-858125",
    "request_type": "Trash/Recycling",
    "request_reason": "Order Trash Cart",
    "date_created": "2022-02-01T15:09:20.000",
    "date_modified": "2022-02-01T15:09:21.000",
    "request_status": "Pending",
    "responsible_agency": "Department of Sanitation",
    "final_address": "4232 Marigny St",
    "address_councildis": "D",
    "status": "Assigned to Contractor",
    "contractor": "Metro Disposal",
    "rowid": "858125",
    "final_x": "3684315.74498",
    "final_y": "548427.191762",
    "longitude": "-90.05858529885312",
    "latitude": "30.00189873895686",
    "geocoded_column": {
      "latitude": "30.00189873895686",
      "longitude": "-90.05858529885312"
    }
  },
  {
    "service_request": "2022-858124",
    "request_type": "Trash/Recycling",
    "request_reason": "Missed Trash Pick-Up",
    "date_created": "2022-02-01T14:54:55.000",
    "date_modified": "2022-02-01T14:54:55.000",
    "request_status": "Pending",
    "responsible_agency": "Department of Sanitation",
    "final_address": "1328 Feliciana St",
    "address_councildis": "C",
    "status": "Assigned to Contractor",
    "contractor": "Metro Disposal",
    "rowid": "858124",
    "final_x": "3688903.81903",
    "final_y": "537065.560968",
    "longitude": "-90.0444948350774",
    "latitude": "29.970517170092403",
    "geocoded_column": {
      "latitude": "29.970517170092403",
      "longitude": "-90.0444948350774"
    }
  },
  {
    "service_request": "2022-858123",
    "request_type": "Trash/Recycling",
    "request_reason": "Repair Trash Cart",
    "date_created": "2022-02-01T14:52:54.000",
    "date_modified": "2022-02-01T14:52:59.000",
    "request_status": "Pending",
    "responsible_agency": "Department of Sanitation",
    "final_address": "2839 OReilly St",
    "address_councildis": "D",
    "status": "Assigned to Contractor",
    "contractor": "Metro Disposal",
    "rowid": "858123",
    "final_x": "3679212.48533",
    "final_y": "541984.096076",
    "longitude": "-90.07493059156795",
    "latitude": "29.98433761578787",
    "geocoded_column": {
      "latitude": "29.98433761578787",
      "longitude": "-90.07493059156795"
    }
  },
  {
    "service_request": "2022-858122",
    "request_type": "Trash/Recycling",
    "request_reason": "Missed Trash Pick-Up",
    "date_created": "2022-02-01T14:52:05.000",
    "date_modified": "2022-02-01T14:52:06.000",
    "request_status": "Pending",
    "responsible_agency": "Department of Sanitation",
    "final_address": "1006 Milan St",
    "address_councildis": "B",
    "status": "Assigned to Contractor",
    "contractor": "Richards Disposal",
    "rowid": "858122",
    "final_x": "3671722.39419",
    "final_y": "519295.551543",
    "longitude": "-90.09936024460139",
    "latitude": "29.92217566999038",
    "geocoded_column": {
      "latitude": "29.92217566999038",
      "longitude": "-90.09936024460139"
    }
  },
  {
    "service_request": "2022-858121",
    "request_type": "Parks & Parkways",
    "request_reason": "Request Tree Service (Right of Way/Public Property)",
    "date_created": "2022-02-01T14:50:17.000",
    "date_modified": "2022-02-01T14:50:17.000",
    "request_status": "Pending",
    "responsible_agency": "Department of Parks & Parkway",
    "final_address": "496 Audubon St",
    "address_councildis": "A",
    "status": "Pending",
    "rowid": "858121",
    "final_x": "3662600.97293",
    "final_y": "523715.815163",
    "longitude": "-90.12800616307855",
    "latitude": "29.934596958320732",
    "geocoded_column": {
      "latitude": "29.934596958320732",
      "longitude": "-90.12800616307855"
    }
  },
  {
    "service_request": "2022-858120",
    "request_type": "Parks & Parkways",
    "request_reason": "Request Tree Service (Right of Way/Public Property)",
    "date_created": "2022-02-01T14:49:21.000",
    "date_modified": "2022-02-01T14:49:21.000",
    "request_status": "Pending",
    "responsible_agency": "Department of Parks & Parkway",
    "final_address": "411 N Carrollton Ave",
    "address_councildis": "A",
    "status": "Pending",
    "rowid": "858120",
    "final_x": "3671824.91086",
    "final_y": "539363.888906",
    "longitude": "-90.09835388622732",
    "latitude": "29.977353959008784",
    "geocoded_column": {
      "latitude": "29.977353959008784",
      "longitude": "-90.09835388622732"
    }
  },
  {
    "service_request": "2022-858119",
    "request_type": "Property Maintenance",
    "request_reason": "Property Maintenance",
    "date_created": "2022-02-01T14:45:17.000",
    "date_modified": "2022-02-01T14:45:17.000",
    "request_status": "Pending",
    "responsible_agency": "Department of Code Enforcement",
    "final_address": "7600 Gannon Rd",
    "address_councildis": "E",
    "status": "Pending",
    "rowid": "858119",
    "final_x": "3716469.08671",
    "final_y": "569659.73431",
    "longitude": "-89.95620443875303",
    "latitude": "30.059256974348585",
    "geocoded_column": {
      "latitude": "30.059256974348585",
      "longitude": "-89.95620443875303"
    }
  },
  {
    "service_request": "2022-858118",
    "request_type": "Roads/Drainage",
    "request_reason": "Street Flooding / Drainage",
    "date_created": "2022-02-01T14:44:40.000",
    "date_modified": "2022-02-01T14:50:29.000",
    "request_status": "Pending",
    "responsible_agency": "Department of Public Works",
    "final_address": "3000 BLK Erato St",
    "address_councildis": "B",
    "status": "Inspected",
    "rowid": "858118",
    "final_x": "3675213.78077",
    "final_y": "528767.854654",
    "longitude": "-90.08801440986292",
    "latitude": "29.94811756572566",
    "geocoded_column": {
      "latitude": "29.94811756572566",
      "longitude": "-90.08801440986292"
    }
  },
  {
    "service_request": "2022-858117",
    "request_type": "Abandoned Vehicles",
    "request_reason": "Abandoned/Junk Vehicles",
    "date_created": "2022-02-01T14:39:02.000",
    "date_modified": "2022-02-01T14:39:02.000",
    "request_status": "Pending",
    "responsible_agency": "Department of Public Works",
    "final_address": "7600 Gannon Rd",
    "address_councildis": "E",
    "status": "Pending",
    "rowid": "858117",
    "final_x": "3716469.08671",
    "final_y": "569659.73431",
    "longitude": "-89.95620443875303",
    "latitude": "30.059256974348585",
    "geocoded_column": {
      "latitude": "30.059256974348585",
      "longitude": "-89.95620443875303"
    }
  },
  {
    "service_request": "2022-858116",
    "request_type": "Trash/Recycling",
    "request_reason": "Request a Large Item Pick Up",
    "date_created": "2022-02-01T14:32:18.000",
    "date_modified": "2022-02-01T14:32:18.000",
    "request_status": "Pending",
    "responsible_agency": "Department of Sanitation",
    "final_address": "735 8th St, New Orleans, Louisiana, 70115",
    "status": "Assigned to Contractor",
    "rowid": "858116",
    "longitude": "0.0",
    "latitude": "0.0",
    "geocoded_column": {
      "latitude": "0.0",
      "longitude": "0.0"
    }
  },
  {
    "service_request": "2022-858115",
    "request_type": "Traffic Signals/Signs/Striping/Streetlights",
    "request_reason": "Request for Stop Sign",
    "date_created": "2022-02-01T14:31:21.000",
    "date_modified": "2022-02-01T14:31:21.000",
    "request_status": "Pending",
    "responsible_agency": "Department of Public Works",
    "final_address": "PRESS DR & ODIN ST",
    "address_councildis": "D",
    "status": "Pending",
    "rowid": "858115",
    "final_x": "3689301.0",
    "final_y": "553703.08",
    "longitude": "-90.04264864514536",
    "latitude": "30.016252053389852",
    "geocoded_column": {
      "latitude": "30.016252053389852",
      "longitude": "-90.04264864514536"
    }
  },
  {
    "service_request": "2022-858114",
    "request_type": "Trash/Recycling",
    "request_reason": "Replace Trash Cart",
    "date_created": "2022-02-01T14:31:12.000",
    "date_modified": "2022-02-01T14:31:13.000",
    "request_status": "Pending",
    "responsible_agency": "Department of Sanitation",
    "final_address": "1615 Pine St, New Orleans, Louisiana, 70118",
    "address_councildis": "A",
    "status": "Assigned to Contractor",
    "contractor": "Richards Disposal",
    "rowid": "858114",
    "final_x": "3664873.9138",
    "final_y": "527935.324991",
    "longitude": "-90.12068953111442",
    "latitude": "29.946133322344316",
    "geocoded_column": {
      "latitude": "29.946133322344316",
      "longitude": "-90.12068953111442"
    }
  },
  {
    "service_request": "2022-858113",
    "request_type": "Trash/Recycling",
    "request_reason": "Request a Large Item Pick Up",
    "date_created": "2022-02-01T14:28:06.000",
    "date_modified": "2022-02-01T14:28:07.000",
    "request_status": "Pending",
    "responsible_agency": "Department of Sanitation",
    "final_address": "4022 Danneel St",
    "address_councildis": "B",
    "status": "Assigned to Contractor",
    "contractor": "Richards Disposal",
    "rowid": "858113",
    "final_x": "3671978.72673",
    "final_y": "522384.212218",
    "longitude": "-90.09844603411948",
    "latitude": "29.930660904228755",
    "geocoded_column": {
      "latitude": "29.930660904228755",
      "longitude": "-90.09844603411948"
    }
  },
  {
    "service_request": "2022-858112",
    "request_type": "EMS",
    "request_reason": "EMS Complaint",
    "date_created": "2022-02-01T14:26:56.000",
    "date_modified": "2022-02-01T16:47:59.000",
    "request_status": "Pending",
    "responsible_agency": "Emergency Medical Services",
    "final_address": "2500 Louisiana Ave",
    "address_councildis": "B",
    "status": "Pending",
    "rowid": "858112",
    "final_x": "3672838.98689",
    "final_y": "524498.690236",
    "longitude": "-90.09565821210093",
    "latitude": "29.93644951367551",
    "geocoded_column": {
      "latitude": "29.93644951367551",
      "longitude": "-90.09565821210093"
    }
  },
  {
    "service_request": "2022-858111",
    "request_type": "Abandoned Vehicles",
    "request_reason": "Abandoned/Junk Vehicles",
    "date_created": "2022-02-01T14:25:22.000",
    "date_modified": "2022-02-01T14:25:22.000",
    "request_status": "Pending",
    "responsible_agency": "Department of Public Works",
    "final_address": "2625 Banks St",
    "address_councildis": "B",
    "status": "Pending",
    "rowid": "858111",
    "final_x": "3674910.7748",
    "final_y": "534007.480837",
    "longitude": "-90.08879143722206",
    "latitude": "29.96253384152133",
    "geocoded_column": {
      "latitude": "29.96253384152133",
      "longitude": "-90.08879143722206"
    }
  },
  {
    "service_request": "2022-858110",
    "request_type": "Trash/Recycling",
    "request_reason": "Order Trash Cart",
    "date_created": "2022-02-01T14:23:38.000",
    "date_modified": "2022-02-01T14:23:39.000",
    "request_status": "Pending",
    "responsible_agency": "Department of Sanitation",
    "final_address": "2718 Painters St",
    "address_councildis": "D",
    "status": "Assigned to Contractor",
    "contractor": "Metro Disposal",
    "rowid": "858110",
    "final_x": "3687006.80098",
    "final_y": "542942.573133",
    "longitude": "-90.0502779936753",
    "latitude": "29.986735414636556",
    "geocoded_column": {
      "latitude": "29.986735414636556",
      "longitude": "-90.0502779936753"
    }
  },
  {
    "service_request": "2022-858109",
    "request_type": "Trash/Recycling",
    "request_reason": "Illegal Dumping",
    "date_created": "2022-02-01T14:23:27.000",
    "date_modified": "2022-02-01T14:23:27.000",
    "request_status": "Pending",
    "responsible_agency": "Department of Sanitation",
    "final_address": "FLORIDA BLVD & MILNE BLVD",
    "address_councildis": "A",
    "status": "Pending",
    "rowid": "858109",
    "final_x": "3666864.1",
    "final_y": "545559.68",
    "longitude": "-90.11381356301412",
    "latitude": "29.99453636735655",
    "geocoded_column": {
      "latitude": "29.99453636735655",
      "longitude": "-90.11381356301412"
    }
  },
  {
    "service_request": "2022-858108",
    "request_type": "Trash/Recycling",
    "request_reason": "Order Recycling Cart",
    "date_created": "2022-02-01T14:22:53.000",
    "date_modified": "2022-02-01T14:22:53.000",
    "request_status": "Pending",
    "responsible_agency": "Department of Sanitation",
    "final_address": "129 S Murat St",
    "address_councildis": "A",
    "status": "Pending",
    "rowid": "858108",
    "final_x": "3669488.56833",
    "final_y": "539188.958538",
    "longitude": "-90.10573877136866",
    "latitude": "29.976941991680548",
    "geocoded_column": {
      "latitude": "29.976941991680548",
      "longitude": "-90.10573877136866"
    }
  },
  {
    "service_request": "2022-858107",
    "request_type": "Traffic Signals/Signs/Striping/Streetlights",
    "request_reason": "Street Name Sign Damaged or Missing",
    "date_created": "2022-02-01T14:19:48.000",
    "date_modified": "2022-02-01T14:21:04.000",
    "request_status": "Pending",
    "responsible_agency": "Department of Public Works",
    "final_address": "CATINA ST & MILNE ST",
    "address_councildis": "A",
    "status": "Pending",
    "rowid": "858107",
    "final_x": "3666836.7",
    "final_y": "545288.78",
    "longitude": "-90.1139092234718",
    "latitude": "29.993792286954058",
    "geocoded_column": {
      "latitude": "29.993792286954058",
      "longitude": "-90.1139092234718"
    }
  },
  {
    "service_request": "2022-858106",
    "request_type": "Traffic Signals/Signs/Striping/Streetlights",
    "request_reason": "Request for Stop Sign",
    "date_created": "2022-02-01T14:18:52.000",
    "date_modified": "2022-02-01T14:18:52.000",
    "request_status": "Pending",
    "responsible_agency": "Department of Public Works",
    "final_address": "MILNE ST & FLORIDA BLVD & MILNE BLVD",
    "address_councildis": "A",
    "status": "Pending",
    "rowid": "858106",
    "final_x": "3666857.5",
    "final_y": "545478.68",
    "longitude": "-90.11383713483809",
    "latitude": "29.99431383825175",
    "geocoded_column": {
      "latitude": "29.99431383825175",
      "longitude": "-90.11383713483809"
    }
  },
  {
    "service_request": "2022-858105",
    "request_type": "Traffic Signals/Signs/Striping/Streetlights",
    "request_reason": "Street Light Outage/Malfunction",
    "date_created": "2022-02-01T14:17:25.000",
    "date_modified": "2022-02-01T14:17:26.000",
    "request_status": "Pending",
    "responsible_agency": "Department of Public Works",
    "final_address": "4419 St Ann St",
    "address_councildis": "A",
    "status": "Pending",
    "contractor": "Royal Engineering",
    "rowid": "858105",
    "final_x": "3671492.67681",
    "final_y": "541430.167564",
    "longitude": "-90.09933291293981",
    "latitude": "29.9830453634559",
    "geocoded_column": {
      "latitude": "29.9830453634559",
      "longitude": "-90.09933291293981"
    }
  },
  {
    "service_request": "2022-858104",
    "request_type": "Trash/Recycling",
    "request_reason": "Missed Trash Pick-Up",
    "date_created": "2022-02-01T14:16:08.000",
    "date_modified": "2022-02-01T14:16:09.000",
    "request_status": "Pending",
    "responsible_agency": "Department of Sanitation",
    "final_address": "2518 Clio St",
    "address_councildis": "B",
    "status": "Assigned to Contractor",
    "contractor": "Richards Disposal",
    "rowid": "858104",
    "final_x": "3676507.10414",
    "final_y": "528343.765376",
    "longitude": "-90.08394545923696",
    "latitude": "29.94691274812063",
    "geocoded_column": {
      "latitude": "29.94691274812063",
      "longitude": "-90.08394545923696"
    }
  },
  {
    "service_request": "2022-858103",
    "request_type": "Trash/Recycling",
    "request_reason": "Order Recycling Cart",
    "date_created": "2022-02-01T14:13:45.000",
    "date_modified": "2022-02-01T14:13:45.000",
    "request_status": "Pending",
    "responsible_agency": "Department of Sanitation",
    "final_address": "2221 Iberville St",
    "address_councildis": "B",
    "status": "Pending",
    "rowid": "858103",
    "final_x": "3677081.35861",
    "final_y": "534378.717829",
    "longitude": "-90.08192422413629",
    "latitude": "29.963489614363294",
    "geocoded_column": {
      "latitude": "29.963489614363294",
      "longitude": "-90.08192422413629"
    }
  },
  {
    "service_request": "2022-858102",
    "request_type": "Trash/Recycling",
    "request_reason": "Request a Large Item Pick Up",
    "date_created": "2022-02-01T14:13:24.000",
    "date_modified": "2022-02-01T14:13:26.000",
    "request_status": "Pending",
    "responsible_agency": "Department of Sanitation",
    "final_address": "4022 Danneel St",
    "address_councildis": "B",
    "status": "Assigned to Contractor",
    "contractor": "Richards Disposal",
    "rowid": "858102",
    "final_x": "3671978.72673",
    "final_y": "522384.212218",
    "longitude": "-90.09844603411948",
    "latitude": "29.930660904228755",
    "geocoded_column": {
      "latitude": "29.930660904228755",
      "longitude": "-90.09844603411948"
    }
  },
  {
    "service_request": "2022-858101",
    "request_type": "Parks & Parkways",
    "request_reason": "Request Tree Service (Right of Way/Public Property)",
    "date_created": "2022-02-01T14:12:36.000",
    "date_modified": "2022-02-01T14:12:36.000",
    "request_status": "Pending",
    "responsible_agency": "Department of Parks & Parkway",
    "final_address": "N CARROLLTON AVE & BIENVILLE ST",
    "address_councildis": "A",
    "status": "Pending",
    "rowid": "858101",
    "final_x": "3671633.12",
    "final_y": "538932.11",
    "longitude": "-90.09897431725989",
    "latitude": "29.976172395951636",
    "geocoded_column": {
      "latitude": "29.976172395951636",
      "longitude": "-90.09897431725989"
    }
  },
  {
    "service_request": "2022-858100",
    "request_type": "Trash/Recycling",
    "request_reason": "Replace Trash Cart",
    "date_created": "2022-02-01T14:11:43.000",
    "date_modified": "2022-02-01T14:11:44.000",
    "request_status": "Pending",
    "responsible_agency": "Department of Sanitation",
    "final_address": "1631 Second St",
    "address_councildis": "B",
    "status": "Assigned to Contractor",
    "contractor": "Richards Disposal",
    "rowid": "858100",
    "final_x": "3676552.69006",
    "final_y": "523322.062011",
    "longitude": "-90.08397440548256",
    "latitude": "29.93310334989885",
    "geocoded_column": {
      "latitude": "29.93310334989885",
      "longitude": "-90.08397440548256"
    }
  },
  {
    "service_request": "2022-858099",
    "request_type": "Trash/Recycling",
    "request_reason": "Replace Trash Cart",
    "date_created": "2022-02-01T14:10:58.000",
    "date_modified": "2022-02-01T14:10:59.000",
    "request_status": "Pending",
    "responsible_agency": "Department of Sanitation",
    "final_address": "1631 Second St",
    "address_councildis": "B",
    "status": "Assigned to Contractor",
    "contractor": "Richards Disposal",
    "rowid": "858099",
    "final_x": "3676552.69006",
    "final_y": "523322.062011",
    "longitude": "-90.08397440548256",
    "latitude": "29.93310334989885",
    "geocoded_column": {
      "latitude": "29.93310334989885",
      "longitude": "-90.08397440548256"
    }
  },
  {
    "service_request": "2022-858098",
    "request_type": "Traffic Signals/Signs/Striping/Streetlights",
    "request_reason": "Traffic Sign Missing/Damaged",
    "date_created": "2022-02-01T14:04:55.000",
    "date_modified": "2022-02-01T14:04:55.000",
    "request_status": "Pending",
    "responsible_agency": "Department of Public Works",
    "final_address": "6125 Willow St",
    "address_councildis": "A",
    "status": "Pending",
    "rowid": "858098",
    "final_x": "3666574.7586",
    "final_y": "525895.088189",
    "longitude": "-90.11538783028209",
    "latitude": "29.940473724724544",
    "geocoded_column": {
      "latitude": "29.940473724724544",
      "longitude": "-90.11538783028209"
    }
  },
  {
    "service_request": "2022-858097",
    "request_type": "Property Maintenance",
    "request_reason": "Property Maintenance",
    "date_created": "2022-02-01T14:02:22.000",
    "date_modified": "2022-02-01T14:02:22.000",
    "request_status": "Pending",
    "responsible_agency": "Department of Code Enforcement",
    "final_address": "FORSHEY ST & MISTLETOE ST",
    "address_councildis": "A",
    "status": "Pending",
    "rowid": "858097",
    "final_x": "3664144.2",
    "final_y": "536525.58",
    "longitude": "-90.12270693929788",
    "latitude": "29.969774938904603",
    "geocoded_column": {
      "latitude": "29.969774938904603",
      "longitude": "-90.12270693929788"
    }
  },
  {
    "service_request": "2022-858096",
    "request_type": "Trash/Recycling",
    "request_reason": "Return Trash Cart",
    "date_created": "2022-02-01T14:01:39.000",
    "date_modified": "2022-02-01T14:01:59.000",
    "request_status": "Pending",
    "responsible_agency": "Department of Sanitation",
    "final_address": "2725 Pine St",
    "address_councildis": "B",
    "status": "Assigned to Contractor",
    "contractor": "Richards Disposal",
    "rowid": "858096",
    "final_x": "3667073.34305",
    "final_y": "531373.706371",
    "longitude": "-90.11362959225532",
    "latitude": "29.955523565992237",
    "geocoded_column": {
      "latitude": "29.955523565992237",
      "longitude": "-90.11362959225532"
    }
  },
  {
    "service_request": "2022-858095",
    "request_type": "Trash/Recycling",
    "request_reason": "Missed Trash Pick-Up",
    "date_created": "2022-02-01T14:00:43.000",
    "date_modified": "2022-02-01T14:00:45.000",
    "request_status": "Pending",
    "responsible_agency": "Department of Sanitation",
    "final_address": "4162 Orleans Ave",
    "address_councildis": "A",
    "status": "Assigned to Contractor",
    "contractor": "Richards Disposal",
    "rowid": "858095",
    "final_x": "3672205.25703",
    "final_y": "540364.078411",
    "longitude": "-90.09711854352578",
    "latitude": "29.980092862290128",
    "geocoded_column": {
      "latitude": "29.980092862290128",
      "longitude": "-90.09711854352578"
    }
  },
  {
    "service_request": "2022-858094",
    "request_type": "Abandoned Vehicles",
    "request_reason": "Abandoned/Junk Vehicles",
    "date_created": "2022-02-01T13:56:26.000",
    "date_modified": "2022-02-01T13:56:26.000",
    "request_status": "Pending",
    "responsible_agency": "Department of Public Works",
    "final_address": "4324 Banks St",
    "address_councildis": "A",
    "status": "Pending",
    "rowid": "858094",
    "final_x": "3669344.78292",
    "final_y": "538070.390409",
    "longitude": "-90.10623072626316",
    "latitude": "29.973870541032035",
    "geocoded_column": {
      "latitude": "29.973870541032035",
      "longitude": "-90.10623072626316"
    }
  },
  {
    "service_request": "2022-858093",
    "request_type": "Trash/Recycling",
    "request_reason": "Replace Recycling Cart",
    "date_created": "2022-02-01T13:56:25.000",
    "date_modified": "2022-02-01T13:56:25.000",
    "request_status": "Pending",
    "responsible_agency": "Department of Sanitation",
    "final_address": "2004 Foucher St",
    "address_councildis": "B",
    "status": "Pending",
    "rowid": "858093",
    "final_x": "3672957.81211",
    "final_y": "522685.469562",
    "longitude": "-90.09534492336628",
    "latitude": "29.931460214519984",
    "geocoded_column": {
      "latitude": "29.931460214519984",
      "longitude": "-90.09534492336628"
    }
  },
  {
    "service_request": "2022-858092",
    "request_type": "Trash/Recycling",
    "request_reason": "Replace Trash Cart",
    "date_created": "2022-02-01T13:55:27.000",
    "date_modified": "2022-02-01T13:55:28.000",
    "request_status": "Pending",
    "responsible_agency": "Department of Sanitation",
    "final_address": "2004 Foucher St",
    "address_councildis": "B",
    "status": "Assigned to Contractor",
    "contractor": "Richards Disposal",
    "rowid": "858092",
    "final_x": "3672957.81211",
    "final_y": "522685.469562",
    "longitude": "-90.09534492336628",
    "latitude": "29.931460214519984",
    "geocoded_column": {
      "latitude": "29.931460214519984",
      "longitude": "-90.09534492336628"
    }
  },
  {
    "service_request": "2022-858091",
    "request_type": "Trash/Recycling",
    "request_reason": "Repair Trash Cart",
    "date_created": "2022-02-01T13:54:24.000",
    "date_modified": "2022-02-01T13:54:25.000",
    "request_status": "Pending",
    "responsible_agency": "Department of Sanitation",
    "final_address": "17 Versailles Blvd",
    "address_councildis": "A",
    "status": "Assigned to Contractor",
    "contractor": "Richards Disposal",
    "rowid": "858091",
    "final_x": "3667178.86778",
    "final_y": "528969.64992",
    "longitude": "-90.11337720356356",
    "latitude": "29.948910105580993",
    "geocoded_column": {
      "latitude": "29.948910105580993",
      "longitude": "-90.11337720356356"
    }
  },
  {
    "service_request": "2022-858090",
    "request_type": "Trash/Recycling",
    "request_reason": "Replace Trash Cart",
    "date_created": "2022-02-01T13:53:21.000",
    "date_modified": "2022-02-01T13:53:23.000",
    "request_status": "Pending",
    "responsible_agency": "Department of Sanitation",
    "final_address": "7053 Bunker Hill Rd",
    "address_councildis": "E",
    "status": "Assigned to Contractor",
    "contractor": "Metro Disposal",
    "rowid": "858090",
    "final_x": "3705896.31019",
    "final_y": "560599.526814",
    "longitude": "-89.98995968617209",
    "latitude": "30.03469016789153",
    "geocoded_column": {
      "latitude": "30.03469016789153",
      "longitude": "-89.98995968617209"
    }
  },
  {
    "service_request": "2022-858089",
    "request_type": "Traffic Signals/Signs/Striping/Streetlights",
    "request_reason": "Street Name Sign Damaged or Missing",
    "date_created": "2022-02-01T13:51:08.000",
    "date_modified": "2022-02-01T13:51:08.000",
    "request_status": "Pending",
    "responsible_agency": "Department of Public Works",
    "final_address": "ATLANTIC AVE & OPELOUSAS AVE",
    "address_councildis": "C",
    "status": "Pending",
    "rowid": "858089",
    "final_x": "3688776.7",
    "final_y": "529055.58",
    "longitude": "-90.04518067253991",
    "latitude": "29.94849643112494",
    "geocoded_column": {
      "latitude": "29.94849643112494",
      "longitude": "-90.04518067253991"
    }
  },
  {
    "service_request": "2022-858088",
    "request_type": "Trash/Recycling",
    "request_reason": "Order Trash Cart",
    "date_created": "2022-02-01T13:47:41.000",
    "date_modified": "2022-02-01T13:47:42.000",
    "request_status": "Pending",
    "responsible_agency": "Department of Sanitation",
    "final_address": "836 St Peter St",
    "address_councildis": "C",
    "status": "Assigned to Contractor",
    "contractor": "Empire Services",
    "rowid": "858088",
    "final_x": "3682000.93544",
    "final_y": "532796.678468",
    "longitude": "-90.06644397752785",
    "latitude": "29.958990895193406",
    "geocoded_column": {
      "latitude": "29.958990895193406",
      "longitude": "-90.06644397752785"
    }
  },
  {
    "service_request": "2022-858087",
    "request_type": "Trash/Recycling",
    "request_reason": "Start Trash Service",
    "date_created": "2022-02-01T13:45:24.000",
    "date_modified": "2022-02-01T13:45:24.000",
    "request_status": "Pending",
    "responsible_agency": "Department of Sanitation",
    "final_address": "2733 Hudson Pl",
    "address_councildis": "C",
    "status": "Assigned to Contractor",
    "contractor": "Richards Disposal",
    "rowid": "858087",
    "final_x": "3703316.48702",
    "final_y": "520692.060281",
    "longitude": "-89.99958020009899",
    "latitude": "29.925042227474755",
    "geocoded_column": {
      "latitude": "29.925042227474755",
      "longitude": "-89.99958020009899"
    }
  },
  {
    "service_request": "2022-858086",
    "request_type": "Trash/Recycling",
    "request_reason": "Repair Recycling Cart",
    "date_created": "2022-02-01T13:45:00.000",
    "date_modified": "2022-02-01T13:45:00.000",
    "request_status": "Pending",
    "responsible_agency": "Department of Sanitation",
    "final_address": "3916 Hollygrove St",
    "address_councildis": "A",
    "status": "Pending",
    "rowid": "858086",
    "final_x": "3666143.04743",
    "final_y": "537748.93172",
    "longitude": "-90.11635333788537",
    "latitude": "29.973080528700486",
    "geocoded_column": {
      "latitude": "29.973080528700486",
      "longitude": "-90.11635333788537"
    }
  },
  {
    "service_request": "2022-858085",
    "request_type": "Trash/Recycling",
    "request_reason": "Order Recycling Cart",
    "date_created": "2022-02-01T13:44:54.000",
    "date_modified": "2022-02-01T13:44:54.000",
    "request_status": "Pending",
    "responsible_agency": "Department of Sanitation",
    "final_address": "2733 Hudson Pl",
    "address_councildis": "C",
    "status": "Pending",
    "rowid": "858085",
    "final_x": "3703316.48702",
    "final_y": "520692.060281",
    "longitude": "-89.99958020009899",
    "latitude": "29.925042227474755",
    "geocoded_column": {
      "latitude": "29.925042227474755",
      "longitude": "-89.99958020009899"
    }
  },
  {
    "service_request": "2022-858084",
    "request_type": "Trash/Recycling",
    "request_reason": "Order Trash Cart",
    "date_created": "2022-02-01T13:44:33.000",
    "date_modified": "2022-02-01T13:44:33.000",
    "request_status": "Pending",
    "responsible_agency": "Department of Sanitation",
    "final_address": "2733 Hudson Pl",
    "address_councildis": "C",
    "status": "Assigned to Contractor",
    "contractor": "Richards Disposal",
    "rowid": "858084",
    "final_x": "3703316.48702",
    "final_y": "520692.060281",
    "longitude": "-89.99958020009899",
    "latitude": "29.925042227474755",
    "geocoded_column": {
      "latitude": "29.925042227474755",
      "longitude": "-89.99958020009899"
    }
  },
  {
    "service_request": "2022-858083",
    "request_type": "Trash/Recycling",
    "request_reason": "MIssed Recycling Pick-Up",
    "date_created": "2022-02-01T13:44:27.000",
    "date_modified": "2022-02-01T13:44:28.000",
    "request_status": "Pending",
    "responsible_agency": "Department of Sanitation",
    "final_address": "4143 Mirabeau Ave",
    "address_councildis": "D",
    "status": "Assigned to Contractor",
    "contractor": "Metro Disposal",
    "rowid": "858083",
    "final_x": "3689330.48444",
    "final_y": "551339.411221",
    "longitude": "-90.04263961000257",
    "latitude": "30.00975192353644",
    "geocoded_column": {
      "latitude": "30.00975192353644",
      "longitude": "-90.04263961000257"
    }
  },
  {
    "service_request": "2022-858082",
    "request_type": "Trash/Recycling",
    "request_reason": "Order Recycling Cart",
    "date_created": "2022-02-01T13:43:34.000",
    "date_modified": "2022-02-01T13:43:34.000",
    "request_status": "Pending",
    "responsible_agency": "Department of Sanitation",
    "final_address": "1819 Valence St",
    "address_councildis": "B",
    "status": "Pending",
    "rowid": "858082",
    "final_x": "3669763.02273",
    "final_y": "521668.499449",
    "longitude": "-90.10546492005358",
    "latitude": "29.928758396345085",
    "geocoded_column": {
      "latitude": "29.928758396345085",
      "longitude": "-90.10546492005358"
    }
  },
  {
    "service_request": "2022-858081",
    "request_type": "Trash/Recycling",
    "request_reason": "Repair Recycling Cart",
    "date_created": "2022-02-01T13:43:22.000",
    "date_modified": "2022-02-01T15:30:37.000",
    "request_status": "Pending",
    "responsible_agency": "Department of Sanitation",
    "final_address": "New Orleans,LA",
    "address_councildis": "C",
    "rowid": "858081",
    "final_x": "3684526.72885",
    "final_y": "535150.459398",
    "longitude": "-90.0583854639017",
    "latitude": "29.965385953225255",
    "geocoded_column": {
      "latitude": "29.965385953225255",
      "longitude": "-90.0583854639017"
    }
  },
  {
    "service_request": "2022-858080",
    "request_type": "Trash/Recycling",
    "request_reason": "Order Trash Cart",
    "date_created": "2022-02-01T13:40:49.000",
    "date_modified": "2022-02-01T13:40:50.000",
    "request_status": "Pending",
    "responsible_agency": "Department of Sanitation",
    "final_address": "314 S Alexander St",
    "address_councildis": "A",
    "status": "Assigned to Contractor",
    "contractor": "Richards Disposal",
    "rowid": "858080",
    "final_x": "3669457.18177",
    "final_y": "538398.432777",
    "longitude": "-90.10586464640426",
    "latitude": "29.974769236907964",
    "geocoded_column": {
      "latitude": "29.974769236907964",
      "longitude": "-90.10586464640426"
    }
  },
  {
    "service_request": "2022-858079",
    "request_type": "Trash/Recycling",
    "request_reason": "Request a Large Item Pick Up",
    "date_created": "2022-02-01T13:40:48.000",
    "date_modified": "2022-02-01T13:40:49.000",
    "request_status": "Pending",
    "responsible_agency": "Department of Sanitation",
    "final_address": "3235 Jackson Ave",
    "address_councildis": "B",
    "status": "Assigned to Contractor",
    "contractor": "Richards Disposal",
    "rowid": "858079",
    "final_x": "3673800.44001",
    "final_y": "528739.999424",
    "longitude": "-90.09247786080003",
    "latitude": "29.94808313341812",
    "geocoded_column": {
      "latitude": "29.94808313341812",
      "longitude": "-90.09247786080003"
    }
  },
  {
    "service_request": "2022-858078",
    "request_type": "Trash/Recycling",
    "request_reason": "Order Trash Cart",
    "date_created": "2022-02-01T13:40:31.000",
    "date_modified": "2022-02-01T13:40:32.000",
    "request_status": "Pending",
    "responsible_agency": "Department of Sanitation",
    "final_address": "312 S Alexander St",
    "address_councildis": "A",
    "status": "Assigned to Contractor",
    "contractor": "Richards Disposal",
    "rowid": "858078",
    "final_x": "3669463.94849",
    "final_y": "538404.720073",
    "longitude": "-90.10584306263131",
    "latitude": "29.974786325536833",
    "geocoded_column": {
      "latitude": "29.974786325536833",
      "longitude": "-90.10584306263131"
    }
  },
  {
    "service_request": "2022-858077",
    "request_type": "Trash/Recycling",
    "request_reason": "Replace Recycling Cart",
    "date_created": "2022-02-01T13:38:51.000",
    "date_modified": "2022-02-01T13:38:51.000",
    "request_status": "Pending",
    "responsible_agency": "Department of Sanitation",
    "final_address": "5330 Dryades St",
    "address_councildis": "B",
    "status": "Pending",
    "rowid": "858077",
    "final_x": "3667638.71924",
    "final_y": "521786.810362",
    "longitude": "-90.11216695160309",
    "latitude": "29.929146135816534",
    "geocoded_column": {
      "latitude": "29.929146135816534",
      "longitude": "-90.11216695160309"
    }
  },
  {
    "service_request": "2022-858076",
    "request_type": "Trash/Recycling",
    "request_reason": "Replace Trash Cart",
    "date_created": "2022-02-01T13:37:24.000",
    "date_modified": "2022-02-01T13:37:25.000",
    "request_status": "Pending",
    "responsible_agency": "Department of Sanitation",
    "final_address": "1942 Arts St",
    "address_councildis": "D",
    "status": "Assigned to Contractor",
    "contractor": "Metro Disposal",
    "rowid": "858076",
    "final_x": "3686901.41046",
    "final_y": "539747.48097",
    "longitude": "-90.05072384949976",
    "latitude": "29.977953287455176",
    "geocoded_column": {
      "latitude": "29.977953287455176",
      "longitude": "-90.05072384949976"
    }
  },
  {
    "service_request": "2022-858075",
    "request_type": "Roads/Drainage",
    "request_reason": "Catch Basin - Clogged",
    "date_created": "2022-02-01T13:35:02.000",
    "date_modified": "2022-02-01T13:35:02.000",
    "request_status": "Pending",
    "responsible_agency": "Department of Public Works",
    "final_address": "2140 Magazine St",
    "address_councildis": "B",
    "status": "Pending",
    "rowid": "858075",
    "final_x": "3678922.16245",
    "final_y": "522082.969594",
    "longitude": "-90.07653704784515",
    "latitude": "29.929625000618316",
    "geocoded_column": {
      "latitude": "29.929625000618316",
      "longitude": "-90.07653704784515"
    }
  },