[
  {
    "service_request": "2023-1039014",
    "request_type": "Roads/Drainage",
    "request_reason": "Pothole",
    "date_created": "2023-09-28T00:36:48.000",
    "date_modified": "2023-09-28T00:36:48.000",
    "request_status": "Pending",
    "responsible_agency": "Department of Public Works",
    "final_address": "1424 Valmont St",
    "address_councildis": "B",
    "status": "Pending",
    "rowid": "1039014",
    "final_x": "3667643.52897",
    "final_y": "520415.550008",
    "longitude": "-90.11219790077504",
    "latitude": "29.925375463871653",
    "geocoded_column": {
      "latitude": "29.925375463871653",
      "longitude": "-90.11219790077504"
    }
  },
  {
    "service_request": "2023-1039013",
    "request_type": "Abandoned Vehicles",
    "request_reason": "Abandoned/Junk Vehicles",
    "date_created": "2023-09-27T23:45:12.000",
    "date_modified": "2023-09-27T23:45:12.000",
    "request_status": "Pending",
    "responsible_agency": "Department of Public Works",
    "final_address": "2201 St Roch Ave",
    "address_councildis": "D",
    "status": "Pending",
    "rowid": "1039013",
    "final_x": "3686243.6687",
    "final_y": "540521.226763",
    "longitude": "-90.05277391337327",
    "latitude": "29.980101043707904",
    "geocoded_column": {
      "latitude": "29.980101043707904",
      "longitude": "-90.05277391337327"
    }
  },
  {
    "service_request": "2023-1039012",
    "request_type": "Roads/Drainage",
    "request_reason": "Pothole",
    "date_created": "2023-09-27T23:30:57.000",
    "date_modified": "2023-09-27T23:30:57.000",
    "request_status": "Pending",
    "responsible_agency": "Department of Public Works",
    "final_address": "1660 Robert St",
    "address_councildis": "B",
    "status": "Pending",
    "rowid": "1039012",
    "final_x": "3668683.23905",
    "final_y": "521388.005817",
    "longitude": "-90.1088830476268",
    "latitude": "29.928018900042137",
    "geocoded_column": {
      "latitude": "29.928018900042137",
      "longitude": "-90.1088830476268"
    }
  },
  {
    "service_request": "2023-1039011",
    "request_type": "Trash/Recycling",
    "request_reason": "Dead Animal Pick Up",
    "date_created": "2023-09-27T23:19:51.000",
    "date_modified": "2023-09-27T23:19:52.000",
    "request_status": "Pending",
    "responsible_agency": "Department of Sanitation",
    "final_address": "Tullis Drive & Woodland Drive",
    "address_councildis": "C",
    "status": "Assigned to Contractor",
    "contractor": "Richards Disposal",
    "rowid": "1039011",
    "final_x": "3705863.96638",
    "final_y": "513333.977074",
    "longitude": "-89.99181063480118",
    "latitude": "29.904728258265866",
    "geocoded_column": {
      "latitude": "29.904728258265866",
      "longitude": "-89.99181063480118"
    }
  },
  {
    "service_request": "2023-1039010",
    "request_type": "Roads/Drainage",
    "request_reason": "Pothole",
    "date_created": "2023-09-27T22:23:24.000",
    "date_modified": "2023-09-27T22:23:24.000",
    "request_status": "Pending",
    "responsible_agency": "Department of Public Works",
    "final_address": "4001 Camp St",
    "address_councildis": "B",
    "status": "Pending",
    "rowid": "1039010",
    "final_x": "3672445.33531",
    "final_y": "519343.153783",
    "longitude": "-90.09707659300315",
    "latitude": "29.922285133646398",
    "geocoded_column": {
      "latitude": "29.922285133646398",
      "longitude": "-90.09707659300315"
    }
  },
  {
    "service_request": "2023-1039009",
    "request_type": "Roads/Drainage",
    "request_reason": "Pothole",
    "date_created": "2023-09-27T22:20:08.000",
    "date_modified": "2023-09-27T22:20:08.000",
    "request_status": "Pending",
    "responsible_agency": "Department of Public Works",
    "final_address": "3141 Laurel St",
    "address_councildis": "B",
    "status": "Pending",
    "rowid": "1039009",
    "final_x": "3676185.90094",
    "final_y": "519409.821303",
    "longitude": "-90.0852668601321",
    "latitude": "29.922356948464508",
    "geocoded_column": {
      "latitude": "29.922356948464508",
      "longitude": "-90.0852668601321"
    }
  },
  {
    "service_request": "2023-1039008",
    "request_type": "Traffic Signals/Signs/Striping/Streetlights",
    "request_reason": "Street Light Outage/Malfunction",
    "date_created": "2023-09-27T22:06:52.000",
    "date_modified": "2023-09-27T22:06:53.000",
    "request_status": "Pending",
    "responsible_agency": "Department of Public Works",
    "final_address": "5710 Pembrook Dr",
    "address_councildis": "C",
    "status": "Assigned to Contractor",
    "contractor": "Legacy Professional Services",
    "rowid": "1039008",
    "final_x": "3704730.63486",
    "final_y": "520907.992825",
    "longitude": "-89.99510826752932",
    "latitude": "29.9255906298943",
    "geocoded_column": {
      "latitude": "29.9255906298943",
      "longitude": "-89.99510826752932"
    }
  },
  {
    "service_request": "2023-1039007",
    "request_type": "Traffic Signals/Signs/Striping/Streetlights",
    "request_reason": "Street Light Outage/Malfunction",
    "date_created": "2023-09-27T22:03:34.000",
    "date_modified": "2023-09-27T22:03:35.000",
    "request_status": "Pending",
    "responsible_agency": "Department of Public Works",
    "final_address": "5710 Pembrook Dr",
    "address_councildis": "C",
    "status": "Assigned to Contractor",
    "contractor": "Legacy Professional Services",
    "rowid": "1039007",
    "final_x": "3704730.63486",
    "final_y": "520907.992825",
    "longitude": "-89.99510826752932",
    "latitude": "29.9255906298943",
    "geocoded_column": {
      "latitude": "29.9255906298943",
      "longitude": "-89.99510826752932"
    }
  },
  {
    "service_request": "2023-1039006",
    "request_type": "Roads/Drainage",
    "request_reason": "Pothole",
    "date_created": "2023-09-27T21:22:59.000",
    "date_modified": "2023-09-27T21:22:59.000",
    "request_status": "Pending",
    "responsible_agency": "Department of Public Works",
    "final_address": "1217 Foucher St",
    "address_councildis": "B",
    "status": "Pending",
    "rowid": "1039006",
    "final_x": "3674050.86318",
    "final_y": "519817.288376",
    "longitude": "-90.09199237897313",
    "latitude": "29.923541123641915",
    "geocoded_column": {
      "latitude": "29.923541123641915",
      "longitude": "-90.09199237897313"
    }
  },
  {
    "service_request": "2023-1039005",
    "request_type": "Traffic Signals/Signs/Striping/Streetlights",
    "request_reason": "Street Light Outage/Malfunction",
    "date_created": "2023-09-27T21:19:28.000",
    "date_modified": "2023-09-27T21:19:29.000",
    "request_status": "Pending",
    "responsible_agency": "Department of Public Works",
    "final_address": "775 Harrison Ave",
    "address_councildis": "A",
    "status": "Assigned to Contractor",
    "contractor": "Legacy Professional Services",
    "rowid": "1039005",
    "final_x": "3669142.44615",
    "final_y": "549354.159059",
    "longitude": "-90.10648819254023",
    "latitude": "30.004902997837632",
    "geocoded_column": {
      "latitude": "30.004902997837632",
      "longitude": "-90.10648819254023"
    }
  },
  {
    "service_request": "2023-1039004",
    "request_type": "Roads/Drainage",
    "request_reason": "Road Shoulder Repair",
    "date_created": "2023-09-27T21:16:47.000",
    "date_modified": "2023-09-27T21:16:47.000",
    "request_status": "Pending",
    "responsible_agency": "Department of Public Works",
    "final_address": "3600 BLK Coliseum St",
    "address_councildis": "B",
    "status": "Pending",
    "rowid": "1039004",
    "final_x": "3673679.77859",
    "final_y": "520234.645014",
    "longitude": "-90.09314949821882",
    "latitude": "29.924699769259288",
    "geocoded_column": {
      "latitude": "29.924699769259288",
      "longitude": "-90.09314949821882"
    }
  },
  {
    "service_request": "2023-1039003",
    "request_type": "Trash/Recycling",
    "request_reason": "Illegal Dumping",
    "date_created": "2023-09-27T21:07:03.000",
    "date_modified": "2023-09-27T21:07:03.000",
    "request_status": "Pending",
    "responsible_agency": "Department of Sanitation",
    "final_address": "5131 Arts St",
    "address_councildis": "D",
    "status": "Pending",
    "rowid": "1039003",
    "final_x": "3685863.35938",
    "final_y": "551848.799318",
    "longitude": "-90.05357550126945",
    "latitude": "30.01125948426153",
    "geocoded_column": {
      "latitude": "30.01125948426153",
      "longitude": "-90.05357550126945"
    }
  },
  {
    "service_request": "2023-1039002",
    "request_type": "Roads/Drainage",
    "request_reason": "Pothole",
    "date_created": "2023-09-27T20:44:15.000",
    "date_modified": "2023-09-27T20:44:15.000",
    "request_status": "Pending",
    "responsible_agency": "Department of Public Works",
    "final_address": "5401 Garfield St",
    "address_councildis": "A",
    "status": "Pending",
    "rowid": "1039002",
    "final_x": "3667158.34503",
    "final_y": "521097.332089",
    "longitude": "-90.11370657253345",
    "latitude": "29.927264357556105",
    "geocoded_column": {
      "latitude": "29.927264357556105",
      "longitude": "-90.11370657253345"
    }
  },
  {
    "service_request": "2023-1039001",
    "request_type": "Trash/Recycling",
    "request_reason": "Illegal Dumping",
    "date_created": "2023-09-27T20:42:18.000",
    "date_modified": "2023-09-27T20:42:18.000",
    "request_status": "Pending",
    "responsible_agency": "Department of Sanitation",
    "final_address": "5422 Garfield St",
    "address_councildis": "A",
    "status": "Pending",
    "rowid": "1039001",
    "final_x": "3667065.84148",
    "final_y": "521022.423801",
    "longitude": "-90.11400110021505",
    "latitude": "29.927061090503997",
    "geocoded_column": {
      "latitude": "29.927061090503997",
      "longitude": "-90.11400110021505"
    }
  },
  {
    "service_request": "2023-1039000",
    "request_type": "Roads/Drainage",
    "request_reason": "Road Shoulder Repair",
    "date_created": "2023-09-27T20:41:20.000",
    "date_modified": "2023-09-27T20:41:20.000",
    "request_status": "Pending",
    "responsible_agency": "Department of Public Works",
    "final_address": "5400 BLK Garfield St",
    "address_councildis": "A",
    "status": "Pending",
    "rowid": "1039000",
    "final_x": "3667090.8295",
    "final_y": "521077.314917",
    "longitude": "-90.11392037520632",
    "latitude": "29.927211292506133",
    "geocoded_column": {
      "latitude": "29.927211292506133",
      "longitude": "-90.11392037520632"
    }
  },
  {
    "service_request": "2023-1038999",
    "request_type": "Trash/Recycling",
    "request_reason": "Request a Large Item Pick Up",
    "date_created": "2023-09-27T20:12:26.000",
    "date_modified": "2023-09-27T20:12:27.000",
    "request_status": "Pending",
    "responsible_agency": "Department of Sanitation",
    "final_address": "117 Mary Jane Ln",
    "address_councildis": "E",
    "status": "Assigned to Contractor",
    "contractor": "Waste Pro",
    "rowid": "1038999",
    "final_x": "3718050.72511",
    "final_y": "571574.47204",
    "longitude": "-89.95113205009822",
    "latitude": "30.064469343373524",
    "geocoded_column": {
      "latitude": "30.064469343373524",
      "longitude": "-89.95113205009822"
    }
  },
  {
    "service_request": "2023-1038998",
    "request_type": "Property Maintenance",
    "request_reason": "Property Maintenance",
    "date_created": "2023-09-27T19:41:51.000",
    "date_modified": "2023-09-27T19:41:51.000",
    "request_status": "Pending",
    "responsible_agency": "Department of Code Enforcement",
    "final_address": "2500 General Ogden St",
    "address_councildis": "A",
    "status": "Pending",
    "rowid": "1038998",
    "final_x": "3663029.62579",
    "final_y": "533806.887237",
    "longitude": "-90.12631732675305",
    "latitude": "29.962331758486428",
    "geocoded_column": {
      "latitude": "29.962331758486428",
      "longitude": "-90.12631732675305"
    }
  },
  {
    "service_request": "2023-1038997",
    "request_type": "Trash/Recycling",
    "request_reason": "Request a Large Item Pick Up",
    "date_created": "2023-09-27T19:20:50.000",
    "date_modified": "2023-09-27T19:20:51.000",
    "request_status": "Pending",
    "responsible_agency": "Department of Sanitation",
    "final_address": "4506 Elba St",
    "address_councildis": "B",
    "status": "Assigned to Contractor",
    "contractor": "Richards Disposal",
    "rowid": "1038997",
    "final_x": "3669440.93639",
    "final_y": "530566.34125",
    "longitude": "-90.10618086394385",
    "latitude": "29.953234067471328",
    "geocoded_column": {
      "latitude": "29.953234067471328",
      "longitude": "-90.10618086394385"
    }
  },
  {
    "service_request": "2023-1038996",
    "request_type": "Property Maintenance",
    "request_reason": "Property Maintenance",
    "date_created": "2023-09-27T19:03:24.000",
    "date_modified": "2023-09-27T19:03:24.000",
    "request_status": "Pending",
    "responsible_agency": "Department of Code Enforcement",
    "final_address": "2100 Mirabeau Ave",
    "address_councildis": "D",
    "status": "Pending",
    "rowid": "1038996",
    "final_x": "3683132.25295",
    "final_y": "550564.339092",
    "longitude": "-90.06224918013726",
    "latitude": "30.007811273564865",
    "geocoded_column": {
      "latitude": "30.007811273564865",
      "longitude": "-90.06224918013726"
    }
  },
  {
    "service_request": "2023-1038995",
    "request_type": "Trash/Recycling",
    "request_reason": "Request a Large Item Pick Up",
    "date_created": "2023-09-27T18:51:21.000",
    "date_modified": "2023-09-27T18:51:22.000",
    "request_status": "Pending",
    "responsible_agency": "Department of Sanitation",
    "final_address": "5519 Mandeville St",
    "address_councildis": "D",
    "status": "Assigned to Contractor",
    "contractor": "IV Waste",
    "rowid": "1038995",
    "final_x": "3684466.70697",
    "final_y": "553273.918743",
    "longitude": "-90.0579379691521",
    "latitude": "30.015220859538296",
    "geocoded_column": {
      "latitude": "30.015220859538296",
      "longitude": "-90.0579379691521"
    }
  },
  {
    "service_request": "2023-1038994",
    "request_type": "Trash/Recycling",
    "request_reason": "Request a Large Item Pick Up",
    "date_created": "2023-09-27T18:47:07.000",
    "date_modified": "2023-09-27T18:47:08.000",
    "request_status": "Pending",
    "responsible_agency": "Department of Sanitation",
    "final_address": "2251 N Prieur St",
    "address_councildis": "D",
    "status": "Assigned to Contractor",
    "contractor": "IV Waste",
    "rowid": "1038994",
    "final_x": "3685325.84386",
    "final_y": "539397.977994",
    "longitude": "-90.05571234004368",
    "latitude": "29.97704067649872",
    "geocoded_column": {
      "latitude": "29.97704067649872",
      "longitude": "-90.05571234004368"
    }
  },
  {
    "service_request": "2023-1038993",
    "request_type": "Graffiti Removal",
    "request_reason": "Graffiti Removal",
    "date_created": "2023-09-27T18:32:32.000",
    "date_modified": "2023-09-27T18:32:32.000",
    "request_status": "Pending",
    "responsible_agency": "Department of Code Enforcement",
    "final_address": "5252 Crowder Blvd",
    "address_councildis": "E",
    "status": "Pending",
    "rowid": "1038993",
    "final_x": "3705897.33815",
    "final_y": "557171.647771",
    "longitude": "-89.99008342618183",
    "latitude": "30.025264807794713",
    "geocoded_column": {
      "latitude": "30.025264807794713",
      "longitude": "-89.99008342618183"
    }
  },
  {
    "service_request": "2023-1038992",
    "request_type": "Graffiti Removal",
    "request_reason": "Graffiti Removal",
    "date_created": "2023-09-27T18:31:01.000",
    "date_modified": "2023-09-27T18:31:01.000",
    "request_status": "Pending",
    "responsible_agency": "Department of Code Enforcement",
    "final_address": "5252 Crowder Blvd",
    "address_councildis": "E",
    "status": "Pending",
    "rowid": "1038992",
    "final_x": "3705897.33815",
    "final_y": "557171.647771",
    "longitude": "-89.99008342618183",
    "latitude": "30.025264807794713",
    "geocoded_column": {
      "latitude": "30.025264807794713",
      "longitude": "-89.99008342618183"
    }
  },
  {
    "service_request": "2023-1038991",
    "request_type": "Traffic Signals/Signs/Striping/Streetlights",
    "request_reason": "Street Light Outage/Malfunction",
    "date_created": "2023-09-27T18:27:17.000",
    "date_modified": "2023-09-27T18:27:18.000",
    "request_status": "Pending",
    "responsible_agency": "Department of Public Works",
    "final_address": "4133 Vincennes Pl",
    "address_councildis": "B",
    "status": "Assigned to Contractor",
    "contractor": "Legacy Professional Services",
    "rowid": "1038991",
    "final_x": "3668690.06023",
    "final_y": "530771.10797",
    "longitude": "-90.10854490304123",
    "latitude": "29.953819199199952",
    "geocoded_column": {
      "latitude": "29.953819199199952",
      "longitude": "-90.10854490304123"
    }
  },
  {
    "service_request": "2023-1038990",
    "request_type": "Roads/Drainage",
    "request_reason": "Catch Basin - Broken/Damage",
    "date_created": "2023-09-27T18:20:54.000",
    "date_modified": "2023-09-27T18:20:54.000",
    "request_status": "Pending",
    "responsible_agency": "Department of Public Works",
    "final_address": "0 S Rocheblave St",
    "address_councildis": "B",
    "status": "Pending",
    "rowid": "1038990",
    "final_x": "3675612.38913",
    "final_y": "534094.616005",
    "longitude": "-90.0865728392052",
    "latitude": "29.96275246141173",
    "geocoded_column": {
      "latitude": "29.96275246141173",
      "longitude": "-90.0865728392052"
    }
  },
  {
    "service_request": "2023-1038989",
    "request_type": "Trash/Recycling",
    "request_reason": "Repair Trash Cart",
    "date_created": "2023-09-27T18:15:55.000",
    "date_modified": "2023-09-27T18:15:56.000",
    "request_status": "Pending",
    "responsible_agency": "Department of Sanitation",
    "final_address": "805 Leontine St",
    "address_councildis": "B",
    "status": "Assigned to Contractor",
    "contractor": "Richards Disposal",
    "rowid": "1038989",
    "final_x": "3667163.11015",
    "final_y": "518371.890998",
    "longitude": "-90.11378310007358",
    "latitude": "29.919770114923736",
    "geocoded_column": {
      "latitude": "29.919770114923736",
      "longitude": "-90.11378310007358"
    }
  },
  {
    "service_request": "2023-1038988",
    "request_type": "Trash/Recycling",
    "request_reason": "Repair Trash Cart",
    "date_created": "2023-09-27T18:14:37.000",
    "date_modified": "2023-09-27T18:14:38.000",
    "request_status": "Pending",
    "responsible_agency": "Department of Sanitation",
    "final_address": "805 Leontine St",
    "address_councildis": "B",
    "status": "Assigned to Contractor",
    "contractor": "Richards Disposal",
    "rowid": "1038988",
    "final_x": "3667163.11015",
    "final_y": "518371.890998",
    "longitude": "-90.11378310007358",
    "latitude": "29.919770114923736",
    "geocoded_column": {
      "latitude": "29.919770114923736",
      "longitude": "-90.11378310007358"
    }
  },
  {
    "service_request": "2023-1038987",
    "request_type": "Roads/Drainage",
    "request_reason": "Street Subsidence (Sinking)",
    "date_created": "2023-09-27T17:56:22.000",
    "date_modified": "2023-09-27T17:56:22.000",
    "request_status": "Pending",
    "responsible_agency": "Department of Public Works",
    "final_address": "6026 Paris Ave",
    "address_councildis": "D",
    "status": "Pending",
    "rowid": "1038987",
    "final_x": "3678668.87189",
    "final_y": "554580.345112",
    "longitude": "-90.07621112501809",
    "latitude": "30.01898922915417",
    "geocoded_column": {
      "latitude": "30.01898922915417",
      "longitude": "-90.07621112501809"
    }
  },
  {
    "service_request": "2023-1038986",
    "request_type": "Property Maintenance",
    "request_reason": "Property Maintenance",
    "date_created": "2023-09-27T17:55:30.000",
    "date_modified": "2023-09-27T17:55:30.000",
    "request_status": "Pending",
    "responsible_agency": "Department of Code Enforcement",
    "status": "Pending",
    "rowid": "1038986",
    "longitude": "0.0",
    "latitude": "0.0",
    "geocoded_column": {
      "latitude": "0.0",
      "longitude": "0.0"
    }
  },
  {
    "service_request": "2023-1038985",
    "request_type": "Trash/Recycling",
    "request_reason": "Illegal Dumping",
    "date_created": "2023-09-27T17:53:03.000",
    "date_modified": "2023-09-27T17:53:03.000",
    "request_status": "Pending",
    "responsible_agency": "Department of Sanitation",
    "status": "Pending",
    "rowid": "1038985",
    "longitude": "0.0",
    "latitude": "0.0",
    "geocoded_column": {
      "latitude": "0.0",
      "longitude": "0.0"
    }
  },
  {
    "service_request": "2023-1038984",
    "request_type": "Trash/Recycling",
    "request_reason": "Illegal Dumping",
    "date_created": "2023-09-27T17:51:39.000",
    "date_modified": "2023-09-27T17:51:39.000",
    "request_status": "Pending",
    "responsible_agency": "Department of Sanitation",
    "status": "Pending",
    "rowid": "1038984",
    "longitude": "0.0",
    "latitude": "0.0",
    "geocoded_column": {
      "latitude": "0.0",
      "longitude": "0.0"
    }
  },
  {
    "service_request": "2023-1038983",
    "request_type": "Property Maintenance",
    "request_reason": "Property Maintenance",
    "date_created": "2023-09-27T17:49:53.000",
    "date_modified": "2023-09-27T17:49:53.000",
    "request_status": "Pending",
    "responsible_agency": "Department of Code Enforcement",
    "status": "Pending",
    "rowid": "1038983",
    "longitude": "0.0",
    "latitude": "0.0",
    "geocoded_column": {
      "latitude": "0.0",
      "longitude": "0.0"
    }
  },
  {
    "service_request": "2023-1038982",
    "request_type": "Trash/Recycling",
    "request_reason": "Return Recycling Cart",
    "date_created": "2023-09-27T17:46:35.000",
    "date_modified": "2023-09-27T17:46:35.000",
    "request_status": "Pending",
    "responsible_agency": "Department of Sanitation",
    "final_address": "2371 Chippewa St",
    "address_councildis": "B",
    "status": "Pending",
    "rowid": "1038982",
    "final_x": "3678952.9892",
    "final_y": "520358.70508",
    "longitude": "-90.07649943786936",
    "latitude": "29.924882906376702",
    "geocoded_column": {
      "latitude": "29.924882906376702",
      "longitude": "-90.07649943786936"
    }
  },
  {
    "service_request": "2023-1038981",
    "request_type": "Trash/Recycling",
    "request_reason": "Request a Large Item Pick Up",
    "date_created": "2023-09-27T17:45:22.000",
    "date_modified": "2023-09-27T17:45:23.000",
    "request_status": "Pending",
    "responsible_agency": "Department of Sanitation",
    "final_address": "DAUPHINE ST & ST FERDINAND ST",
    "address_councildis": "C",
    "status": "Assigned to Contractor",
    "contractor": "IV Waste",
    "rowid": "1038981",
    "final_x": "3687422.4",
    "final_y": "535180.18",
    "longitude": "-90.04924004203802",
    "latitude": "29.965378764517904",
    "geocoded_column": {
      "latitude": "29.965378764517904",
      "longitude": "-90.04924004203802"
    }
  },
  {
    "service_request": "2023-1038980",
    "request_type": "Trash/Recycling",
    "request_reason": "Missed Trash Pick-Up",
    "date_created": "2023-09-27T17:34:30.000",
    "date_modified": "2023-09-27T17:34:30.000",
    "request_status": "Pending",
    "responsible_agency": "Department of Sanitation",
    "final_address": "5615 General Haig St",
    "address_councildis": "A",
    "status": "Assigned to Contractor",
    "contractor": "IV Waste",
    "rowid": "1038980",
    "final_x": "3670479.42183",
    "final_y": "544522.020431",
    "longitude": "-90.1024283927066",
    "latitude": "29.99157686524746",
    "geocoded_column": {
      "latitude": "29.99157686524746",
      "longitude": "-90.1024283927066"
    }
  },
  {
    "service_request": "2023-1038979",
    "request_type": "Trash/Recycling",
    "request_reason": "Repair Recycling Cart",
    "date_created": "2023-09-27T17:27:03.000",
    "date_modified": "2023-09-27T17:27:03.000",
    "request_status": "Pending",
    "responsible_agency": "Department of Sanitation",
    "final_address": "2411 Octavia St",
    "address_councildis": "A",
    "status": "Pending",
    "rowid": "1038979",
    "final_x": "3667744.64538",
    "final_y": "524528.579836",
    "longitude": "-90.11174028763446",
    "latitude": "29.93668202180323",
    "geocoded_column": {
      "latitude": "29.93668202180323",
      "longitude": "-90.11174028763446"
    }
  },
  {
    "service_request": "2023-1038977",
    "request_type": "Property Maintenance",
    "request_reason": "Property Maintenance",
    "date_created": "2023-09-27T17:20:33.000",
    "date_modified": "2023-09-27T17:20:33.000",
    "request_status": "Pending",
    "responsible_agency": "Department of Code Enforcement",
    "final_address": "1408 Frenchmen St",
    "address_councildis": "C",
    "status": "Pending",
    "rowid": "1038977",
    "final_x": "3684456.1245",
    "final_y": "537471.167944",
    "longitude": "-90.0585268933715",
    "latitude": "29.97176925718169",
    "geocoded_column": {
      "latitude": "29.97176925718169",
      "longitude": "-90.0585268933715"
    }
  },
  {
    "service_request": "2023-1038976",
    "request_type": "Trash/Recycling",
    "request_reason": "MIssed Recycling Pick-Up",
    "date_created": "2023-09-27T17:19:11.000",
    "date_modified": "2023-09-27T17:19:11.000",
    "request_status": "Pending",
    "responsible_agency": "Department of Sanitation",
    "final_address": "124 S Solomon St, New Orleans, Louisiana, 70119",
    "address_councildis": "A",
    "status": "Assigned to Contractor",
    "contractor": "Richards Disposal",
    "rowid": "1038976",
    "final_x": "3670488.55239",
    "final_y": "538443.536393",
    "longitude": "-90.10260578177494",
    "latitude": "29.97486283688435",
    "geocoded_column": {
      "latitude": "29.97486283688435",
      "longitude": "-90.10260578177494"
    }
  },
  {
    "service_request": "2023-1038975",
    "request_type": "Trash/Recycling",
    "request_reason": "Request a Large Item Pick Up",
    "date_created": "2023-09-27T17:15:00.000",
    "date_modified": "2023-09-27T17:15:01.000",
    "request_status": "Pending",
    "responsible_agency": "Department of Sanitation",
    "final_address": "1119 Dante St, New Orleans, Louisiana, 70118",
    "address_councildis": "A",
    "status": "Assigned to Contractor",
    "contractor": "Richards Disposal",
    "rowid": "1038975",
    "final_x": "3661360.50835",
    "final_y": "528704.588928",
    "longitude": "-90.1317571484113",
    "latitude": "29.948350324069004",
    "geocoded_column": {
      "latitude": "29.948350324069004",
      "longitude": "-90.1317571484113"
    }
  },
  {
    "service_request": "2023-1038974",
    "request_type": "Property Maintenance",
    "request_reason": "Property Maintenance",
    "date_created": "2023-09-27T17:14:27.000",
    "date_modified": "2023-09-27T17:14:27.000",
    "request_status": "Pending",
    "responsible_agency": "Department of Code Enforcement",
    "final_address": "1669 N Dupre St",
    "address_councildis": "D",
    "status": "Pending",
    "rowid": "1038974",
    "final_x": "3678852.13442",
    "final_y": "541107.503436",
    "longitude": "-90.07609915837021",
    "latitude": "29.98193816772726",
    "geocoded_column": {
      "latitude": "29.98193816772726",
      "longitude": "-90.07609915837021"
    }
  },
  {
    "service_request": "2023-1038973",
    "request_type": "Abandoned Vehicles",
    "request_reason": "Abandoned/Junk Vehicles",
    "date_created": "2023-09-27T17:11:11.000",
    "date_modified": "2023-09-27T17:11:11.000",
    "request_status": "Pending",
    "responsible_agency": "Department of Public Works",
    "final_address": "1121 Leboeuf St",
    "address_councildis": "C",
    "status": "Pending",
    "rowid": "1038973",
    "final_x": "3689665.77206",
    "final_y": "527243.790143",
    "longitude": "-90.0424379565407",
    "latitude": "29.94348711667237",
    "geocoded_column": {
      "latitude": "29.94348711667237",
      "longitude": "-90.0424379565407"
    }
  },
  {
    "service_request": "2023-1038972",
    "request_type": "Trash/Recycling",
    "request_reason": "Request a Large Item Pick Up",
    "date_created": "2023-09-27T17:10:02.000",
    "date_modified": "2023-09-27T17:10:03.000",
    "request_status": "Pending",
    "responsible_agency": "Department of Sanitation",
    "final_address": "5420 S Eastover Dr",
    "address_councildis": "E",
    "status": "Assigned to Contractor",
    "contractor": "Waste Pro",
    "rowid": "1038972",
    "final_x": "3720233.26342",
    "final_y": "560818.94115",
    "longitude": "-89.94464498414145",
    "latitude": "30.034823504145322",
    "geocoded_column": {
      "latitude": "30.034823504145322",
      "longitude": "-89.94464498414145"
    }
  },
  {
    "service_request": "2023-1038971",
    "request_type": "Property Maintenance",
    "request_reason": "Property Maintenance",
    "date_created": "2023-09-27T17:09:20.000",
    "date_modified": "2023-09-27T17:09:20.000",
    "request_status": "Pending",
    "responsible_agency": "Department of Code Enforcement",
    "status": "Pending",
    "rowid": "1038971",
    "longitude": "0.0",
    "latitude": "0.0",
    "geocoded_column": {
      "latitude": "0.0",
      "longitude": "0.0"
    }
  },
  {
    "service_request": "2023-1038970",
    "request_type": "Trash/Recycling",
    "request_reason": "Request a Large Item Pick Up",
    "date_created": "2023-09-27T17:06:46.000",
    "date_modified": "2023-09-27T17:06:46.000",
    "request_status": "Pending",
    "responsible_agency": "Department of Sanitation",
    "final_address": "1866 Gentilly Blvd Unit 1",
    "address_councildis": "D",
    "status": "Assigned to Contractor",
    "contractor": "IV Waste",
    "rowid": "1038970",
    "final_x": "3678961.46613",
    "final_y": "542835.930637",
    "longitude": "-90.07569391819824",
    "latitude": "29.98668744147269",
    "geocoded_column": {
      "latitude": "29.98668744147269",
      "longitude": "-90.07569391819824"
    }
  },
  {
    "service_request": "2023-1038969",
    "request_type": "Property Maintenance",
    "request_reason": "Property Maintenance",
    "date_created": "2023-09-27T17:04:13.000",
    "date_modified": "2023-09-27T17:04:13.000",
    "request_status": "Pending",
    "responsible_agency": "Department of Code Enforcement",
    "final_address": "2109 Pauger St",
    "address_councildis": "C",
    "status": "Pending",
    "rowid": "1038969",
    "final_x": "3683808.74569",
    "final_y": "537425.872712",
    "longitude": "-90.06057300201009",
    "latitude": "29.97166449932319",
    "geocoded_column": {
      "latitude": "29.97166449932319",
      "longitude": "-90.06057300201009"
    }
  },
  {
    "service_request": "2023-1038967",
    "request_type": "Trash/Recycling",
    "request_reason": "MIssed Recycling Pick-Up",
    "date_created": "2023-09-27T17:00:21.000",
    "date_modified": "2023-09-27T17:00:22.000",
    "request_status": "Pending",
    "responsible_agency": "Department of Sanitation",
    "final_address": "1619 Baronne St",
    "address_councildis": "B",
    "status": "Assigned to Contractor",
    "contractor": "Richards Disposal",
    "rowid": "1038967",
    "final_x": "3678137.23336",
    "final_y": "525632.473597",
    "longitude": "-90.0788922581242",
    "latitude": "29.939408620451598",
    "geocoded_column": {
      "latitude": "29.939408620451598",
      "longitude": "-90.0788922581242"
    }
  },
  {
    "service_request": "2023-1038966",
    "request_type": "Traffic Signals/Signs/Striping/Streetlights",
    "request_reason": "Street Light Outage/Malfunction",
    "date_created": "2023-09-27T16:59:34.000",
    "date_modified": "2023-09-27T16:59:34.000",
    "request_status": "Pending",
    "responsible_agency": "Department of Public Works",
    "final_address": "7441 Hansbrough Ave",
    "address_councildis": "E",
    "status": "Assigned to Contractor",
    "contractor": "Legacy Professional Services",
    "rowid": "1038966",
    "final_x": "3707926.77227",
    "final_y": "564048.284961",
    "longitude": "-89.98341478780698",
    "latitude": "30.044107272426295",
    "geocoded_column": {
      "latitude": "30.044107272426295",
      "longitude": "-89.98341478780698"
    }
  },
  {
    "service_request": "2023-1038965",
    "request_type": "Property Maintenance",
    "request_reason": "Property Maintenance",
    "date_created": "2023-09-27T16:59:02.000",
    "date_modified": "2023-09-27T16:59:02.000",
    "request_status": "Pending",
    "responsible_agency": "Department of Code Enforcement",
    "final_address": "2127 Pauger St",
    "address_councildis": "C",
    "status": "Pending",
    "rowid": "1038965",
    "final_x": "3683849.82076",
    "final_y": "537556.492168",
    "longitude": "-90.06043869832793",
    "latitude": "29.972022402857796",
    "geocoded_column": {
      "latitude": "29.972022402857796",
      "longitude": "-90.06043869832793"
    }
  },
  {
    "service_request": "2023-1038964",
    "request_type": "Trash/Recycling",
    "request_reason": "Missed Trash Pick-Up",
    "date_created": "2023-09-27T16:58:23.000",
    "date_modified": "2023-09-27T17:03:42.000",
    "case_close_date": "2023-09-27T12:03:42.000",
    "request_status": "Closed",
    "responsible_agency": "Department of Sanitation",
    "final_address": "5641 Christian Ln",
    "address_councildis": "E",
    "status": "Invalid Request",
    "contractor": "Waste Pro",
    "contractor_action": "Invalid Pick-Up",
    "rowid": "1038964",
    "final_x": "3704337.36593",
    "final_y": "557030.329946",
    "longitude": "-89.99501787967738",
    "latitude": "30.02492642951628",
    "geocoded_column": {
      "latitude": "30.02492642951628",
      "longitude": "-89.99501787967738"
    }
  },
  {
    "service_request": "2023-1038963",
    "request_type": "Trash/Recycling",
    "request_reason": "Missed Trash Pick-Up",
    "date_created": "2023-09-27T16:58:10.000",
    "date_modified": "2023-09-27T16:58:11.000",
    "case_close_date": "2023-02-22T18:00:00.000",
    "request_status": "Closed",
    "responsible_agency": "Department of Sanitation",
    "final_address": "5641 Christian Ln",
    "address_councildis": "E",
    "status": "Assigned to Contractor",
    "contractor": "Waste Pro",
    "contractor_action": "Completed",
    "rowid": "1038963",
    "final_x": "3704337.36593",
    "final_y": "557030.329946",
    "longitude": "-89.99501787967738",
    "latitude": "30.02492642951628",
    "geocoded_column": {
      "latitude": "30.02492642951628",
      "longitude": "-89.99501787967738"
    }
  },
  {
    "service_request": "2023-1038962",
    "request_type": "Trash/Recycling",
    "request_reason": "Request a Large Item Pick Up",
    "date_created": "2023-09-27T16:57:28.000",
    "date_modified": "2023-09-27T16:57:28.000",
    "request_status": "Pending",
    "responsible_agency": "Department of Sanitation",
    "final_address": "1310 Robert St",
    "address_councildis": "B",
    "status": "Assigned to Contractor",
    "contractor": "Richards Disposal",
    "rowid": "1038962",
    "final_x": "3668653.99278",
    "final_y": "519994.55468",
    "longitude": "-90.10902237222388",
    "latitude": "29.924188211305474",
    "geocoded_column": {
      "latitude": "29.924188211305474",
      "longitude": "-90.10902237222388"
    }
  },
  {
    "service_request": "2023-1038961",
    "request_type": "Traffic Signals/Signs/Striping/Streetlights",
    "request_reason": "Street Light Outage/Malfunction",
    "date_created": "2023-09-27T16:56:58.000",
    "date_modified": "2023-09-27T16:56:59.000",
    "request_status": "Pending",
    "responsible_agency": "Department of Public Works",
    "final_address": "7361 Symmes Ave",
    "address_councildis": "E",
    "status": "Assigned to Contractor",
    "contractor": "Legacy Professional Services",
    "rowid": "1038961",
    "final_x": "3708303.68657",
    "final_y": "563883.998113",
    "longitude": "-89.98222970363396",
    "latitude": "30.043643334321047",
    "geocoded_column": {
      "latitude": "30.043643334321047",
      "longitude": "-89.98222970363396"
    }
  },
  {
    "service_request": "2023-1038960",
    "request_type": "Property Maintenance",
    "request_reason": "Property Maintenance",
    "date_created": "2023-09-27T16:54:11.000",
    "date_modified": "2023-09-27T16:54:11.000",
    "request_status": "Pending",
    "responsible_agency": "Department of Code Enforcement",
    "final_address": "1309 Touro St",
    "address_councildis": "C",
    "status": "Pending",
    "rowid": "1038960",
    "final_x": "3684191.47157",
    "final_y": "537076.110344",
    "longitude": "-90.05937657857451",
    "latitude": "29.970691079485576",
    "geocoded_column": {
      "latitude": "29.970691079485576",
      "longitude": "-90.05937657857451"
    }
  },
  {
    "service_request": "2023-1038959",
    "request_type": "Parks & Parkways",
    "request_reason": "Request Tree Service (Right of Way/Public Property)",
    "date_created": "2023-09-27T16:52:28.000",
    "date_modified": "2023-09-27T16:52:28.000",
    "request_status": "Pending",
    "responsible_agency": "Department of Parks & Parkway",
    "final_address": "2024 General Taylor St",
    "address_councildis": "B",
    "status": "Pending",
    "rowid": "1038959",
    "final_x": "3672165.38503",
    "final_y": "522663.72793",
    "longitude": "-90.09784726556563",
    "latitude": "29.931423949687865",
    "geocoded_column": {
      "latitude": "29.931423949687865",
      "longitude": "-90.09784726556563"
    }
  },
  {
    "service_request": "2023-1038958",
    "request_type": "Traffic Signals/Signs/Striping/Streetlights",
    "request_reason": "Street Light Outage/Malfunction",
    "date_created": "2023-09-27T16:52:00.000",
    "date_modified": "2023-09-27T16:52:01.000",
    "request_status": "Pending",
    "responsible_agency": "Department of Public Works",
    "final_address": "700 Pelican Ave",
    "address_councildis": "C",
    "status": "Assigned to Contractor",
    "contractor": "Legacy Professional Services",
    "rowid": "1038958",
    "final_x": "3687643.35753",
    "final_y": "530818.953858",
    "longitude": "-90.04869667848553",
    "latitude": "29.95338009008659",
    "geocoded_column": {
      "latitude": "29.95338009008659",
      "longitude": "-90.04869667848553"
    }
  },
  {
    "service_request": "2023-1038957",
    "request_type": "Roads/Drainage",
    "request_reason": "Pothole",
    "date_created": "2023-09-27T16:50:25.000",
    "date_modified": "2023-09-27T16:50:25.000",
    "request_status": "Pending",
    "responsible_agency": "Department of Public Works",
    "final_address": "LAKESHORE DR & TOPAZ ST",
    "address_councildis": "D",
    "status": "Pending",
    "rowid": "1038957",
    "final_x": "3666891.7",
    "final_y": "556430.78",
    "longitude": "-90.11336075559657",
    "latitude": "30.024427290450582",
    "geocoded_column": {
      "latitude": "30.024427290450582",
      "longitude": "-90.11336075559657"
    }
  },
  {
    "service_request": "2023-1038956",
    "request_type": "Trash/Recycling",
    "request_reason": "Missed Trash Pick-Up",
    "date_created": "2023-09-27T16:48:18.000",
    "date_modified": "2023-09-27T16:48:19.000",
    "request_status": "Pending",
    "responsible_agency": "Department of Sanitation",
    "final_address": "7501 Anne Marie Ct",
    "address_councildis": "E",
    "status": "Assigned to Contractor",
    "contractor": "Waste Pro",
    "rowid": "1038956",
    "final_x": "3718466.75692",
    "final_y": "570726.404071",
    "longitude": "-89.94984931981011",
    "latitude": "30.062123705258955",
    "geocoded_column": {
      "latitude": "30.062123705258955",
      "longitude": "-89.94984931981011"
    }
  },
  {
    "service_request": "2023-1038955",
    "request_type": "Trash/Recycling",
    "request_reason": "Missed Trash Pick-Up",
    "date_created": "2023-09-27T16:46:44.000",
    "date_modified": "2023-09-27T16:46:45.000",
    "request_status": "Pending",
    "responsible_agency": "Department of Sanitation",
    "final_address": "4700 Papania Dr",
    "address_councildis": "E",
    "status": "Assigned to Contractor",
    "contractor": "Waste Pro",
    "rowid": "1038955",
    "final_x": "3715513.98399",
    "final_y": "556672.083482",
    "longitude": "-89.95971554960884",
    "latitude": "30.0235777210429",
    "geocoded_column": {
      "latitude": "30.0235777210429",
      "longitude": "-89.95971554960884"
    }
  },
  {
    "service_request": "2023-1038954",
    "request_type": "Property Maintenance",
    "request_reason": "Property Maintenance",
    "date_created": "2023-09-27T16:46:38.000",
    "date_modified": "2023-09-27T16:46:38.000",
    "request_status": "Pending",
    "responsible_agency": "Department of Code Enforcement",
    "final_address": "1427 Frenchmen St",
    "address_councildis": "C",
    "status": "Pending",
    "rowid": "1038954",
    "final_x": "3684516.82978",
    "final_y": "537600.110088",
    "longitude": "-90.05833064578565",
    "latitude": "29.972121946006776",
    "geocoded_column": {
      "latitude": "29.972121946006776",
      "longitude": "-90.05833064578565"
    }
  },
  {
    "service_request": "2023-1038953",
    "request_type": "Trash/Recycling",
    "request_reason": "Order Trash Cart",
    "date_created": "2023-09-27T16:46:08.000",
    "date_modified": "2023-09-27T16:46:09.000",
    "request_status": "Pending",
    "responsible_agency": "Department of Sanitation",
    "final_address": "830 Washington Ave",
    "address_councildis": "B",
    "status": "Assigned to Contractor",
    "contractor": "Richards Disposal",
    "rowid": "1038953",
    "final_x": "3677467.62306",
    "final_y": "520064.203128",
    "longitude": "-90.08119841226167",
    "latitude": "29.924117836958832",
    "geocoded_column": {
      "latitude": "29.924117836958832",
      "longitude": "-90.08119841226167"
    }
  },
  {
    "service_request": "2023-1038952",
    "request_type": "Trash/Recycling",
    "request_reason": "Missed Trash Pick-Up",
    "date_created": "2023-09-27T16:45:48.000",
    "date_modified": "2023-09-27T16:45:49.000",
    "request_status": "Pending",
    "responsible_agency": "Department of Sanitation",
    "final_address": "5322 LaSalle St",
    "address_councildis": "B",
    "status": "Assigned to Contractor",
    "contractor": "Richards Disposal",
    "rowid": "1038952",
    "final_x": "3667968.34586",
    "final_y": "523590.617019",
    "longitude": "-90.11106563989058",
    "latitude": "29.934096365018604",
    "geocoded_column": {
      "latitude": "29.934096365018604",
      "longitude": "-90.11106563989058"
    }
  },
  {
    "service_request": "2023-1038951",
    "request_type": "Trash/Recycling",
    "request_reason": "Missed Trash Pick-Up",
    "date_created": "2023-09-27T16:44:34.000",
    "date_modified": "2023-09-27T16:44:35.000",
    "request_status": "Pending",
    "responsible_agency": "Department of Sanitation",
    "final_address": "2116 Burdette St",
    "address_councildis": "A",
    "status": "Assigned to Contractor",
    "contractor": "Richards Disposal",
    "rowid": "1038951",
    "final_x": "3665022.14682",
    "final_y": "530112.112001",
    "longitude": "-90.12014873843808",
    "latitude": "29.952114468803895",
    "geocoded_column": {
      "latitude": "29.952114468803895",
      "longitude": "-90.12014873843808"
    }
  },
  {
    "service_request": "2023-1038950",
    "request_type": "Abandoned Vehicles",
    "request_reason": "Abandoned/Junk Vehicles",
    "date_created": "2023-09-27T16:44:00.000",
    "date_modified": "2023-09-27T16:44:00.000",
    "request_status": "Pending",
    "responsible_agency": "Department of Public Works",
    "final_address": "2800 BLK Johnny Jackson Jr Blvd",
    "address_councildis": "D",
    "status": "Pending",
    "rowid": "1038950",
    "final_x": "3691341.91748",
    "final_y": "543028.293324",
    "longitude": "-90.03658195727336",
    "latitude": "29.986836927353412",
    "geocoded_column": {
      "latitude": "29.986836927353412",
      "longitude": "-90.03658195727336"
    }
  },
  {
    "service_request": "2023-1038949",
    "request_type": "Trash/Recycling",
    "request_reason": "Request a Large Item Pick Up",
    "date_created": "2023-09-27T16:42:11.000",
    "date_modified": "2023-09-27T16:42:12.000",
    "request_status": "Pending",
    "responsible_agency": "Department of Sanitation",
    "final_address": "7620 Fieldston Rd",
    "address_councildis": "E",
    "status": "Assigned to Contractor",
    "contractor": "Waste Pro",
    "rowid": "1038949",
    "final_x": "3700402.91389",
    "final_y": "560643.477278",
    "longitude": "-90.00731790817653",
    "latitude": "30.034986957425467",
    "geocoded_column": {
      "latitude": "30.034986957425467",
      "longitude": "-90.00731790817653"
    }
  },
  {
    "service_request": "2023-1038948",
    "request_type": "Property Maintenance",
    "request_reason": "Property Maintenance",
    "date_created": "2023-09-27T16:41:46.000",
    "date_modified": "2023-09-27T16:41:46.000",
    "request_status": "Pending",
    "responsible_agency": "Department of Code Enforcement",
    "final_address": "2117 N Robertson St",
    "address_councildis": "C",
    "status": "Pending",
    "rowid": "1038948",
    "final_x": "3684606.45679",
    "final_y": "537784.560072",
    "longitude": "-90.05804110592875",
    "latitude": "29.97262637668722",
    "geocoded_column": {
      "latitude": "29.97262637668722",
      "longitude": "-90.05804110592875"
    }
  },
  {
    "service_request": "2023-1038947",
    "request_type": "Trash/Recycling",
    "request_reason": "Order Trash Cart",
    "date_created": "2023-09-27T16:41:35.000",
    "date_modified": "2023-09-27T16:41:36.000",
    "request_status": "Pending",
    "responsible_agency": "Department of Sanitation",
    "final_address": "7035 Tullis Dr",
    "address_councildis": "C",
    "status": "Assigned to Contractor",
    "contractor": "Richards Disposal",
    "rowid": "1038947",
    "final_x": "3710077.67883",
    "final_y": "517089.721269",
    "longitude": "-89.97837197765529",
    "latitude": "29.914918928540004",
    "geocoded_column": {
      "latitude": "29.914918928540004",
      "longitude": "-89.97837197765529"
    }
  },
  {
    "service_request": "2023-1038946",
    "request_type": "Trash/Recycling",
    "request_reason": "Missed Trash Pick-Up",
    "date_created": "2023-09-27T16:40:12.000",
    "date_modified": "2023-09-27T17:05:16.000",
    "case_close_date": "2023-09-27T12:05:16.000",
    "request_status": "Closed",
    "responsible_agency": "Department of Sanitation",
    "final_address": "4801 Evangeline Dr",
    "address_councildis": "E",
    "status": "Invalid Request",
    "contractor": "Waste Pro",
    "contractor_action": "Invalid Pick-Up",
    "rowid": "1038946",
    "final_x": "3709140.2172",
    "final_y": "556112.342938",
    "longitude": "-89.97987605158069",
    "latitude": "30.022247206080003",
    "geocoded_column": {
      "latitude": "30.022247206080003",
      "longitude": "-89.97987605158069"
    }
  },
  {
    "service_request": "2023-1038945",
    "request_type": "Abandoned Vehicles",
    "request_reason": "Abandoned/Junk Vehicles",
    "date_created": "2023-09-27T16:39:35.000",
    "date_modified": "2023-09-27T16:39:35.000",
    "request_status": "Pending",
    "responsible_agency": "Department of Public Works",
    "status": "Pending",
    "rowid": "1038945",
    "longitude": "0.0",
    "latitude": "0.0",
    "geocoded_column": {
      "latitude": "0.0",
      "longitude": "0.0"
    }
  },
  {
    "service_request": "2023-1038944",
    "request_type": "Trash/Recycling",
    "request_reason": "Missed Trash Pick-Up",
    "date_created": "2023-09-27T16:39:25.000",
    "date_modified": "2023-09-27T16:39:25.000",
    "request_status": "Pending",
    "responsible_agency": "Department of Sanitation",
    "final_address": "2116 Burdette St",
    "address_councildis": "A",
    "status": "Assigned to Contractor",
    "contractor": "Richards Disposal",
    "rowid": "1038944",
    "final_x": "3665022.14682",
    "final_y": "530112.112001",
    "longitude": "-90.12014873843808",
    "latitude": "29.952114468803895",
    "geocoded_column": {
      "latitude": "29.952114468803895",
      "longitude": "-90.12014873843808"
    }
  },
  {
    "service_request": "2023-1038943",
    "request_type": "Property Maintenance",
    "request_reason": "Property Maintenance",
    "date_created": "2023-09-27T16:38:43.000",
    "date_modified": "2023-09-27T16:38:43.000",
    "request_status": "Pending",
    "responsible_agency": "Department of Code Enforcement",
    "final_address": "2131 Pauger St",
    "address_councildis": "C",
    "status": "Pending",
    "rowid": "1038943",
    "final_x": "3683792.57077",
    "final_y": "537580.338568",
    "longitude": "-90.06061866637422",
    "latitude": "29.972089720774434",
    "geocoded_column": {
      "latitude": "29.972089720774434",
      "longitude": "-90.06061866637422"
    }
  },
  {
    "service_request": "2023-1038942",
    "request_type": "Trash/Recycling",
    "request_reason": "Request a Large Item Pick Up",
    "date_created": "2023-09-27T16:38:15.000",
    "date_modified": "2023-09-27T16:38:16.000",
    "request_status": "Pending",
    "responsible_agency": "Department of Sanitation",
    "final_address": "3510 Livingston St",
    "address_councildis": "A",
    "status": "Assigned to Contractor",
    "contractor": "Richards Disposal",
    "rowid": "1038942",
    "final_x": "3663875.2512",
    "final_y": "537874.958153",
    "longitude": "-90.12351131396612",
    "latitude": "29.97349309281398",
    "geocoded_column": {
      "latitude": "29.97349309281398",
      "longitude": "-90.12351131396612"
    }
  },
  {
    "service_request": "2023-1038941",
    "request_type": "Property Maintenance",
    "request_reason": "Property Maintenance",
    "date_created": "2023-09-27T16:37:22.000",
    "date_modified": "2023-09-27T16:37:22.000",
    "request_status": "Pending",
    "responsible_agency": "Department of Code Enforcement",
    "final_address": "2127 Pauger St",
    "address_councildis": "C",
    "status": "Pending",
    "rowid": "1038941",
    "final_x": "3683849.82076",
    "final_y": "537556.492168",
    "longitude": "-90.06043869832793",
    "latitude": "29.972022402857796",
    "geocoded_column": {
      "latitude": "29.972022402857796",
      "longitude": "-90.06043869832793"
    }
  },
  {
    "service_request": "2023-1038940",
    "request_type": "Property Maintenance",
    "request_reason": "Property Maintenance",
    "date_created": "2023-09-27T16:37:02.000",
    "date_modified": "2023-09-27T16:37:02.000",
    "request_status": "Pending",
    "responsible_agency": "Department of Code Enforcement",
    "final_address": "1432 Touro St",
    "address_councildis": "C",
    "status": "Pending",
    "rowid": "1038940",
    "final_x": "3684097.95157",
    "final_y": "537611.196104",
    "longitude": "-90.05965314158549",
    "latitude": "29.972165238059002",
    "geocoded_column": {
      "latitude": "29.972165238059002",
      "longitude": "-90.05965314158549"
    }
  },
  {
    "service_request": "2023-1038939",
    "request_type": "Trash/Recycling",
    "request_reason": "Replace Trash Cart",
    "date_created": "2023-09-27T16:33:17.000",
    "date_modified": "2023-09-27T16:33:17.000",
    "request_status": "Pending",
    "responsible_agency": "Department of Sanitation",
    "final_address": "7724 Dominican St",
    "address_councildis": "A",
    "status": "Assigned to Contractor",
    "contractor": "Richards Disposal",
    "rowid": "1038939",
    "final_x": "3660956.46266",
    "final_y": "525441.609085",
    "longitude": "-90.13314080767398",
    "latitude": "29.939389811085764",
    "geocoded_column": {
      "latitude": "29.939389811085764",
      "longitude": "-90.13314080767398"
    }
  },
  {
    "service_request": "2023-1038938",
    "request_type": "Property Maintenance",
    "request_reason": "Property Maintenance",
    "date_created": "2023-09-27T16:31:32.000",
    "date_modified": "2023-09-27T16:31:32.000",
    "request_status": "Pending",
    "responsible_agency": "Department of Code Enforcement",
    "final_address": "2200 Pauger St",
    "address_councildis": "C",
    "status": "Pending",
    "rowid": "1038938",
    "final_x": "3683728.33557",
    "final_y": "537707.225992",
    "longitude": "-90.06081708112623",
    "latitude": "29.972440578756718",
    "geocoded_column": {
      "latitude": "29.972440578756718",
      "longitude": "-90.06081708112623"
    }
  },
  {
    "service_request": "2023-1038936",
    "request_type": "Property Maintenance",
    "request_reason": "Property Maintenance",
    "date_created": "2023-09-27T16:29:34.000",
    "date_modified": "2023-09-27T16:29:34.000",
    "request_status": "Pending",
    "responsible_agency": "Department of Code Enforcement",
    "final_address": "6011 Chamberlain Dr",
    "address_councildis": "D",
    "status": "Pending",
    "rowid": "1038936",
    "final_x": "3679385.40955",
    "final_y": "554540.980824",
    "longitude": "-90.07394848380592",
    "latitude": "30.018859356577934",
    "geocoded_column": {
      "latitude": "30.018859356577934",
      "longitude": "-90.07394848380592"
    }
  },
  {
    "service_request": "2023-1038935",
    "request_type": "Roads/Drainage",
    "request_reason": "Pothole",
    "date_created": "2023-09-27T16:27:31.000",
    "date_modified": "2023-09-27T16:27:31.000",
    "request_status": "Pending",
    "responsible_agency": "Department of Public Works",
    "final_address": "1128 Leboeuf St",
    "address_councildis": "C",
    "status": "Pending",
    "rowid": "1038935",
    "final_x": "3689785.34774",
    "final_y": "527147.528447",
    "longitude": "-90.0420638512203",
    "latitude": "29.94321872518187",
    "geocoded_column": {
      "latitude": "29.94321872518187",
      "longitude": "-90.0420638512203"
    }
  },
  {
    "service_request": "2023-1038934",
    "request_type": "Trash/Recycling",
    "request_reason": "Dead Animal Pick Up",
    "date_created": "2023-09-27T16:26:15.000",
    "date_modified": "2023-09-27T16:26:16.000",
    "request_status": "Pending",
    "responsible_agency": "Department of Sanitation",
    "final_address": "GENERAL DE GAULLE DR & WOODLAND HWY & WOODLAND DR & WOODLAND BRIDGE",
    "address_councildis": "C",
    "status": "Assigned to Contractor",
    "contractor": "Richards Disposal",
    "rowid": "1038934",
    "final_x": "3705400.3",
    "final_y": "514971.88",
    "longitude": "-89.99321351264551",
    "latitude": "29.90924684950023",
    "geocoded_column": {
      "latitude": "29.90924684950023",
      "longitude": "-89.99321351264551"
    }
  },
  {
    "service_request": "2023-1038933",
    "request_type": "Property Maintenance",
    "request_reason": "Property Maintenance",
    "date_created": "2023-09-27T16:24:49.000",
    "date_modified": "2023-09-27T16:24:49.000",
    "request_status": "Pending",
    "responsible_agency": "Department of Code Enforcement",
    "final_address": "2138 Pauger St",
    "address_councildis": "C",
    "status": "Pending",
    "rowid": "1038933",
    "final_x": "3683701.95279",
    "final_y": "537641.878344",
    "longitude": "-90.06090269427537",
    "latitude": "29.97226170104153",
    "geocoded_column": {
      "latitude": "29.97226170104153",
      "longitude": "-90.06090269427537"
    }
  },
  {
    "service_request": "2023-1038932",
    "request_type": "Trash/Recycling",
    "request_reason": "Order Recycling Cart",
    "date_created": "2023-09-27T16:24:06.000",
    "date_modified": "2023-09-27T16:24:07.000",
    "request_status": "Pending",
    "responsible_agency": "Department of Sanitation",
    "final_address": "2229 Valence St",
    "address_councildis": "B",
    "status": "Pending",
    "rowid": "1038932",
    "final_x": "3669595.98734",
    "final_y": "523147.127163",
    "longitude": "-90.10594221855766",
    "latitude": "29.932829069973195",
    "geocoded_column": {
      "latitude": "29.932829069973195",
      "longitude": "-90.10594221855766"
    }
  },
  {
    "service_request": "2023-1038931",
    "request_type": "Trash/Recycling",
    "request_reason": "Replace Trash Cart",
    "date_created": "2023-09-27T16:23:17.000",
    "date_modified": "2023-09-27T16:23:18.000",
    "request_status": "Pending",
    "responsible_agency": "Department of Sanitation",
    "final_address": "5150 Wilton Dr",
    "address_councildis": "D",
    "status": "Assigned to Contractor",
    "contractor": "IV Waste",
    "rowid": "1038931",
    "final_x": "3681868.02684",
    "final_y": "551386.704853",
    "longitude": "-90.06621451066518",
    "latitude": "30.010110983103274",
    "geocoded_column": {
      "latitude": "30.010110983103274",
      "longitude": "-90.06621451066518"
    }
  },
  {
    "service_request": "2023-1038930",
    "request_type": "Safety & Permits",
    "request_reason": "Licenses & Permits",
    "date_created": "2023-09-27T16:22:22.000",
    "date_modified": "2023-09-27T16:22:22.000",
    "request_status": "Pending",
    "responsible_agency": "Safety and Permits",
    "final_address": "7910 Earhart Blvd",
    "address_councildis": "B",
    "status": "Pending",
    "rowid": "1038930",
    "final_x": "3667005.87399",
    "final_y": "533034.124676",
    "longitude": "-90.11378683341556",
    "latitude": "29.960091146202156",
    "geocoded_column": {
      "latitude": "29.960091146202156",
      "longitude": "-90.11378683341556"
    }
  },
  {
    "service_request": "2023-1038929",
    "request_type": "Abandoned Vehicles",
    "request_reason": "Abandoned/Junk Vehicles",
    "date_created": "2023-09-27T16:19:55.000",
    "date_modified": "2023-09-27T16:19:55.000",
    "request_status": "Pending",
    "responsible_agency": "Department of Public Works",
    "final_address": "1816 N Robertson St",
    "address_councildis": "C",
    "status": "Pending",
    "rowid": "1038929",
    "final_x": "3683539.17749",
    "final_y": "537590.979464",
    "longitude": "-90.06141855008526",
    "latitude": "29.972126716027542",
    "geocoded_column": {
      "latitude": "29.972126716027542",
      "longitude": "-90.06141855008526"
    }
  },
  {
    "service_request": "2023-1038928",
    "request_type": "Trash/Recycling",
    "request_reason": "Request a Large Item Pick Up",
    "date_created": "2023-09-27T16:19:38.000",
    "date_modified": "2023-09-27T16:19:39.000",
    "request_status": "Pending",
    "responsible_agency": "Department of Sanitation",
    "final_address": "5150 Wilton Dr",
    "address_councildis": "D",
    "status": "Assigned to Contractor",
    "contractor": "IV Waste",
    "rowid": "1038928",
    "final_x": "3681868.02684",
    "final_y": "551386.704853",
    "longitude": "-90.06621451066518",
    "latitude": "30.010110983103274",
    "geocoded_column": {
      "latitude": "30.010110983103274",
      "longitude": "-90.06621451066518"
    }
  },
  {
    "service_request": "2023-1038927",
    "request_type": "Trash/Recycling",
    "request_reason": "Dead Animal Pick Up",
    "date_created": "2023-09-27T16:15:40.000",
    "date_modified": "2023-09-27T16:15:40.000",
    "request_status": "Pending",
    "responsible_agency": "Department of Sanitation",
    "final_address": "1236 Reynes St",
    "address_councildis": "E",
    "status": "Assigned to Contractor",
    "contractor": "Waste Pro",
    "rowid": "1038927",
    "final_x": "3696105.83056",
    "final_y": "534936.512198",
    "longitude": "-90.02182712990604",
    "latitude": "29.964438334740784",
    "geocoded_column": {
      "latitude": "29.964438334740784",
      "longitude": "-90.02182712990604"
    }
  },
  {
    "service_request": "2023-1038926",
    "request_type": "Trash/Recycling",
    "request_reason": "Request a Large Item Pick Up",
    "date_created": "2023-09-27T16:15:19.000",
    "date_modified": "2023-09-27T16:15:20.000",
    "request_status": "Pending",
    "responsible_agency": "Department of Sanitation",
    "final_address": "6323 Dauphine St",
    "address_councildis": "E",
    "status": "Assigned to Contractor",
    "contractor": "Waste Pro",
    "rowid": "1038926",
    "final_x": "3699874.26749",
    "final_y": "531919.388099",
    "longitude": "-90.01003680687974",
    "latitude": "29.956023181116528",
    "geocoded_column": {
      "latitude": "29.956023181116528",
      "longitude": "-90.01003680687974"
    }
  },
  {
    "service_request": "2023-1038925",
    "request_type": "Property Maintenance",
    "request_reason": "Property Maintenance",
    "date_created": "2023-09-27T16:14:02.000",
    "date_modified": "2023-09-27T16:14:03.000",
    "request_status": "Pending",
    "responsible_agency": "Department of Code Enforcement",
    "final_address": "7684 Shorewood Blvd",
    "address_councildis": "E",
    "status": "Pending",
    "rowid": "1038925",
    "final_x": "3719430.87039",
    "final_y": "572920.577065",
    "longitude": "-89.94671784741696",
    "latitude": "30.068124718100087",
    "geocoded_column": {
      "latitude": "30.068124718100087",
      "longitude": "-89.94671784741696"
    }
  },
  {
    "service_request": "2023-1038924",
    "request_type": "Property Maintenance",
    "request_reason": "Property Maintenance",
    "date_created": "2023-09-27T16:14:00.000",
    "date_modified": "2023-09-27T16:14:00.000",
    "request_status": "Pending",
    "responsible_agency": "Department of Code Enforcement",
    "final_address": "1501 St Anthony St",
    "address_councildis": "C",
    "status": "Pending",
    "rowid": "1038924",
    "final_x": "3683423.1853",
    "final_y": "537685.291528",
    "longitude": "-90.06178156692249",
    "latitude": "29.972389581251317",
    "geocoded_column": {
      "latitude": "29.972389581251317",
      "longitude": "-90.06178156692249"
    }
  },
  {
    "service_request": "2023-1038923",
    "request_type": "Trash/Recycling",
    "request_reason": "Illegal Dumping",
    "date_created": "2023-09-27T16:11:31.000",
    "date_modified": "2023-09-27T16:11:32.000",
    "request_status": "Pending",
    "responsible_agency": "Department of Sanitation",
    "final_address": "6659 Harbourview Dr",
    "address_councildis": "E",
    "status": "Pending",
    "rowid": "1038923",
    "final_x": "3699329.67824",
    "final_y": "556112.272026",
    "longitude": "-90.01087474475604",
    "latitude": "30.022561992681663",
    "geocoded_column": {
      "latitude": "30.022561992681663",
      "longitude": "-90.01087474475604"
    }
  },
  {
    "service_request": "2023-1038922",
    "request_type": "Abandoned Vehicles",
    "request_reason": "Vehicle Blocking Your Driveway",
    "date_created": "2023-09-27T16:10:09.000",
    "date_modified": "2023-09-27T16:10:09.000",
    "request_status": "Pending",
    "responsible_agency": "Department of Public Works",
    "final_address": "7113 Barrington Ct",
    "address_councildis": "E",
    "status": "Pending",
    "rowid": "1038922",
    "final_x": "3713977.05483",
    "final_y": "565261.965986",
    "longitude": "-89.96424757488111",
    "latitude": "30.04724702642408",
    "geocoded_column": {
      "latitude": "30.04724702642408",
      "longitude": "-89.96424757488111"
    }
  },
  {
    "service_request": "2023-1038921",
    "request_type": "Property Maintenance",
    "request_reason": "Property Maintenance",
    "date_created": "2023-09-27T16:09:04.000",
    "date_modified": "2023-09-27T16:09:04.000",
    "request_status": "Pending",
    "responsible_agency": "Department of Code Enforcement",
    "final_address": "1438 St Anthony St",
    "address_councildis": "C",
    "status": "Pending",
    "rowid": "1038921",
    "final_x": "3683332.29474",
    "final_y": "537614.838536",
    "longitude": "-90.06207108338947",
    "latitude": "29.972198633033937",
    "geocoded_column": {
      "latitude": "29.972198633033937",
      "longitude": "-90.06207108338947"
    }
  },
  {
    "service_request": "2023-1038920",
    "request_type": "Trash/Recycling",
    "request_reason": "Missed Trash Pick-Up",
    "date_created": "2023-09-27T16:06:13.000",
    "date_modified": "2023-09-27T16:06:14.000",
    "request_status": "Pending",
    "responsible_agency": "Department of Sanitation",
    "final_address": "6207 Memphis St",
    "address_councildis": "A",
    "status": "Assigned to Contractor",
    "contractor": "IV Waste",
    "rowid": "1038920",
    "final_x": "3669379.9842",
    "final_y": "548664.520723",
    "longitude": "-90.10576110033749",
    "latitude": "30.00299973751752",
    "geocoded_column": {
      "latitude": "30.00299973751752",
      "longitude": "-90.10576110033749"
    }
  },
  {
    "service_request": "2023-1038919",
    "request_type": "Trash/Recycling",
    "request_reason": "Illegal Dumping",
    "date_created": "2023-09-27T16:05:06.000",
    "date_modified": "2023-09-27T16:07:15.000",
    "request_status": "Pending",
    "responsible_agency": "Department of Code Enforcement",
    "final_address": "610 S Scott St",
    "address_councildis": "B",
    "status": "Pending",
    "rowid": "1038919",
    "final_x": "3670537.9531",
    "final_y": "536130.730887",
    "longitude": "-90.10252822201873",
    "latitude": "29.968501940572175",
    "geocoded_column": {
      "latitude": "29.968501940572175",
      "longitude": "-90.10252822201873"
    }
  },
  {
    "service_request": "2023-1038918",
    "request_type": "Property Maintenance",
    "request_reason": "Property Maintenance",
    "date_created": "2023-09-27T16:04:02.000",
    "date_modified": "2023-09-27T16:04:02.000",
    "request_status": "Pending",
    "responsible_agency": "Department of Code Enforcement",
    "final_address": "1432 Annette St",
    "address_councildis": "C",
    "status": "Pending",
    "rowid": "1038918",
    "final_x": "3682952.76508",
    "final_y": "537517.173832",
    "longitude": "-90.06327311943123",
    "latitude": "29.97194166154462",
    "geocoded_column": {
      "latitude": "29.97194166154462",
      "longitude": "-90.06327311943123"
    }
  },
  {
    "service_request": "2023-1038917",
    "request_type": "Trash/Recycling",
    "request_reason": "Request a Large Item Pick Up",
    "date_created": "2023-09-27T16:03:33.000",
    "date_modified": "2023-09-27T16:03:34.000",
    "request_status": "Pending",
    "responsible_agency": "Department of Sanitation",
    "final_address": "9660 River Rd",
    "address_councildis": "C",
    "status": "Assigned to Contractor",
    "contractor": "Richards Disposal",
    "rowid": "1038917",
    "final_x": "3721065.8533",
    "final_y": "518397.886966",
    "longitude": "-89.94363976561793",
    "latitude": "29.918154061690394",
    "geocoded_column": {
      "latitude": "29.918154061690394",
      "longitude": "-89.94363976561793"
    }
  },
  {
    "service_request": "2023-1038916",
    "request_type": "Trash/Recycling",
    "request_reason": "MIssed Recycling Pick-Up",
    "date_created": "2023-09-27T16:03:18.000",
    "date_modified": "2023-09-27T16:03:18.000",
    "request_status": "Pending",
    "responsible_agency": "Department of Sanitation",
    "final_address": "5910 Wright Rd",
    "address_councildis": "E",
    "status": "Assigned to Contractor",
    "contractor": "Waste Pro",
    "rowid": "1038916",
    "final_x": "3713587.06853",
    "final_y": "561839.067039",
    "longitude": "-89.96560926155733",
    "latitude": "30.037848242391348",
    "geocoded_column": {
      "latitude": "30.037848242391348",
      "longitude": "-89.96560926155733"
    }
  },
  {
    "service_request": "2023-1038915",
    "request_type": "Traffic Signals/Signs/Striping/Streetlights",
    "request_reason": "Street Light Outage/Malfunction",
    "date_created": "2023-09-27T16:01:57.000",
    "date_modified": "2023-09-27T16:01:58.000",
    "request_status": "Pending",
    "responsible_agency": "Department of Public Works",
    "final_address": "8331 Belfast St",
    "address_councildis": "A",
    "status": "Assigned to Contractor",
    "contractor": "Legacy Professional Services",
    "rowid": "1038915",
    "final_x": "3664881.64512",
    "final_y": "533068.74522",
    "longitude": "-90.12049356353043",
    "latitude": "29.960248336733308",
    "geocoded_column": {
      "latitude": "29.960248336733308",
      "longitude": "-90.12049356353043"
    }
  },
  {
    "service_request": "2023-1038914",
    "request_type": "Trash/Recycling",
    "request_reason": "Order Trash Cart",
    "date_created": "2023-09-27T16:00:05.000",
    "date_modified": "2023-09-27T16:00:06.000",
    "request_status": "Pending",
    "responsible_agency": "Department of Sanitation",
    "final_address": "4631 Bright Dr",
    "address_councildis": "E",
    "status": "Assigned to Contractor",
    "contractor": "Waste Pro",
    "rowid": "1038914",
    "final_x": "3715933.88914",
    "final_y": "556503.008154",
    "longitude": "-89.95839516118839",
    "latitude": "30.02309898338429",
    "geocoded_column": {
      "latitude": "30.02309898338429",
      "longitude": "-89.95839516118839"
    }
  },
  {
    "service_request": "2023-1038913",
    "request_type": "Property Maintenance",
    "request_reason": "Property Maintenance",
    "date_created": "2023-09-27T15:58:36.000",
    "date_modified": "2023-09-27T15:58:36.000",
    "request_status": "Pending",
    "responsible_agency": "Department of Code Enforcement",
    "final_address": "1419 Annette St",
    "address_councildis": "C",
    "status": "Pending",
    "rowid": "1038913",
    "final_x": "3683131.93256",
    "final_y": "537438.336648",
    "longitude": "-90.06271004141942",
    "latitude": "29.97171942484932",
    "geocoded_column": {
      "latitude": "29.97171942484932",
      "longitude": "-90.06271004141942"
    }
  },
  {
    "service_request": "2023-1038912",
    "request_type": "Trash/Recycling",
    "request_reason": "Replace Trash Cart",
    "date_created": "2023-09-27T15:57:56.000",
    "date_modified": "2023-09-27T15:57:57.000",
    "request_status": "Pending",
    "responsible_agency": "Department of Sanitation",
    "final_address": "701 Pine St",
    "address_councildis": "A",
    "status": "Assigned to Contractor",
    "contractor": "Richards Disposal",
    "rowid": "1038912",
    "final_x": "3663014.34407",
    "final_y": "525239.945277",
    "longitude": "-90.12665048145074",
    "latitude": "29.938775870191222",
    "geocoded_column": {
      "latitude": "29.938775870191222",
      "longitude": "-90.12665048145074"
    }
  },
  {
    "service_request": "2023-1038911",
    "request_type": "Trash/Recycling",
    "request_reason": "Repair Trash Cart",
    "date_created": "2023-09-27T15:57:13.000",
    "date_modified": "2023-09-27T15:57:14.000",
    "request_status": "Pending",
    "responsible_agency": "Department of Sanitation",
    "final_address": "1716 S Salcedo St",
    "address_councildis": "B",
    "status": "Assigned to Contractor",
    "contractor": "Richards Disposal",
    "rowid": "1038911",
    "final_x": "3670139.05191",
    "final_y": "530337.647746",
    "longitude": "-90.10398425793532",
    "latitude": "29.952584659009336",
    "geocoded_column": {
      "latitude": "29.952584659009336",
      "longitude": "-90.10398425793532"
    }
  },
  {
    "service_request": "2023-1038909",
    "request_type": "Roads/Drainage",
    "request_reason": "Street Subsidence (Sinking)",
    "date_created": "2023-09-27T15:54:54.000",
    "date_modified": "2023-09-27T15:54:54.000",
    "request_status": "Pending",
    "responsible_agency": "Department of Public Works",
    "final_address": "400 BLK Bellecastle St",
    "address_councildis": "B",
    "status": "Pending",
    "rowid": "1038909",
    "final_x": "3667642.39991",
    "final_y": "517059.892833",
    "longitude": "-90.11231434250581",
    "latitude": "29.916148496399543",
    "geocoded_column": {
      "latitude": "29.916148496399543",
      "longitude": "-90.11231434250581"
    }
  },
  {
    "service_request": "2023-1038908",
    "request_type": "Trash/Recycling",
    "request_reason": "Request a Large Item Pick Up",
    "date_created": "2023-09-27T15:54:14.000",
    "date_modified": "2023-09-27T15:54:15.000",
    "request_status": "Pending",
    "responsible_agency": "Department of Sanitation",
    "final_address": "5000 Sierra Madre Dr",
    "address_councildis": "E",
    "status": "Assigned to Contractor",
    "contractor": "Waste Pro",
    "rowid": "1038908",
    "final_x": "3713711.18002",
    "final_y": "557682.218843",
    "longitude": "-89.96537387409685",
    "latitude": "30.026414494462117",
    "geocoded_column": {
      "latitude": "30.026414494462117",
      "longitude": "-89.96537387409685"
    }
  },
  {
    "service_request": "2023-1038907",
    "request_type": "Traffic Signals/Signs/Striping/Streetlights",
    "request_reason": "Additional signage",
    "date_created": "2023-09-27T15:53:01.000",
    "date_modified": "2023-09-27T15:53:02.000",
    "request_status": "Pending",
    "responsible_agency": "Department of Public Works",
    "final_address": "FILMORE ST & EADS ST & DEMONTLUZIN ST",
    "address_councildis": "D",
    "status": "Pending",
    "rowid": "1038907",
    "final_x": "3686986.5",
    "final_y": "552568.48",
    "longitude": "-90.0500015873329",
    "latitude": "30.013203802740385",
    "geocoded_column": {
      "latitude": "30.013203802740385",
      "longitude": "-90.0500015873329"
    }
  },
  {
    "service_request": "2023-1038906",
    "request_type": "Trash/Recycling",
    "request_reason": "Return Trash Cart",
    "date_created": "2023-09-27T15:51:56.000",
    "date_modified": "2023-09-27T15:51:57.000",
    "request_status": "Pending",
    "responsible_agency": "Department of Sanitation",
    "final_address": "702 River Oaks Dr",
    "address_councildis": "C",
    "status": "Assigned to Contractor",
    "contractor": "Richards Disposal",
    "rowid": "1038906",
    "final_x": "3701522.6209",
    "final_y": "520052.737016",
    "longitude": "-90.00526620688225",
    "latitude": "29.92334160145821",
    "geocoded_column": {
      "latitude": "29.92334160145821",
      "longitude": "-90.00526620688225"
    }
  },
  {
    "service_request": "2023-1038905",
    "request_type": "Roads/Drainage",
    "request_reason": "Pothole",
    "date_created": "2023-09-27T15:47:34.000",
    "date_modified": "2023-09-27T15:47:34.000",
    "request_status": "Pending",
    "responsible_agency": "Department of Public Works",
    "final_address": "1421 Constantinople St",
    "address_councildis": "B",
    "status": "Pending",
    "rowid": "1038905",
    "final_x": "3672433.24257",
    "final_y": "520667.657465",
    "longitude": "-90.09706965638372",
    "latitude": "29.925927453713577",
    "geocoded_column": {
      "latitude": "29.925927453713577",
      "longitude": "-90.09706965638372"
    }
  },
  {
    "service_request": "2023-1038904",
    "request_type": "Abandoned Vehicles",
    "request_reason": "Abandoned/Junk Vehicles",
    "date_created": "2023-09-27T15:44:16.000",
    "date_modified": "2023-09-27T15:44:17.000",
    "request_status": "Pending",
    "responsible_agency": "Department of Public Works",
    "final_address": "1001 Piety St",
    "address_councildis": "C",
    "status": "Pending",
    "rowid": "1038904",
    "final_x": "3689759.09577",
    "final_y": "535381.913606",
    "longitude": "-90.04185371096344",
    "latitude": "29.965861251043332",
    "geocoded_column": {
      "latitude": "29.965861251043332",
      "longitude": "-90.04185371096344"
    }
  },
  {
    "service_request": "2023-1038903",
    "request_type": "Trash/Recycling",
    "request_reason": "Request a Large Item Pick Up",
    "date_created": "2023-09-27T15:43:40.000",
    "date_modified": "2023-09-27T15:43:41.000",
    "request_status": "Pending",
    "responsible_agency": "Department of Sanitation",
    "final_address": "2226 Burgundy St",
    "address_councildis": "C",
    "status": "Assigned to Contractor",
    "contractor": "IV Waste",
    "rowid": "1038903",
    "final_x": "3685343.30722",
    "final_y": "535574.711238",
    "longitude": "-90.05579181515296",
    "latitude": "29.966527490566225",
    "geocoded_column": {
      "latitude": "29.966527490566225",
      "longitude": "-90.05579181515296"
    }
  },
  {
    "service_request": "2023-1038902",
    "request_type": "Trash/Recycling",
    "request_reason": "Order Recycling Cart",
    "date_created": "2023-09-27T15:39:33.000",
    "date_modified": "2023-09-27T15:39:34.000",
    "request_status": "Pending",
    "responsible_agency": "Department of Sanitation",
    "final_address": "6766 Marshal Foch St",
    "address_councildis": "A",
    "status": "Pending",
    "rowid": "1038902",
    "final_x": "3670238.8482",
    "final_y": "552410.020374",
    "longitude": "-90.10292075907677",
    "latitude": "30.013273218268573",
    "geocoded_column": {
      "latitude": "30.013273218268573",
      "longitude": "-90.10292075907677"
    }
  },
  {
    "service_request": "2023-1038901",
    "request_type": "Trash/Recycling",
    "request_reason": "Repair Trash Cart",
    "date_created": "2023-09-27T15:38:07.000",
    "date_modified": "2023-09-27T15:38:08.000",
    "request_status": "Pending",
    "responsible_agency": "Department of Sanitation",
    "final_address": "8621 Palm St",
    "address_councildis": "A",
    "status": "Assigned to Contractor",
    "contractor": "Richards Disposal",
    "rowid": "1038901",
    "final_x": "3666292.97434",
    "final_y": "536060.753671",
    "longitude": "-90.11593648300584",
    "latitude": "29.968434221178466",
    "geocoded_column": {
      "latitude": "29.968434221178466",
      "longitude": "-90.11593648300584"
    }
  },
  {
    "service_request": "2023-1038900",
    "request_type": "Trash/Recycling",
    "request_reason": "Missed Trash Pick-Up",
    "date_created": "2023-09-27T15:38:06.000",
    "date_modified": "2023-09-27T15:38:07.000",
    "request_status": "Pending",
    "responsible_agency": "Department of Sanitation",
    "final_address": "7141 Beauvoir Ct",
    "address_councildis": "E",
    "status": "Assigned to Contractor",
    "contractor": "Waste Pro",
    "rowid": "1038900",
    "final_x": "3716448.68568",
    "final_y": "567630.547556",
    "longitude": "-89.9563460039373",
    "latitude": "30.053678222282418",
    "geocoded_column": {
      "latitude": "30.053678222282418",
      "longitude": "-89.9563460039373"
    }
  },
  {
    "service_request": "2023-1038899",
    "request_type": "Roads/Drainage",
    "request_reason": "Pothole",
    "date_created": "2023-09-27T15:36:56.000",
    "date_modified": "2023-09-27T15:36:56.000",
    "request_status": "Pending",
    "responsible_agency": "Department of Public Works",
    "final_address": "1423 General Pershing St",
    "address_councildis": "B",
    "status": "Pending",
    "rowid": "1038899",
    "final_x": "3671330.69185",
    "final_y": "520571.244024",
    "longitude": "-90.1005533659415",
    "latitude": "29.925695010510914",
    "geocoded_column": {
      "latitude": "29.925695010510914",
      "longitude": "-90.1005533659415"
    }
  },
  {
    "service_request": "2023-1038898",
    "request_type": "Roads/Drainage",
    "request_reason": "Pothole",
    "date_created": "2023-09-27T15:35:25.000",
    "date_modified": "2023-09-27T15:35:25.000",
    "request_status": "Pending",
    "responsible_agency": "Department of Public Works",
    "final_address": "2715 N Claiborne Ave",
    "address_councildis": "D",
    "status": "Pending",
    "rowid": "1038898",
    "final_x": "3688045.59855",
    "final_y": "538280.571209",
    "longitude": "-90.04716211621383",
    "latitude": "29.973884536799815",
    "geocoded_column": {
      "latitude": "29.973884536799815",
      "longitude": "-90.04716211621383"
    }
  },
  {
    "service_request": "2023-1038897",
    "request_type": "EMS",
    "request_reason": "EMS General",
    "date_created": "2023-09-27T15:35:11.000",
    "date_modified": "2023-09-27T15:35:11.000",
    "request_status": "Pending",
    "responsible_agency": "Emergency Medical Services",
    "final_address": " & FOREST ISLE DR",
    "address_councildis": "C",
    "status": "Pending",
    "rowid": "1038897",
    "final_x": "3705876.93",
    "final_y": "512778.89",
    "longitude": "-89.99179023228741",
    "latitude": "29.903201541007117",
    "geocoded_column": {
      "latitude": "29.903201541007117",
      "longitude": "-89.99179023228741"
    }
  },
  {
    "service_request": "2023-1038896",
    "request_type": "Trash/Recycling",
    "request_reason": "Order Recycling Cart",
    "date_created": "2023-09-27T15:32:52.000",
    "date_modified": "2023-09-27T15:32:52.000",
    "request_status": "Pending",
    "responsible_agency": "Department of Sanitation",
    "final_address": "11325 Curran Rd",
    "address_councildis": "E",
    "status": "Pending",
    "rowid": "1038896",
    "final_x": "3711257.37259",
    "final_y": "566686.607075",
    "longitude": "-89.9727897048572",
    "latitude": "30.05125328291266",
    "geocoded_column": {
      "latitude": "30.05125328291266",
      "longitude": "-89.9727897048572"
    }
  },
  {
    "service_request": "2023-1038895",
    "request_type": "Roads/Drainage",
    "request_reason": "Pothole",
    "date_created": "2023-09-27T15:29:01.000",
    "date_modified": "2023-09-27T15:29:01.000",
    "request_status": "Pending",
    "responsible_agency": "Department of Public Works",
    "final_address": "4216 Chestnut St",
    "address_councildis": "B",
    "status": "Pending",
    "rowid": "1038895",
    "final_x": "3671574.31393",
    "final_y": "519539.203703",
    "longitude": "-90.09981939416457",
    "latitude": "29.922850019854593",
    "geocoded_column": {
      "latitude": "29.922850019854593",
      "longitude": "-90.09981939416457"
    }
  },
  {
    "service_request": "2023-1038894",
    "request_type": "Trash/Recycling",
    "request_reason": "Replace Trash Cart",
    "date_created": "2023-09-27T15:25:25.000",
    "date_modified": "2023-09-27T15:25:26.000",
    "request_status": "Pending",
    "responsible_agency": "Department of Sanitation",
    "final_address": "11325 Curran Rd",
    "address_councildis": "E",
    "status": "Assigned to Contractor",
    "contractor": "Waste Pro",
    "rowid": "1038894",
    "final_x": "3711257.37259",
    "final_y": "566686.607075",
    "longitude": "-89.9727897048572",
    "latitude": "30.05125328291266",
    "geocoded_column": {
      "latitude": "30.05125328291266",
      "longitude": "-89.9727897048572"
    }
  },
  {
    "service_request": "2023-1038893",
    "request_type": "Trash/Recycling",
    "request_reason": "Order Recycling Cart",
    "date_created": "2023-09-27T15:22:10.000",
    "date_modified": "2023-09-27T15:22:10.000",
    "request_status": "Pending",
    "responsible_agency": "Department of Sanitation",
    "final_address": "1221 First St",
    "address_councildis": "B",
    "status": "Pending",
    "rowid": "1038893",
    "final_x": "3677813.44706",
    "final_y": "521963.356538",
    "longitude": "-90.08004119600417",
    "latitude": "29.929329495303293",
    "geocoded_column": {
      "latitude": "29.929329495303293",
      "longitude": "-90.08004119600417"
    }
  },
  {
    "service_request": "2023-1038892",
    "request_type": "Abandoned Vehicles",
    "request_reason": "Abandoned/Junk Vehicles",
    "date_created": "2023-09-27T15:21:20.000",
    "date_modified": "2023-09-27T15:21:20.000",
    "request_status": "Pending",
    "responsible_agency": "Department of Public Works",
    "final_address": "2821 Jackson Ave",
    "address_councildis": "B",
    "status": "Pending",
    "rowid": "1038892",
    "final_x": "3674761.07182",
    "final_y": "527501.452543",
    "longitude": "-90.0894872034512",
    "latitude": "29.944648898799834",
    "geocoded_column": {
      "latitude": "29.944648898799834",
      "longitude": "-90.0894872034512"
    }
  },
  {
    "service_request": "2023-1038891",
    "request_type": "Roads/Drainage",
    "request_reason": "Pothole",
    "date_created": "2023-09-27T15:20:26.000",
    "date_modified": "2023-09-27T15:20:26.000",
    "request_status": "Pending",
    "responsible_agency": "Department of Public Works",
    "final_address": "1315 Peniston St",
    "address_councildis": "B",
    "status": "Pending",
    "rowid": "1038891",
    "final_x": "3673101.31451",
    "final_y": "520423.11276",
    "longitude": "-90.09496908964098",
    "latitude": "29.925235197927364",
    "geocoded_column": {
      "latitude": "29.925235197927364",
      "longitude": "-90.09496908964098"
    }
  },
  {
    "service_request": "2023-1038890",
    "request_type": "Trash/Recycling",
    "request_reason": "Replace Trash Cart",
    "date_created": "2023-09-27T15:19:04.000",
    "date_modified": "2023-09-27T15:19:05.000",
    "request_status": "Pending",
    "responsible_agency": "Department of Sanitation",
    "final_address": "1221 First St",
    "address_councildis": "B",
    "status": "Assigned to Contractor",
    "contractor": "Richards Disposal",
    "rowid": "1038890",
    "final_x": "3677813.44706",
    "final_y": "521963.356538",
    "longitude": "-90.08004119600417",
    "latitude": "29.929329495303293",
    "geocoded_column": {
      "latitude": "29.929329495303293",
      "longitude": "-90.08004119600417"
    }
  },
  {
    "service_request": "2023-1038889",
    "request_type": "Trash/Recycling",
    "request_reason": "Request a Large Item Pick Up",
    "date_created": "2023-09-27T15:16:02.000",
    "date_modified": "2023-09-27T15:16:02.000",
    "request_status": "Pending",
    "responsible_agency": "Department of Sanitation",
    "final_address": "7617 Dogwood Dr",
    "address_councildis": "E",
    "status": "Assigned to Contractor",
    "contractor": "Waste Pro",
    "rowid": "1038889",
    "final_x": "3701347.7377",
    "final_y": "561070.971486",
    "longitude": "-90.00431646798161",
    "latitude": "30.036132302018615",
    "geocoded_column": {
      "latitude": "30.036132302018615",
      "longitude": "-90.00431646798161"
    }
  },
  {
    "service_request": "2023-1038887",
    "request_type": "Roads/Drainage",
    "request_reason": "Pothole",
    "date_created": "2023-09-27T15:12:55.000",
    "date_modified": "2023-09-27T15:12:55.000",
    "request_status": "Pending",
    "responsible_agency": "Department of Public Works",
    "final_address": "1312 Milan St",
    "address_councildis": "B",
    "status": "Pending",
    "rowid": "1038887",
    "final_x": "3671625.82823",
    "final_y": "520286.919608",
    "longitude": "-90.09963137110304",
    "latitude": "29.92490447494246",
    "geocoded_column": {
      "latitude": "29.92490447494246",
      "longitude": "-90.09963137110304"
    }
  },
  {
    "service_request": "2023-1038886",
    "request_type": "Traffic Signals/Signs/Striping/Streetlights",
    "request_reason": "Additional signage",
    "date_created": "2023-09-27T15:10:35.000",
    "date_modified": "2023-09-27T15:10:36.000",
    "request_status": "Pending",
    "responsible_agency": "Department of Public Works",
    "final_address": "715 Opelousas Ave",
    "address_councildis": "C",
    "status": "Pending",
    "rowid": "1038886",
    "final_x": "3687653.84406",
    "final_y": "529001.158656",
    "longitude": "-90.0487279158485",
    "latitude": "29.948381452620364",
    "geocoded_column": {
      "latitude": "29.948381452620364",
      "longitude": "-90.0487279158485"
    }
  },
  {
    "service_request": "2023-1038884",
    "request_type": "Roads/Drainage",
    "request_reason": "Pothole",
    "date_created": "2023-09-27T15:06:21.000",
    "date_modified": "2023-09-27T15:06:21.000",
    "request_status": "Pending",
    "responsible_agency": "Department of Public Works",
    "final_address": "Homedale Street & Woodlawn Place",
    "address_councildis": "A",
    "status": "Pending",
    "rowid": "1038884",
    "final_x": "3667484.14317",
    "final_y": "544642.397071",
    "longitude": "-90.11188580467254",
    "latitude": "29.991995993712408",
    "geocoded_column": {
      "latitude": "29.991995993712408",
      "longitude": "-90.11188580467254"
    }
  },
  {
    "service_request": "2023-1038883",
    "request_type": "Trash/Recycling",
    "request_reason": "Replace Trash Cart",
    "date_created": "2023-09-27T15:04:17.000",
    "date_modified": "2023-09-27T15:04:18.000",
    "request_status": "Pending",
    "responsible_agency": "Department of Sanitation",
    "final_address": "2520 De Soto St",
    "address_councildis": "D",
    "status": "Assigned to Contractor",
    "contractor": "IV Waste",
    "rowid": "1038883",
    "final_x": "3678524.46229",
    "final_y": "539031.031626",
    "longitude": "-90.07720600082457",
    "latitude": "29.976238470131733",
    "geocoded_column": {
      "latitude": "29.976238470131733",
      "longitude": "-90.07720600082457"
    }
  },
  {
    "service_request": "2023-1038882",
    "request_type": "Trash/Recycling",
    "request_reason": "Replace Trash Cart",
    "date_created": "2023-09-27T15:03:34.000",
    "date_modified": "2023-09-27T15:03:35.000",
    "request_status": "Pending",
    "responsible_agency": "Department of Sanitation",
    "final_address": "2521 Bell St",
    "address_councildis": "D",
    "status": "Assigned to Contractor",
    "contractor": "IV Waste",
    "rowid": "1038882",
    "final_x": "3678504.97019",
    "final_y": "538984.944906",
    "longitude": "-90.07726915823811",
    "latitude": "29.976112335074973",
    "geocoded_column": {
      "latitude": "29.976112335074973",
      "longitude": "-90.07726915823811"
    }
  },
  {
    "service_request": "2023-1038881",
    "request_type": "Trash/Recycling",
    "request_reason": "Request a Large Item Pick Up",
    "date_created": "2023-09-27T15:03:07.000",
    "date_modified": "2023-09-27T15:03:08.000",
    "request_status": "Pending",
    "responsible_agency": "Department of Sanitation",
    "final_address": "812 Gordon St",
    "address_councildis": "E",
    "status": "Assigned to Contractor",
    "contractor": "Waste Pro",
    "rowid": "1038881",
    "final_x": "3698746.83082",
    "final_y": "532553.373508",
    "longitude": "-90.01357378554702",
    "latitude": "29.95780216986689",
    "geocoded_column": {
      "latitude": "29.95780216986689",
      "longitude": "-90.01357378554702"
    }
  },
  {
    "service_request": "2023-1038880",
    "request_type": "Abandoned Vehicles",
    "request_reason": "Abandoned/Junk Vehicles",
    "date_created": "2023-09-27T15:01:15.000",
    "date_modified": "2023-09-27T15:01:15.000",
    "request_status": "Pending",
    "responsible_agency": "Department of Public Works",
    "final_address": "436 Arabella St",
    "address_councildis": "A",
    "status": "Pending",
    "rowid": "1038880",
    "final_x": "3665559.79828",
    "final_y": "517884.10367",
    "longitude": "-90.1188603097307",
    "latitude": "29.91847567681843",
    "geocoded_column": {
      "latitude": "29.91847567681843",
      "longitude": "-90.1188603097307"
    }
  },
  {
    "service_request": "2023-1038879",
    "request_type": "Trash/Recycling",
    "request_reason": "Request a Large Item Pick Up",
    "date_created": "2023-09-27T14:58:15.000",
    "date_modified": "2023-09-27T14:58:15.000",
    "request_status": "Pending",
    "responsible_agency": "Department of Sanitation",
    "final_address": "825 Gordon St",
    "address_councildis": "E",
    "status": "Assigned to Contractor",
    "contractor": "Waste Pro",
    "rowid": "1038879",
    "final_x": "3698844.8088",
    "final_y": "532591.830596",
    "longitude": "-90.01326300209053",
    "latitude": "29.957904809880123",
    "geocoded_column": {
      "latitude": "29.957904809880123",
      "longitude": "-90.01326300209053"
    }
  },
  {
    "service_request": "2023-1038877",
    "request_type": "Parks & Parkways",
    "request_reason": "Request Tree Service (Right of Way/Public Property)",
    "date_created": "2023-09-27T14:56:21.000",
    "date_modified": "2023-09-27T14:56:21.000",
    "request_status": "Pending",
    "responsible_agency": "Department of Parks & Parkway",
    "final_address": "5150 Wilton Dr",
    "address_councildis": "D",
    "status": "Pending",
    "rowid": "1038877",
    "final_x": "3681868.02684",
    "final_y": "551386.704853",
    "longitude": "-90.06621451066518",
    "latitude": "30.010110983103274",
    "geocoded_column": {
      "latitude": "30.010110983103274",
      "longitude": "-90.06621451066518"
    }
  },
  {
    "service_request": "2023-1038876",
    "request_type": "Trash/Recycling",
    "request_reason": "Request a Large Item Pick Up",
    "date_created": "2023-09-27T14:52:36.000",
    "date_modified": "2023-09-27T14:52:37.000",
    "request_status": "Pending",
    "responsible_agency": "Department of Sanitation",
    "final_address": "7807 Henley St",
    "address_councildis": "E",
    "status": "Assigned to Contractor",
    "contractor": "Waste Pro",
    "rowid": "1038876",
    "final_x": "3696758.77623",
    "final_y": "559781.390749",
    "longitude": "-90.01886514566203",
    "latitude": "30.03273200346746",
    "geocoded_column": {
      "latitude": "30.03273200346746",
      "longitude": "-90.01886514566203"
    }
  },
  {
    "service_request": "2023-1038875",
    "request_type": "Mosquito, Termite & Rodent Control",
    "request_reason": "Non-Rodent Complaint (Mice, Possums, Snakes)",
    "date_created": "2023-09-27T14:52:32.000",
    "date_modified": "2023-09-27T14:52:32.000",
    "request_status": "Pending",
    "responsible_agency": "Mosquito, Termite & Rodent Control Board",
    "final_address": "4636 Press Dr",
    "address_councildis": "D",
    "status": "Pending",
    "rowid": "1038875",
    "final_x": "3689585.09839",
    "final_y": "550315.735444",
    "longitude": "-90.0418716477807",
    "latitude": "30.00692930273803",
    "geocoded_column": {
      "latitude": "30.00692930273803",
      "longitude": "-90.0418716477807"
    }
  },
  {
    "service_request": "2023-1038874",
    "request_type": "Mosquito, Termite & Rodent Control",
    "request_reason": "Non-Rodent Complaint (Mice, Possums, Snakes)",
    "date_created": "2023-09-27T14:49:13.000",
    "date_modified": "2023-09-27T14:49:13.000",
    "request_status": "Pending",
    "responsible_agency": "Mosquito, Termite & Rodent Control Board",
    "final_address": "4644 St Ferdinand Dr",
    "address_councildis": "D",
    "status": "Pending",
    "rowid": "1038874",
    "final_x": "3689341.83817",
    "final_y": "550272.238996",
    "longitude": "-90.04264171754292",
    "latitude": "30.00681724003911",
    "geocoded_column": {
      "latitude": "30.00681724003911",
      "longitude": "-90.04264171754292"
    }
  },
  {
    "service_request": "2023-1038873",
    "request_type": "Trash/Recycling",
    "request_reason": "Replace Trash Cart",
    "date_created": "2023-09-27T14:40:13.000",
    "date_modified": "2023-09-27T14:40:13.000",
    "request_status": "Pending",
    "responsible_agency": "Department of Sanitation",
    "final_address": "1920 Bienville Ave",
    "address_councildis": "B",
    "status": "Assigned to Contractor",
    "contractor": "Richards Disposal",
    "rowid": "1038873",
    "final_x": "3678114.04834",
    "final_y": "533916.333189",
    "longitude": "-90.07867908777494",
    "latitude": "29.962187161395327",
    "geocoded_column": {
      "latitude": "29.962187161395327",
      "longitude": "-90.07867908777494"
    }
  },
  {
    "service_request": "2023-1038872",
    "request_type": "Traffic Signals/Signs/Striping/Streetlights",
    "request_reason": "Street Light Outage/Malfunction",
    "date_created": "2023-09-27T14:38:17.000",
    "date_modified": "2023-09-27T14:38:18.000",
    "request_status": "Pending",
    "responsible_agency": "Department of Public Works",
    "final_address": "ST CHARLES AVE & JOSEPH ST",
    "address_councildis": "A",
    "status": "Assigned to Contractor",
    "contractor": "Legacy Professional Services",
    "rowid": "1038872",
    "final_x": "3666765.5",
    "final_y": "521832.58",
    "longitude": "-90.1149220095215",
    "latitude": "29.929297548048186",
    "geocoded_column": {
      "latitude": "29.929297548048186",
      "longitude": "-90.1149220095215"
    }
  },
  {
    "service_request": "2023-1038871",
    "request_type": "Roads/Drainage",
    "request_reason": "Street Subsidence (Sinking)",
    "date_created": "2023-09-27T14:37:07.000",
    "date_modified": "2023-09-27T14:37:07.000",
    "request_status": "Pending",
    "responsible_agency": "Department of Public Works",
    "final_address": "1211 Leboeuf St",
    "address_councildis": "C",
    "status": "Pending",
    "rowid": "1038871",
    "final_x": "3689672.7631",
    "final_y": "526960.039038",
    "longitude": "-90.0424259770361",
    "latitude": "29.942706681411266",
    "geocoded_column": {
      "latitude": "29.942706681411266",
      "longitude": "-90.0424259770361"
    }
  },
  {
    "service_request": "2023-1038870",
    "request_type": "Roads/Drainage",
    "request_reason": "Street Subsidence (Sinking)",
    "date_created": "2023-09-27T14:36:04.000",
    "date_modified": "2023-09-27T14:36:04.000",
    "request_status": "Pending",
    "responsible_agency": "Department of Public Works",
    "final_address": "4729 Loyola Ave",
    "address_councildis": "B",
    "status": "Pending",
    "rowid": "1038870",
    "final_x": "3669266.98497",
    "final_y": "522897.446971",
    "longitude": "-90.1069892927485",
    "latitude": "29.93215221568669",
    "geocoded_column": {
      "latitude": "29.93215221568669",
      "longitude": "-90.1069892927485"
    }
  },
  {
    "service_request": "2023-1038869",
    "request_type": "Trash/Recycling",
    "request_reason": "Request a Large Item Pick Up",
    "date_created": "2023-09-27T14:31:44.000",
    "date_modified": "2023-09-27T14:31:45.000",
    "request_status": "Pending",
    "responsible_agency": "Department of Sanitation",
    "final_address": "5526 Laurel St",
    "address_councildis": "A",
    "status": "Assigned to Contractor",
    "contractor": "Richards Disposal",
    "rowid": "1038869",
    "final_x": "3665994.63591",
    "final_y": "517832.61119",
    "longitude": "-90.11748947749108",
    "latitude": "29.91832140862825",
    "geocoded_column": {
      "latitude": "29.91832140862825",
      "longitude": "-90.11748947749108"
    }
  },
  {
    "service_request": "2023-1038868",
    "request_type": "Traffic Signals/Signs/Striping/Streetlights",
    "request_reason": "Street Light Outage/Malfunction",
    "date_created": "2023-09-27T14:26:12.000",
    "date_modified": "2023-09-27T14:26:13.000",
    "request_status": "Pending",
    "responsible_agency": "Department of Public Works",
    "final_address": "424 Arabella St",
    "address_councildis": "A",
    "status": "Assigned to Contractor",
    "contractor": "Legacy Professional Services",
    "rowid": "1038868",
    "final_x": "3665541.30189",
    "final_y": "517807.24447",
    "longitude": "-90.11892126447295",
    "latitude": "29.918264877067546",
    "geocoded_column": {
      "latitude": "29.918264877067546",
      "longitude": "-90.11892126447295"
    }
  },