[
  {
    "service_request": "2025-1191993",
    "request_type": "Property Maintenance",
    "request_reason": "Property Maintenance",
    "date_created": "2025-05-13T23:55:12.000",
    "date_modified": "2025-05-13T23:55:14.000",
    "request_status": "Pending",
    "responsible_agency": "Department of Code Enforcement",
    "final_address": "641 Gordon St",
    "address_councildis": "E",
    "status": "Pending",
    "rowid": "1191993",
    "final_x": "3698610.748",
    "final_y": "531958.523139",
    "longitude": "-90.01402512070268",
    "latitude": "29.956170851146332",
    "geocoded_column": {
      "latitude": "29.956170851146332",
      "longitude": "-90.01402512070268"
    }
  },
  {
    "service_request": "2025-1191992",
    "request_type": "Property Maintenance",
    "request_reason": "Property Maintenance",
    "date_created": "2025-05-13T23:52:32.000",
    "date_modified": "2025-05-13T23:52:34.000",
    "request_status": "Pending",
    "responsible_agency": "Department of Code Enforcement",
    "final_address": "641 Gordon St",
    "address_councildis": "E",
    "status": "Pending",
    "rowid": "1191992",
    "final_x": "3698610.748",
    "final_y": "531958.523139",
    "longitude": "-90.01402512070268",
    "latitude": "29.956170851146332",
    "geocoded_column": {
      "latitude": "29.956170851146332",
      "longitude": "-90.01402512070268"
    }
  },
  {
    "service_request": "2025-1191991",
    "request_type": "Trash/Recycling",
    "request_reason": "Illegal Dumping",
    "date_created": "2025-05-13T22:28:45.000",
    "date_modified": "2025-05-13T22:28:47.000",
    "request_status": "Pending",
    "responsible_agency": "Department of Sanitation",
    "final_address": "PATTERSON DR & FIVE OAKS DR",
    "address_councildis": "C",
    "status": "Pending",
    "rowid": "1191991",
    "final_x": "3699295.6",
    "final_y": "526468.38",
    "longitude": "-90.0120625049785",
    "latitude": "29.941053188653466",
    "geocoded_column": {
      "latitude": "29.941053188653466",
      "longitude": "-90.0120625049785"
    }
  },
  {
    "service_request": "2025-1191990",
    "request_type": "Parks & Parkways",
    "request_reason": "Request Tree Service (Right of Way/Public Property)",
    "date_created": "2025-05-13T22:27:47.000",
    "date_modified": "2025-05-13T22:27:48.000",
    "request_status": "Pending",
    "responsible_agency": "Department of Parks & Parkway",
    "final_address": "1925 Audubon St",
    "address_councildis": "A",
    "status": "Pending",
    "rowid": "1191990",
    "final_x": "3665943.80308",
    "final_y": "528545.125888",
    "longitude": "-90.11729107648797",
    "latitude": "29.94777890089649",
    "geocoded_column": {
      "latitude": "29.94777890089649",
      "longitude": "-90.11729107648797"
    }
  },
  {
    "service_request": "2025-1191989",
    "request_type": "Trash/Recycling",
    "request_reason": "Request a Large Item Pick Up",
    "date_created": "2025-05-13T22:23:11.000",
    "date_modified": "2025-05-13T22:23:13.000",
    "request_status": "Pending",
    "responsible_agency": "Department of Sanitation",
    "final_address": "1115 Henry Clay Ave",
    "address_councildis": "A",
    "status": "Assigned to Contractor",
    "contractor": "IV Waste",
    "rowid": "1191989",
    "final_x": "3664273.784",
    "final_y": "520622.110584",
    "longitude": "-90.1228282901096",
    "latitude": "29.926041756281645",
    "geocoded_column": {
      "latitude": "29.926041756281645",
      "longitude": "-90.1228282901096"
    }
  },
  {
    "service_request": "2025-1191988",
    "request_type": "Streetlights",
    "request_reason": "Streetlight Outage/Malfunction",
    "date_created": "2025-05-13T21:59:52.000",
    "date_modified": "2025-05-13T21:59:53.000",
    "request_status": "Pending",
    "responsible_agency": "Department of Public Works",
    "final_address": "9706 W Wheaton Cir",
    "address_councildis": "E",
    "status": "Pending",
    "contractor": "Legacy Professional Services",
    "rowid": "1191988",
    "final_x": "3708555.56824",
    "final_y": "562082.603807",
    "longitude": "-89.98150082269372",
    "latitude": "30.038682048877615",
    "geocoded_column": {
      "latitude": "30.038682048877615",
      "longitude": "-89.98150082269372"
    }
  },
  {
    "service_request": "2025-1191987",
    "request_type": "Streetlights",
    "request_reason": "Streetlight Outage/Malfunction",
    "date_created": "2025-05-13T21:58:39.000",
    "date_modified": "2025-05-13T21:58:42.000",
    "request_status": "Pending",
    "responsible_agency": "Department of Public Works",
    "final_address": "9706 W Wheaton Cir",
    "address_councildis": "E",
    "status": "Pending",
    "contractor": "Legacy Professional Services",
    "rowid": "1191987",
    "final_x": "3708555.56824",
    "final_y": "562082.603807",
    "longitude": "-89.98150082269372",
    "latitude": "30.038682048877615",
    "geocoded_column": {
      "latitude": "30.038682048877615",
      "longitude": "-89.98150082269372"
    }
  },
  {
    "service_request": "2025-1191986",
    "request_type": "Streetlights",
    "request_reason": "Streetlight Outage/Malfunction",
    "date_created": "2025-05-13T21:57:51.000",
    "date_modified": "2025-05-13T21:57:54.000",
    "request_status": "Pending",
    "responsible_agency": "Department of Public Works",
    "final_address": "9706 W Wheaton Cir",
    "address_councildis": "E",
    "status": "Pending",
    "contractor": "Legacy Professional Services",
    "rowid": "1191986",
    "final_x": "3708555.56824",
    "final_y": "562082.603807",
    "longitude": "-89.98150082269372",
    "latitude": "30.038682048877615",
    "geocoded_column": {
      "latitude": "30.038682048877615",
      "longitude": "-89.98150082269372"
    }
  },
  {
    "service_request": "2025-1191985",
    "request_type": "Trash/Recycling",
    "request_reason": "Return Trash Cart",
    "date_created": "2025-05-13T21:45:17.000",
    "date_modified": "2025-05-13T21:45:19.000",
    "request_status": "Pending",
    "responsible_agency": "Department of Sanitation",
    "final_address": "3612 Camp St",
    "address_councildis": "B",
    "status": "Assigned to Contractor",
    "contractor": "IV Waste",
    "rowid": "1191985",
    "final_x": "3673956.47982",
    "final_y": "519569.877816",
    "longitude": "-90.09229877137166",
    "latitude": "29.922863635195007",
    "geocoded_column": {
      "latitude": "29.922863635195007",
      "longitude": "-90.09229877137166"
    }
  },
  {
    "service_request": "2025-1191984",
    "request_type": "Trash/Recycling",
    "request_reason": "MIssed Recycling Pick-Up",
    "date_created": "2025-05-13T21:36:15.000",
    "date_modified": "2025-05-13T21:36:16.000",
    "request_status": "Pending",
    "responsible_agency": "Department of Sanitation",
    "final_address": "8506 Apricot St",
    "address_councildis": "A",
    "status": "Assigned to Contractor",
    "contractor": "IV Waste",
    "rowid": "1191984",
    "final_x": "3664686.92685",
    "final_y": "533611.932741",
    "longitude": "-90.12109029887758",
    "latitude": "29.961747590287853",
    "geocoded_column": {
      "latitude": "29.961747590287853",
      "longitude": "-90.12109029887758"
    }
  },
  {
    "service_request": "2025-1191983",
    "request_type": "Abandoned Vehicles",
    "request_reason": "Abandoned/Junk Vehicles",
    "date_created": "2025-05-13T21:35:15.000",
    "date_modified": "2025-05-13T21:35:17.000",
    "request_status": "Pending",
    "responsible_agency": "Department of Public Works",
    "final_address": "3605 Iberville St",
    "address_councildis": "B",
    "status": "Pending",
    "rowid": "1191983",
    "final_x": "3672830.83028",
    "final_y": "537614.691912",
    "longitude": "-90.09523654648098",
    "latitude": "29.972514411751387",
    "geocoded_column": {
      "latitude": "29.972514411751387",
      "longitude": "-90.09523654648098"
    }
  },
  {
    "service_request": "2025-1191982",
    "request_type": "Property Maintenance",
    "request_reason": "Property Maintenance",
    "date_created": "2025-05-13T21:32:40.000",
    "date_modified": "2025-05-13T21:32:42.000",
    "request_status": "Pending",
    "responsible_agency": "Department of Code Enforcement",
    "final_address": "2141 Forstall St",
    "address_councildis": "E",
    "status": "Pending",
    "rowid": "1191982",
    "final_x": "3697424.94147",
    "final_y": "538259.149065",
    "longitude": "-90.01754101409578",
    "latitude": "29.973532815912566",
    "geocoded_column": {
      "latitude": "29.973532815912566",
      "longitude": "-90.01754101409578"
    }
  },
  {
    "service_request": "2025-1191981",
    "request_type": "Streetlights",
    "request_reason": "Streetlight Outage/Malfunction",
    "date_created": "2025-05-13T21:29:49.000",
    "date_modified": "2025-05-13T21:29:52.000",
    "request_status": "Pending",
    "responsible_agency": "Department of Public Works",
    "final_address": "441 Jewel St",
    "address_councildis": "D",
    "status": "Pending",
    "contractor": "Legacy Professional Services",
    "rowid": "1191981",
    "final_x": "3668079.75917",
    "final_y": "555997.786073",
    "longitude": "-90.10962129870178",
    "latitude": "30.0232018770627",
    "geocoded_column": {
      "latitude": "30.0232018770627",
      "longitude": "-90.10962129870178"
    }
  },
  {
    "service_request": "2025-1191980",
    "request_type": "Trash/Recycling",
    "request_reason": "Request a Large Item Pick Up",
    "date_created": "2025-05-13T21:22:16.000",
    "date_modified": "2025-05-13T21:22:19.000",
    "request_status": "Pending",
    "responsible_agency": "Department of Sanitation",
    "final_address": "1115 Henry Clay Ave",
    "address_councildis": "A",
    "status": "Assigned to Contractor",
    "contractor": "IV Waste",
    "rowid": "1191980",
    "final_x": "3664273.784",
    "final_y": "520622.110584",
    "longitude": "-90.1228282901096",
    "latitude": "29.926041756281645",
    "geocoded_column": {
      "latitude": "29.926041756281645",
      "longitude": "-90.1228282901096"
    }
  },
  {
    "service_request": "2025-1191979",
    "request_type": "Streetlights",
    "request_reason": "Streetlight Outage/Malfunction",
    "date_created": "2025-05-13T21:06:27.000",
    "date_modified": "2025-05-13T21:06:29.000",
    "request_status": "Pending",
    "responsible_agency": "Department of Public Works",
    "final_address": "800 BLK Germain St",
    "address_councildis": "A",
    "status": "Pending",
    "contractor": "Legacy Professional Services",
    "rowid": "1191979",
    "final_x": "3669483.13869",
    "final_y": "547847.456586",
    "longitude": "-90.10546287967034",
    "latitude": "30.000750056250038",
    "geocoded_column": {
      "latitude": "30.000750056250038",
      "longitude": "-90.10546287967034"
    }
  },
  {
    "service_request": "2025-1191978",
    "request_type": "Trash/Recycling",
    "request_reason": "Damaged Caused By Contractor",
    "date_created": "2025-05-13T20:01:28.000",
    "date_modified": "2025-05-13T20:01:30.000",
    "request_status": "Pending",
    "responsible_agency": "Department of Sanitation",
    "final_address": "1538 Dublin St",
    "address_councildis": "A",
    "status": "Assigned to Contractor",
    "contractor": "IV Waste",
    "rowid": "1191978",
    "final_x": "3662591.93472",
    "final_y": "529647.607489",
    "longitude": "-90.12783768142836",
    "latitude": "29.95090775740007",
    "geocoded_column": {
      "latitude": "29.95090775740007",
      "longitude": "-90.12783768142836"
    }
  },
  {
    "service_request": "2025-1191977",
    "request_type": "Trash/Recycling",
    "request_reason": "Order Recycling Cart",
    "date_created": "2025-05-13T20:01:19.000",
    "date_modified": "2025-05-13T20:01:21.000",
    "request_status": "Pending",
    "responsible_agency": "Department of Sanitation",
    "final_address": "6 Park Timbers Dr",
    "address_councildis": "C",
    "status": "Pending",
    "rowid": "1191977",
    "final_x": "3699321.0017",
    "final_y": "518280.180662",
    "longitude": "-90.0122803536869",
    "latitude": "29.918537658045224",
    "geocoded_column": {
      "latitude": "29.918537658045224",
      "longitude": "-90.0122803536869"
    }
  },
  {
    "service_request": "2025-1191976",
    "request_type": "Trash/Recycling",
    "request_reason": "Request a Large Item Pick Up",
    "date_created": "2025-05-13T19:59:39.000",
    "date_modified": "2025-05-13T19:59:42.000",
    "request_status": "Pending",
    "responsible_agency": "Department of Sanitation",
    "final_address": "5543 Press Dr",
    "address_councildis": "D",
    "status": "Assigned to Contractor",
    "contractor": "IV Waste",
    "rowid": "1191976",
    "final_x": "3689462.26646",
    "final_y": "553744.023383",
    "longitude": "-90.04213765739752",
    "latitude": "30.016359636764395",
    "geocoded_column": {
      "latitude": "30.016359636764395",
      "longitude": "-90.04213765739752"
    }
  },
  {
    "service_request": "2025-1191975",
    "request_type": "Trash/Recycling",
    "request_reason": "Replace Trash Cart",
    "date_created": "2025-05-13T19:57:21.000",
    "date_modified": "2025-05-13T19:57:23.000",
    "request_status": "Pending",
    "responsible_agency": "Department of Sanitation",
    "final_address": "2323 Bienville Ave",
    "address_councildis": "B",
    "status": "Assigned to Contractor",
    "contractor": "IV Waste",
    "rowid": "1191975",
    "final_x": "3677045.98587",
    "final_y": "534879.611398",
    "longitude": "-90.0820186538338",
    "latitude": "29.96486796420154",
    "geocoded_column": {
      "latitude": "29.96486796420154",
      "longitude": "-90.0820186538338"
    }
  },
  {
    "service_request": "2025-1191974",
    "request_type": "Trash/Recycling",
    "request_reason": "Request a Large Item Pick Up",
    "date_created": "2025-05-13T19:40:05.000",
    "date_modified": "2025-05-13T19:40:07.000",
    "request_status": "Pending",
    "responsible_agency": "Department of Sanitation",
    "final_address": "3765 Inwood Ave",
    "address_councildis": "C",
    "status": "Assigned to Contractor",
    "contractor": "Richards Disposal",
    "rowid": "1191974",
    "final_x": "3704885.12523",
    "final_y": "514588.910131",
    "longitude": "-89.99485360176823",
    "latitude": "29.90821037078622",
    "geocoded_column": {
      "latitude": "29.90821037078622",
      "longitude": "-89.99485360176823"
    }
  },
  {
    "service_request": "2025-1191973",
    "request_type": "Trash/Recycling",
    "request_reason": "Missed Trash Pick-Up",
    "date_created": "2025-05-13T19:37:52.000",
    "date_modified": "2025-05-13T19:37:54.000",
    "request_status": "Pending",
    "responsible_agency": "Department of Sanitation",
    "final_address": "10810 Roger Dr Apt A",
    "address_councildis": "E",
    "status": "Assigned to Contractor",
    "contractor": "Waste Pro",
    "rowid": "1191973",
    "final_x": "3711731.75128",
    "final_y": "563046.672352",
    "longitude": "-89.97142710417532",
    "latitude": "30.041229435420597",
    "geocoded_column": {
      "latitude": "30.041229435420597",
      "longitude": "-89.97142710417532"
    }
  },
  {
    "service_request": "2025-1191972",
    "request_type": "Abandoned Vehicles",
    "request_reason": "Abandoned/Junk Vehicles",
    "date_created": "2025-05-13T19:25:22.000",
    "date_modified": "2025-05-13T19:25:23.000",
    "request_status": "Pending",
    "responsible_agency": "Department of Public Works",
    "final_address": "ST LOUIS ST & N HENNESSEY ST",
    "address_councildis": "A",
    "status": "Pending",
    "rowid": "1191972",
    "final_x": "3671199.4",
    "final_y": "540150.28",
    "longitude": "-90.10030273495995",
    "latitude": "29.979534790041775",
    "geocoded_column": {
      "latitude": "29.979534790041775",
      "longitude": "-90.10030273495995"
    }
  },
  {
    "service_request": "2025-1191971",
    "request_type": "Trash/Recycling",
    "request_reason": "Request a Large Item Pick Up",
    "date_created": "2025-05-13T19:22:57.000",
    "date_modified": "2025-05-13T19:22:59.000",
    "request_status": "Pending",
    "responsible_agency": "Department of Sanitation",
    "final_address": "1815 Painters St",
    "address_councildis": "D",
    "status": "Assigned to Contractor",
    "contractor": "IV Waste",
    "rowid": "1191971",
    "final_x": "3687382.76706",
    "final_y": "539226.189642",
    "longitude": "-90.04922201133215",
    "latitude": "29.976505095860176",
    "geocoded_column": {
      "latitude": "29.976505095860176",
      "longitude": "-90.04922201133215"
    }
  },
  {
    "service_request": "2025-1191970",
    "request_type": "Mosquito, Termite & Rodent Control",
    "request_reason": "Mosquito Complaint",
    "date_created": "2025-05-13T19:19:02.000",
    "date_modified": "2025-05-13T19:19:10.000",
    "request_status": "Pending",
    "responsible_agency": "Mosquito, Termite & Rodent Control Board",
    "final_address": "270 Oakmont Dr",
    "address_councildis": "E",
    "status": "Pending",
    "rowid": "1191970",
    "final_x": "3719898.2087",
    "final_y": "562577.0696",
    "longitude": "-89.94563650785209",
    "latitude": "30.03966880290823",
    "geocoded_column": {
      "latitude": "30.03966880290823",
      "longitude": "-89.94563650785209"
    }
  },
  {
    "service_request": "2025-1191969",
    "request_type": "Trash/Recycling",
    "request_reason": "Replace Recycling Cart",
    "date_created": "2025-05-13T19:15:36.000",
    "date_modified": "2025-05-13T19:15:38.000",
    "request_status": "Pending",
    "responsible_agency": "Department of Sanitation",
    "final_address": "914 Adams St",
    "address_councildis": "A",
    "status": "Pending",
    "rowid": "1191969",
    "final_x": "3662410.83104",
    "final_y": "526733.00371",
    "longitude": "-90.12850628433793",
    "latitude": "29.942898768125765",
    "geocoded_column": {
      "latitude": "29.942898768125765",
      "longitude": "-90.12850628433793"
    }
  },
  {
    "service_request": "2025-1191968",
    "request_type": "Trash/Recycling",
    "request_reason": "Request a Large Item Pick Up",
    "date_created": "2025-05-13T19:13:08.000",
    "date_modified": "2025-05-13T19:13:10.000",
    "request_status": "Pending",
    "responsible_agency": "Department of Sanitation",
    "final_address": "1731 Congress St",
    "address_councildis": "D",
    "status": "Assigned to Contractor",
    "contractor": "IV Waste",
    "rowid": "1191968",
    "final_x": "3691373.68771",
    "final_y": "538040.786249",
    "longitude": "-90.03665988137627",
    "latitude": "29.973122075232343",
    "geocoded_column": {
      "latitude": "29.973122075232343",
      "longitude": "-90.03665988137627"
    }
  },
  {
    "service_request": "2025-1191967",
    "request_type": "Trash/Recycling",
    "request_reason": "Request a Large Item Pick Up",
    "date_created": "2025-05-13T19:08:05.000",
    "date_modified": "2025-05-13T19:23:12.000",
    "case_close_date": "2025-05-13T14:23:11.000",
    "request_status": "Closed",
    "responsible_agency": "Department of Sanitation",
    "final_address": "4819 Reynes St",
    "address_councildis": "E",
    "status": "Duplicate Request",
    "contractor": "Waste Pro",
    "contractor_action": "Duplicate",
    "rowid": "1191967",
    "final_x": "3699152.85284",
    "final_y": "555368.487833",
    "longitude": "-90.01146058000722",
    "latitude": "30.02052248007719",
    "geocoded_column": {
      "latitude": "30.02052248007719",
      "longitude": "-90.01146058000722"
    }
  },
  {
    "service_request": "2025-1191966",
    "request_type": "Trash/Recycling",
    "request_reason": "Request a Large Item Pick Up",
    "date_created": "2025-05-13T19:08:01.000",
    "date_modified": "2025-05-13T19:25:14.000",
    "case_close_date": "2025-05-13T14:25:13.000",
    "request_status": "Closed",
    "responsible_agency": "Department of Sanitation",
    "final_address": "270 Oakmont Dr",
    "address_councildis": "E",
    "status": "Duplicate Request",
    "contractor": "Waste Pro",
    "contractor_action": "Duplicate",
    "rowid": "1191966",
    "final_x": "3719898.2087",
    "final_y": "562577.0696",
    "longitude": "-89.94563650785209",
    "latitude": "30.03966880290823",
    "geocoded_column": {
      "latitude": "30.03966880290823",
      "longitude": "-89.94563650785209"
    }
  },
  {
    "service_request": "2025-1191965",
    "request_type": "Abandoned Vehicles",
    "request_reason": "Abandoned/Junk Vehicles",
    "date_created": "2025-05-13T19:04:51.000",
    "date_modified": "2025-05-13T19:04:54.000",
    "request_status": "Pending",
    "responsible_agency": "Department of Public Works",
    "final_address": "13111 Bishop Cl Morton, Sr. Dr",
    "address_councildis": "E",
    "status": "Pending",
    "rowid": "1191965",
    "final_x": "3716900.42892",
    "final_y": "569987.668774",
    "longitude": "-89.95482854356734",
    "latitude": "30.060144396903528",
    "geocoded_column": {
      "latitude": "30.060144396903528",
      "longitude": "-89.95482854356734"
    }
  },
  {
    "service_request": "2025-1191964",
    "request_type": "Trash/Recycling",
    "request_reason": "Request a Large Item Pick Up",
    "date_created": "2025-05-13T19:02:18.000",
    "date_modified": "2025-05-13T19:02:20.000",
    "request_status": "Pending",
    "responsible_agency": "Department of Sanitation",
    "final_address": "270 Oakmont Dr",
    "address_councildis": "E",
    "status": "Assigned to Contractor",
    "contractor": "Waste Pro",
    "rowid": "1191964",
    "final_x": "3719898.2087",
    "final_y": "562577.0696",
    "longitude": "-89.94563650785209",
    "latitude": "30.03966880290823",
    "geocoded_column": {
      "latitude": "30.03966880290823",
      "longitude": "-89.94563650785209"
    }
  },
  {
    "service_request": "2025-1191963",
    "request_type": "Abandoned Vehicles",
    "request_reason": "Abandoned/Junk Vehicles",
    "date_created": "2025-05-13T18:57:40.000",
    "date_modified": "2025-05-13T18:57:42.000",
    "request_status": "Pending",
    "responsible_agency": "Department of Public Works",
    "final_address": "2235 Chartres St",
    "address_councildis": "C",
    "status": "Pending",
    "rowid": "1191963",
    "final_x": "3685476.43708",
    "final_y": "534568.367429",
    "longitude": "-90.05540683697222",
    "latitude": "29.963756311417814",
    "geocoded_column": {
      "latitude": "29.963756311417814",
      "longitude": "-90.05540683697222"
    }
  },
  {
    "service_request": "2025-1191962",
    "request_type": "General Services",
    "request_reason": "General Service Request",
    "date_created": "2025-05-13T18:45:54.000",
    "date_modified": "2025-05-13T18:45:55.000",
    "request_status": "Pending",
    "responsible_agency": "Orleans Parish Communication District",
    "final_address": "6114 Todd Pl",
    "address_councildis": "E",
    "status": "Pending",
    "rowid": "1191962",
    "final_x": "3699457.84964",
    "final_y": "532636.40506",
    "longitude": "-90.01132558137309",
    "latitude": "29.958007939956286",
    "geocoded_column": {
      "latitude": "29.958007939956286",
      "longitude": "-90.01132558137309"
    }
  },
  {
    "service_request": "2025-1191961",
    "request_type": "Trash/Recycling",
    "request_reason": "Request a Large Item Pick Up",
    "date_created": "2025-05-13T18:45:13.000",
    "date_modified": "2025-05-13T18:45:15.000",
    "request_status": "Pending",
    "responsible_agency": "Department of Sanitation",
    "final_address": "1406 Arabella St",
    "address_councildis": "A",
    "status": "Assigned to Contractor",
    "contractor": "IV Waste",
    "rowid": "1191961",
    "final_x": "3666255.35469",
    "final_y": "521073.084857",
    "longitude": "-90.11655790826772",
    "latitude": "29.92722408264426",
    "geocoded_column": {
      "latitude": "29.92722408264426",
      "longitude": "-90.11655790826772"
    }
  },
  {
    "service_request": "2025-1191960",
    "request_type": "Abandoned Vehicles",
    "request_reason": "Abandoned/Junk Vehicles",
    "date_created": "2025-05-13T18:42:45.000",
    "date_modified": "2025-05-13T18:42:46.000",
    "request_status": "Pending",
    "responsible_agency": "Department of Public Works",
    "final_address": "1900 BLK Dublin St",
    "address_councildis": "A",
    "status": "Pending",
    "rowid": "1191960",
    "final_x": "3663474.81015",
    "final_y": "530558.450482",
    "longitude": "-90.12501966600193",
    "latitude": "29.95338671182171",
    "geocoded_column": {
      "latitude": "29.95338671182171",
      "longitude": "-90.12501966600193"
    }
  },
  {
    "service_request": "2025-1191959",
    "request_type": "Trash/Recycling",
    "request_reason": "Request a Large Item Pick Up",
    "date_created": "2025-05-13T18:31:15.000",
    "date_modified": "2025-05-13T18:31:17.000",
    "request_status": "Pending",
    "responsible_agency": "Department of Sanitation",
    "final_address": "11140 N Parkwood Ct",
    "address_councildis": "E",
    "status": "Assigned to Contractor",
    "contractor": "Waste Pro",
    "rowid": "1191959",
    "final_x": "3716396.5548",
    "final_y": "559013.036764",
    "longitude": "-89.9568379803472",
    "latitude": "30.02998528747709",
    "geocoded_column": {
      "latitude": "30.02998528747709",
      "longitude": "-89.9568379803472"
    }
  },
  {
    "service_request": "2025-1191958",
    "request_type": "Trash/Recycling",
    "request_reason": "Request a Large Item Pick Up",
    "date_created": "2025-05-13T18:20:42.000",
    "date_modified": "2025-05-13T18:20:44.000",
    "request_status": "Pending",
    "responsible_agency": "Department of Sanitation",
    "final_address": "4614 Tulip St",
    "address_councildis": "E",
    "status": "Assigned to Contractor",
    "contractor": "Waste Pro",
    "rowid": "1191958",
    "final_x": "3702079.47095",
    "final_y": "553561.229271",
    "longitude": "-90.00227974823311",
    "latitude": "30.015460051573626",
    "geocoded_column": {
      "latitude": "30.015460051573626",
      "longitude": "-90.00227974823311"
    }
  },
  {
    "service_request": "2025-1191957",
    "request_type": "Trash/Recycling",
    "request_reason": "Request a Large Item Pick Up",
    "date_created": "2025-05-13T18:20:34.000",
    "date_modified": "2025-05-13T18:20:36.000",
    "request_status": "Pending",
    "responsible_agency": "Department of Sanitation",
    "final_address": "4200 BLK Laurel St",
    "address_councildis": "B",
    "status": "Assigned to Contractor",
    "contractor": "IV Waste",
    "rowid": "1191957",
    "final_x": "3671704.24087",
    "final_y": "518107.887456",
    "longitude": "-90.0994579172424",
    "latitude": "29.91891050909639",
    "geocoded_column": {
      "latitude": "29.91891050909639",
      "longitude": "-90.0994579172424"
    }
  },
  {
    "service_request": "2025-1191956",
    "request_type": "General Services",
    "request_reason": "General Service Request",
    "date_created": "2025-05-13T18:16:26.000",
    "date_modified": "2025-05-13T18:16:28.000",
    "request_status": "Pending",
    "responsible_agency": "Orleans Parish Communication District",
    "final_address": "4522 Iberville St",
    "address_councildis": "A",
    "status": "Pending",
    "rowid": "1191956",
    "final_x": "3669764.52615",
    "final_y": "539797.756938",
    "longitude": "-90.10484659152416",
    "latitude": "29.97860784925243",
    "geocoded_column": {
      "latitude": "29.97860784925243",
      "longitude": "-90.10484659152416"
    }
  },
  {
    "service_request": "2025-1191955",
    "request_type": "Streetlights",
    "request_reason": "New Streetlight Request",
    "date_created": "2025-05-13T17:48:29.000",
    "date_modified": "2025-05-13T17:48:31.000",
    "request_status": "Pending",
    "responsible_agency": "Department of Public Works",
    "final_address": "2611 General Ogden St",
    "address_councildis": "A",
    "status": "Pending",
    "contractor": "Legacy Professional Services",
    "rowid": "1191955",
    "final_x": "3663409.55034",
    "final_y": "534109.324677",
    "longitude": "-90.12510750349564",
    "latitude": "29.96315235266671",
    "geocoded_column": {
      "latitude": "29.96315235266671",
      "longitude": "-90.12510750349564"
    }
  },
  {
    "service_request": "2025-1191954",
    "request_type": "Roads and Streets",
    "request_reason": "Pothole",
    "date_created": "2025-05-13T17:37:20.000",
    "date_modified": "2025-05-13T17:37:22.000",
    "request_status": "Pending",
    "responsible_agency": "Department of Public Works",
    "final_address": "1539 Philip St",
    "address_councildis": "B",
    "status": "Pending",
    "rowid": "1191954",
    "final_x": "3677523.22702",
    "final_y": "523230.314299",
    "longitude": "-90.08091365100313",
    "latitude": "29.932821940523077",
    "geocoded_column": {
      "latitude": "29.932821940523077",
      "longitude": "-90.08091365100313"
    }
  },
  {
    "service_request": "2025-1191953",
    "request_type": "Streetlights",
    "request_reason": "Streetlight Outage/Malfunction",
    "date_created": "2025-05-13T17:25:12.000",
    "date_modified": "2025-05-13T17:25:16.000",
    "request_status": "Pending",
    "responsible_agency": "Department of Public Works",
    "final_address": "3141 Ponce De Leon St",
    "address_councildis": "A",
    "status": "Pending",
    "contractor": "Legacy Professional Services",
    "rowid": "1191953",
    "final_x": "3676280.52334",
    "final_y": "540562.560011",
    "longitude": "-90.08424030237236",
    "latitude": "29.9805170951782",
    "geocoded_column": {
      "latitude": "29.9805170951782",
      "longitude": "-90.08424030237236"
    }
  },
  {
    "service_request": "2025-1191952",
    "request_type": "Roads and Streets",
    "request_reason": "Street Subsidence (Sinking)",
    "date_created": "2025-05-13T17:22:15.000",
    "date_modified": "2025-05-13T17:22:17.000",
    "request_status": "Pending",
    "responsible_agency": "Department of Public Works",
    "final_address": "3204 Memorial Park Dr",
    "address_councildis": "C",
    "status": "Pending",
    "rowid": "1191952",
    "final_x": "3695699.18198",
    "final_y": "518762.595767",
    "longitude": "-90.02369506019915",
    "latitude": "29.91997845613219",
    "geocoded_column": {
      "latitude": "29.91997845613219",
      "longitude": "-90.02369506019915"
    }
  },
  {
    "service_request": "2025-1191951",
    "request_type": "Trash/Recycling",
    "request_reason": "Order Second Trash Cart",
    "date_created": "2025-05-13T17:20:12.000",
    "date_modified": "2025-05-13T17:20:15.000",
    "request_status": "Pending",
    "responsible_agency": "Department of Sanitation",
    "final_address": "3538 Mimosa Ct",
    "address_councildis": "C",
    "status": "Assigned to Contractor",
    "contractor": "Richards Disposal",
    "rowid": "1191951",
    "final_x": "3703529.36311",
    "final_y": "513075.034033",
    "longitude": "-89.99918818250998",
    "latitude": "29.90409120320615",
    "geocoded_column": {
      "latitude": "29.90409120320615",
      "longitude": "-89.99918818250998"
    }
  },
  {
    "service_request": "2025-1191950",
    "request_type": "Drainage",
    "request_reason": "Catch Basin Damaged",
    "date_created": "2025-05-13T17:09:10.000",
    "date_modified": "2025-05-13T17:09:12.000",
    "request_status": "Pending",
    "responsible_agency": "Sewerage & Water Board",
    "final_address": "250 Hillary St",
    "address_councildis": "A",
    "status": "Pending",
    "rowid": "1191950",
    "final_x": "3661042.57222",
    "final_y": "524745.691836",
    "longitude": "-90.13289196511163",
    "latitude": "29.937473778228313",
    "geocoded_column": {
      "latitude": "29.937473778228313",
      "longitude": "-90.13289196511163"
    }
  },
  {
    "service_request": "2025-1191949",
    "request_type": "Drainage",
    "request_reason": "Street Flooding",
    "date_created": "2025-05-13T17:08:08.000",
    "date_modified": "2025-05-13T17:08:10.000",
    "request_status": "Pending",
    "responsible_agency": "Sewerage & Water Board",
    "final_address": "262 Hillary St",
    "address_councildis": "A",
    "status": "Pending",
    "rowid": "1191949",
    "final_x": "3661106.89709",
    "final_y": "524807.891132",
    "longitude": "-90.13268682832036",
    "latitude": "29.937642953491448",
    "geocoded_column": {
      "latitude": "29.937642953491448",
      "longitude": "-90.13268682832036"
    }
  },
  {
    "service_request": "2025-1191948",
    "request_type": "Trash/Recycling",
    "request_reason": "Request a Large Item Pick Up",
    "date_created": "2025-05-13T17:01:13.000",
    "date_modified": "2025-05-13T17:01:16.000",
    "request_status": "Pending",
    "responsible_agency": "Department of Sanitation",
    "final_address": "7011 Chatelain Dr",
    "address_councildis": "E",
    "status": "Assigned to Contractor",
    "contractor": "Waste Pro",
    "rowid": "1191948",
    "final_x": "3715716.20799",
    "final_y": "566580.428963",
    "longitude": "-89.9587009745975",
    "latitude": "30.050815009494087",
    "geocoded_column": {
      "latitude": "30.050815009494087",
      "longitude": "-89.9587009745975"
    }
  },
  {
    "service_request": "2025-1191947",
    "request_type": "Trash/Recycling",
    "request_reason": "Request a Large Item Pick Up",
    "date_created": "2025-05-13T16:55:30.000",
    "date_modified": "2025-05-13T16:55:32.000",
    "request_status": "Pending",
    "responsible_agency": "Department of Sanitation",
    "final_address": "4608 Crowder Blvd",
    "address_councildis": "E",
    "status": "Assigned to Contractor",
    "contractor": "Waste Pro",
    "rowid": "1191947",
    "final_x": "3706421.20843",
    "final_y": "554703.914456",
    "longitude": "-89.98851960619247",
    "latitude": "30.018462601873857",
    "geocoded_column": {
      "latitude": "30.018462601873857",
      "longitude": "-89.98851960619247"
    }
  },
  {
    "service_request": "2025-1191946",
    "request_type": "Trash/Recycling",
    "request_reason": "Request a Large Item Pick Up",
    "date_created": "2025-05-13T16:55:11.000",
    "date_modified": "2025-05-13T16:55:13.000",
    "request_status": "Pending",
    "responsible_agency": "Department of Sanitation",
    "final_address": "1610 Tupelo St",
    "address_councildis": "E",
    "status": "Assigned to Contractor",
    "contractor": "Waste Pro",
    "rowid": "1191946",
    "final_x": "3700111.45776",
    "final_y": "535220.600774",
    "longitude": "-90.00916738276443",
    "latitude": "29.96509280343922",
    "geocoded_column": {
      "latitude": "29.96509280343922",
      "longitude": "-90.00916738276443"
    }
  },
  {
    "service_request": "2025-1191945",
    "request_type": "Trash/Recycling",
    "request_reason": "Request a Large Item Pick Up",
    "date_created": "2025-05-13T16:44:41.000",
    "date_modified": "2025-05-13T19:28:26.000",
    "case_close_date": "2025-05-13T14:28:25.000",
    "request_status": "Closed",
    "responsible_agency": "Department of Sanitation",
    "final_address": "4608 Crowder Blvd",
    "address_councildis": "E",
    "status": "Duplicate Request",
    "contractor": "Waste Pro",
    "contractor_action": "Duplicate",
    "rowid": "1191945",
    "final_x": "3706421.20843",
    "final_y": "554703.914456",
    "longitude": "-89.98851960619247",
    "latitude": "30.018462601873857",
    "geocoded_column": {
      "latitude": "30.018462601873857",
      "longitude": "-89.98851960619247"
    }
  },
  {
    "service_request": "2025-1191944",
    "request_type": "Safety & Permits",
    "request_reason": "Licenses & Permits",
    "date_created": "2025-05-13T16:41:51.000",
    "date_modified": "2025-05-13T16:42:57.000",
    "request_status": "Pending",
    "responsible_agency": "Safety and Permits",
    "final_address": "9300 Olive St",
    "address_councildis": "A",
    "status": "Pending",
    "rowid": "1191944",
    "final_x": "3664073.22112",
    "final_y": "537021.237768",
    "longitude": "-90.12291456256565",
    "latitude": "29.971139895718146",
    "geocoded_column": {
      "latitude": "29.971139895718146",
      "longitude": "-90.12291456256565"
    }
  },
  {
    "service_request": "2025-1191943",
    "request_type": "Trash/Recycling",
    "request_reason": "Request a Large Item Pick Up",
    "date_created": "2025-05-13T16:41:10.000",
    "date_modified": "2025-05-13T16:41:12.000",
    "request_status": "Pending",
    "responsible_agency": "Department of Sanitation",
    "final_address": "7561 Dune Dr",
    "address_councildis": "E",
    "status": "Assigned to Contractor",
    "contractor": "Waste Pro",
    "rowid": "1191943",
    "final_x": "3715611.14546",
    "final_y": "568822.079269",
    "longitude": "-89.95894805533263",
    "latitude": "30.05698209242416",
    "geocoded_column": {
      "latitude": "30.05698209242416",
      "longitude": "-89.95894805533263"
    }
  },
  {
    "service_request": "2025-1191942",
    "request_type": "Drainage",
    "request_reason": "Ditch and Culvert Maintenance",
    "date_created": "2025-05-13T16:40:44.000",
    "date_modified": "2025-05-13T16:40:46.000",
    "request_status": "Pending",
    "responsible_agency": "Department of Public Works",
    "final_address": "1936 Lapeyrouse St",
    "address_councildis": "D",
    "status": "Pending",
    "rowid": "1191942",
    "final_x": "3681075.49723",
    "final_y": "538583.322057",
    "longitude": "-90.06916468119816",
    "latitude": "29.97493028131983",
    "geocoded_column": {
      "latitude": "29.97493028131983",
      "longitude": "-90.06916468119816"
    }
  },
  {
    "service_request": "2025-1191941",
    "request_type": "Property Maintenance",
    "request_reason": "Property Maintenance",
    "date_created": "2025-05-13T16:31:45.000",
    "date_modified": "2025-05-13T16:32:04.000",
    "request_status": "Pending",
    "responsible_agency": "Department of Code Enforcement",
    "final_address": "96 Morrison Ct",
    "address_councildis": "E",
    "status": "Pending",
    "rowid": "1191941",
    "final_x": "3703947.40932",
    "final_y": "561468.443231",
    "longitude": "-89.99608640731016",
    "latitude": "30.037142028864295",
    "geocoded_column": {
      "latitude": "30.037142028864295",
      "longitude": "-89.99608640731016"
    }
  },
  {
    "service_request": "2025-1191940",
    "request_type": "Property Maintenance",
    "request_reason": "Property Maintenance",
    "date_created": "2025-05-13T16:29:56.000",
    "date_modified": "2025-05-13T16:31:27.000",
    "request_status": "Pending",
    "responsible_agency": "Department of Code Enforcement",
    "final_address": "48 Morrison Ct",
    "address_councildis": "E",
    "status": "Pending",
    "rowid": "1191940",
    "final_x": "3704039.79594",
    "final_y": "561367.661342",
    "longitude": "-89.99579816478452",
    "latitude": "30.036861953283275",
    "geocoded_column": {
      "latitude": "30.036861953283275",
      "longitude": "-89.99579816478452"
    }
  },
  {
    "service_request": "2025-1191939",
    "request_type": "Property Maintenance",
    "request_reason": "Property Maintenance",
    "date_created": "2025-05-13T16:22:35.000",
    "date_modified": "2025-05-13T16:22:38.000",
    "request_status": "Pending",
    "responsible_agency": "Department of Code Enforcement",
    "final_address": "3028 Joseph St",
    "address_councildis": "A",
    "status": "Pending",
    "rowid": "1191939",
    "final_x": "3667891.16257",
    "final_y": "527004.727294",
    "longitude": "-90.11119434623926",
    "latitude": "29.943486333881946",
    "geocoded_column": {
      "latitude": "29.943486333881946",
      "longitude": "-90.11119434623926"
    }
  },
  {
    "service_request": "2025-1191938",
    "request_type": "Trash/Recycling",
    "request_reason": "Request a Large Item Pick Up",
    "date_created": "2025-05-13T16:19:01.000",
    "date_modified": "2025-05-13T16:19:04.000",
    "request_status": "Pending",
    "responsible_agency": "Department of Sanitation",
    "final_address": "6260 Kuebel Dr",
    "address_councildis": "E",
    "status": "Assigned to Contractor",
    "contractor": "Waste Pro",
    "rowid": "1191938",
    "final_x": "3695973.75318",
    "final_y": "559963.297373",
    "longitude": "-90.02133929091868",
    "latitude": "30.03325691531223",
    "geocoded_column": {
      "latitude": "30.03325691531223",
      "longitude": "-90.02133929091868"
    }
  },
  {
    "service_request": "2025-1191937",
    "request_type": "Trash/Recycling",
    "request_reason": "Request a Large Item Pick Up",
    "date_created": "2025-05-13T16:18:17.000",
    "date_modified": "2025-05-13T16:18:18.000",
    "request_status": "Pending",
    "responsible_agency": "Department of Sanitation",
    "final_address": "4724 Crowder Blvd",
    "address_councildis": "E",
    "status": "Assigned to Contractor",
    "contractor": "Waste Pro",
    "rowid": "1191937",
    "final_x": "3706335.09406",
    "final_y": "555549.775961",
    "longitude": "-89.98876033236083",
    "latitude": "30.02079117251032",
    "geocoded_column": {
      "latitude": "30.02079117251032",
      "longitude": "-89.98876033236083"
    }
  },
  {
    "service_request": "2025-1191936",
    "request_type": "Trash/Recycling",
    "request_reason": "Request a Large Item Pick Up",
    "date_created": "2025-05-13T16:17:53.000",
    "date_modified": "2025-05-13T16:17:55.000",
    "request_status": "Pending",
    "responsible_agency": "Department of Sanitation",
    "final_address": "5126 Piety Dr",
    "address_councildis": "D",
    "status": "Assigned to Contractor",
    "contractor": "IV Waste",
    "rowid": "1191936",
    "final_x": "3691115.03875",
    "final_y": "552805.570518",
    "longitude": "-90.03694917854254",
    "latitude": "30.013727926357994",
    "geocoded_column": {
      "latitude": "30.013727926357994",
      "longitude": "-90.03694917854254"
    }
  },
  {
    "service_request": "2025-1191935",
    "request_type": "Roads and Streets",
    "request_reason": "Pothole",
    "date_created": "2025-05-13T16:15:22.000",
    "date_modified": "2025-05-13T16:15:23.000",
    "request_status": "Pending",
    "responsible_agency": "Department of Public Works",
    "final_address": "HARBOURVIEW DR & WESTLAKE DR",
    "address_councildis": "E",
    "status": "Pending",
    "rowid": "1191935",
    "final_x": "3699532.3",
    "final_y": "556094.08",
    "longitude": "-90.01023517572722",
    "latitude": "30.022505539897985",
    "geocoded_column": {
      "latitude": "30.022505539897985",
      "longitude": "-90.01023517572722"
    }
  },
  {
    "service_request": "2025-1191934",
    "request_type": "Trash/Recycling",
    "request_reason": "Order Trash Cart",
    "date_created": "2025-05-13T16:14:46.000",
    "date_modified": "2025-05-13T16:14:48.000",
    "request_status": "Pending",
    "responsible_agency": "Department of Sanitation",
    "final_address": "388 Broadway St",
    "address_councildis": "A",
    "status": "Assigned to Contractor",
    "contractor": "IV Waste",
    "rowid": "1191934",
    "final_x": "3661925.8032",
    "final_y": "523252.688187",
    "longitude": "-90.13015302298862",
    "latitude": "29.9333430165629",
    "geocoded_column": {
      "latitude": "29.9333430165629",
      "longitude": "-90.13015302298862"
    }
  },
  {
    "service_request": "2025-1191933",
    "request_type": "Trash/Recycling",
    "request_reason": "Request a Large Item Pick Up",
    "date_created": "2025-05-13T16:14:20.000",
    "date_modified": "2025-05-13T16:14:22.000",
    "request_status": "Pending",
    "responsible_agency": "Department of Sanitation",
    "final_address": "4525 S Saratoga St",
    "address_councildis": "B",
    "status": "Assigned to Contractor",
    "contractor": "IV Waste",
    "rowid": "1191933",
    "final_x": "3670041.38663",
    "final_y": "522623.668538",
    "longitude": "-90.10455384483727",
    "latitude": "29.931376600555343",
    "geocoded_column": {
      "latitude": "29.931376600555343",
      "longitude": "-90.10455384483727"
    }
  },
  {
    "service_request": "2025-1191932",
    "request_type": "Roads and Streets",
    "request_reason": "Sidewalk Damaged or Missing",
    "date_created": "2025-05-13T16:09:35.000",
    "date_modified": "2025-05-13T16:10:57.000",
    "request_status": "Pending",
    "responsible_agency": "Department of Public Works",
    "final_address": "3442 Bennett St",
    "address_councildis": "C",
    "status": "Pending",
    "rowid": "1191932",
    "final_x": "3710462.66616",
    "final_y": "517928.183734",
    "longitude": "-89.9771255088155",
    "latitude": "29.917211883639347",
    "geocoded_column": {
      "latitude": "29.917211883639347",
      "longitude": "-89.9771255088155"
    }
  },
  {
    "service_request": "2025-1191931",
    "request_type": "Roads and Streets",
    "request_reason": "Street Subsidence (Sinking)",
    "date_created": "2025-05-13T16:09:35.000",
    "date_modified": "2025-05-13T16:10:30.000",
    "request_status": "Pending",
    "responsible_agency": "Department of Public Works",
    "final_address": "3442 Bennett St",
    "address_councildis": "C",
    "status": "Pending",
    "rowid": "1191931",
    "final_x": "3710462.66616",
    "final_y": "517928.183734",
    "longitude": "-89.9771255088155",
    "latitude": "29.917211883639347",
    "geocoded_column": {
      "latitude": "29.917211883639347",
      "longitude": "-89.9771255088155"
    }
  },
  {
    "service_request": "2025-1191930",
    "request_type": "Abandoned Vehicles",
    "request_reason": "Abandoned/Junk Vehicles",
    "date_created": "2025-05-13T16:09:11.000",
    "date_modified": "2025-05-13T16:10:48.000",
    "request_status": "Pending",
    "responsible_agency": "Department of Public Works",
    "final_address": "1400 BLK Bartholomew St",
    "address_councildis": "D",
    "status": "Pending",
    "rowid": "1191930",
    "final_x": "3692124.57077",
    "final_y": "536606.140814",
    "longitude": "-90.0343398184856",
    "latitude": "29.969153922547992",
    "geocoded_column": {
      "latitude": "29.969153922547992",
      "longitude": "-90.0343398184856"
    }
  },
  {
    "service_request": "2025-1191929",
    "request_type": "Trash/Recycling",
    "request_reason": "Request a Large Item Pick Up",
    "date_created": "2025-05-13T16:03:29.000",
    "date_modified": "2025-05-13T16:03:31.000",
    "request_status": "Pending",
    "responsible_agency": "Department of Sanitation",
    "final_address": "1111 S Peters St",
    "address_councildis": "B",
    "status": "Assigned to Contractor",
    "contractor": "IV Waste",
    "rowid": "1191929",
    "final_x": "3682291.57576",
    "final_y": "525914.435517",
    "longitude": "-90.0657666197599",
    "latitude": "29.940058210635538",
    "geocoded_column": {
      "latitude": "29.940058210635538",
      "longitude": "-90.0657666197599"
    }
  },
  {
    "service_request": "2025-1191928",
    "request_type": "Trash/Recycling",
    "request_reason": "Illegal Dumping",
    "date_created": "2025-05-13T15:59:31.000",
    "date_modified": "2025-05-13T15:59:33.000",
    "request_status": "Pending",
    "responsible_agency": "Department of Sanitation",
    "final_address": "5200 BLK Peoples Ave",
    "address_councildis": "D",
    "status": "Pending",
    "rowid": "1191928",
    "final_x": "3688033.90638",
    "final_y": "552469.308235",
    "longitude": "-90.0466958687811",
    "latitude": "30.012898819679805",
    "geocoded_column": {
      "latitude": "30.012898819679805",
      "longitude": "-90.0466958687811"
    }
  },
  {
    "service_request": "2025-1191927",
    "request_type": "Parks & Parkways",
    "request_reason": "Request Tree Service (Right of Way/Public Property)",
    "date_created": "2025-05-13T15:59:01.000",
    "date_modified": "2025-05-13T15:59:03.000",
    "request_status": "Pending",
    "responsible_agency": "Department of Parks & Parkway",
    "final_address": "1803 Murl St",
    "address_councildis": "C",
    "status": "Pending",
    "rowid": "1191927",
    "final_x": "3695296.79997",
    "final_y": "524704.366076",
    "longitude": "-90.02475098887847",
    "latitude": "29.9363289399961",
    "geocoded_column": {
      "latitude": "29.9363289399961",
      "longitude": "-90.02475098887847"
    }
  },
  {
    "service_request": "2025-1191926",
    "request_type": "Streetlights",
    "request_reason": "Streetlight Outage/Malfunction",
    "date_created": "2025-05-13T15:57:27.000",
    "date_modified": "2025-05-13T15:57:29.000",
    "request_status": "Pending",
    "responsible_agency": "Department of Public Works",
    "final_address": "TUPELO ST & ROYAL ST",
    "address_councildis": "E",
    "status": "Pending",
    "contractor": "Legacy Professional Services",
    "rowid": "1191926",
    "final_x": "3698917.6",
    "final_y": "531884.28",
    "longitude": "-90.01305889317709",
    "latitude": "29.95595699053841",
    "geocoded_column": {
      "latitude": "29.95595699053841",
      "longitude": "-90.01305889317709"
    }
  },
  {
    "service_request": "2025-1191925",
    "request_type": "Trash/Recycling",
    "request_reason": "Request a Large Item Pick Up",
    "date_created": "2025-05-13T15:57:27.000",
    "date_modified": "2025-05-13T15:57:28.000",
    "request_status": "Pending",
    "responsible_agency": "Department of Sanitation",
    "final_address": "409 30Th St",
    "address_councildis": "A",
    "status": "Assigned to Contractor",
    "contractor": "IV Waste",
    "rowid": "1191925",
    "final_x": "3664791.35943",
    "final_y": "550613.399316",
    "longitude": "-90.12019210332303",
    "latitude": "30.00849285241174",
    "geocoded_column": {
      "latitude": "30.00849285241174",
      "longitude": "-90.12019210332303"
    }
  },
  {
    "service_request": "2025-1191924",
    "request_type": "Abandoned Vehicles",
    "request_reason": "Abandoned/Junk Vehicles",
    "date_created": "2025-05-13T15:56:53.000",
    "date_modified": "2025-05-13T15:58:39.000",
    "request_status": "Pending",
    "responsible_agency": "Department of Public Works",
    "final_address": "1914 Law St",
    "address_councildis": "D",
    "status": "Pending",
    "rowid": "1191924",
    "final_x": "3681342.51605",
    "final_y": "541468.688652",
    "longitude": "-90.06822075547049",
    "latitude": "29.982855931925634",
    "geocoded_column": {
      "latitude": "29.982855931925634",
      "longitude": "-90.06822075547049"
    }
  },
  {
    "service_request": "2025-1191923",
    "request_type": "Trash/Recycling",
    "request_reason": "Request a Large Item Pick Up",
    "date_created": "2025-05-13T15:56:04.000",
    "date_modified": "2025-05-13T15:56:06.000",
    "request_status": "Pending",
    "responsible_agency": "Department of Sanitation",
    "final_address": "3722 Red Cypress Dr",
    "address_councildis": "C",
    "status": "Assigned to Contractor",
    "contractor": "Richards Disposal",
    "rowid": "1191923",
    "final_x": "3703129.14327",
    "final_y": "512292.060657",
    "longitude": "-90.00048001634853",
    "latitude": "29.901951098785116",
    "geocoded_column": {
      "latitude": "29.901951098785116",
      "longitude": "-90.00048001634853"
    }
  },
  {
    "service_request": "2025-1191922",
    "request_type": "Traffic Signals",
    "request_reason": "Traffic Signal Malfunctioning or Damaged",
    "date_created": "2025-05-13T15:55:48.000",
    "date_modified": "2025-05-13T15:55:51.000",
    "request_status": "Pending",
    "responsible_agency": "Department of Public Works",
    "final_address": "WASHINGTON AVE & EARHART BLVD",
    "address_councildis": "B",
    "status": "Pending",
    "rowid": "1191922",
    "final_x": "3670143.4",
    "final_y": "531994.58",
    "longitude": "-90.10391439397223",
    "latitude": "29.957140548523952",
    "geocoded_column": {
      "latitude": "29.957140548523952",
      "longitude": "-90.10391439397223"
    }
  },
  {
    "service_request": "2025-1191921",
    "request_type": "Trash/Recycling",
    "request_reason": "Request a Large Item Pick Up",
    "date_created": "2025-05-13T15:55:35.000",
    "date_modified": "2025-05-13T15:55:37.000",
    "request_status": "Pending",
    "responsible_agency": "Department of Sanitation",
    "final_address": "7344 Alabama St",
    "address_councildis": "D",
    "status": "Assigned to Contractor",
    "contractor": "Waste Pro",
    "rowid": "1191921",
    "final_x": "3695072.40086",
    "final_y": "557830.319387",
    "longitude": "-90.02426464859482",
    "latitude": "30.02742038681218",
    "geocoded_column": {
      "latitude": "30.02742038681218",
      "longitude": "-90.02426464859482"
    }
  },
  {
    "service_request": "2025-1191920",
    "request_type": "Trash/Recycling",
    "request_reason": "Request a Large Item Pick Up",
    "date_created": "2025-05-13T15:50:23.000",
    "date_modified": "2025-05-13T15:50:25.000",
    "request_status": "Pending",
    "responsible_agency": "Department of Sanitation",
    "final_address": "4706 W Adams Ct",
    "address_councildis": "E",
    "status": "Assigned to Contractor",
    "contractor": "Waste Pro",
    "rowid": "1191920",
    "final_x": "3718486.30373",
    "final_y": "556767.886682",
    "longitude": "-89.95032009037851",
    "latitude": "30.02374283268497",
    "geocoded_column": {
      "latitude": "30.02374283268497",
      "longitude": "-89.95032009037851"
    }
  },
  {
    "service_request": "2025-1191919",
    "request_type": "Trash/Recycling",
    "request_reason": "Illegal Dumping",
    "date_created": "2025-05-13T15:49:05.000",
    "date_modified": "2025-05-13T15:49:07.000",
    "request_status": "Pending",
    "responsible_agency": "Department of Sanitation",
    "final_address": "5225 N Rampart St",
    "address_councildis": "E",
    "status": "Pending",
    "rowid": "1191919",
    "final_x": "3696623.20362",
    "final_y": "533674.570821",
    "longitude": "-90.02023898244344",
    "latitude": "29.9609521507276",
    "geocoded_column": {
      "latitude": "29.9609521507276",
      "longitude": "-90.02023898244344"
    }
  },
  {
    "service_request": "2025-1191918",
    "request_type": "Safety & Permits",
    "request_reason": "Zoning Enforcement",
    "date_created": "2025-05-13T15:47:36.000",
    "date_modified": "2025-05-13T15:49:34.000",
    "request_status": "Pending",
    "responsible_agency": "Safety and Permits",
    "final_address": "1319 Feliciana St",
    "address_councildis": "C",
    "status": "Pending",
    "rowid": "1191918",
    "final_x": "3688985.67407",
    "final_y": "536950.48948",
    "longitude": "-90.04424041661866",
    "latitude": "29.970198232042723",
    "geocoded_column": {
      "latitude": "29.970198232042723",
      "longitude": "-90.04424041661866"
    }
  },
  {
    "service_request": "2025-1191917",
    "request_type": "Trash/Recycling",
    "request_reason": "Request a Large Item Pick Up",
    "date_created": "2025-05-13T15:47:24.000",
    "date_modified": "2025-05-13T15:47:26.000",
    "request_status": "Pending",
    "responsible_agency": "Department of Sanitation",
    "final_address": "4539 Rosemont Pl",
    "address_councildis": "E",
    "status": "Assigned to Contractor",
    "contractor": "Waste Pro",
    "rowid": "1191917",
    "final_x": "3702908.31569",
    "final_y": "553837.192855",
    "longitude": "-89.99965085230556",
    "latitude": "30.01619234595673",
    "geocoded_column": {
      "latitude": "30.01619234595673",
      "longitude": "-89.99965085230556"
    }
  },
  {
    "service_request": "2025-1191916",
    "request_type": "Trash/Recycling",
    "request_reason": "Request a Large Item Pick Up",
    "date_created": "2025-05-13T15:45:49.000",
    "date_modified": "2025-05-13T16:04:05.000",
    "request_status": "Pending",
    "responsible_agency": "Department of Sanitation",
    "final_address": "7702 Plum St",
    "address_councildis": "A",
    "status": "Assigned to Contractor",
    "contractor": "IV Waste",
    "rowid": "1191916",
    "final_x": "3663214.36826",
    "final_y": "527658.977535",
    "longitude": "-90.12593850557617",
    "latitude": "29.945421643477527",
    "geocoded_column": {
      "latitude": "29.945421643477527",
      "longitude": "-90.12593850557617"
    }
  },
  {
    "service_request": "2025-1191915",
    "request_type": "Trash/Recycling",
    "request_reason": "Repair Trash Cart",
    "date_created": "2025-05-13T15:40:46.000",
    "date_modified": "2025-05-13T15:40:48.000",
    "request_status": "Pending",
    "responsible_agency": "Department of Sanitation",
    "final_address": "7250 Bullard Ave",
    "address_councildis": "E",
    "status": "Assigned to Contractor",
    "contractor": "Waste Pro",
    "rowid": "1191915",
    "final_x": "3714063.66155",
    "final_y": "565967.703011",
    "longitude": "-89.96394719677748",
    "latitude": "30.049184670664566",
    "geocoded_column": {
      "latitude": "30.049184670664566",
      "longitude": "-89.96394719677748"
    }
  },
  {
    "service_request": "2025-1191914",
    "request_type": "Trash/Recycling",
    "request_reason": "Return Trash Cart",
    "date_created": "2025-05-13T15:39:58.000",
    "date_modified": "2025-05-13T15:39:59.000",
    "request_status": "Pending",
    "responsible_agency": "Department of Sanitation",
    "final_address": "3525 Silver Maple Ct",
    "address_councildis": "C",
    "status": "Assigned to Contractor",
    "contractor": "Richards Disposal",
    "rowid": "1191914",
    "final_x": "3703311.50346",
    "final_y": "512431.923825",
    "longitude": "-89.99989936500494",
    "latitude": "29.902329841186162",
    "geocoded_column": {
      "latitude": "29.902329841186162",
      "longitude": "-89.99989936500494"
    }
  },
  {
    "service_request": "2025-1191912",
    "request_type": "Roads and Streets",
    "request_reason": "Sidewalk Damaged or Missing",
    "date_created": "2025-05-13T15:39:11.000",
    "date_modified": "2025-05-13T15:47:32.000",
    "request_status": "Pending",
    "responsible_agency": "Department of Public Works",
    "final_address": "1750 St Charles Ave",
    "address_councildis": "B",
    "status": "Pending",
    "rowid": "1191912",
    "final_x": "3678708.23739",
    "final_y": "524583.7655",
    "longitude": "-90.07712582148702",
    "latitude": "29.93650781826905",
    "geocoded_column": {
      "latitude": "29.93650781826905",
      "longitude": "-90.07712582148702"
    }
  },
  {
    "service_request": "2025-1191911",
    "request_type": "Trash/Recycling",
    "request_reason": "Request a Large Item Pick Up",
    "date_created": "2025-05-13T15:39:07.000",
    "date_modified": "2025-05-13T15:39:09.000",
    "request_status": "Pending",
    "responsible_agency": "Department of Sanitation",
    "final_address": "6962 Boston Dr",
    "address_councildis": "E",
    "status": "Assigned to Contractor",
    "contractor": "Waste Pro",
    "rowid": "1191911",
    "final_x": "3706456.75787",
    "final_y": "560488.549662",
    "longitude": "-89.98819272087027",
    "latitude": "30.034366945709426",
    "geocoded_column": {
      "latitude": "30.034366945709426",
      "longitude": "-89.98819272087027"
    }
  },
  {
    "service_request": "2025-1191910",
    "request_type": "Streetlights",
    "request_reason": "Streetlight Outage/Malfunction",
    "date_created": "2025-05-13T15:33:07.000",
    "date_modified": "2025-05-13T15:33:09.000",
    "request_status": "Pending",
    "responsible_agency": "Department of Public Works",
    "final_address": "2819 Palmyra St",
    "address_councildis": "B",
    "status": "Pending",
    "contractor": "Legacy Professional Services",
    "rowid": "1191910",
    "final_x": "3674297.14504",
    "final_y": "534954.360646",
    "longitude": "-90.09069677144132",
    "latitude": "29.965155754395123",
    "geocoded_column": {
      "latitude": "29.965155754395123",
      "longitude": "-90.09069677144132"
    }
  },
  {
    "service_request": "2025-1191909",
    "request_type": "Health Related Request",
    "request_reason": "Homeless Encampment Complaint",
    "date_created": "2025-05-13T15:30:45.000",
    "date_modified": "2025-05-13T15:30:46.000",
    "request_status": "Pending",
    "responsible_agency": "Health Department",
    "final_address": "FLORIDA AVE & ELYSIAN FIELDS AV OVER",
    "address_councildis": "D",
    "status": "Pending",
    "rowid": "1191909",
    "final_x": "3684559.81",
    "final_y": "542199.2",
    "longitude": "-90.05803325020847",
    "latitude": "29.984766515387342",
    "geocoded_column": {
      "latitude": "29.984766515387342",
      "longitude": "-90.05803325020847"
    }
  },
  {
    "service_request": "2025-1191908",
    "request_type": "Property Maintenance",
    "request_reason": "Property Maintenance",
    "date_created": "2025-05-13T15:30:40.000",
    "date_modified": "2025-05-13T15:30:41.000",
    "request_status": "Pending",
    "responsible_agency": "Department of Code Enforcement",
    "final_address": "8328 Oleander St",
    "address_councildis": "A",
    "status": "Pending",
    "rowid": "1191908",
    "final_x": "3666050.77748",
    "final_y": "534262.327557",
    "longitude": "-90.11676165679455",
    "latitude": "29.963496216929403",
    "geocoded_column": {
      "latitude": "29.963496216929403",
      "longitude": "-90.11676165679455"
    }
  },
  {
    "service_request": "2025-1191907",
    "request_type": "Property Maintenance",
    "request_reason": "Property Maintenance",
    "date_created": "2025-05-13T15:30:22.000",
    "date_modified": "2025-05-13T15:30:25.000",
    "request_status": "Pending",
    "responsible_agency": "Department of Code Enforcement",
    "final_address": "DWYER RD & MAJESTIC OAKS DR",
    "address_councildis": "D",
    "status": "Pending",
    "rowid": "1191907",
    "final_x": "3697655.4",
    "final_y": "555140.28",
    "longitude": "-90.01620034144676",
    "latitude": "30.019942410062367",
    "geocoded_column": {
      "latitude": "30.019942410062367",
      "longitude": "-90.01620034144676"
    }
  },
  {
    "service_request": "2025-1191906",
    "request_type": "Abandoned Vehicles",
    "request_reason": "Abandoned/Junk Vehicles",
    "date_created": "2025-05-13T15:26:20.000",
    "date_modified": "2025-05-13T15:26:23.000",
    "request_status": "Pending",
    "responsible_agency": "Department of Public Works",
    "final_address": "2700 BLK Law St",
    "address_councildis": "D",
    "status": "Pending",
    "rowid": "1191906",
    "final_x": "3687276.04634",
    "final_y": "542045.647652",
    "longitude": "-90.0494592930144",
    "latitude": "29.984260896118716",
    "geocoded_column": {
      "latitude": "29.984260896118716",
      "longitude": "-90.0494592930144"
    }
  },
  {
    "service_request": "2025-1191905",
    "request_type": "Property Maintenance",
    "request_reason": "Property Maintenance",
    "date_created": "2025-05-13T15:23:24.000",
    "date_modified": "2025-05-13T15:23:26.000",
    "request_status": "Pending",
    "responsible_agency": "Department of Code Enforcement",
    "final_address": "8311 Colapissa St",
    "address_councildis": "A",
    "status": "Pending",
    "rowid": "1191905",
    "final_x": "3665895.0962",
    "final_y": "534039.397829",
    "longitude": "-90.11726075496544",
    "latitude": "29.96288777761268",
    "geocoded_column": {
      "latitude": "29.96288777761268",
      "longitude": "-90.11726075496544"
    }
  },
  {
    "service_request": "2025-1191904",
    "request_type": "Abandoned Vehicles",
    "request_reason": "Abandoned/Junk Vehicles",
    "date_created": "2025-05-13T15:23:08.000",
    "date_modified": "2025-05-13T15:23:10.000",
    "request_status": "Pending",
    "responsible_agency": "Department of Public Works",
    "final_address": "2707 Ap Tureaud Ave",
    "address_councildis": "D",
    "status": "Pending",
    "rowid": "1191904",
    "final_x": "3681577.03189",
    "final_y": "542410.180941",
    "longitude": "-90.06744718382178",
    "latitude": "29.985437584083325",
    "geocoded_column": {
      "latitude": "29.985437584083325",
      "longitude": "-90.06744718382178"
    }
  },
  {
    "service_request": "2025-1191903",
    "request_type": "Property Maintenance",
    "request_reason": "Property Maintenance",
    "date_created": "2025-05-13T15:21:24.000",
    "date_modified": "2025-05-13T15:21:26.000",
    "request_status": "Pending",
    "responsible_agency": "Department of Code Enforcement",
    "final_address": "8307 Colapissa St",
    "address_councildis": "A",
    "status": "Pending",
    "rowid": "1191903",
    "final_x": "3665922.26023",
    "final_y": "534014.931013",
    "longitude": "-90.11717579409388",
    "latitude": "29.962819709193273",
    "geocoded_column": {
      "latitude": "29.962819709193273",
      "longitude": "-90.11717579409388"
    }
  },
  {
    "service_request": "2025-1191902",
    "request_type": "Roads and Streets",
    "request_reason": "Pothole",
    "date_created": "2025-05-13T15:20:03.000",
    "date_modified": "2025-05-13T15:20:05.000",
    "request_status": "Pending",
    "responsible_agency": "Department of Public Works",
    "final_address": "3316 W St Roch Ave",
    "address_councildis": "D",
    "status": "Pending",
    "rowid": "1191902",
    "final_x": "3685589.36022",
    "final_y": "545005.818575",
    "longitude": "-90.0546824300702",
    "latitude": "29.992452170625608",
    "geocoded_column": {
      "latitude": "29.992452170625608",
      "longitude": "-90.0546824300702"
    }
  },
  {
    "service_request": "2025-1191901",
    "request_type": "Roads and Streets",
    "request_reason": "Pothole",
    "date_created": "2025-05-13T15:16:22.000",
    "date_modified": "2025-05-13T15:16:26.000",
    "request_status": "Pending",
    "responsible_agency": "Department of Public Works",
    "final_address": "3400 W St Roch Ave",
    "address_councildis": "D",
    "status": "Pending",
    "rowid": "1191901",
    "final_x": "3685552.37148",
    "final_y": "545287.659471",
    "longitude": "-90.05478933635803",
    "latitude": "29.993228267253773",
    "geocoded_column": {
      "latitude": "29.993228267253773",
      "longitude": "-90.05478933635803"
    }
  },
  {
    "service_request": "2025-1191900",
    "request_type": "Trash/Recycling",
    "request_reason": "Repair Trash Cart",
    "date_created": "2025-05-13T15:14:40.000",
    "date_modified": "2025-05-13T15:14:41.000",
    "request_status": "Pending",
    "responsible_agency": "Department of Sanitation",
    "final_address": "221 Cypress Grove Ct",
    "address_councildis": "C",
    "status": "Assigned to Contractor",
    "contractor": "Richards Disposal",
    "rowid": "1191900",
    "final_x": "3704621.6899",
    "final_y": "511932.201648",
    "longitude": "-89.99578291326",
    "latitude": "29.900913785959",
    "geocoded_column": {
      "latitude": "29.900913785959",
      "longitude": "-89.99578291326"
    }
  },
  {
    "service_request": "2025-1191899",
    "request_type": "Trash/Recycling",
    "request_reason": "Dead Animal Pick Up",
    "date_created": "2025-05-13T15:14:17.000",
    "date_modified": "2025-05-13T15:14:19.000",
    "request_status": "Pending",
    "responsible_agency": "Department of Sanitation",
    "final_address": "6040 Wales St",
    "address_councildis": "E",
    "status": "Assigned to Contractor",
    "contractor": "Waste Pro",
    "rowid": "1191899",
    "final_x": "3695284.00758",
    "final_y": "559451.573917",
    "longitude": "-90.0235374315557",
    "latitude": "30.031871569216527",
    "geocoded_column": {
      "latitude": "30.031871569216527",
      "longitude": "-90.0235374315557"
    }
  },
  {
    "service_request": "2025-1191898",
    "request_type": "Trash/Recycling",
    "request_reason": "Order Recycling Cart",
    "date_created": "2025-05-13T15:12:45.000",
    "date_modified": "2025-05-13T15:12:48.000",
    "request_status": "Pending",
    "responsible_agency": "Department of Sanitation",
    "final_address": "2140 Farragut St",
    "address_councildis": "C",
    "status": "Pending",
    "rowid": "1191898",
    "final_x": "3692244.47709",
    "final_y": "523056.176251",
    "longitude": "-90.03444621993793",
    "latitude": "29.931892474722513",
    "geocoded_column": {
      "latitude": "29.931892474722513",
      "longitude": "-90.03444621993793"
    }
  },
  {
    "service_request": "2025-1191897",
    "request_type": "Trash/Recycling",
    "request_reason": "Order Recycling Cart",
    "date_created": "2025-05-13T15:12:19.000",
    "date_modified": "2025-05-13T15:12:21.000",
    "request_status": "Pending",
    "responsible_agency": "Department of Sanitation",
    "final_address": "2923 Dumaine St",
    "address_councildis": "A",
    "status": "Pending",
    "rowid": "1191897",
    "final_x": "3676312.86817",
    "final_y": "538214.974729",
    "longitude": "-90.0842189730604",
    "latitude": "29.974061072074036",
    "geocoded_column": {
      "latitude": "29.974061072074036",
      "longitude": "-90.0842189730604"
    }
  },
  {
    "service_request": "2025-1191896",
    "request_type": "Trash/Recycling",
    "request_reason": "MIssed Recycling Pick-Up",
    "date_created": "2025-05-13T15:10:31.000",
    "date_modified": "2025-05-13T15:10:32.000",
    "request_status": "Pending",
    "responsible_agency": "Department of Sanitation",
    "final_address": "7680 Vincent Rd",
    "address_councildis": "E",
    "status": "Assigned to Contractor",
    "contractor": "Waste Pro",
    "rowid": "1191896",
    "final_x": "3718262.38277",
    "final_y": "571717.571304",
    "longitude": "-89.95045752989452",
    "latitude": "30.0648557845783",
    "geocoded_column": {
      "latitude": "30.0648557845783",
      "longitude": "-89.95045752989452"
    }
  },
  {
    "service_request": "2025-1191895",
    "request_type": "Trash/Recycling",
    "request_reason": "Order Second Trash Cart",
    "date_created": "2025-05-13T15:10:12.000",
    "date_modified": "2025-05-13T15:10:14.000",
    "request_status": "Pending",
    "responsible_agency": "Department of Sanitation",
    "final_address": "2140 Farragut St",
    "address_councildis": "C",
    "status": "Assigned to Contractor",
    "contractor": "Richards Disposal",
    "rowid": "1191895",
    "final_x": "3692244.47709",
    "final_y": "523056.176251",
    "longitude": "-90.03444621993793",
    "latitude": "29.931892474722513",
    "geocoded_column": {
      "latitude": "29.931892474722513",
      "longitude": "-90.03444621993793"
    }
  },
  {
    "service_request": "2025-1191894",
    "request_type": "Trash/Recycling",
    "request_reason": "Illegal Dumping",
    "date_created": "2025-05-13T15:09:29.000",
    "date_modified": "2025-05-13T15:09:31.000",
    "request_status": "Pending",
    "responsible_agency": "Department of Sanitation",
    "final_address": "JOURDAN AVE & N MIRO ST",
    "address_councildis": "E",
    "status": "Pending",
    "rowid": "1191894",
    "final_x": "3696186.7",
    "final_y": "538614.68",
    "longitude": "-90.02143876544172",
    "latitude": "29.97454943753652",
    "geocoded_column": {
      "latitude": "29.97454943753652",
      "longitude": "-90.02143876544172"
    }
  },
  {
    "service_request": "2025-1191893",
    "request_type": "Trash/Recycling",
    "request_reason": "Request a Large Item Pick Up",
    "date_created": "2025-05-13T15:09:29.000",
    "date_modified": "2025-05-13T15:09:31.000",
    "request_status": "Pending",
    "responsible_agency": "Department of Sanitation",
    "final_address": "2140 Farragut St",
    "address_councildis": "C",
    "status": "Assigned to Contractor",
    "contractor": "Richards Disposal",
    "rowid": "1191893",
    "final_x": "3692244.47709",
    "final_y": "523056.176251",
    "longitude": "-90.03444621993793",
    "latitude": "29.931892474722513",
    "geocoded_column": {
      "latitude": "29.931892474722513",
      "longitude": "-90.03444621993793"
    }
  },
  {
    "service_request": "2025-1191892",
    "request_type": "Roads and Streets",
    "request_reason": "Sidewalk Damaged or Missing",
    "date_created": "2025-05-13T15:08:43.000",
    "date_modified": "2025-05-13T15:08:46.000",
    "request_status": "Pending",
    "responsible_agency": "Department of Public Works",
    "final_address": "100 BLK Saint Charles Ave",
    "address_councildis": "B",
    "status": "Pending",
    "rowid": "1191892",
    "final_x": "3681062.49217",
    "final_y": "530483.990329",
    "longitude": "-90.06948789541192",
    "latitude": "29.952660283089788",
    "geocoded_column": {
      "latitude": "29.952660283089788",
      "longitude": "-90.06948789541192"
    }
  },
  {
    "service_request": "2025-1191891",
    "request_type": "Streetlights",
    "request_reason": "Streetlight Outage/Malfunction",
    "date_created": "2025-05-13T15:04:56.000",
    "date_modified": "2025-05-13T15:04:57.000",
    "request_status": "Pending",
    "responsible_agency": "Department of Public Works",
    "final_address": "7823 Devine Ave",
    "address_councildis": "E",
    "status": "Pending",
    "contractor": "Legacy Professional Services",
    "rowid": "1191891",
    "final_x": "3705425.07659",
    "final_y": "563642.499297",
    "longitude": "-89.99133621752583",
    "latitude": "30.043072323821633",
    "geocoded_column": {
      "latitude": "30.043072323821633",
      "longitude": "-89.99133621752583"
    }
  },
  {
    "service_request": "2025-1191890",
    "request_type": "Trash/Recycling",
    "request_reason": "Request a Large Item Pick Up",
    "date_created": "2025-05-13T15:03:31.000",
    "date_modified": "2025-05-13T15:03:33.000",
    "request_status": "Pending",
    "responsible_agency": "Department of Sanitation",
    "final_address": "6405 General Diaz St",
    "address_councildis": "A",
    "status": "Assigned to Contractor",
    "contractor": "IV Waste",
    "rowid": "1191890",
    "final_x": "3669856.79879",
    "final_y": "550052.11554",
    "longitude": "-90.10420774794311",
    "latitude": "30.006801083889535",
    "geocoded_column": {
      "latitude": "30.006801083889535",
      "longitude": "-90.10420774794311"
    }
  },
  {
    "service_request": "2025-1191889",
    "request_type": "Trash/Recycling",
    "request_reason": "Request a Large Item Pick Up",
    "date_created": "2025-05-13T14:57:02.000",
    "date_modified": "2025-05-13T14:57:03.000",
    "request_status": "Pending",
    "responsible_agency": "Department of Sanitation",
    "final_address": "3625 Bruxelles St",
    "address_councildis": "D",
    "status": "Assigned to Contractor",
    "contractor": "IV Waste",
    "rowid": "1191889",
    "final_x": "3680124.12424",
    "final_y": "545736.135376",
    "longitude": "-90.07192066946656",
    "latitude": "29.994626844396876",
    "geocoded_column": {
      "latitude": "29.994626844396876",
      "longitude": "-90.07192066946656"
    }
  },
  {
    "service_request": "2025-1191888",
    "request_type": "Trash/Recycling",
    "request_reason": "Repair Trash Cart",
    "date_created": "2025-05-13T14:55:18.000",
    "date_modified": "2025-05-13T15:34:54.000",
    "request_status": "Pending",
    "responsible_agency": "Department of Sanitation",
    "final_address": "3026 Short St",
    "address_councildis": "B",
    "status": "Assigned to Contractor",
    "contractor": "IV Waste",
    "rowid": "1191888",
    "final_x": "3666728.53447",
    "final_y": "533047.69786",
    "longitude": "-90.11466215947783",
    "latitude": "29.960136581523482",
    "geocoded_column": {
      "latitude": "29.960136581523482",
      "longitude": "-90.11466215947783"
    }
  },
  {
    "service_request": "2025-1191887",
    "request_type": "Streetlights",
    "request_reason": "Streetlight Outage/Malfunction",
    "date_created": "2025-05-13T14:54:57.000",
    "date_modified": "2025-05-13T14:55:30.000",
    "request_status": "Pending",
    "responsible_agency": "Department of Public Works",
    "final_address": "2929 Prytania St",
    "address_councildis": "B",
    "status": "Pending",
    "contractor": "Legacy Professional Services",
    "rowid": "1191887",
    "final_x": "3675546.94779",
    "final_y": "521714.267449",
    "longitude": "-90.08720466792353",
    "latitude": "29.92871255204416",
    "geocoded_column": {
      "latitude": "29.92871255204416",
      "longitude": "-90.08720466792353"
    }
  },
  {
    "service_request": "2025-1191886",
    "request_type": "Trash/Recycling",
    "request_reason": "Repair Recycling Cart",
    "date_created": "2025-05-13T14:53:36.000",
    "date_modified": "2025-05-13T14:53:38.000",
    "request_status": "Pending",
    "responsible_agency": "Department of Sanitation",
    "final_address": "7329 Freret St",
    "address_councildis": "A",
    "status": "Pending",
    "rowid": "1191886",
    "final_x": "3663336.63283",
    "final_y": "526232.57523",
    "longitude": "-90.12559994405672",
    "latitude": "29.941495950090044",
    "geocoded_column": {
      "latitude": "29.941495950090044",
      "longitude": "-90.12559994405672"
    }
  },
  {
    "service_request": "2025-1191885",
    "request_type": "Trash/Recycling",
    "request_reason": "Request a Large Item Pick Up",
    "date_created": "2025-05-13T14:52:28.000",
    "date_modified": "2025-05-13T14:52:29.000",
    "request_status": "Pending",
    "responsible_agency": "Department of Sanitation",
    "final_address": "4396 Genoa St",
    "address_councildis": "E",
    "status": "Assigned to Contractor",
    "contractor": "Waste Pro",
    "rowid": "1191885",
    "final_x": "3761099.97801",
    "final_y": "574253.600682",
    "longitude": "-89.81494088401094",
    "latitude": "30.07033757902981",
    "geocoded_column": {
      "latitude": "30.07033757902981",
      "longitude": "-89.81494088401094"
    }
  },
  {
    "service_request": "2025-1191884",
    "request_type": "Trash/Recycling",
    "request_reason": "Repair Recycling Cart",
    "date_created": "2025-05-13T14:52:14.000",
    "date_modified": "2025-05-13T14:52:16.000",
    "request_status": "Pending",
    "responsible_agency": "Department of Sanitation",
    "final_address": "7323 Freret St",
    "address_councildis": "A",
    "status": "Pending",
    "rowid": "1191884",
    "final_x": "3663407.35904",
    "final_y": "526285.910782",
    "longitude": "-90.12537487123426",
    "latitude": "29.941640555868076",
    "geocoded_column": {
      "latitude": "29.941640555868076",
      "longitude": "-90.12537487123426"
    }
  },
  {
    "service_request": "2025-1191883",
    "request_type": "Trash/Recycling",
    "request_reason": "Request a Large Item Pick Up",
    "date_created": "2025-05-13T14:47:41.000",
    "date_modified": "2025-05-13T14:47:43.000",
    "request_status": "Pending",
    "responsible_agency": "Department of Sanitation",
    "final_address": "5510 Bentley Dr",
    "address_councildis": "E",
    "status": "Assigned to Contractor",
    "contractor": "Waste Pro",
    "rowid": "1191883",
    "final_x": "3703962.66794",
    "final_y": "556461.620826",
    "longitude": "-89.9962228255209",
    "latitude": "30.023374727481794",
    "geocoded_column": {
      "latitude": "30.023374727481794",
      "longitude": "-89.9962228255209"
    }
  },
  {
    "service_request": "2025-1191882",
    "request_type": "Trash/Recycling",
    "request_reason": "Request a Large Item Pick Up",
    "date_created": "2025-05-13T14:47:07.000",
    "date_modified": "2025-05-13T14:47:10.000",
    "request_status": "Pending",
    "responsible_agency": "Department of Sanitation",
    "final_address": "3221 Delachaise St",
    "address_councildis": "B",
    "status": "Assigned to Contractor",
    "contractor": "IV Waste",
    "rowid": "1191882",
    "final_x": "3671663.1627",
    "final_y": "526953.794558",
    "longitude": "-90.09928686619726",
    "latitude": "29.943235122654364",
    "geocoded_column": {
      "latitude": "29.943235122654364",
      "longitude": "-90.09928686619726"
    }
  },
  {
    "service_request": "2025-1191881",
    "request_type": "Trash/Recycling",
    "request_reason": "Repair Trash Cart",
    "date_created": "2025-05-13T14:47:03.000",
    "date_modified": "2025-05-13T14:47:05.000",
    "request_status": "Pending",
    "responsible_agency": "Department of Sanitation",
    "final_address": "7329 Freret St",
    "address_councildis": "A",
    "status": "Assigned to Contractor",
    "contractor": "IV Waste",
    "rowid": "1191881",
    "final_x": "3663336.63283",
    "final_y": "526232.57523",
    "longitude": "-90.12559994405672",
    "latitude": "29.941495950090044",
    "geocoded_column": {
      "latitude": "29.941495950090044",
      "longitude": "-90.12559994405672"
    }
  },
  {
    "service_request": "2025-1191880",
    "request_type": "Roads and Streets",
    "request_reason": "Pothole",
    "date_created": "2025-05-13T14:46:43.000",
    "date_modified": "2025-05-13T14:46:45.000",
    "request_status": "Pending",
    "responsible_agency": "Department of Public Works",
    "final_address": "LAFRENIERE ST & MARIGNY ST",
    "address_councildis": "D",
    "status": "Pending",
    "rowid": "1191880",
    "final_x": "3684675.9",
    "final_y": "545547.28",
    "longitude": "-90.05754882886455",
    "latitude": "29.99396899286492",
    "geocoded_column": {
      "latitude": "29.99396899286492",
      "longitude": "-90.05754882886455"
    }
  },
  {
    "service_request": "2025-1191879",
    "request_type": "Trash/Recycling",
    "request_reason": "Repair Trash Cart",
    "date_created": "2025-05-13T14:46:03.000",
    "date_modified": "2025-05-13T14:46:05.000",
    "request_status": "Pending",
    "responsible_agency": "Department of Sanitation",
    "final_address": "7323 Freret St",
    "address_councildis": "A",
    "status": "Assigned to Contractor",
    "contractor": "IV Waste",
    "rowid": "1191879",
    "final_x": "3663407.35904",
    "final_y": "526285.910782",
    "longitude": "-90.12537487123426",
    "latitude": "29.941640555868076",
    "geocoded_column": {
      "latitude": "29.941640555868076",
      "longitude": "-90.12537487123426"
    }
  },
  {
    "service_request": "2025-1191878",
    "request_type": "Abandoned Vehicles",
    "request_reason": "Abandoned/Junk Vehicles",
    "date_created": "2025-05-13T14:42:40.000",
    "date_modified": "2025-05-13T14:42:41.000",
    "request_status": "Pending",
    "responsible_agency": "Department of Public Works",
    "final_address": "301 Elmira Ave",
    "address_councildis": "C",
    "status": "Pending",
    "rowid": "1191878",
    "final_x": "3687976.54588",
    "final_y": "530592.813186",
    "longitude": "-90.04765262677662",
    "latitude": "29.95274800544382",
    "geocoded_column": {
      "latitude": "29.95274800544382",
      "longitude": "-90.04765262677662"
    }
  },
  {
    "service_request": "2025-1191877",
    "request_type": "Trash/Recycling",
    "request_reason": "Request a Large Item Pick Up",
    "date_created": "2025-05-13T14:42:35.000",
    "date_modified": "2025-05-13T16:43:11.000",
    "request_status": "Pending",
    "responsible_agency": "Department of Sanitation",
    "final_address": "2259 Mithra St",
    "address_councildis": "D",
    "status": "Assigned to Contractor",
    "contractor": "IV Waste",
    "rowid": "1191877",
    "final_x": "3684251.48233",
    "final_y": "552761.75087",
    "longitude": "-90.05863597886017",
    "latitude": "30.013819170325803",
    "geocoded_column": {
      "latitude": "30.013819170325803",
      "longitude": "-90.05863597886017"
    }
  },
  {
    "service_request": "2025-1191876",
    "request_type": "Trash/Recycling",
    "request_reason": "Repair Trash Cart",
    "date_created": "2025-05-13T14:42:04.000",
    "date_modified": "2025-05-13T14:42:06.000",
    "request_status": "Pending",
    "responsible_agency": "Department of Sanitation",
    "final_address": "2222 Dublin St",
    "address_councildis": "A",
    "status": "Assigned to Contractor",
    "contractor": "IV Waste",
    "rowid": "1191876",
    "final_x": "3664198.94266",
    "final_y": "531415.261827",
    "longitude": "-90.12270457023061",
    "latitude": "29.95572164824",
    "geocoded_column": {
      "latitude": "29.95572164824",
      "longitude": "-90.12270457023061"
    }
  },
  {
    "service_request": "2025-1191875",
    "request_type": "Abandoned Vehicles",
    "request_reason": "Abandoned/Junk Vehicles",
    "date_created": "2025-05-13T14:38:31.000",
    "date_modified": "2025-05-13T14:38:33.000",
    "request_status": "Pending",
    "responsible_agency": "Department of Public Works",
    "final_address": "7600 Gannon Rd",
    "address_councildis": "E",
    "status": "Pending",
    "rowid": "1191875",
    "final_x": "3716469.08671",
    "final_y": "569659.73431",
    "longitude": "-89.95620443875303",
    "latitude": "30.059256974348585",
    "geocoded_column": {
      "latitude": "30.059256974348585",
      "longitude": "-89.95620443875303"
    }
  },
  {
    "service_request": "2025-1191874",
    "request_type": "Trash/Recycling",
    "request_reason": "Request a Large Item Pick Up",
    "date_created": "2025-05-13T14:37:55.000",
    "date_modified": "2025-05-13T14:37:57.000",
    "request_status": "Pending",
    "responsible_agency": "Department of Sanitation",
    "final_address": "2807 St Peter St",
    "address_councildis": "A",
    "status": "Assigned to Contractor",
    "contractor": "IV Waste",
    "rowid": "1191874",
    "final_x": "3676169.75413",
    "final_y": "537278.88692",
    "longitude": "-90.08470317602861",
    "latitude": "29.97149143921875",
    "geocoded_column": {
      "latitude": "29.97149143921875",
      "longitude": "-90.08470317602861"
    }
  },
  {
    "service_request": "2025-1191873",
    "request_type": "Roads and Streets",
    "request_reason": "Pothole",
    "date_created": "2025-05-13T14:36:29.000",
    "date_modified": "2025-05-13T14:36:31.000",
    "request_status": "Pending",
    "responsible_agency": "Department of Public Works",
    "final_address": "3400 BLK Mandeville St",
    "address_councildis": "D",
    "status": "Pending",
    "rowid": "1191873",
    "final_x": "3685049.79751",
    "final_y": "545389.36767",
    "longitude": "-90.0563733009662",
    "latitude": "29.993523338328735",
    "geocoded_column": {
      "latitude": "29.993523338328735",
      "longitude": "-90.0563733009662"
    }
  },
  {
    "service_request": "2025-1191872",
    "request_type": "Trash/Recycling",
    "request_reason": "Request a Large Item Pick Up",
    "date_created": "2025-05-13T14:35:31.000",
    "date_modified": "2025-05-13T14:35:33.000",
    "request_status": "Pending",
    "responsible_agency": "Department of Sanitation",
    "final_address": "4152 Bienville Ave",
    "address_councildis": "A",
    "status": "Assigned to Contractor",
    "contractor": "IV Waste",
    "rowid": "1191872",
    "final_x": "3671194.69588",
    "final_y": "539172.43905",
    "longitude": "-90.10035082541633",
    "latitude": "29.97684619857511",
    "geocoded_column": {
      "latitude": "29.97684619857511",
      "longitude": "-90.10035082541633"
    }
  },
  {
    "service_request": "2025-1191871",
    "request_type": "Mosquito, Termite & Rodent Control",
    "request_reason": "Rodent Complaint (Rats)",
    "date_created": "2025-05-13T14:33:55.000",
    "date_modified": "2025-05-13T14:33:57.000",
    "request_status": "Pending",
    "responsible_agency": "Mosquito, Termite & Rodent Control Board",
    "final_address": "5205 St Claude Ave",
    "address_councildis": "E",
    "status": "Pending",
    "rowid": "1191871",
    "final_x": "3696638.59069",
    "final_y": "534265.221253",
    "longitude": "-90.02016901798207",
    "latitude": "29.96257574522653",
    "geocoded_column": {
      "latitude": "29.96257574522653",
      "longitude": "-90.02016901798207"
    }
  },
  {
    "service_request": "2025-1191870",
    "request_type": "Trash/Recycling",
    "request_reason": "Request a Large Item Pick Up",
    "date_created": "2025-05-13T14:33:13.000",
    "date_modified": "2025-05-13T19:42:15.000",
    "case_close_date": "2025-05-13T14:42:14.000",
    "request_status": "Closed",
    "responsible_agency": "Department of Sanitation",
    "final_address": "4396 Genoa St",
    "address_councildis": "E",
    "status": "Assigned to Contractor",
    "contractor": "Waste Pro",
    "contractor_action": "Completed",
    "rowid": "1191870",
    "final_x": "3761099.97801",
    "final_y": "574253.600682",
    "longitude": "-89.81494088401094",
    "latitude": "30.07033757902981",
    "geocoded_column": {
      "latitude": "30.07033757902981",
      "longitude": "-89.81494088401094"
    }
  },
  {
    "service_request": "2025-1191869",
    "request_type": "Property Maintenance",
    "request_reason": "Property Maintenance",
    "date_created": "2025-05-13T14:31:27.000",
    "date_modified": "2025-05-13T14:41:15.000",
    "case_close_date": "2025-05-13T09:41:11.000",
    "request_status": "Closed",
    "responsible_agency": "Department of Code Enforcement",
    "final_address": "3026 N Roman St",
    "address_councildis": "D",
    "status": "Referred to Code Enforcement",
    "rowid": "1191869",
    "final_x": "3689285.25692",
    "final_y": "538674.234761",
    "longitude": "-90.04323301413655",
    "latitude": "29.97492865350749",
    "geocoded_column": {
      "latitude": "29.97492865350749",
      "longitude": "-90.04323301413655"
    }
  },
  {
    "service_request": "2025-1191868",
    "request_type": "Trash/Recycling",
    "request_reason": "Request a Large Item Pick Up",
    "date_created": "2025-05-13T14:29:21.000",
    "date_modified": "2025-05-13T14:29:22.000",
    "request_status": "Pending",
    "responsible_agency": "Department of Sanitation",
    "final_address": "2730 Milan St",
    "address_councildis": "B",
    "status": "Assigned to Contractor",
    "contractor": "IV Waste",
    "rowid": "1191868",
    "final_x": "3671149.32699",
    "final_y": "525057.223357",
    "longitude": "-90.10097357987304",
    "latitude": "29.938035374522183",
    "geocoded_column": {
      "latitude": "29.938035374522183",
      "longitude": "-90.10097357987304"
    }
  },
  {
    "service_request": "2025-1191867",
    "request_type": "Streetlights",
    "request_reason": "Streetlight Outage/Malfunction",
    "date_created": "2025-05-13T14:29:20.000",
    "date_modified": "2025-05-13T14:29:23.000",
    "request_status": "Pending",
    "responsible_agency": "Department of Public Works",
    "final_address": "2432 Constance St",
    "address_councildis": "B",
    "status": "Pending",
    "contractor": "Legacy Professional Services",
    "rowid": "1191867",
    "final_x": "3678078.43509",
    "final_y": "521011.491641",
    "longitude": "-90.07923756575632",
    "latitude": "29.92670420492132",
    "geocoded_column": {
      "latitude": "29.92670420492132",
      "longitude": "-90.07923756575632"
    }
  },
  {
    "service_request": "2025-1191866",
    "request_type": "Abandoned Vehicles",
    "request_reason": "Abandoned/Junk Vehicles",
    "date_created": "2025-05-13T14:28:17.000",
    "date_modified": "2025-05-13T14:32:00.000",
    "request_status": "Pending",
    "responsible_agency": "Department of Public Works",
    "final_address": "HAYNE BLVD & MERCIER ST",
    "address_councildis": "E",
    "status": "Pending",
    "rowid": "1191866",
    "final_x": "3710599.9",
    "final_y": "567751.38",
    "longitude": "-89.97482784001252",
    "latitude": "30.054202425509644",
    "geocoded_column": {
      "latitude": "30.054202425509644",
      "longitude": "-89.97482784001252"
    }
  },
  {
    "service_request": "2025-1191865",
    "request_type": "Trash/Recycling",
    "request_reason": "Return Recycling Cart",
    "date_created": "2025-05-13T14:26:31.000",
    "date_modified": "2025-05-13T14:26:33.000",
    "request_status": "Pending",
    "responsible_agency": "Department of Sanitation",
    "final_address": "3247 Ponce De Leon St",
    "address_councildis": "A",
    "status": "Pending",
    "rowid": "1191865",
    "final_x": "3675594.29141",
    "final_y": "540609.532747",
    "longitude": "-90.08640610699837",
    "latitude": "29.98066680549844",
    "geocoded_column": {
      "latitude": "29.98066680549844",
      "longitude": "-90.08640610699837"
    }
  },
  {
    "service_request": "2025-1191864",
    "request_type": "Trash/Recycling",
    "request_reason": "Request a Large Item Pick Up",
    "date_created": "2025-05-13T14:24:35.000",
    "date_modified": "2025-05-13T14:24:37.000",
    "request_status": "Pending",
    "responsible_agency": "Department of Sanitation",
    "final_address": "1764 N Broad St",
    "address_councildis": "D",
    "status": "Assigned to Contractor",
    "contractor": "IV Waste",
    "rowid": "1191864",
    "final_x": "3679923.58811",
    "final_y": "541118.288652",
    "longitude": "-90.07271462271916",
    "latitude": "29.981935454460984",
    "geocoded_column": {
      "latitude": "29.981935454460984",
      "longitude": "-90.07271462271916"
    }
  },
  {
    "service_request": "2025-1191863",
    "request_type": "Trash/Recycling",
    "request_reason": "Request a Large Item Pick Up",
    "date_created": "2025-05-13T14:24:19.000",
    "date_modified": "2025-05-13T14:24:21.000",
    "request_status": "Pending",
    "responsible_agency": "Department of Sanitation",
    "final_address": "4779 Camelot Dr",
    "address_councildis": "E",
    "status": "Assigned to Contractor",
    "contractor": "Waste Pro",
    "rowid": "1191863",
    "final_x": "3708413.18206",
    "final_y": "555930.389593",
    "longitude": "-89.98218006169371",
    "latitude": "30.021770498171605",
    "geocoded_column": {
      "latitude": "30.021770498171605",
      "longitude": "-89.98218006169371"
    }
  },
  {
    "service_request": "2025-1191862",
    "request_type": "Trash/Recycling",
    "request_reason": "Return Trash Cart",
    "date_created": "2025-05-13T14:23:52.000",
    "date_modified": "2025-05-13T14:23:54.000",
    "request_status": "Pending",
    "responsible_agency": "Department of Sanitation",
    "final_address": "3247 Ponce De Leon St",
    "address_councildis": "A",
    "status": "Assigned to Contractor",
    "contractor": "IV Waste",
    "rowid": "1191862",
    "final_x": "3675594.29141",
    "final_y": "540609.532747",
    "longitude": "-90.08640610699837",
    "latitude": "29.98066680549844",
    "geocoded_column": {
      "latitude": "29.98066680549844",
      "longitude": "-90.08640610699837"
    }
  },
  {
    "service_request": "2025-1191861",
    "request_type": "Trash/Recycling",
    "request_reason": "Request a Large Item Pick Up",
    "date_created": "2025-05-13T14:20:10.000",
    "date_modified": "2025-05-13T14:20:12.000",
    "request_status": "Pending",
    "responsible_agency": "Department of Sanitation",
    "final_address": "6318 Bienvenue St",
    "address_councildis": "E",
    "status": "Assigned to Contractor",
    "contractor": "Waste Pro",
    "rowid": "1191861",
    "final_x": "3699306.18256",
    "final_y": "530603.989698",
    "longitude": "-90.01187851436588",
    "latitude": "29.952424328224808",
    "geocoded_column": {
      "latitude": "29.952424328224808",
      "longitude": "-90.01187851436588"
    }
  },
  {
    "service_request": "2025-1191860",
    "request_type": "Trash/Recycling",
    "request_reason": "Order Recycling Cart",
    "date_created": "2025-05-13T14:19:47.000",
    "date_modified": "2025-05-13T14:19:49.000",
    "request_status": "Pending",
    "responsible_agency": "Department of Sanitation",
    "final_address": "2033 Foucher St",
    "address_councildis": "B",
    "status": "Pending",
    "rowid": "1191860",
    "final_x": "3672971.11521",
    "final_y": "522911.156155",
    "longitude": "-90.09529522907422",
    "latitude": "29.93208038450072",
    "geocoded_column": {
      "latitude": "29.93208038450072",
      "longitude": "-90.09529522907422"
    }
  },
  {
    "service_request": "2025-1191859",
    "request_type": "Trash/Recycling",
    "request_reason": "Request a Large Item Pick Up",
    "date_created": "2025-05-13T14:19:36.000",
    "date_modified": "2025-05-13T14:19:37.000",
    "request_status": "Pending",
    "responsible_agency": "Department of Sanitation",
    "final_address": "4653 Nottingham Dr",
    "address_councildis": "E",
    "status": "Assigned to Contractor",
    "contractor": "Waste Pro",
    "rowid": "1191859",
    "final_x": "3716522.37804",
    "final_y": "556423.04521",
    "longitude": "-89.95653872341263",
    "latitude": "30.02285968745562",
    "geocoded_column": {
      "latitude": "30.02285968745562",
      "longitude": "-89.95653872341263"
    }
  },
  {
    "service_request": "2025-1191858",
    "request_type": "Streetlights",
    "request_reason": "Streetlight Outage/Malfunction",
    "date_created": "2025-05-13T14:19:35.000",
    "date_modified": "2025-05-13T14:19:37.000",
    "request_status": "Pending",
    "responsible_agency": "Department of Public Works",
    "final_address": "2216 Amelia St",
    "address_councildis": "B",
    "status": "Pending",
    "contractor": "Legacy Professional Services",
    "rowid": "1191858",
    "final_x": "3672517.77319",
    "final_y": "523397.130299",
    "longitude": "-90.096709829775",
    "latitude": "29.93343011699422",
    "geocoded_column": {
      "latitude": "29.93343011699422",
      "longitude": "-90.096709829775"
    }
  },
  {
    "service_request": "2025-1191857",
    "request_type": "Trash/Recycling",
    "request_reason": "Order Trash Cart",
    "date_created": "2025-05-13T14:18:27.000",
    "date_modified": "2025-05-13T14:18:29.000",
    "request_status": "Pending",
    "responsible_agency": "Department of Sanitation",
    "final_address": "2703 S Broad St",
    "address_councildis": "B",
    "status": "Assigned to Contractor",
    "contractor": "IV Waste",
    "rowid": "1191857",
    "final_x": "3671426.17639",
    "final_y": "530009.415297",
    "longitude": "-90.09993124749059",
    "latitude": "29.951644094187362",
    "geocoded_column": {
      "latitude": "29.951644094187362",
      "longitude": "-90.09993124749059"
    }
  },
  {
    "service_request": "2025-1191856",
    "request_type": "Trash/Recycling",
    "request_reason": "Request a Large Item Pick Up",
    "date_created": "2025-05-13T14:17:50.000",
    "date_modified": "2025-05-13T16:05:28.000",
    "request_status": "Pending",
    "responsible_agency": "Department of Sanitation",
    "final_address": "7307 Hurst St",
    "address_councildis": "A",
    "status": "Assigned to Contractor",
    "contractor": "IV Waste",
    "rowid": "1191856",
    "final_x": "3661934.79987",
    "final_y": "523848.139195",
    "longitude": "-90.13010488136943",
    "latitude": "29.934980059427854",
    "geocoded_column": {
      "latitude": "29.934980059427854",
      "longitude": "-90.13010488136943"
    }
  },
  {
    "service_request": "2025-1191855",
    "request_type": "Trash/Recycling",
    "request_reason": "Illegal Dumping",
    "date_created": "2025-05-13T14:16:54.000",
    "date_modified": "2025-05-13T14:17:04.000",
    "request_status": "Pending",
    "responsible_agency": "Department of Sanitation",
    "final_address": "ALVAR ST & HIGGINS BLVD",
    "address_councildis": "D",
    "status": "Pending",
    "rowid": "1191855",
    "final_x": "3693452.5",
    "final_y": "546192.08",
    "longitude": "-90.02980174841532",
    "latitude": "29.995470345307673",
    "geocoded_column": {
      "latitude": "29.995470345307673",
      "longitude": "-90.02980174841532"
    }
  },