[
  {
    "service_request": "2022-954647",
    "request_type": "Trash/Recycling",
    "request_reason": "Request a Large Item Pick Up",
    "date_created": "2022-12-20T01:39:26.000",
    "date_modified": "2022-12-20T01:39:27.000",
    "request_status": "Pending",
    "responsible_agency": "Department of Sanitation",
    "final_address": "5198 De Montluzin St",
    "address_councildis": "D",
    "status": "Assigned to Contractor",
    "contractor": "IV Waste",
    "rowid": "954647",
    "final_x": "3686980.87062",
    "final_y": "552100.477206",
    "longitude": "-90.05003593331193",
    "latitude": "30.01191714014734",
    "geocoded_column": {
      "latitude": "30.01191714014734",
      "longitude": "-90.05003593331193"
    }
  },
  {
    "service_request": "2022-954646",
    "request_type": "Trash/Recycling",
    "request_reason": "Missed Trash Pick-Up",
    "date_created": "2022-12-20T00:22:14.000",
    "date_modified": "2022-12-20T00:22:14.000",
    "request_status": "Pending",
    "responsible_agency": "Department of Sanitation",
    "final_address": "221 S Rocheblave St",
    "address_councildis": "B",
    "status": "Assigned to Contractor",
    "contractor": "Richards Disposal",
    "rowid": "954646",
    "final_x": "3675708.77857",
    "final_y": "534084.967365",
    "longitude": "-90.08626878521706",
    "latitude": "29.962723046736315",
    "geocoded_column": {
      "latitude": "29.962723046736315",
      "longitude": "-90.08626878521706"
    }
  },
  {
    "service_request": "2022-954645",
    "request_type": "Trash/Recycling",
    "request_reason": "Order Recycling Cart",
    "date_created": "2022-12-20T00:07:38.000",
    "date_modified": "2022-12-20T00:07:38.000",
    "request_status": "Pending",
    "responsible_agency": "Department of Sanitation",
    "final_address": "2723 Clover St",
    "address_councildis": "D",
    "status": "Pending",
    "rowid": "954645",
    "final_x": "3688054.80579",
    "final_y": "546802.252881",
    "longitude": "-90.04683086592709",
    "latitude": "29.997315838797277",
    "geocoded_column": {
      "latitude": "29.997315838797277",
      "longitude": "-90.04683086592709"
    }
  },
  {
    "service_request": "2022-954644",
    "request_type": "Trash/Recycling",
    "request_reason": "Missed Trash Pick-Up",
    "date_created": "2022-12-19T23:15:25.000",
    "date_modified": "2022-12-19T23:15:26.000",
    "request_status": "Pending",
    "responsible_agency": "Department of Sanitation",
    "final_address": "418 S Scott St",
    "address_councildis": "B",
    "status": "Assigned to Contractor",
    "contractor": "Richards Disposal",
    "rowid": "954644",
    "final_x": "3670952.65121",
    "final_y": "536682.005383",
    "longitude": "-90.1011998601443",
    "latitude": "29.970005505535237",
    "geocoded_column": {
      "latitude": "29.970005505535237",
      "longitude": "-90.1011998601443"
    }
  },
  {
    "service_request": "2022-954643",
    "request_type": "Trash/Recycling",
    "request_reason": "Missed Trash Pick-Up",
    "date_created": "2022-12-19T23:14:58.000",
    "date_modified": "2022-12-19T23:14:58.000",
    "request_status": "Pending",
    "responsible_agency": "Department of Sanitation",
    "final_address": "416 S Scott St",
    "address_councildis": "B",
    "status": "Assigned to Contractor",
    "contractor": "Richards Disposal",
    "rowid": "954643",
    "final_x": "3670963.49076",
    "final_y": "536693.355847",
    "longitude": "-90.10116524222146",
    "latitude": "29.970036394995805",
    "geocoded_column": {
      "latitude": "29.970036394995805",
      "longitude": "-90.10116524222146"
    }
  },
  {
    "service_request": "2022-954642",
    "request_type": "Trash/Recycling",
    "request_reason": "Missed Trash Pick-Up",
    "date_created": "2022-12-19T23:14:24.000",
    "date_modified": "2022-12-19T23:14:25.000",
    "request_status": "Pending",
    "responsible_agency": "Department of Sanitation",
    "final_address": "420 S Scott St",
    "address_councildis": "B",
    "status": "Assigned to Contractor",
    "contractor": "Richards Disposal",
    "rowid": "954642",
    "final_x": "3670951.27905",
    "final_y": "536653.228103",
    "longitude": "-90.10120517082653",
    "latitude": "29.969926418255515",
    "geocoded_column": {
      "latitude": "29.969926418255515",
      "longitude": "-90.10120517082653"
    }
  },
  {
    "service_request": "2022-954641",
    "request_type": "Trash/Recycling",
    "request_reason": "Missed Trash Pick-Up",
    "date_created": "2022-12-19T23:13:56.000",
    "date_modified": "2022-12-19T23:13:56.000",
    "request_status": "Pending",
    "responsible_agency": "Department of Sanitation",
    "final_address": "422 S Scott St",
    "address_councildis": "B",
    "status": "Assigned to Contractor",
    "contractor": "Richards Disposal",
    "rowid": "954641",
    "final_x": "3670939.61243",
    "final_y": "536640.728071",
    "longitude": "-90.10124243970867",
    "latitude": "29.96989239231165",
    "geocoded_column": {
      "latitude": "29.96989239231165",
      "longitude": "-90.10124243970867"
    }
  },
  {
    "service_request": "2022-954640",
    "request_type": "Traffic Signals/Signs/Striping/Streetlights",
    "request_reason": "Street Light Outage/Malfunction",
    "date_created": "2022-12-19T23:12:44.000",
    "date_modified": "2022-12-19T23:12:44.000",
    "request_status": "Pending",
    "responsible_agency": "Department of Public Works",
    "final_address": "1427 Oretha Castle Haley Blvd",
    "address_councildis": "B",
    "status": "Pending",
    "contractor": "Legacy Professional Services",
    "rowid": "954640",
    "final_x": "3678026.09224",
    "final_y": "526368.689342",
    "longitude": "-90.07921770566836",
    "latitude": "29.94143631561387",
    "geocoded_column": {
      "latitude": "29.94143631561387",
      "longitude": "-90.07921770566836"
    }
  },
  {
    "service_request": "2022-954639",
    "request_type": "Trash/Recycling",
    "request_reason": "Illegal Dumping",
    "date_created": "2022-12-19T22:44:54.000",
    "date_modified": "2022-12-19T22:44:54.000",
    "request_status": "Pending",
    "responsible_agency": "Department of Sanitation",
    "final_address": "235 N Tonti St",
    "address_councildis": "B",
    "status": "Pending",
    "rowid": "954639",
    "final_x": "3676781.7796",
    "final_y": "534822.954758",
    "longitude": "-90.08285495363077",
    "latitude": "29.964720108483025",
    "geocoded_column": {
      "latitude": "29.964720108483025",
      "longitude": "-90.08285495363077"
    }
  },
  {
    "service_request": "2022-954638",
    "request_type": "Traffic Signals/Signs/Striping/Streetlights",
    "request_reason": "Street Light Outage/Malfunction",
    "date_created": "2022-12-19T22:09:42.000",
    "date_modified": "2022-12-19T22:09:42.000",
    "request_status": "Pending",
    "responsible_agency": "Department of Public Works",
    "final_address": "5930 Orleans Ave",
    "address_councildis": "A",
    "status": "Pending",
    "contractor": "Legacy Professional Services",
    "rowid": "954638",
    "final_x": "3670751.77934",
    "final_y": "546669.172881",
    "longitude": "-90.10149515829322",
    "latitude": "29.99747274435227",
    "geocoded_column": {
      "latitude": "29.99747274435227",
      "longitude": "-90.10149515829322"
    }
  },
  {
    "service_request": "2022-954637",
    "request_type": "Traffic Signals/Signs/Striping/Streetlights",
    "request_reason": "Street Light Outage/Malfunction",
    "date_created": "2022-12-19T22:07:03.000",
    "date_modified": "2022-12-19T22:07:03.000",
    "request_status": "Pending",
    "responsible_agency": "Department of Public Works",
    "final_address": "1830 Esplanade Ave",
    "address_councildis": "D",
    "status": "Pending",
    "contractor": "Legacy Professional Services",
    "rowid": "954637",
    "final_x": "3680443.59439",
    "final_y": "537125.747976",
    "longitude": "-90.07121109623",
    "latitude": "29.97094160978645",
    "geocoded_column": {
      "latitude": "29.97094160978645",
      "longitude": "-90.07121109623"
    }
  },
  {
    "service_request": "2022-954636",
    "request_type": "Traffic Signals/Signs/Striping/Streetlights",
    "request_reason": "Street Light Outage/Malfunction",
    "date_created": "2022-12-19T22:04:08.000",
    "date_modified": "2022-12-19T22:04:09.000",
    "request_status": "Pending",
    "responsible_agency": "Department of Public Works",
    "final_address": "BODENGER BLVD & MARDI GRAS BLVD",
    "address_councildis": "C",
    "status": "Pending",
    "contractor": "Legacy Professional Services",
    "rowid": "954636",
    "final_x": "3688462.1",
    "final_y": "525287.58",
    "longitude": "-90.0463076241141",
    "latitude": "29.938145434660367",
    "geocoded_column": {
      "latitude": "29.938145434660367",
      "longitude": "-90.0463076241141"
    }
  },
  {
    "service_request": "2022-954635",
    "request_type": "Trash/Recycling",
    "request_reason": "Missed Trash Pick-Up",
    "date_created": "2022-12-19T20:57:41.000",
    "date_modified": "2022-12-19T20:57:42.000",
    "request_status": "Pending",
    "responsible_agency": "Department of Sanitation",
    "final_address": "1215 N Dupre St",
    "address_councildis": "A",
    "status": "Assigned to Contractor",
    "contractor": "Richards Disposal",
    "rowid": "954635",
    "final_x": "3676948.56034",
    "final_y": "539403.262218",
    "longitude": "-90.08217033286698",
    "latitude": "29.97730938478441",
    "geocoded_column": {
      "latitude": "29.97730938478441",
      "longitude": "-90.08217033286698"
    }
  },
  {
    "service_request": "2022-954634",
    "request_type": "Trash/Recycling",
    "request_reason": "MIssed Recycling Pick-Up",
    "date_created": "2022-12-19T20:53:29.000",
    "date_modified": "2022-12-19T20:53:29.000",
    "request_status": "Pending",
    "responsible_agency": "Department of Sanitation",
    "final_address": "8237 Apricot St",
    "address_councildis": "A",
    "status": "Assigned to Contractor",
    "contractor": "Richards Disposal",
    "rowid": "954634",
    "final_x": "3665372.41389",
    "final_y": "533087.166724",
    "longitude": "-90.11894319578644",
    "latitude": "29.960284697163896",
    "geocoded_column": {
      "latitude": "29.960284697163896",
      "longitude": "-90.11894319578644"
    }
  },
  {
    "service_request": "2022-954633",
    "request_type": "Trash/Recycling",
    "request_reason": "MIssed Recycling Pick-Up",
    "date_created": "2022-12-19T20:14:37.000",
    "date_modified": "2022-12-19T20:14:38.000",
    "request_status": "Pending",
    "responsible_agency": "Department of Sanitation",
    "final_address": "3721 Delachaise St",
    "address_councildis": "B",
    "status": "Assigned to Contractor",
    "contractor": "Richards Disposal",
    "rowid": "954633",
    "final_x": "3671191.43687",
    "final_y": "528507.949312",
    "longitude": "-90.1007234427196",
    "latitude": "29.94752250139052",
    "geocoded_column": {
      "latitude": "29.94752250139052",
      "longitude": "-90.1007234427196"
    }
  },
  {
    "service_request": "2022-954632",
    "request_type": "Trash/Recycling",
    "request_reason": "Order Recycling Cart",
    "date_created": "2022-12-19T20:11:33.000",
    "date_modified": "2022-12-19T20:11:33.000",
    "request_status": "Pending",
    "responsible_agency": "Department of Sanitation",
    "final_address": "317 Fairway Dr",
    "address_councildis": "A",
    "status": "Pending",
    "rowid": "954632",
    "final_x": "3664299.21927",
    "final_y": "541613.856524",
    "longitude": "-90.12204750131733",
    "latitude": "29.98376149880143",
    "geocoded_column": {
      "latitude": "29.98376149880143",
      "longitude": "-90.12204750131733"
    }
  },
  {
    "service_request": "2022-954631",
    "request_type": "Trash/Recycling",
    "request_reason": "Order Recycling Cart",
    "date_created": "2022-12-19T20:10:10.000",
    "date_modified": "2022-12-19T20:10:10.000",
    "request_status": "Pending",
    "responsible_agency": "Department of Sanitation",
    "final_address": "224 Fairway Dr",
    "address_councildis": "A",
    "status": "Pending",
    "rowid": "954631",
    "final_x": "3664105.12967",
    "final_y": "541185.131148",
    "longitude": "-90.1226748502429",
    "latitude": "29.982588288151128",
    "geocoded_column": {
      "latitude": "29.982588288151128",
      "longitude": "-90.1226748502429"
    }
  },
  {
    "service_request": "2022-954630",
    "request_type": "Traffic Signals/Signs/Striping/Streetlights",
    "request_reason": "Street Light Outage/Malfunction",
    "date_created": "2022-12-19T20:07:23.000",
    "date_modified": "2022-12-19T20:07:24.000",
    "request_status": "Pending",
    "responsible_agency": "Department of Public Works",
    "final_address": "3930 Perrier St",
    "address_councildis": "B",
    "status": "Pending",
    "contractor": "Legacy Professional Services",
    "rowid": "954630",
    "final_x": "3672516.81671",
    "final_y": "520195.171",
    "longitude": "-90.0968219322253",
    "latitude": "29.924625787717115",
    "geocoded_column": {
      "latitude": "29.924625787717115",
      "longitude": "-90.0968219322253"
    }
  },
  {
    "service_request": "2022-954629",
    "request_type": "Roads/Drainage",
    "request_reason": "Man hole cover issue",
    "date_created": "2022-12-19T19:35:25.000",
    "date_modified": "2022-12-19T19:35:25.000",
    "request_status": "Pending",
    "responsible_agency": "Department of Public Works",
    "final_address": "6051 Pratt Dr",
    "address_councildis": "D",
    "status": "Pending",
    "rowid": "954629",
    "final_x": "3680281.53679",
    "final_y": "554909.038232",
    "longitude": "-90.07110422925419",
    "latitude": "30.019844268031232",
    "geocoded_column": {
      "latitude": "30.019844268031232",
      "longitude": "-90.07110422925419"
    }
  },
  {
    "service_request": "2022-954628",
    "request_type": "Trash/Recycling",
    "request_reason": "Request a Large Item Pick Up",
    "date_created": "2022-12-19T19:09:10.000",
    "date_modified": "2022-12-19T19:09:11.000",
    "request_status": "Pending",
    "responsible_agency": "Department of Sanitation",
    "final_address": "2556 Hudson Pl",
    "address_councildis": "C",
    "status": "Assigned to Contractor",
    "contractor": "Richards Disposal",
    "rowid": "954628",
    "final_x": "3703466.38052",
    "final_y": "521581.695929",
    "longitude": "-89.99907433766394",
    "latitude": "29.927483618361997",
    "geocoded_column": {
      "latitude": "29.927483618361997",
      "longitude": "-89.99907433766394"
    }
  },
  {
    "service_request": "2022-954627",
    "request_type": "Traffic Signals/Signs/Striping/Streetlights",
    "request_reason": "Street Light Knocked Down/Leaning",
    "date_created": "2022-12-19T18:55:33.000",
    "date_modified": "2022-12-19T18:55:33.000",
    "request_status": "Pending",
    "responsible_agency": "Department of Public Works",
    "final_address": "3000 BLK Coliseum St",
    "address_councildis": "B",
    "status": "Pending",
    "contractor": "Legacy Professional Services",
    "rowid": "954627",
    "final_x": "3675671.08793",
    "final_y": "521156.326241",
    "longitude": "-90.08683194316222",
    "latitude": "29.927174681705846",
    "geocoded_column": {
      "latitude": "29.927174681705846",
      "longitude": "-90.08683194316222"
    }
  },
  {
    "service_request": "2022-954626",
    "request_type": "Trash/Recycling",
    "request_reason": "Missed Trash Pick-Up",
    "date_created": "2022-12-19T18:36:34.000",
    "date_modified": "2022-12-19T18:36:35.000",
    "request_status": "Pending",
    "responsible_agency": "Department of Sanitation",
    "final_address": "622 N Murat St",
    "address_councildis": "A",
    "status": "Assigned to Contractor",
    "contractor": "Richards Disposal",
    "rowid": "954626",
    "final_x": "3670950.15783",
    "final_y": "540970.556043",
    "longitude": "-90.10106208171221",
    "latitude": "29.981797642470212",
    "geocoded_column": {
      "latitude": "29.981797642470212",
      "longitude": "-90.10106208171221"
    }
  },
  {
    "service_request": "2022-954624",
    "request_type": "Trash/Recycling",
    "request_reason": "MIssed Recycling Pick-Up",
    "date_created": "2022-12-19T17:56:38.000",
    "date_modified": "2022-12-19T17:56:39.000",
    "request_status": "Pending",
    "responsible_agency": "Department of Sanitation",
    "final_address": "2829 St Thomas St",
    "address_councildis": "B",
    "status": "Assigned to Contractor",
    "contractor": "Richards Disposal",
    "rowid": "954624",
    "final_x": "3677782.89064",
    "final_y": "519246.191671",
    "longitude": "-90.0802314621467",
    "latitude": "29.921859093698817",
    "geocoded_column": {
      "latitude": "29.921859093698817",
      "longitude": "-90.0802314621467"
    }
  },
  {
    "service_request": "2022-954623",
    "request_type": "Traffic Signals/Signs/Striping/Streetlights",
    "request_reason": "Street Light Knocked Down/Leaning",
    "date_created": "2022-12-19T17:47:46.000",
    "date_modified": "2022-12-19T17:47:46.000",
    "request_status": "Pending",
    "responsible_agency": "Department of Public Works",
    "final_address": "MORRISON EXIT & I 10 W SERVICE RD",
    "address_councildis": "E",
    "status": "Pending",
    "contractor": "Legacy Professional Services",
    "rowid": "954623",
    "final_x": "3697830.95",
    "final_y": "557835.25",
    "longitude": "-90.01554773250923",
    "latitude": "30.027347000729335",
    "geocoded_column": {
      "latitude": "30.027347000729335",
      "longitude": "-90.01554773250923"
    }
  },
  {
    "service_request": "2022-954622",
    "request_type": "Roads/Drainage",
    "request_reason": "Catch Basin - Clogged",
    "date_created": "2022-12-19T17:43:04.000",
    "date_modified": "2022-12-19T17:43:05.000",
    "request_status": "Pending",
    "responsible_agency": "Department of Public Works",
    "final_address": "1927 Second St",
    "address_councildis": "B",
    "status": "Pending",
    "rowid": "954622",
    "final_x": "3676003.28584",
    "final_y": "524153.439932",
    "longitude": "-90.08568026055516",
    "latitude": "29.935405827852808",
    "geocoded_column": {
      "latitude": "29.935405827852808",
      "longitude": "-90.08568026055516"
    }
  },
  {
    "service_request": "2022-954621",
    "request_type": "Trash/Recycling",
    "request_reason": "Missed Trash Pick-Up",
    "date_created": "2022-12-19T17:34:57.000",
    "date_modified": "2022-12-19T17:34:57.000",
    "request_status": "Pending",
    "responsible_agency": "Department of Sanitation",
    "final_address": "2500 BLK Loyola Ave",
    "address_councildis": "B",
    "status": "Assigned to Contractor",
    "contractor": "Richards Disposal",
    "rowid": "954621",
    "final_x": "3675388.74466",
    "final_y": "524743.611718",
    "longitude": "-90.08760011592184",
    "latitude": "29.937046992406792",
    "geocoded_column": {
      "latitude": "29.937046992406792",
      "longitude": "-90.08760011592184"
    }
  },
  {
    "service_request": "2022-954620",
    "request_type": "Trash/Recycling",
    "request_reason": "MIssed Recycling Pick-Up",
    "date_created": "2022-12-19T17:21:16.000",
    "date_modified": "2022-12-19T17:21:16.000",
    "request_status": "Pending",
    "responsible_agency": "Department of Sanitation",
    "final_address": "266 Roselyn Park Pl",
    "address_councildis": "C",
    "status": "Assigned to Contractor",
    "contractor": "Richards Disposal",
    "rowid": "954620",
    "final_x": "3702685.16862",
    "final_y": "523049.142203",
    "longitude": "-90.00148656993676",
    "latitude": "29.93154357536162",
    "geocoded_column": {
      "latitude": "29.93154357536162",
      "longitude": "-90.00148656993676"
    }
  },
  {
    "service_request": "2022-954618",
    "request_type": "Trash/Recycling",
    "request_reason": "MIssed Recycling Pick-Up",
    "date_created": "2022-12-19T17:13:41.000",
    "date_modified": "2022-12-19T17:13:42.000",
    "request_status": "Pending",
    "responsible_agency": "Department of Sanitation",
    "final_address": "3326 Lancaster St",
    "address_councildis": "C",
    "status": "Assigned to Contractor",
    "contractor": "Richards Disposal",
    "rowid": "954618",
    "final_x": "3709981.27973",
    "final_y": "518408.350134",
    "longitude": "-89.97862703749254",
    "latitude": "29.91854783109217",
    "geocoded_column": {
      "latitude": "29.91854783109217",
      "longitude": "-89.97862703749254"
    }
  },
  {
    "service_request": "2022-954617",
    "request_type": "Trash/Recycling",
    "request_reason": "MIssed Recycling Pick-Up",
    "date_created": "2022-12-19T17:10:25.000",
    "date_modified": "2022-12-19T17:10:26.000",
    "request_status": "Pending",
    "responsible_agency": "Department of Sanitation",
    "final_address": "2659 Iberville St",
    "address_councildis": "B",
    "status": "Assigned to Contractor",
    "contractor": "Richards Disposal",
    "rowid": "954617",
    "final_x": "3675732.35176",
    "final_y": "535453.225798",
    "longitude": "-90.08614731470516",
    "latitude": "29.966484589744436",
    "geocoded_column": {
      "latitude": "29.966484589744436",
      "longitude": "-90.08614731470516"
    }
  },
  {
    "service_request": "2022-954616",
    "request_type": "Trash/Recycling",
    "request_reason": "Illegal Dumping",
    "date_created": "2022-12-19T17:08:13.000",
    "date_modified": "2022-12-19T17:08:13.000",
    "request_status": "Pending",
    "responsible_agency": "Department of Sanitation",
    "final_address": "618 Conti St",
    "address_councildis": "C",
    "status": "Pending",
    "rowid": "954616",
    "final_x": "3682031.77474",
    "final_y": "531442.909827",
    "longitude": "-90.06639386134009",
    "latitude": "29.955267554326504",
    "geocoded_column": {
      "latitude": "29.955267554326504",
      "longitude": "-90.06639386134009"
    }
  },
  {
    "service_request": "2022-954615",
    "request_type": "Trash/Recycling",
    "request_reason": "Replace Trash Cart",
    "date_created": "2022-12-19T17:00:52.000",
    "date_modified": "2022-12-19T17:00:53.000",
    "request_status": "Pending",
    "responsible_agency": "Department of Sanitation",
    "final_address": "2621 Gallinghouse St",
    "address_councildis": "C",
    "status": "Assigned to Contractor",
    "contractor": "Richards Disposal",
    "rowid": "954615",
    "final_x": "3700042.54512",
    "final_y": "521414.947577",
    "longitude": "-90.00988855298257",
    "latitude": "29.92713429865846",
    "geocoded_column": {
      "latitude": "29.92713429865846",
      "longitude": "-90.00988855298257"
    }
  },
  {
    "service_request": "2022-954614",
    "request_type": "Trash/Recycling",
    "request_reason": "Missed Trash Pick-Up",
    "date_created": "2022-12-19T17:00:33.000",
    "date_modified": "2022-12-19T17:00:34.000",
    "request_status": "Pending",
    "responsible_agency": "Department of Sanitation",
    "final_address": "4018 DHemecourt St",
    "address_councildis": "A",
    "status": "Assigned to Contractor",
    "contractor": "Richards Disposal",
    "rowid": "954614",
    "final_x": "3670041.17671",
    "final_y": "536574.589191",
    "longitude": "-90.1040820340679",
    "latitude": "29.9697370654294",
    "geocoded_column": {
      "latitude": "29.9697370654294",
      "longitude": "-90.1040820340679"
    }
  },
  {
    "service_request": "2022-954613",
    "request_type": "Trash/Recycling",
    "request_reason": "Request a Large Item Pick Up",
    "date_created": "2022-12-19T16:49:13.000",
    "date_modified": "2022-12-19T16:49:14.000",
    "request_status": "Pending",
    "responsible_agency": "Department of Sanitation",
    "final_address": "6235 Louisville St",
    "address_councildis": "A",
    "status": "Assigned to Contractor",
    "contractor": "IV Waste",
    "rowid": "954613",
    "final_x": "3667985.49473",
    "final_y": "548926.209427",
    "longitude": "-90.11015768262465",
    "latitude": "30.00376029540787",
    "geocoded_column": {
      "latitude": "30.00376029540787",
      "longitude": "-90.11015768262465"
    }
  },
  {
    "service_request": "2022-954612",
    "request_type": "Trash/Recycling",
    "request_reason": "Missed Trash Pick-Up",
    "date_created": "2022-12-19T16:47:09.000",
    "date_modified": "2022-12-19T16:47:09.000",
    "request_status": "Pending",
    "responsible_agency": "Department of Sanitation",
    "final_address": "4011 DHemecourt St",
    "address_councildis": "A",
    "status": "Assigned to Contractor",
    "contractor": "Richards Disposal",
    "rowid": "954612",
    "final_x": "3670180.48948",
    "final_y": "536661.804807",
    "longitude": "-90.1036391146166",
    "latitude": "29.969972768916328",
    "geocoded_column": {
      "latitude": "29.969972768916328",
      "longitude": "-90.1036391146166"
    }
  },
  {
    "service_request": "2022-954611",
    "request_type": "Trash/Recycling",
    "request_reason": "Request a Large Item Pick Up",
    "date_created": "2022-12-19T16:46:52.000",
    "date_modified": "2022-12-19T16:46:54.000",
    "request_status": "Pending",
    "responsible_agency": "Department of Sanitation",
    "final_address": "1035 St Peter St",
    "address_councildis": "C",
    "status": "Assigned to Contractor",
    "contractor": "Empire Services",
    "rowid": "954611",
    "final_x": "3681432.84604",
    "final_y": "533303.058244",
    "longitude": "-90.06822020624126",
    "latitude": "29.960400525569714",
    "geocoded_column": {
      "latitude": "29.960400525569714",
      "longitude": "-90.06822020624126"
    }
  },
  {
    "service_request": "2022-954610",
    "request_type": "Roads/Drainage",
    "request_reason": "Man hole cover issue",
    "date_created": "2022-12-19T16:42:06.000",
    "date_modified": "2022-12-19T16:42:06.000",
    "request_status": "Pending",
    "responsible_agency": "Department of Public Works",
    "final_address": "419 39Th St",
    "address_councildis": "A",
    "status": "Pending",
    "rowid": "954610",
    "final_x": "3664861.95796",
    "final_y": "553100.025495",
    "longitude": "-90.11988586341606",
    "latitude": "30.015328152664033",
    "geocoded_column": {
      "latitude": "30.015328152664033",
      "longitude": "-90.11988586341606"
    }
  },
  {
    "service_request": "2022-954609",
    "request_type": "Trash/Recycling",
    "request_reason": "Order Trash Cart",
    "date_created": "2022-12-19T16:31:26.000",
    "date_modified": "2022-12-19T16:31:27.000",
    "request_status": "Pending",
    "responsible_agency": "Department of Sanitation",
    "final_address": "5518 Canal Blvd",
    "address_councildis": "A",
    "status": "Assigned to Contractor",
    "contractor": "IV Waste",
    "rowid": "954609",
    "final_x": "3668049.61985",
    "final_y": "544047.714446",
    "longitude": "-90.11011962695547",
    "latitude": "29.99034423328341",
    "geocoded_column": {
      "latitude": "29.99034423328341",
      "longitude": "-90.11011962695547"
    }
  },
  {
    "service_request": "2022-954608",
    "request_type": "Trash/Recycling",
    "request_reason": "Request a Large Item Pick Up",
    "date_created": "2022-12-19T16:30:26.000",
    "date_modified": "2022-12-19T16:30:26.000",
    "request_status": "Pending",
    "responsible_agency": "Department of Sanitation",
    "final_address": "1660 Dufossat St",
    "address_councildis": "B",
    "status": "Assigned to Contractor",
    "contractor": "Richards Disposal",
    "rowid": "954608",
    "final_x": "3668068.33165",
    "final_y": "521712.450682",
    "longitude": "-90.11081324837738",
    "latitude": "29.92892907385183",
    "geocoded_column": {
      "latitude": "29.92892907385183",
      "longitude": "-90.11081324837738"
    }
  },
  {
    "service_request": "2022-954607",
    "request_type": "Trash/Recycling",
    "request_reason": "Missed Trash Pick-Up",
    "date_created": "2022-12-19T16:27:54.000",
    "date_modified": "2022-12-19T16:27:55.000",
    "request_status": "Pending",
    "responsible_agency": "Department of Sanitation",
    "final_address": "2000 BLK Evergreen Ave",
    "address_councildis": "C",
    "status": "Assigned to Contractor",
    "contractor": "Richards Disposal",
    "rowid": "954607",
    "final_x": "3688141.01148",
    "final_y": "524431.615295",
    "longitude": "-90.04735165568557",
    "latitude": "29.935801733618188",
    "geocoded_column": {
      "latitude": "29.935801733618188",
      "longitude": "-90.04735165568557"
    }
  },
  {
    "service_request": "2022-954606",
    "request_type": "Trash/Recycling",
    "request_reason": "Order Recycling Cart",
    "date_created": "2022-12-19T16:27:52.000",
    "date_modified": "2022-12-19T16:27:52.000",
    "request_status": "Pending",
    "responsible_agency": "Department of Sanitation",
    "final_address": "1660 Dufossat St",
    "address_councildis": "B",
    "status": "Pending",
    "rowid": "954606",
    "final_x": "3668068.33165",
    "final_y": "521712.450682",
    "longitude": "-90.11081324837738",
    "latitude": "29.92892907385183",
    "geocoded_column": {
      "latitude": "29.92892907385183",
      "longitude": "-90.11081324837738"
    }
  },
  {
    "service_request": "2022-954605",
    "request_type": "Trash/Recycling",
    "request_reason": "Request a Large Item Pick Up",
    "date_created": "2022-12-19T16:19:19.000",
    "date_modified": "2022-12-19T16:19:20.000",
    "request_status": "Pending",
    "responsible_agency": "Department of Sanitation",
    "final_address": "4616 Willow St",
    "address_councildis": "B",
    "status": "Assigned to Contractor",
    "contractor": "Richards Disposal",
    "rowid": "954605",
    "final_x": "3669524.62305",
    "final_y": "525299.648637",
    "longitude": "-90.10609472998372",
    "latitude": "29.938749913037338",
    "geocoded_column": {
      "latitude": "29.938749913037338",
      "longitude": "-90.10609472998372"
    }
  },
  {
    "service_request": "2022-954604",
    "request_type": "Trash/Recycling",
    "request_reason": "Missed Trash Pick-Up",
    "date_created": "2022-12-19T16:19:07.000",
    "date_modified": "2022-12-19T16:19:07.000",
    "request_status": "Pending",
    "responsible_agency": "Department of Sanitation",
    "final_address": "2533 S Dorgenois St",
    "address_councildis": "B",
    "status": "Assigned to Contractor",
    "contractor": "Richards Disposal",
    "rowid": "954604",
    "final_x": "3671969.51163",
    "final_y": "529716.436033",
    "longitude": "-90.09822562452045",
    "latitude": "29.95082240501701",
    "geocoded_column": {
      "latitude": "29.95082240501701",
      "longitude": "-90.09822562452045"
    }
  },
  {
    "service_request": "2022-954603",
    "request_type": "Trash/Recycling",
    "request_reason": "Missed Trash Pick-Up",
    "date_created": "2022-12-19T16:18:44.000",
    "date_modified": "2022-12-19T16:18:45.000",
    "request_status": "Pending",
    "responsible_agency": "Department of Sanitation",
    "final_address": "3300 BLK Roger Williams St",
    "address_councildis": "D",
    "status": "Assigned to Contractor",
    "contractor": "IV Waste",
    "rowid": "954603",
    "final_x": "3677079.43091",
    "final_y": "543960.745199",
    "longitude": "-90.08159975744512",
    "latitude": "29.989836953924154",
    "geocoded_column": {
      "latitude": "29.989836953924154",
      "longitude": "-90.08159975744512"
    }
  },
  {
    "service_request": "2022-954602",
    "request_type": "Trash/Recycling",
    "request_reason": "Replace Trash Cart",
    "date_created": "2022-12-19T16:18:05.000",
    "date_modified": "2022-12-19T16:18:06.000",
    "request_status": "Pending",
    "responsible_agency": "Department of Sanitation",
    "final_address": "1602 Jo Ann Pl",
    "address_councildis": "C",
    "status": "Assigned to Contractor",
    "contractor": "Richards Disposal",
    "rowid": "954602",
    "final_x": "3695006.26211",
    "final_y": "525350.558205",
    "longitude": "-90.02564494018188",
    "latitude": "29.93811486651003",
    "geocoded_column": {
      "latitude": "29.93811486651003",
      "longitude": "-90.02564494018188"
    }
  },
  {
    "service_request": "2022-954601",
    "request_type": "Roads/Drainage",
    "request_reason": "Catch Basin - Clogged",
    "date_created": "2022-12-19T16:17:18.000",
    "date_modified": "2022-12-19T16:17:18.000",
    "request_status": "Pending",
    "responsible_agency": "Department of Public Works",
    "final_address": "6441 Music St",
    "address_councildis": "D",
    "status": "Pending",
    "rowid": "954601",
    "final_x": "3685261.80201",
    "final_y": "556981.749658",
    "longitude": "-90.0552951807512",
    "latitude": "30.02539166885959",
    "geocoded_column": {
      "latitude": "30.02539166885959",
      "longitude": "-90.0552951807512"
    }
  },
  {
    "service_request": "2022-954600",
    "request_type": "Roads/Drainage",
    "request_reason": "Catch Basin - Clogged",
    "date_created": "2022-12-19T16:13:26.000",
    "date_modified": "2022-12-19T16:13:26.000",
    "request_status": "Pending",
    "responsible_agency": "Department of Public Works",
    "final_address": "117 N Solomon St",
    "address_councildis": "A",
    "status": "Pending",
    "rowid": "954600",
    "final_x": "3670672.98644",
    "final_y": "538901.76385",
    "longitude": "-90.10200773925571",
    "latitude": "29.976117359233328",
    "geocoded_column": {
      "latitude": "29.976117359233328",
      "longitude": "-90.10200773925571"
    }
  },
  {
    "service_request": "2022-954599",
    "request_type": "Trash/Recycling",
    "request_reason": "Missed Trash Pick-Up",
    "date_created": "2022-12-19T16:12:20.000",
    "date_modified": "2022-12-19T16:14:42.000",
    "request_status": "Pending",
    "responsible_agency": "Department of Sanitation",
    "final_address": "3457 Roger Williams St",
    "address_councildis": "D",
    "status": "Assigned to Contractor",
    "contractor": "IV Waste",
    "rowid": "954599",
    "final_x": "3676354.40309",
    "final_y": "544061.560782",
    "longitude": "-90.0838864518436",
    "latitude": "29.990135919809916",
    "geocoded_column": {
      "latitude": "29.990135919809916",
      "longitude": "-90.0838864518436"
    }
  },
  {
    "service_request": "2022-954598",
    "request_type": "Trash/Recycling",
    "request_reason": "Missed Trash Pick-Up",
    "date_created": "2022-12-19T16:06:07.000",
    "date_modified": "2022-12-19T16:06:08.000",
    "request_status": "Pending",
    "responsible_agency": "Department of Sanitation",
    "final_address": "724 N Salcedo St",
    "address_councildis": "A",
    "status": "Assigned to Contractor",
    "contractor": "Richards Disposal",
    "rowid": "954598",
    "final_x": "3675608.28725",
    "final_y": "538044.193801",
    "longitude": "-90.08645007154601",
    "latitude": "29.97361258368972",
    "geocoded_column": {
      "latitude": "29.97361258368972",
      "longitude": "-90.08645007154601"
    }
  },
  {
    "service_request": "2022-954597",
    "request_type": "Trash/Recycling",
    "request_reason": "Request a Large Item Pick Up",
    "date_created": "2022-12-19T16:05:06.000",
    "date_modified": "2022-12-19T16:05:07.000",
    "request_status": "Pending",
    "responsible_agency": "Department of Sanitation",
    "final_address": "5641 Bentley Dr",
    "address_councildis": "E",
    "status": "Assigned to Contractor",
    "contractor": "Waste Pro",
    "rowid": "954597",
    "final_x": "3703884.21924",
    "final_y": "556877.195738",
    "longitude": "-89.99645538442498",
    "latitude": "30.024519914722408",
    "geocoded_column": {
      "latitude": "30.024519914722408",
      "longitude": "-89.99645538442498"
    }
  },
  {
    "service_request": "2022-954596",
    "request_type": "Trash/Recycling",
    "request_reason": "Missed Trash Pick-Up",
    "date_created": "2022-12-19T16:01:55.000",
    "date_modified": "2022-12-19T16:01:56.000",
    "request_status": "Pending",
    "responsible_agency": "Department of Sanitation",
    "final_address": "1519 Clio St",
    "address_councildis": "B",
    "status": "Assigned to Contractor",
    "contractor": "Richards Disposal",
    "rowid": "954596",
    "final_x": "3680029.01269",
    "final_y": "526205.63603",
    "longitude": "-90.07289975933006",
    "latitude": "29.940927543440537",
    "geocoded_column": {
      "latitude": "29.940927543440537",
      "longitude": "-90.07289975933006"
    }
  },
  {
    "service_request": "2022-954595",
    "request_type": "Trash/Recycling",
    "request_reason": "Missed Trash Pick-Up",
    "date_created": "2022-12-19T16:01:02.000",
    "date_modified": "2022-12-19T16:01:03.000",
    "request_status": "Pending",
    "responsible_agency": "Department of Sanitation",
    "final_address": "1420 Elmira Ave",
    "address_councildis": "C",
    "status": "Assigned to Contractor",
    "contractor": "Richards Disposal",
    "rowid": "954595",
    "final_x": "3688094.10486",
    "final_y": "526330.075582",
    "longitude": "-90.04743247957893",
    "latitude": "29.94102330474881",
    "geocoded_column": {
      "latitude": "29.94102330474881",
      "longitude": "-90.04743247957893"
    }
  },
  {
    "service_request": "2022-954594",
    "request_type": "Trash/Recycling",
    "request_reason": "Missed Trash Pick-Up",
    "date_created": "2022-12-19T15:59:09.000",
    "date_modified": "2022-12-19T15:59:10.000",
    "request_status": "Pending",
    "responsible_agency": "Department of Sanitation",
    "final_address": "3112 General Taylor St",
    "address_councildis": "B",
    "status": "Assigned to Contractor",
    "contractor": "Richards Disposal",
    "rowid": "954594",
    "final_x": "3671312.61505",
    "final_y": "526472.280446",
    "longitude": "-90.10040999410032",
    "latitude": "29.941921491961196",
    "geocoded_column": {
      "latitude": "29.941921491961196",
      "longitude": "-90.10040999410032"
    }
  },
  {
    "service_request": "2022-954593",
    "request_type": "Trash/Recycling",
    "request_reason": "Order Trash Cart",
    "date_created": "2022-12-19T15:58:05.000",
    "date_modified": "2022-12-19T15:58:06.000",
    "request_status": "Pending",
    "responsible_agency": "Department of Sanitation",
    "final_address": "9006 Dixon St",
    "address_councildis": "A",
    "status": "Assigned to Contractor",
    "contractor": "Richards Disposal",
    "rowid": "954593",
    "final_x": "3666000.16756",
    "final_y": "537623.50772",
    "longitude": "-90.11680878784547",
    "latitude": "29.97273982633725",
    "geocoded_column": {
      "latitude": "29.97273982633725",
      "longitude": "-90.11680878784547"
    }
  },
  {
    "service_request": "2022-954592",
    "request_type": "Trash/Recycling",
    "request_reason": "Order Trash Cart",
    "date_created": "2022-12-19T15:57:11.000",
    "date_modified": "2022-12-19T15:57:12.000",
    "request_status": "Pending",
    "responsible_agency": "Department of Sanitation",
    "final_address": "9004 Dixon St",
    "address_councildis": "A",
    "status": "Assigned to Contractor",
    "contractor": "Richards Disposal",
    "rowid": "954592",
    "final_x": "3666013.52749",
    "final_y": "537611.347464",
    "longitude": "-90.11676700228968",
    "latitude": "29.9727059996633",
    "geocoded_column": {
      "latitude": "29.9727059996633",
      "longitude": "-90.11676700228968"
    }
  },
  {
    "service_request": "2022-954591",
    "request_type": "Trash/Recycling",
    "request_reason": "Missed Trash Pick-Up",
    "date_created": "2022-12-19T15:55:06.000",
    "date_modified": "2022-12-19T15:55:07.000",
    "request_status": "Pending",
    "responsible_agency": "Department of Sanitation",
    "final_address": "1427 Harmony St",
    "address_councildis": "B",
    "status": "Assigned to Contractor",
    "contractor": "Richards Disposal",
    "rowid": "954591",
    "final_x": "3675242.39003",
    "final_y": "521145.667449",
    "longitude": "-90.08818559995271",
    "latitude": "29.92715818985557",
    "geocoded_column": {
      "latitude": "29.92715818985557",
      "longitude": "-90.08818559995271"
    }
  },
  {
    "service_request": "2022-954590",
    "request_type": "Trash/Recycling",
    "request_reason": "Return Recycling Cart",
    "date_created": "2022-12-19T15:54:22.000",
    "date_modified": "2022-12-19T15:54:22.000",
    "request_status": "Pending",
    "responsible_agency": "Department of Sanitation",
    "final_address": "3112 General Taylor St",
    "address_councildis": "B",
    "status": "Pending",
    "rowid": "954590",
    "final_x": "3671312.61505",
    "final_y": "526472.280446",
    "longitude": "-90.10040999410032",
    "latitude": "29.941921491961196",
    "geocoded_column": {
      "latitude": "29.941921491961196",
      "longitude": "-90.10040999410032"
    }
  },
  {
    "service_request": "2022-954589",
    "request_type": "Trash/Recycling",
    "request_reason": "Replace Trash Cart",
    "date_created": "2022-12-19T15:51:10.000",
    "date_modified": "2022-12-19T15:51:11.000",
    "request_status": "Pending",
    "responsible_agency": "Department of Sanitation",
    "final_address": "8424 Palm St",
    "address_councildis": "A",
    "status": "Assigned to Contractor",
    "contractor": "Richards Disposal",
    "rowid": "954589",
    "final_x": "3666746.05044",
    "final_y": "535500.307398",
    "longitude": "-90.11452446730776",
    "latitude": "29.96687993598926",
    "geocoded_column": {
      "latitude": "29.96687993598926",
      "longitude": "-90.11452446730776"
    }
  },
  {
    "service_request": "2022-954588",
    "request_type": "Trash/Recycling",
    "request_reason": "Order Trash Cart",
    "date_created": "2022-12-19T15:47:01.000",
    "date_modified": "2022-12-19T15:47:04.000",
    "request_status": "Pending",
    "responsible_agency": "Department of Sanitation",
    "final_address": "2444 Alvar St",
    "address_councildis": "D",
    "status": "Assigned to Contractor",
    "contractor": "IV Waste",
    "rowid": "954588",
    "final_x": "3692754.71241",
    "final_y": "540629.790987",
    "longitude": "-90.03220550365714",
    "latitude": "29.980197869889626",
    "geocoded_column": {
      "latitude": "29.980197869889626",
      "longitude": "-90.03220550365714"
    }
  },
  {
    "service_request": "2022-954587",
    "request_type": "Trash/Recycling",
    "request_reason": "Missed Trash Pick-Up",
    "date_created": "2022-12-19T15:46:52.000",
    "date_modified": "2022-12-19T15:46:53.000",
    "request_status": "Pending",
    "responsible_agency": "Department of Sanitation",
    "final_address": "2400 BLK Pine St",
    "address_councildis": "A",
    "status": "Assigned to Contractor",
    "contractor": "Richards Disposal",
    "rowid": "954587",
    "final_x": "3666452.11883",
    "final_y": "530431.283741",
    "longitude": "-90.1156228275213",
    "latitude": "29.95295037930989",
    "geocoded_column": {
      "latitude": "29.95295037930989",
      "longitude": "-90.1156228275213"
    }
  },
  {
    "service_request": "2022-954586",
    "request_type": "Trash/Recycling",
    "request_reason": "Replace Trash Cart",
    "date_created": "2022-12-19T15:43:55.000",
    "date_modified": "2022-12-19T15:43:56.000",
    "request_status": "Pending",
    "responsible_agency": "Department of Sanitation",
    "final_address": "3918 Iberville St",
    "address_councildis": "A",
    "status": "Assigned to Contractor",
    "contractor": "Richards Disposal",
    "rowid": "954586",
    "final_x": "3671845.7339",
    "final_y": "538208.973641",
    "longitude": "-90.09832743454255",
    "latitude": "29.974177716470624",
    "geocoded_column": {
      "latitude": "29.974177716470624",
      "longitude": "-90.09832743454255"
    }
  },
  {
    "service_request": "2022-954585",
    "request_type": "Trash/Recycling",
    "request_reason": "Request a Large Item Pick Up",
    "date_created": "2022-12-19T15:38:49.000",
    "date_modified": "2022-12-19T15:38:51.000",
    "request_status": "Pending",
    "responsible_agency": "Department of Sanitation",
    "final_address": "5610 Rhodes Ave",
    "address_councildis": "C",
    "status": "Assigned to Contractor",
    "contractor": "Richards Disposal",
    "rowid": "954585",
    "final_x": "3704266.23908",
    "final_y": "519899.44332",
    "longitude": "-89.99661135173557",
    "latitude": "29.922832373925345",
    "geocoded_column": {
      "latitude": "29.922832373925345",
      "longitude": "-89.99661135173557"
    }
  },
  {
    "service_request": "2022-954584",
    "request_type": "Abandoned Vehicles",
    "request_reason": "Abandoned/Junk Vehicles",
    "date_created": "2022-12-19T15:38:37.000",
    "date_modified": "2022-12-19T15:38:37.000",
    "request_status": "Pending",
    "responsible_agency": "Department of Public Works",
    "final_address": "FELICITY ST & MAGAZINE ST & HASTINGS PL",
    "address_councildis": "B",
    "status": "Pending",
    "rowid": "954584",
    "final_x": "3680009.0",
    "final_y": "523037.78",
    "longitude": "-90.07307294499881",
    "latitude": "29.932217592387683",
    "geocoded_column": {
      "latitude": "29.932217592387683",
      "longitude": "-90.07307294499881"
    }
  },
  {
    "service_request": "2022-954583",
    "request_type": "Trash/Recycling",
    "request_reason": "Order Recycling Cart",
    "date_created": "2022-12-19T15:35:46.000",
    "date_modified": "2022-12-19T15:35:47.000",
    "request_status": "Pending",
    "responsible_agency": "Department of Sanitation",
    "final_address": "1125 Leboeuf St",
    "address_councildis": "C",
    "status": "Pending",
    "rowid": "954583",
    "final_x": "3689666.0911",
    "final_y": "527223.734399",
    "longitude": "-90.04243766262302",
    "latitude": "29.94343196034093",
    "geocoded_column": {
      "latitude": "29.94343196034093",
      "longitude": "-90.04243766262302"
    }
  },
  {
    "service_request": "2022-954582",
    "request_type": "Abandoned Vehicles",
    "request_reason": "Abandoned/Junk Vehicles",
    "date_created": "2022-12-19T15:35:16.000",
    "date_modified": "2022-12-19T15:35:16.000",
    "request_status": "Pending",
    "responsible_agency": "Department of Public Works",
    "final_address": "3601 Conti St",
    "address_councildis": "B",
    "status": "Pending",
    "rowid": "954582",
    "final_x": "3673355.81339",
    "final_y": "538436.863433",
    "longitude": "-90.09355045873869",
    "latitude": "29.974759496447952",
    "geocoded_column": {
      "latitude": "29.974759496447952",
      "longitude": "-90.09355045873869"
    }
  },
  {
    "service_request": "2022-954581",
    "request_type": "Traffic Signals/Signs/Striping/Streetlights",
    "request_reason": "Traffic Signal Malfunctioning/Damaged",
    "date_created": "2022-12-19T15:33:59.000",
    "date_modified": "2022-12-19T15:33:59.000",
    "request_status": "Pending",
    "responsible_agency": "Department of Public Works",
    "final_address": "GIROD ST & BARONNE ST",
    "address_councildis": "B",
    "status": "Pending",
    "rowid": "954581",
    "final_x": "3679733.2",
    "final_y": "528744.68",
    "longitude": "-90.07374557295581",
    "latitude": "29.94791801179882",
    "geocoded_column": {
      "latitude": "29.94791801179882",
      "longitude": "-90.07374557295581"
    }
  },
  {
    "service_request": "2022-954580",
    "request_type": "Traffic Signals/Signs/Striping/Streetlights",
    "request_reason": "Street Light Outage/Malfunction",
    "date_created": "2022-12-19T15:32:59.000",
    "date_modified": "2022-12-19T15:33:00.000",
    "request_status": "Pending",
    "responsible_agency": "Department of Public Works",
    "final_address": "2627 N Rocheblave St",
    "address_councildis": "D",
    "status": "Pending",
    "contractor": "Legacy Professional Services",
    "rowid": "954580",
    "final_x": "3686672.64118",
    "final_y": "541294.973452",
    "longitude": "-90.0513917009271",
    "latitude": "29.98221538453191",
    "geocoded_column": {
      "latitude": "29.98221538453191",
      "longitude": "-90.0513917009271"
    }
  },
  {
    "service_request": "2022-954579",
    "request_type": "Trash/Recycling",
    "request_reason": "Illegal Dumping",
    "date_created": "2022-12-19T15:32:33.000",
    "date_modified": "2022-12-19T15:32:33.000",
    "request_status": "Pending",
    "responsible_agency": "Department of Sanitation",
    "final_address": "4930 S Johnson St",
    "address_councildis": "B",
    "status": "Pending",
    "rowid": "954579",
    "final_x": "3668951.87111",
    "final_y": "526957.405374",
    "longitude": "-90.10784700131288",
    "latitude": "29.943325063246196",
    "geocoded_column": {
      "latitude": "29.943325063246196",
      "longitude": "-90.10784700131288"
    }
  },
  {
    "service_request": "2022-954578",
    "request_type": "Trash/Recycling",
    "request_reason": "Order Recycling Cart",
    "date_created": "2022-12-19T15:31:55.000",
    "date_modified": "2022-12-19T15:31:55.000",
    "request_status": "Pending",
    "responsible_agency": "Department of Sanitation",
    "final_address": "4300 Duplessis St",
    "address_councildis": "D",
    "status": "Pending",
    "rowid": "954578",
    "final_x": "3678224.70075",
    "final_y": "548042.609682",
    "longitude": "-90.07784088831436",
    "latitude": "30.001026192258312",
    "geocoded_column": {
      "latitude": "30.001026192258312",
      "longitude": "-90.07784088831436"
    }
  },
  {
    "service_request": "2022-954577",
    "request_type": "Trash/Recycling",
    "request_reason": "Order Recycling Cart",
    "date_created": "2022-12-19T15:27:58.000",
    "date_modified": "2022-12-19T15:27:58.000",
    "request_status": "Pending",
    "responsible_agency": "Department of Sanitation",
    "final_address": "2815 Dryades St",
    "address_councildis": "B",
    "status": "Pending",
    "rowid": "954577",
    "final_x": "3675179.09006",
    "final_y": "523386.184635",
    "longitude": "-90.08830857237052",
    "latitude": "29.93332077647209",
    "geocoded_column": {
      "latitude": "29.93332077647209",
      "longitude": "-90.08830857237052"
    }
  },
  {
    "service_request": "2022-954576",
    "request_type": "Trash/Recycling",
    "request_reason": "Order Trash Cart",
    "date_created": "2022-12-19T15:27:39.000",
    "date_modified": "2022-12-19T15:27:40.000",
    "request_status": "Pending",
    "responsible_agency": "Department of Sanitation",
    "final_address": "2815 Dryades St",
    "address_councildis": "B",
    "status": "Assigned to Contractor",
    "contractor": "Richards Disposal",
    "rowid": "954576",
    "final_x": "3675179.09006",
    "final_y": "523386.184635",
    "longitude": "-90.08830857237052",
    "latitude": "29.93332077647209",
    "geocoded_column": {
      "latitude": "29.93332077647209",
      "longitude": "-90.08830857237052"
    }
  },
  {
    "service_request": "2022-954574",
    "request_type": "Trash/Recycling",
    "request_reason": "Order Trash Cart",
    "date_created": "2022-12-19T15:24:24.000",
    "date_modified": "2022-12-19T15:24:25.000",
    "request_status": "Pending",
    "responsible_agency": "Department of Sanitation",
    "final_address": "6070 Wright Rd",
    "address_councildis": "E",
    "status": "Assigned to Contractor",
    "contractor": "Waste Pro",
    "rowid": "954574",
    "final_x": "3712874.50597",
    "final_y": "562930.13072",
    "longitude": "-89.96782002134972",
    "latitude": "30.040871596930888",
    "geocoded_column": {
      "latitude": "30.040871596930888",
      "longitude": "-89.96782002134972"
    }
  },
  {
    "service_request": "2022-954573",
    "request_type": "Traffic Signals/Signs/Striping/Streetlights",
    "request_reason": "Street Name Sign Damaged or Missing",
    "date_created": "2022-12-19T15:23:52.000",
    "date_modified": "2022-12-19T15:23:52.000",
    "request_status": "Pending",
    "responsible_agency": "Department of Public Works",
    "final_address": "10101 Chef Menteur Hwy",
    "address_councildis": "E",
    "status": "Pending",
    "rowid": "954573",
    "final_x": "3712984.76325",
    "final_y": "554884.632024",
    "longitude": "-89.9677745946534",
    "latitude": "30.01874605885781",
    "geocoded_column": {
      "latitude": "30.01874605885781",
      "longitude": "-89.9677745946534"
    }
  },
  {
    "service_request": "2022-954572",
    "request_type": "Trash/Recycling",
    "request_reason": "Request a Large Item Pick Up",
    "date_created": "2022-12-19T15:14:26.000",
    "date_modified": "2022-12-19T15:14:26.000",
    "request_status": "Pending",
    "responsible_agency": "Department of Sanitation",
    "final_address": "7608 Willow St",
    "address_councildis": "A",
    "status": "Assigned to Contractor",
    "contractor": "Richards Disposal",
    "rowid": "954572",
    "final_x": "3663649.92634",
    "final_y": "527726.555327",
    "longitude": "-90.12456105164493",
    "latitude": "29.945594833762172",
    "geocoded_column": {
      "latitude": "29.945594833762172",
      "longitude": "-90.12456105164493"
    }
  },
  {
    "service_request": "2022-954571",
    "request_type": "Trash/Recycling",
    "request_reason": "Request a Large Item Pick Up",
    "date_created": "2022-12-19T15:13:16.000",
    "date_modified": "2022-12-19T15:13:17.000",
    "request_status": "Pending",
    "responsible_agency": "Department of Sanitation",
    "final_address": "417 Henry Clay Ave",
    "address_councildis": "A",
    "status": "Assigned to Contractor",
    "contractor": "Richards Disposal",
    "rowid": "954571",
    "final_x": "3663375.75616",
    "final_y": "518379.00959",
    "longitude": "-90.12573773977351",
    "latitude": "29.919899984815505",
    "geocoded_column": {
      "latitude": "29.919899984815505",
      "longitude": "-90.12573773977351"
    }
  },
  {
    "service_request": "2022-954570",
    "request_type": "Trash/Recycling",
    "request_reason": "Missed Trash Pick-Up",
    "date_created": "2022-12-19T15:12:34.000",
    "date_modified": "2022-12-19T15:12:35.000",
    "request_status": "Pending",
    "responsible_agency": "Department of Sanitation",
    "final_address": "1104 Arabella St",
    "address_councildis": "A",
    "status": "Assigned to Contractor",
    "contractor": "Richards Disposal",
    "rowid": "954570",
    "final_x": "3666006.08557",
    "final_y": "520010.418296",
    "longitude": "-90.11738038890164",
    "latitude": "29.92430936077309",
    "geocoded_column": {
      "latitude": "29.92430936077309",
      "longitude": "-90.11738038890164"
    }
  },
  {
    "service_request": "2022-954569",
    "request_type": "Trash/Recycling",
    "request_reason": "Replace Trash Cart",
    "date_created": "2022-12-19T15:09:32.000",
    "date_modified": "2022-12-19T15:09:32.000",
    "request_status": "Pending",
    "responsible_agency": "Department of Sanitation",
    "final_address": "7323 Nelson St",
    "address_councildis": "A",
    "status": "Assigned to Contractor",
    "contractor": "Richards Disposal",
    "rowid": "954569",
    "final_x": "3666458.33281",
    "final_y": "530731.840898",
    "longitude": "-90.1155931206527",
    "latitude": "29.9537766319529",
    "geocoded_column": {
      "latitude": "29.9537766319529",
      "longitude": "-90.1155931206527"
    }
  },
  {
    "service_request": "2022-954568",
    "request_type": "Roads/Drainage",
    "request_reason": "Pothole",
    "date_created": "2022-12-19T15:08:19.000",
    "date_modified": "2022-12-19T15:08:19.000",
    "request_status": "Pending",
    "responsible_agency": "Department of Public Works",
    "final_address": "6958 Pontchartrain Blvd",
    "address_councildis": "A",
    "status": "Pending",
    "rowid": "954568",
    "final_x": "3666390.79482",
    "final_y": "554121.103064",
    "longitude": "-90.11502113082513",
    "latitude": "30.018091150422222",
    "geocoded_column": {
      "latitude": "30.018091150422222",
      "longitude": "-90.11502113082513"
    }
  },
  {
    "service_request": "2022-954567",
    "request_type": "Trash/Recycling",
    "request_reason": "Missed Trash Pick-Up",
    "date_created": "2022-12-19T15:02:23.000",
    "date_modified": "2022-12-19T15:02:24.000",
    "request_status": "Pending",
    "responsible_agency": "Department of Sanitation",
    "final_address": "2411 Comet St",
    "address_councildis": "C",
    "status": "Assigned to Contractor",
    "contractor": "Richards Disposal",
    "rowid": "954567",
    "final_x": "3699980.05386",
    "final_y": "521958.512762",
    "longitude": "-90.010066004666",
    "latitude": "29.928630900076605",
    "geocoded_column": {
      "latitude": "29.928630900076605",
      "longitude": "-90.010066004666"
    }
  },
  {
    "service_request": "2022-954566",
    "request_type": "Roads/Drainage",
    "request_reason": "Pothole",
    "date_created": "2022-12-19T14:59:18.000",
    "date_modified": "2022-12-19T14:59:51.000",
    "case_close_date": "2022-12-19T08:59:51.000",
    "request_status": "Closed",
    "responsible_agency": "Department of Public Works",
    "final_address": "2629 Delachaise St",
    "address_councildis": "B",
    "status": "Resolved",
    "rowid": "954566",
    "final_x": "3672369.67943",
    "final_y": "524874.655036",
    "longitude": "-90.09712703090274",
    "latitude": "29.937497225155255",
    "geocoded_column": {
      "latitude": "29.937497225155255",
      "longitude": "-90.09712703090274"
    }
  },
  {
    "service_request": "2022-954565",
    "request_type": "Roads/Drainage",
    "request_reason": "Pothole",
    "date_created": "2022-12-19T14:58:11.000",
    "date_modified": "2022-12-19T14:58:42.000",
    "case_close_date": "2022-12-19T08:58:42.000",
    "request_status": "Closed",
    "responsible_agency": "Department of Public Works",
    "final_address": "307 Tchoupitoulas St",
    "address_councildis": "B",
    "status": "Resolved",
    "rowid": "954565",
    "final_x": "3681939.40303",
    "final_y": "529484.962113",
    "longitude": "-90.0667538763832",
    "latitude": "29.94988666857575",
    "geocoded_column": {
      "latitude": "29.94988666857575",
      "longitude": "-90.0667538763832"
    }
  },
  {
    "service_request": "2022-954564",
    "request_type": "Roads/Drainage",
    "request_reason": "Pothole",
    "date_created": "2022-12-19T14:56:55.000",
    "date_modified": "2022-12-19T14:57:26.000",
    "case_close_date": "2022-12-19T08:57:26.000",
    "request_status": "Closed",
    "responsible_agency": "Department of Public Works",
    "final_address": "1061 Camp St",
    "address_councildis": "B",
    "status": "Resolved",
    "rowid": "954564",
    "final_x": "3680402.16527",
    "final_y": "526522.600638",
    "longitude": "-90.07171063194589",
    "latitude": "29.941787798759197",
    "geocoded_column": {
      "latitude": "29.941787798759197",
      "longitude": "-90.07171063194589"
    }
  },
  {
    "service_request": "2022-954563",
    "request_type": "Roads/Drainage",
    "request_reason": "Pothole",
    "date_created": "2022-12-19T14:55:46.000",
    "date_modified": "2022-12-19T14:56:05.000",
    "case_close_date": "2022-12-19T08:56:05.000",
    "request_status": "Closed",
    "responsible_agency": "Department of Public Works",
    "final_address": "1130 Tchoupitoulas St",
    "address_councildis": "B",
    "status": "Resolved",
    "rowid": "954563",
    "final_x": "3681931.0836",
    "final_y": "525838.856509",
    "longitude": "-90.06690738444395",
    "latitude": "29.939861354008883",
    "geocoded_column": {
      "latitude": "29.939861354008883",
      "longitude": "-90.06690738444395"
    }
  },
  {
    "service_request": "2022-954562",
    "request_type": "Parks & Parkways",
    "request_reason": "Request Tree Service (Right of Way/Public Property)",
    "date_created": "2022-12-19T14:55:16.000",
    "date_modified": "2022-12-19T14:55:16.000",
    "request_status": "Pending",
    "responsible_agency": "Department of Parks & Parkway",
    "final_address": "3929 Chartres St",
    "address_councildis": "C",
    "status": "Pending",
    "rowid": "954562",
    "final_x": "3691240.44764",
    "final_y": "533542.249093",
    "longitude": "-90.03724138048807",
    "latitude": "29.960756825778475",
    "geocoded_column": {
      "latitude": "29.960756825778475",
      "longitude": "-90.03724138048807"
    }
  },
  {
    "service_request": "2022-954561",
    "request_type": "Roads/Drainage",
    "request_reason": "Pothole",
    "date_created": "2022-12-19T14:54:25.000",
    "date_modified": "2022-12-19T14:54:54.000",
    "case_close_date": "2022-12-19T08:54:54.000",
    "request_status": "Closed",
    "responsible_agency": "Department of Public Works",
    "final_address": "1037 Magazine St",
    "address_councildis": "B",
    "status": "Resolved",
    "rowid": "954561",
    "final_x": "3680834.82146",
    "final_y": "526581.825406",
    "longitude": "-90.07034258678273",
    "latitude": "29.941937541328162",
    "geocoded_column": {
      "latitude": "29.941937541328162",
      "longitude": "-90.07034258678273"
    }
  },
  {
    "service_request": "2022-954560",
    "request_type": "Roads/Drainage",
    "request_reason": "Pothole",
    "date_created": "2022-12-19T14:53:04.000",
    "date_modified": "2022-12-19T14:53:25.000",
    "case_close_date": "2022-12-19T08:53:25.000",
    "request_status": "Closed",
    "responsible_agency": "Department of Public Works",
    "final_address": "3611 N Robertson St",
    "address_councildis": "D",
    "status": "Resolved",
    "rowid": "954560",
    "final_x": "3691212.02569",
    "final_y": "537063.969928",
    "longitude": "-90.03720533609984",
    "latitude": "29.970441205105136",
    "geocoded_column": {
      "latitude": "29.970441205105136",
      "longitude": "-90.03720533609984"
    }
  },
  {
    "service_request": "2022-954559",
    "request_type": "Trash/Recycling",
    "request_reason": "Illegal Dumping",
    "date_created": "2022-12-19T14:40:59.000",
    "date_modified": "2022-12-19T14:40:59.000",
    "request_status": "Pending",
    "responsible_agency": "Department of Sanitation",
    "final_address": "BELFAST ST & EAGLE ST",
    "address_councildis": "A",
    "status": "Pending",
    "rowid": "954559",
    "final_x": "3663760.3",
    "final_y": "534028.98",
    "longitude": "-90.12400255009426",
    "latitude": "29.962921256924805",
    "geocoded_column": {
      "latitude": "29.962921256924805",
      "longitude": "-90.12400255009426"
    }
  },
  {
    "service_request": "2022-954558",
    "request_type": "Trash/Recycling",
    "request_reason": "Request a Large Item Pick Up",
    "date_created": "2022-12-19T14:38:37.000",
    "date_modified": "2022-12-19T14:49:21.000",
    "request_status": "Pending",
    "responsible_agency": "Department of Sanitation",
    "final_address": "13171 Linden St",
    "address_councildis": "E",
    "contractor": "Waste Pro",
    "rowid": "954558",
    "final_x": "3716405.3573",
    "final_y": "570842.292583",
    "longitude": "-89.95636096070511",
    "latitude": "30.062510625062963",
    "geocoded_column": {
      "latitude": "30.062510625062963",
      "longitude": "-89.95636096070511"
    }
  },
  {
    "service_request": "2022-954557",
    "request_type": "Trash/Recycling",
    "request_reason": "Request a Large Item Pick Up",
    "date_created": "2022-12-19T14:38:31.000",
    "date_modified": "2022-12-19T14:38:32.000",
    "request_status": "Pending",
    "responsible_agency": "Department of Sanitation",
    "final_address": "5725 Fleur de Lis Dr, New Orleans, Louisiana, 70124",
    "status": "Assigned to Contractor",
    "rowid": "954557",
    "longitude": "0.0",
    "latitude": "0.0",
    "geocoded_column": {
      "latitude": "0.0",
      "longitude": "0.0"
    }
  },
  {
    "service_request": "2022-954556",
    "request_type": "Trash/Recycling",
    "request_reason": "Repair Trash Cart",
    "date_created": "2022-12-19T14:37:53.000",
    "date_modified": "2022-12-19T14:37:54.000",
    "request_status": "Pending",
    "responsible_agency": "Department of Sanitation",
    "final_address": "620 Second St",
    "address_councildis": "B",
    "status": "Assigned to Contractor",
    "contractor": "Richards Disposal",
    "rowid": "954556",
    "final_x": "3678700.74139",
    "final_y": "519922.6126",
    "longitude": "-90.07731079120795",
    "latitude": "29.92369139932126",
    "geocoded_column": {
      "latitude": "29.92369139932126",
      "longitude": "-90.07731079120795"
    }
  },
  {
    "service_request": "2022-954555",
    "request_type": "Trash/Recycling",
    "request_reason": "Request a Large Item Pick Up",
    "date_created": "2022-12-19T14:37:33.000",
    "date_modified": "2022-12-19T14:56:22.000",
    "case_close_date": "2022-12-19T08:56:22.000",
    "request_status": "Closed",
    "responsible_agency": "Department of Sanitation",
    "final_address": "13171 Linden St",
    "address_councildis": "E",
    "status": "Duplicate Request",
    "contractor": "Waste Pro",
    "rowid": "954555",
    "final_x": "3716405.3573",
    "final_y": "570842.292583",
    "longitude": "-89.95636096070511",
    "latitude": "30.062510625062963",
    "geocoded_column": {
      "latitude": "30.062510625062963",
      "longitude": "-89.95636096070511"
    }
  },
  {
    "service_request": "2022-954554",
    "request_type": "Abandoned Vehicles",
    "request_reason": "Abandoned/Junk Vehicles",
    "date_created": "2022-12-19T14:36:45.000",
    "date_modified": "2022-12-19T14:36:45.000",
    "request_status": "Pending",
    "responsible_agency": "Department of Public Works",
    "final_address": "432 S Norman C Francis Prkwy",
    "address_councildis": "B",
    "status": "Pending",
    "rowid": "954554",
    "final_x": "3672415.55598",
    "final_y": "535437.086534",
    "longitude": "-90.09662228623641",
    "latitude": "29.966539062323438",
    "geocoded_column": {
      "latitude": "29.966539062323438",
      "longitude": "-90.09662228623641"
    }
  },
  {
    "service_request": "2022-954553",
    "request_type": "Trash/Recycling",
    "request_reason": "Missed Trash Pick-Up",
    "date_created": "2022-12-19T14:35:39.000",
    "date_modified": "2022-12-19T14:35:39.000",
    "request_status": "Pending",
    "responsible_agency": "Department of Sanitation",
    "final_address": "5432 N Tonti St",
    "address_councildis": "E",
    "status": "Assigned to Contractor",
    "contractor": "Waste Pro",
    "rowid": "954553",
    "final_x": "3698710.71248",
    "final_y": "538346.579401",
    "longitude": "-90.01347712230108",
    "latitude": "29.973732557170134",
    "geocoded_column": {
      "latitude": "29.973732557170134",
      "longitude": "-90.01347712230108"
    }
  },
  {
    "service_request": "2022-954552",
    "request_type": "Trash/Recycling",
    "request_reason": "Order Trash Cart",
    "date_created": "2022-12-19T14:34:26.000",
    "date_modified": "2022-12-19T14:34:27.000",
    "request_status": "Pending",
    "responsible_agency": "Department of Sanitation",
    "final_address": "3700 Milan St",
    "address_councildis": "B",
    "status": "Assigned to Contractor",
    "contractor": "Richards Disposal",
    "rowid": "954552",
    "final_x": "3670828.21819",
    "final_y": "528251.0704",
    "longitude": "-90.10187898444312",
    "latitude": "29.946826907015993",
    "geocoded_column": {
      "latitude": "29.946826907015993",
      "longitude": "-90.10187898444312"
    }
  },
  {
    "service_request": "2022-954550",
    "request_type": "Roads/Drainage",
    "request_reason": "Pothole",
    "date_created": "2022-12-19T14:33:06.000",
    "date_modified": "2022-12-19T14:33:07.000",
    "request_status": "Pending",
    "responsible_agency": "Department of Public Works",
    "final_address": "ST CLAUDE AVE & ELYSIAN FIELDS AVE",
    "address_councildis": "C",
    "status": "Pending",
    "rowid": "954550",
    "final_x": "3684962.3",
    "final_y": "536299.18",
    "longitude": "-90.05696954489969",
    "latitude": "29.96853120354274",
    "geocoded_column": {
      "latitude": "29.96853120354274",
      "longitude": "-90.05696954489969"
    }
  },
  {
    "service_request": "2022-954549",
    "request_type": "Abandoned Vehicles",
    "request_reason": "Abandoned/Junk Vehicles",
    "date_created": "2022-12-19T14:31:13.000",
    "date_modified": "2022-12-19T14:34:04.000",
    "request_status": "Pending",
    "responsible_agency": "Department of Public Works",
    "final_address": "2ND ST & CHIPPEWA ST",
    "address_councildis": "B",
    "status": "Pending",
    "rowid": "954549",
    "final_x": "3678636.2",
    "final_y": "520107.78",
    "longitude": "-90.07750811868127",
    "latitude": "29.92420249465808",
    "geocoded_column": {
      "latitude": "29.92420249465808",
      "longitude": "-90.07750811868127"
    }
  },
  {
    "service_request": "2022-954548",
    "request_type": "Trash/Recycling",
    "request_reason": "Missed Trash Pick-Up",
    "date_created": "2022-12-19T14:28:14.000",
    "date_modified": "2022-12-19T14:28:14.000",
    "request_status": "Pending",
    "responsible_agency": "Department of Sanitation",
    "final_address": "15 Christopher Ct",
    "address_councildis": "E",
    "status": "Assigned to Contractor",
    "contractor": "Waste Pro",
    "rowid": "954548",
    "final_x": "3716824.24056",
    "final_y": "570601.843559",
    "longitude": "-89.9550460166337",
    "latitude": "30.061835642633227",
    "geocoded_column": {
      "latitude": "30.061835642633227",
      "longitude": "-89.9550460166337"
    }
  },
  {
    "service_request": "2022-954547",
    "request_type": "Trash/Recycling",
    "request_reason": "Order Recycling Cart",
    "date_created": "2022-12-19T14:27:03.000",
    "date_modified": "2022-12-19T14:27:04.000",
    "request_status": "Pending",
    "responsible_agency": "Department of Sanitation",
    "final_address": "4631 America St",
    "address_councildis": "E",
    "status": "Pending",
    "rowid": "954547",
    "final_x": "3699832.42288",
    "final_y": "554444.873752",
    "longitude": "-90.00934707769409",
    "latitude": "30.017961319385403",
    "geocoded_column": {
      "latitude": "30.017961319385403",
      "longitude": "-90.00934707769409"
    }
  },
  {
    "service_request": "2022-954546",
    "request_type": "Trash/Recycling",
    "request_reason": "Repair Trash Cart",
    "date_created": "2022-12-19T14:25:46.000",
    "date_modified": "2022-12-19T15:52:00.000",
    "case_close_date": "2022-12-19T09:52:00.000",
    "request_status": "Closed",
    "responsible_agency": "Department of Sanitation",
    "final_address": "4631 America St",
    "address_councildis": "E",
    "status": "Duplicate Request",
    "contractor": "Waste Pro",
    "rowid": "954546",
    "final_x": "3699832.42288",
    "final_y": "554444.873752",
    "longitude": "-90.00934707769409",
    "latitude": "30.017961319385403",
    "geocoded_column": {
      "latitude": "30.017961319385403",
      "longitude": "-90.00934707769409"
    }
  },
  {
    "service_request": "2022-954545",
    "request_type": "Trash/Recycling",
    "request_reason": "Repair Trash Cart",
    "date_created": "2022-12-19T14:23:16.000",
    "date_modified": "2022-12-19T14:23:17.000",
    "request_status": "Pending",
    "responsible_agency": "Department of Sanitation",
    "final_address": "4631 America St",
    "address_councildis": "E",
    "status": "Assigned to Contractor",
    "contractor": "Waste Pro",
    "rowid": "954545",
    "final_x": "3699832.42288",
    "final_y": "554444.873752",
    "longitude": "-90.00934707769409",
    "latitude": "30.017961319385403",
    "geocoded_column": {
      "latitude": "30.017961319385403",
      "longitude": "-90.00934707769409"
    }
  },
  {
    "service_request": "2022-954544",
    "request_type": "Abandoned Vehicles",
    "request_reason": "Abandoned/Junk Vehicles",
    "date_created": "2022-12-19T14:21:52.000",
    "date_modified": "2022-12-19T14:21:52.000",
    "request_status": "Pending",
    "responsible_agency": "Department of Public Works",
    "final_address": "820 OKeefe Ave",
    "address_councildis": "B",
    "status": "Pending",
    "rowid": "954544",
    "final_x": "3679218.58779",
    "final_y": "528079.521727",
    "longitude": "-90.0753934659625",
    "latitude": "29.946104593444822",
    "geocoded_column": {
      "latitude": "29.946104593444822",
      "longitude": "-90.0753934659625"
    }
  },
  {
    "service_request": "2022-954543",
    "request_type": "Trash/Recycling",
    "request_reason": "Order Recycling Cart",
    "date_created": "2022-12-19T14:21:35.000",
    "date_modified": "2022-12-19T14:21:36.000",
    "request_status": "Pending",
    "responsible_agency": "Department of Sanitation",
    "final_address": "4631 America St",
    "address_councildis": "E",
    "status": "Pending",
    "rowid": "954543",
    "final_x": "3699832.42288",
    "final_y": "554444.873752",
    "longitude": "-90.00934707769409",
    "latitude": "30.017961319385403",
    "geocoded_column": {
      "latitude": "30.017961319385403",
      "longitude": "-90.00934707769409"
    }
  },
  {
    "service_request": "2022-954541",
    "request_type": "Trash/Recycling",
    "request_reason": "Request a Large Item Pick Up",
    "date_created": "2022-12-19T14:19:27.000",
    "date_modified": "2022-12-19T14:19:27.000",
    "request_status": "Pending",
    "responsible_agency": "Department of Sanitation",
    "final_address": "360 Delacroix Rd",
    "address_councildis": "C",
    "status": "Assigned to Contractor",
    "contractor": "Richards Disposal",
    "rowid": "954541",
    "final_x": "3726167.1447",
    "final_y": "515929.145396",
    "longitude": "-89.92763358779301",
    "latitude": "29.91119481461581",
    "geocoded_column": {
      "latitude": "29.91119481461581",
      "longitude": "-89.92763358779301"
    }
  },
  {
    "service_request": "2022-954540",
    "request_type": "Abandoned Vehicles",
    "request_reason": "Abandoned/Junk Vehicles",
    "date_created": "2022-12-19T14:17:00.000",
    "date_modified": "2022-12-19T14:17:00.000",
    "request_status": "Pending",
    "responsible_agency": "Department of Public Works",
    "final_address": "5831 West End Blvd",
    "address_councildis": "A",
    "status": "Pending",
    "rowid": "954540",
    "final_x": "3666467.49575",
    "final_y": "546565.795857",
    "longitude": "-90.115032599476",
    "latitude": "29.99731444144578",
    "geocoded_column": {
      "latitude": "29.99731444144578",
      "longitude": "-90.115032599476"
    }
  },
  {
    "service_request": "2022-954539",
    "request_type": "Trash/Recycling",
    "request_reason": "Replace Trash Cart",
    "date_created": "2022-12-19T14:13:53.000",
    "date_modified": "2022-12-19T14:13:54.000",
    "request_status": "Pending",
    "responsible_agency": "Department of Sanitation",
    "final_address": "11211 N Parkwood Ct",
    "address_councildis": "E",
    "status": "Assigned to Contractor",
    "contractor": "Waste Pro",
    "rowid": "954539",
    "final_x": "3716476.96229",
    "final_y": "559267.724572",
    "longitude": "-89.95657422577963",
    "latitude": "30.030682920697455",
    "geocoded_column": {
      "latitude": "30.030682920697455",
      "longitude": "-89.95657422577963"
    }
  },
  {
    "service_request": "2022-954538",
    "request_type": "Traffic Signals/Signs/Striping/Streetlights",
    "request_reason": "Street Light Outage/Malfunction",
    "date_created": "2022-12-19T14:12:37.000",
    "date_modified": "2022-12-19T14:12:38.000",
    "request_status": "Pending",
    "responsible_agency": "Department of Public Works",
    "final_address": "TULLIS DR & PITTARI PL",
    "address_councildis": "C",
    "status": "Pending",
    "contractor": "Legacy Professional Services",
    "rowid": "954538",
    "final_x": "3709607.8",
    "final_y": "516834.98",
    "longitude": "-89.97986456609158",
    "latitude": "29.914233748536972",
    "geocoded_column": {
      "latitude": "29.914233748536972",
      "longitude": "-89.97986456609158"
    }
  },
  {
    "service_request": "2022-954537",
    "request_type": "Trash/Recycling",
    "request_reason": "Order Trash Cart",
    "date_created": "2022-12-19T14:12:32.000",
    "date_modified": "2022-12-19T14:12:33.000",
    "request_status": "Pending",
    "responsible_agency": "Department of Sanitation",
    "final_address": "2230 Chartres St",
    "address_councildis": "C",
    "status": "Assigned to Contractor",
    "contractor": "IV Waste",
    "rowid": "954537",
    "final_x": "3685447.63913",
    "final_y": "534498.091909",
    "longitude": "-90.05550025275237",
    "latitude": "29.96356396111524",
    "geocoded_column": {
      "latitude": "29.96356396111524",
      "longitude": "-90.05550025275237"
    }
  },
  {
    "service_request": "2022-954536",
    "request_type": "Trash/Recycling",
    "request_reason": "Order Recycling Cart",
    "date_created": "2022-12-19T14:11:11.000",
    "date_modified": "2022-12-19T14:11:12.000",
    "request_status": "Pending",
    "responsible_agency": "Department of Sanitation",
    "final_address": "11140 Ivy Ln",
    "address_councildis": "E",
    "status": "Pending",
    "rowid": "954536",
    "final_x": "3716178.11116",
    "final_y": "559858.350877",
    "longitude": "-89.95749618036093",
    "latitude": "30.032316776113127",
    "geocoded_column": {
      "latitude": "30.032316776113127",
      "longitude": "-89.95749618036093"
    }
  },
  {
    "service_request": "2022-954535",
    "request_type": "Trash/Recycling",
    "request_reason": "Request a Large Item Pick Up",
    "date_created": "2022-12-19T14:09:51.000",
    "date_modified": "2022-12-19T14:09:52.000",
    "request_status": "Pending",
    "responsible_agency": "Department of Sanitation",
    "final_address": "8720 Lomond Rd",
    "address_councildis": "E",
    "status": "Assigned to Contractor",
    "contractor": "Waste Pro",
    "rowid": "954535",
    "final_x": "3704671.56676",
    "final_y": "562472.664479",
    "longitude": "-89.9937608235621",
    "latitude": "30.039879984261596",
    "geocoded_column": {
      "latitude": "30.039879984261596",
      "longitude": "-89.9937608235621"
    }
  },
  {
    "service_request": "2022-954534",
    "request_type": "Trash/Recycling",
    "request_reason": "MIssed Recycling Pick-Up",
    "date_created": "2022-12-19T14:08:18.000",
    "date_modified": "2022-12-19T14:08:19.000",
    "request_status": "Pending",
    "responsible_agency": "Department of Sanitation",
    "final_address": "6316 Story St, New Orleans, Louisiana, 70118",
    "address_councildis": "A",
    "status": "Assigned to Contractor",
    "contractor": "Richards Disposal",
    "rowid": "954534",
    "final_x": "3666276.49396",
    "final_y": "526644.957054",
    "longitude": "-90.11630435900773",
    "latitude": "29.942544337178976",
    "geocoded_column": {
      "latitude": "29.942544337178976",
      "longitude": "-90.11630435900773"
    }
  },
  {
    "service_request": "2022-954533",
    "request_type": "Traffic Signals/Signs/Striping/Streetlights",
    "request_reason": "Street Light Outage/Malfunction",
    "date_created": "2022-12-19T14:05:36.000",
    "date_modified": "2022-12-19T14:05:37.000",
    "request_status": "Pending",
    "responsible_agency": "Department of Public Works",
    "final_address": "3023 Marigny St",
    "address_councildis": "D",
    "status": "Pending",
    "contractor": "Legacy Professional Services",
    "rowid": "954533",
    "final_x": "3684851.72009",
    "final_y": "543910.53915",
    "longitude": "-90.05705102721632",
    "latitude": "29.9894631549012",
    "geocoded_column": {
      "latitude": "29.9894631549012",
      "longitude": "-90.05705102721632"
    }
  },
  {
    "service_request": "2022-954532",
    "request_type": "Trash/Recycling",
    "request_reason": "Order Trash Cart",
    "date_created": "2022-12-19T14:04:36.000",
    "date_modified": "2022-12-19T14:04:37.000",
    "request_status": "Pending",
    "responsible_agency": "Department of Sanitation",
    "final_address": "3126 Rabbits St",
    "address_councildis": "D",
    "status": "Assigned to Contractor",
    "contractor": "IV Waste",
    "rowid": "954532",
    "final_x": "3688319.34441",
    "final_y": "544593.954319",
    "longitude": "-90.04607356931486",
    "latitude": "29.991235644026155",
    "geocoded_column": {
      "latitude": "29.991235644026155",
      "longitude": "-90.04607356931486"
    }
  },
  {
    "service_request": "2022-954531",
    "request_type": "Trash/Recycling",
    "request_reason": "Missed Trash Pick-Up",
    "date_created": "2022-12-19T14:02:06.000",
    "date_modified": "2022-12-19T14:02:07.000",
    "request_status": "Pending",
    "responsible_agency": "Department of Sanitation",
    "final_address": "7040 Magazine St",
    "address_councildis": "A",
    "status": "Assigned to Contractor",
    "contractor": "Richards Disposal",
    "rowid": "954531",
    "final_x": "3660992.64058",
    "final_y": "521052.624313",
    "longitude": "-90.13317172390884",
    "latitude": "29.927320439504893",
    "geocoded_column": {
      "latitude": "29.927320439504893",
      "longitude": "-90.13317172390884"
    }
  },
  {
    "service_request": "2022-954530",
    "request_type": "Trash/Recycling",
    "request_reason": "Order Recycling Cart",
    "date_created": "2022-12-19T13:54:06.000",
    "date_modified": "2022-12-19T13:54:06.000",
    "request_status": "Pending",
    "responsible_agency": "Department of Sanitation",
    "final_address": "407 Abalon Ct",
    "address_councildis": "C",
    "status": "Pending",
    "rowid": "954530",
    "final_x": "3689328.30812",
    "final_y": "530174.783361",
    "longitude": "-90.04339923852532",
    "latitude": "29.951556793139034",
    "geocoded_column": {
      "latitude": "29.951556793139034",
      "longitude": "-90.04339923852532"
    }
  },
  {
    "service_request": "2022-954529",
    "request_type": "Trash/Recycling",
    "request_reason": "Replace Trash Cart",
    "date_created": "2022-12-19T13:52:27.000",
    "date_modified": "2022-12-19T13:52:27.000",
    "request_status": "Pending",
    "responsible_agency": "Department of Sanitation",
    "final_address": "2433 Joseph St, New Orleans, Louisiana, 70115",
    "address_councildis": "A",
    "status": "Assigned to Contractor",
    "contractor": "Richards Disposal",
    "rowid": "954529",
    "final_x": "3667510.06644",
    "final_y": "525014.933181",
    "longitude": "-90.11246450662073",
    "latitude": "29.938026211989136",
    "geocoded_column": {
      "latitude": "29.938026211989136",
      "longitude": "-90.11246450662073"
    }
  },
  {
    "service_request": "2022-954528",
    "request_type": "Trash/Recycling",
    "request_reason": "Request a Large Item Pick Up",
    "date_created": "2022-12-19T13:50:11.000",
    "date_modified": "2022-12-19T16:34:39.000",
    "case_close_date": "2022-12-19T10:34:39.000",
    "request_status": "Closed",
    "responsible_agency": "Department of Sanitation",
    "final_address": "0 BLK Killdeer St",
    "address_councildis": "D",
    "status": "Assigned to Contractor",
    "contractor": "IV Waste",
    "contractor_action": "Completed",
    "rowid": "954528",
    "final_x": "3675934.23504",
    "final_y": "556061.818438",
    "longitude": "-90.08480062483775",
    "latitude": "30.02314495703387",
    "geocoded_column": {
      "latitude": "30.02314495703387",
      "longitude": "-90.08480062483775"
    }
  },
  {
    "service_request": "2022-954527",
    "request_type": "Trash/Recycling",
    "request_reason": "Repair Trash Cart",
    "date_created": "2022-12-19T13:46:05.000",
    "date_modified": "2022-12-19T13:46:06.000",
    "request_status": "Pending",
    "responsible_agency": "Department of Sanitation",
    "final_address": "3433 Joseph St",
    "address_councildis": "A",
    "status": "Assigned to Contractor",
    "contractor": "Richards Disposal",
    "rowid": "954527",
    "final_x": "3668257.55533",
    "final_y": "528332.02368",
    "longitude": "-90.10999280466282",
    "latitude": "29.94712521795166",
    "geocoded_column": {
      "latitude": "29.94712521795166",
      "longitude": "-90.10999280466282"
    }
  },
  {
    "service_request": "2022-954526",
    "request_type": "Property Maintenance",
    "request_reason": "Property Maintenance",
    "date_created": "2022-12-19T13:40:45.000",
    "date_modified": "2022-12-19T13:40:45.000",
    "request_status": "Pending",
    "responsible_agency": "Department of Code Enforcement",
    "final_address": "7529 Garfield St",
    "address_councildis": "A",
    "status": "Pending",
    "rowid": "954526",
    "final_x": "3660849.69491",
    "final_y": "524346.516988",
    "longitude": "-90.13351409146387",
    "latitude": "29.9363817280576",
    "geocoded_column": {
      "latitude": "29.9363817280576",
      "longitude": "-90.13351409146387"
    }
  },
  {
    "service_request": "2022-954525",
    "request_type": "Trash/Recycling",
    "request_reason": "Replace Trash Cart",
    "date_created": "2022-12-19T13:38:09.000",
    "date_modified": "2022-12-19T13:38:09.000",
    "request_status": "Pending",
    "responsible_agency": "Department of Sanitation",
    "final_address": "615 S Scott St",
    "address_councildis": "B",
    "status": "Assigned to Contractor",
    "contractor": "Richards Disposal",
    "rowid": "954525",
    "final_x": "3670447.70478",
    "final_y": "536143.307591",
    "longitude": "-90.10281280507557",
    "latitude": "29.968539187514313",
    "geocoded_column": {
      "latitude": "29.968539187514313",
      "longitude": "-90.10281280507557"
    }
  },
  {
    "service_request": "2022-954524",
    "request_type": "Trash/Recycling",
    "request_reason": "Request a Large Item Pick Up",
    "date_created": "2022-12-19T13:34:12.000",
    "date_modified": "2022-12-19T13:34:13.000",
    "request_status": "Pending",
    "responsible_agency": "Department of Sanitation",
    "final_address": "2 Killdeer St",
    "address_councildis": "D",
    "status": "Assigned to Contractor",
    "contractor": "IV Waste",
    "rowid": "954524",
    "final_x": "3676078.07777",
    "final_y": "556161.933146",
    "longitude": "-90.08434266457765",
    "latitude": "30.023415925787734",
    "geocoded_column": {
      "latitude": "30.023415925787734",
      "longitude": "-90.08434266457765"
    }
  },
  {
    "service_request": "2022-954523",
    "request_type": "Trash/Recycling",
    "request_reason": "Illegal Dumping",
    "date_created": "2022-12-19T13:33:54.000",
    "date_modified": "2022-12-19T13:34:45.000",
    "case_close_date": "2022-12-19T07:34:45.000",
    "request_status": "Closed",
    "responsible_agency": "Department of Sanitation",
    "final_address": "1700 BLK Shirley Dr",
    "address_councildis": "C",
    "status": "Resolved",
    "rowid": "954523",
    "final_x": "3692959.90702",
    "final_y": "523574.0468",
    "longitude": "-90.03216912886296",
    "latitude": "29.93329412367076",
    "geocoded_column": {
      "latitude": "29.93329412367076",
      "longitude": "-90.03216912886296"
    }
  },
  {
    "service_request": "2022-954522",
    "request_type": "Trash/Recycling",
    "request_reason": "Missed Trash Pick-Up",
    "date_created": "2022-12-19T13:30:59.000",
    "date_modified": "2022-12-19T13:30:59.000",
    "request_status": "Pending",
    "responsible_agency": "Department of Sanitation",
    "final_address": "5416 Story St",
    "address_councildis": "A",
    "status": "Assigned to Contractor",
    "contractor": "Richards Disposal",
    "rowid": "954522",
    "final_x": "3668178.3282",
    "final_y": "525965.737405",
    "longitude": "-90.11032269961919",
    "latitude": "29.940621022314794",
    "geocoded_column": {
      "latitude": "29.940621022314794",
      "longitude": "-90.11032269961919"
    }
  },
  {
    "service_request": "2022-954521",
    "request_type": "Trash/Recycling",
    "request_reason": "MIssed Recycling Pick-Up",
    "date_created": "2022-12-19T13:29:50.000",
    "date_modified": "2022-12-19T13:29:51.000",
    "request_status": "Pending",
    "responsible_agency": "Department of Sanitation",
    "final_address": "700 BLK Pauline St",
    "address_councildis": "C",
    "status": "Assigned to Contractor",
    "contractor": "IV Waste",
    "rowid": "954521",
    "final_x": "3690885.94135",
    "final_y": "534128.720244",
    "longitude": "-90.03833990841453",
    "latitude": "29.962380437688473",
    "geocoded_column": {
      "latitude": "29.962380437688473",
      "longitude": "-90.03833990841453"
    }
  },
  {
    "service_request": "2022-954520",
    "request_type": "Trash/Recycling",
    "request_reason": "Missed Trash Pick-Up",
    "date_created": "2022-12-19T13:28:14.000",
    "date_modified": "2022-12-19T13:28:15.000",
    "request_status": "Pending",
    "responsible_agency": "Department of Sanitation",
    "final_address": "4220 Darby St",
    "address_councildis": "E",
    "status": "Assigned to Contractor",
    "contractor": "Waste Pro",
    "rowid": "954520",
    "final_x": "3711724.86181",
    "final_y": "553782.870103",
    "longitude": "-89.97179675663008",
    "latitude": "30.01575786920723",
    "geocoded_column": {
      "latitude": "30.01575786920723",
      "longitude": "-89.97179675663008"
    }
  },
  {
    "service_request": "2022-954519",
    "request_type": "Trash/Recycling",
    "request_reason": "Request a Large Item Pick Up",
    "date_created": "2022-12-19T13:25:16.000",
    "date_modified": "2022-12-19T13:25:18.000",
    "request_status": "Pending",
    "responsible_agency": "Department of Sanitation",
    "final_address": "2512 General Pershing St",
    "address_councildis": "B",
    "status": "Assigned to Contractor",
    "contractor": "Richards Disposal",
    "rowid": "954519",
    "final_x": "3670879.45543",
    "final_y": "524182.569212",
    "longitude": "-90.10185526753742",
    "latitude": "29.93563833654085",
    "geocoded_column": {
      "latitude": "29.93563833654085",
      "longitude": "-90.10185526753742"
    }
  },
  {
    "service_request": "2022-954518",
    "request_type": "Trash/Recycling",
    "request_reason": "Repair Trash Cart",
    "date_created": "2022-12-19T13:23:02.000",
    "date_modified": "2022-12-19T13:23:03.000",
    "request_status": "Pending",
    "responsible_agency": "Department of Sanitation",
    "final_address": "2735 Paris Ave",
    "address_councildis": "D",
    "status": "Assigned to Contractor",
    "contractor": "IV Waste",
    "rowid": "954518",
    "final_x": "3679999.22984",
    "final_y": "542479.703053",
    "longitude": "-90.07242839215691",
    "latitude": "29.98567658046859",
    "geocoded_column": {
      "latitude": "29.98567658046859",
      "longitude": "-90.07242839215691"
    }
  },
  {
    "service_request": "2022-954516",
    "request_type": "Trash/Recycling",
    "request_reason": "Order Recycling Cart",
    "date_created": "2022-12-19T13:18:16.000",
    "date_modified": "2022-12-19T13:18:16.000",
    "request_status": "Pending",
    "responsible_agency": "Department of Sanitation",
    "final_address": "7537 Dominique Pl",
    "address_councildis": "E",
    "status": "Pending",
    "rowid": "954516",
    "final_x": "3725522.928",
    "final_y": "570091.408679",
    "longitude": "-89.92756959716746",
    "latitude": "30.06014159303055",
    "geocoded_column": {
      "latitude": "30.06014159303055",
      "longitude": "-89.92756959716746"
    }
  },
  {
    "service_request": "2022-954515",
    "request_type": "Safety & Permits",
    "request_reason": "Licenses & Permits",
    "date_created": "2022-12-19T13:18:09.000",
    "date_modified": "2022-12-19T14:25:36.000",
    "case_close_date": "2022-12-19T08:25:36.000",
    "request_status": "Closed",
    "responsible_agency": "Safety and Permits",
    "final_address": "1231 St Ferdinand St",
    "address_councildis": "C",
    "status": "Resolved",
    "rowid": "954515",
    "final_x": "3687902.59145",
    "final_y": "536910.087624",
    "longitude": "-90.04766232798272",
    "latitude": "29.97012060087849",
    "geocoded_column": {
      "latitude": "29.97012060087849",
      "longitude": "-90.04766232798272"
    }
  },
  {
    "service_request": "2022-954514",
    "request_type": "Trash/Recycling",
    "request_reason": "Request a Large Item Pick Up",
    "date_created": "2022-12-19T13:15:40.000",
    "date_modified": "2022-12-19T13:15:41.000",
    "request_status": "Pending",
    "responsible_agency": "Department of Sanitation",
    "final_address": "6941 Lake Barrington Dr",
    "address_councildis": "E",
    "status": "Assigned to Contractor",
    "contractor": "Waste Pro",
    "rowid": "954514",
    "final_x": "3712863.02181",
    "final_y": "563854.472737",
    "longitude": "-89.96782150222819",
    "latitude": "30.04341354148671",
    "geocoded_column": {
      "latitude": "30.04341354148671",
      "longitude": "-89.96782150222819"
    }
  },
  {
    "service_request": "2022-954513",
    "request_type": "Trash/Recycling",
    "request_reason": "Missed Trash Pick-Up",
    "date_created": "2022-12-19T13:07:30.000",
    "date_modified": "2022-12-19T13:07:30.000",
    "request_status": "Pending",
    "responsible_agency": "Department of Sanitation",
    "final_address": "10301 Willow Dr",
    "address_councildis": "C",
    "status": "Assigned to Contractor",
    "contractor": "Richards Disposal",
    "rowid": "954513",
    "final_x": "3722473.40767",
    "final_y": "516700.422005",
    "longitude": "-89.93926212627677",
    "latitude": "29.913439630372576",
    "geocoded_column": {
      "latitude": "29.913439630372576",
      "longitude": "-89.93926212627677"
    }
  },
  {
    "service_request": "2022-954512",
    "request_type": "Traffic Signals/Signs/Striping/Streetlights",
    "request_reason": "Traffic Signal Malfunctioning/Damaged",
    "date_created": "2022-12-19T13:06:05.000",
    "date_modified": "2022-12-19T13:12:44.000",
    "request_status": "Pending",
    "responsible_agency": "Department of Public Works",
    "final_address": "CITY PARK AVE & I 10 E & METAIRIE RD",
    "address_councildis": "A",
    "status": "Pending",
    "rowid": "954512",
    "final_x": "3666908.3",
    "final_y": "540680.08",
    "longitude": "-90.11383798908375",
    "latitude": "29.981117832474713",
    "geocoded_column": {
      "latitude": "29.981117832474713",
      "longitude": "-90.11383798908375"
    }
  },
  {
    "service_request": "2022-954511",
    "request_type": "Trash/Recycling",
    "request_reason": "Order Recycling Cart",
    "date_created": "2022-12-19T13:04:21.000",
    "date_modified": "2022-12-19T13:04:21.000",
    "request_status": "Pending",
    "responsible_agency": "Department of Sanitation",
    "final_address": "1309 Congress St",
    "address_councildis": "D",
    "status": "Pending",
    "rowid": "954511",
    "final_x": "3690954.30115",
    "final_y": "536390.696967",
    "longitude": "-90.03804329229368",
    "latitude": "29.968597955302187",
    "geocoded_column": {
      "latitude": "29.968597955302187",
      "longitude": "-90.03804329229368"
    }
  },
  {
    "service_request": "2022-954510",
    "request_type": "Trash/Recycling",
    "request_reason": "Order Recycling Cart",
    "date_created": "2022-12-19T13:03:47.000",
    "date_modified": "2022-12-19T13:03:48.000",
    "request_status": "Pending",
    "responsible_agency": "Department of Sanitation",
    "final_address": "1311 Congress St",
    "address_councildis": "D",
    "status": "Pending",
    "rowid": "954510",
    "final_x": "3690958.28668",
    "final_y": "536401.988615",
    "longitude": "-90.03803030270798",
    "latitude": "29.968628879475112",
    "geocoded_column": {
      "latitude": "29.968628879475112",
      "longitude": "-90.03803030270798"
    }
  },
  {
    "service_request": "2022-954509",
    "request_type": "Roads/Drainage",
    "request_reason": "Catch Basin - Clogged",
    "date_created": "2022-12-19T13:02:14.000",
    "date_modified": "2022-12-19T13:02:14.000",
    "request_status": "Pending",
    "responsible_agency": "Department of Public Works",
    "final_address": "1234 St Andrew St",
    "address_councildis": "B",
    "status": "Pending",
    "rowid": "954509",
    "final_x": "3679062.73551",
    "final_y": "523075.688635",
    "longitude": "-90.07605889771274",
    "latitude": "29.932350412121913",
    "geocoded_column": {
      "latitude": "29.932350412121913",
      "longitude": "-90.07605889771274"
    }
  },
  {
    "service_request": "2022-954508",
    "request_type": "Trash/Recycling",
    "request_reason": "Missed Trash Pick-Up",
    "date_created": "2022-12-19T13:00:27.000",
    "date_modified": "2022-12-19T13:00:27.000",
    "request_status": "Pending",
    "responsible_agency": "Department of Sanitation",
    "final_address": "600 BLK Arabella St",
    "address_councildis": "A",
    "status": "Assigned to Contractor",
    "contractor": "Richards Disposal",
    "rowid": "954508",
    "final_x": "3665718.3808",
    "final_y": "518440.981278",
    "longitude": "-90.11834110840918",
    "latitude": "29.92000229340129",
    "geocoded_column": {
      "latitude": "29.92000229340129",
      "longitude": "-90.11834110840918"
    }
  },
  {
    "service_request": "2022-954507",
    "request_type": "Trash/Recycling",
    "request_reason": "Illegal Dumping",
    "date_created": "2022-12-19T12:59:37.000",
    "date_modified": "2022-12-19T12:59:39.000",
    "request_status": "Pending",
    "responsible_agency": "Department of Sanitation",
    "final_address": "7301 Dwyer Rd",
    "address_councildis": "E",
    "status": "Pending",
    "rowid": "954507",
    "final_x": "3701788.68253",
    "final_y": "556387.274714",
    "longitude": "-90.00309483990792",
    "latitude": "30.023239879821052",
    "geocoded_column": {
      "latitude": "30.023239879821052",
      "longitude": "-90.00309483990792"
    }
  },
  {
    "service_request": "2022-954506",
    "request_type": "Trash/Recycling",
    "request_reason": "Request a Large Item Pick Up",
    "date_created": "2022-12-19T12:57:20.000",
    "date_modified": "2022-12-19T12:57:21.000",
    "request_status": "Pending",
    "responsible_agency": "Department of Sanitation",
    "final_address": "2017 Law St",
    "address_councildis": "D",
    "status": "Assigned to Contractor",
    "contractor": "IV Waste",
    "rowid": "954506",
    "final_x": "3682517.15612",
    "final_y": "541696.949068",
    "longitude": "-90.06450266820686",
    "latitude": "29.983447855193226",
    "geocoded_column": {
      "latitude": "29.983447855193226",
      "longitude": "-90.06450266820686"
    }
  },
  {
    "service_request": "2022-954505",
    "request_type": "Traffic Signals/Signs/Striping/Streetlights",
    "request_reason": "Traffic Signal Malfunctioning/Damaged",
    "date_created": "2022-12-19T12:54:29.000",
    "date_modified": "2022-12-19T12:54:30.000",
    "request_status": "Pending",
    "responsible_agency": "Department of Public Works",
    "final_address": "LAKESHORE DR & ROBERT E LEE BLVD",
    "address_councildis": "D",
    "status": "Pending",
    "rowid": "954505",
    "final_x": "3666846.3",
    "final_y": "554911.48",
    "longitude": "-90.11355531707135",
    "latitude": "30.02025108310282",
    "geocoded_column": {
      "latitude": "30.02025108310282",
      "longitude": "-90.11355531707135"
    }
  },