[
  {
    "service_request": "2024-1113816",
    "request_type": "Roads/Drainage",
    "request_reason": "Pothole",
    "date_created": "2024-07-18T22:38:09.000",
    "date_modified": "2024-07-18T22:38:09.000",
    "request_status": "Pending",
    "responsible_agency": "Department of Public Works",
    "final_address": "804 Webster St",
    "address_councildis": "A",
    "status": "Pending",
    "rowid": "1113816",
    "final_x": "3664124.39348",
    "final_y": "519522.014135",
    "longitude": "-90.1233365457699",
    "latitude": "29.923021174551675",
    "geocoded_column": {
      "latitude": "29.923021174551675",
      "longitude": "-90.1233365457699"
    }
  },
  {
    "service_request": "2024-1113815",
    "request_type": "Roads/Drainage",
    "request_reason": "Pothole",
    "date_created": "2024-07-18T22:23:26.000",
    "date_modified": "2024-07-18T22:23:26.000",
    "request_status": "Pending",
    "responsible_agency": "Department of Public Works",
    "final_address": "801 Henry Clay Ave",
    "address_councildis": "A",
    "status": "Pending",
    "rowid": "1113815",
    "final_x": "3663886.70208",
    "final_y": "519665.014968",
    "longitude": "-90.12408208507878",
    "latitude": "29.92342128167053",
    "geocoded_column": {
      "latitude": "29.92342128167053",
      "longitude": "-90.12408208507878"
    }
  },
  {
    "service_request": "2024-1113814",
    "request_type": "Roads/Drainage",
    "request_reason": "Pothole",
    "date_created": "2024-07-18T22:22:12.000",
    "date_modified": "2024-07-18T22:22:12.000",
    "request_status": "Pending",
    "responsible_agency": "Department of Public Works",
    "final_address": "829 Nashville Ave",
    "address_councildis": "A",
    "status": "Pending",
    "rowid": "1113814",
    "final_x": "3665630.14445",
    "final_y": "519222.413111",
    "longitude": "-90.11859347985998",
    "latitude": "29.922153558399792",
    "geocoded_column": {
      "latitude": "29.922153558399792",
      "longitude": "-90.11859347985998"
    }
  },
  {
    "service_request": "2024-1113813",
    "request_type": "Trash/Recycling",
    "request_reason": "Request a Large Item Pick Up",
    "date_created": "2024-07-18T22:03:18.000",
    "date_modified": "2024-07-18T22:03:19.000",
    "request_status": "Pending",
    "responsible_agency": "Department of Sanitation",
    "final_address": "5323 Dauphine St",
    "address_councildis": "E",
    "status": "Assigned to Contractor",
    "contractor": "Waste Pro",
    "rowid": "1113813",
    "final_x": "3696681.07178",
    "final_y": "532924.958212",
    "longitude": "-90.02008337637163",
    "latitude": "29.9588891576537",
    "geocoded_column": {
      "latitude": "29.9588891576537",
      "longitude": "-90.02008337637163"
    }
  },
  {
    "service_request": "2024-1113812",
    "request_type": "Abandoned Vehicles",
    "request_reason": "Abandoned/Junk Vehicles",
    "date_created": "2024-07-18T21:29:46.000",
    "date_modified": "2024-07-18T21:29:46.000",
    "request_status": "Pending",
    "responsible_agency": "Department of Public Works",
    "final_address": "1600 BLK Spain St",
    "address_councildis": "D",
    "status": "Pending",
    "rowid": "1113812",
    "final_x": "3685972.83898",
    "final_y": "538419.730691",
    "longitude": "-90.05370342913807",
    "latitude": "29.974330987555184",
    "geocoded_column": {
      "latitude": "29.974330987555184",
      "longitude": "-90.05370342913807"
    }
  },
  {
    "service_request": "2024-1113811",
    "request_type": "Abandoned Vehicles",
    "request_reason": "Abandoned/Junk Vehicles",
    "date_created": "2024-07-18T21:28:21.000",
    "date_modified": "2024-07-18T21:28:21.000",
    "request_status": "Pending",
    "responsible_agency": "Department of Public Works",
    "final_address": "1600 BLK Spain St",
    "address_councildis": "D",
    "status": "Pending",
    "rowid": "1113811",
    "final_x": "3685972.83898",
    "final_y": "538419.730691",
    "longitude": "-90.05370342913807",
    "latitude": "29.974330987555184",
    "geocoded_column": {
      "latitude": "29.974330987555184",
      "longitude": "-90.05370342913807"
    }
  },
  {
    "service_request": "2024-1113810",
    "request_type": "Abandoned Vehicles",
    "request_reason": "Abandoned/Junk Vehicles",
    "date_created": "2024-07-18T21:27:23.000",
    "date_modified": "2024-07-18T21:27:23.000",
    "request_status": "Pending",
    "responsible_agency": "Department of Public Works",
    "final_address": "1600 BLK Spain St",
    "address_councildis": "D",
    "status": "Pending",
    "rowid": "1113810",
    "final_x": "3685972.83898",
    "final_y": "538419.730691",
    "longitude": "-90.05370342913807",
    "latitude": "29.974330987555184",
    "geocoded_column": {
      "latitude": "29.974330987555184",
      "longitude": "-90.05370342913807"
    }
  },
  {
    "service_request": "2024-1113809",
    "request_type": "Abandoned Vehicles",
    "request_reason": "Abandoned/Junk Vehicles",
    "date_created": "2024-07-18T21:23:15.000",
    "date_modified": "2024-07-18T21:23:15.000",
    "request_status": "Pending",
    "responsible_agency": "Department of Public Works",
    "final_address": "1600 BLK Spain St",
    "address_councildis": "D",
    "status": "Pending",
    "rowid": "1113809",
    "final_x": "3685972.83898",
    "final_y": "538419.730691",
    "longitude": "-90.05370342913807",
    "latitude": "29.974330987555184",
    "geocoded_column": {
      "latitude": "29.974330987555184",
      "longitude": "-90.05370342913807"
    }
  },
  {
    "service_request": "2024-1113808",
    "request_type": "Traffic Signals/Signs/Striping/Streetlights",
    "request_reason": "Street Light Outage/Malfunction",
    "date_created": "2024-07-18T20:30:53.000",
    "date_modified": "2024-07-18T20:30:54.000",
    "request_status": "Pending",
    "responsible_agency": "Department of Public Works",
    "final_address": "2237 Josephine St, New Orleans, Louisiana, 70113",
    "address_councildis": "B",
    "status": "Assigned to Contractor",
    "contractor": "Legacy Professional Services",
    "rowid": "1113808",
    "final_x": "3676360.71093",
    "final_y": "526016.498878",
    "longitude": "-90.08448776282695",
    "latitude": "29.94051792235077",
    "geocoded_column": {
      "latitude": "29.94051792235077",
      "longitude": "-90.08448776282695"
    }
  },
  {
    "service_request": "2024-1113807",
    "request_type": "Traffic Signals/Signs/Striping/Streetlights",
    "request_reason": "Street Light Outage/Malfunction",
    "date_created": "2024-07-18T20:18:16.000",
    "date_modified": "2024-07-18T20:18:17.000",
    "request_status": "Pending",
    "responsible_agency": "Department of Public Works",
    "final_address": "4440 Bancroft Dr",
    "address_councildis": "D",
    "status": "Assigned to Contractor",
    "contractor": "Legacy Professional Services",
    "rowid": "1113807",
    "final_x": "3676468.48366",
    "final_y": "548618.372115",
    "longitude": "-90.08336908363442",
    "latitude": "30.002662129325408",
    "geocoded_column": {
      "latitude": "30.002662129325408",
      "longitude": "-90.08336908363442"
    }
  },
  {
    "service_request": "2024-1113806",
    "request_type": "Abandoned Vehicles",
    "request_reason": "Abandoned/Junk Vehicles",
    "date_created": "2024-07-18T20:12:02.000",
    "date_modified": "2024-07-18T20:12:02.000",
    "request_status": "Pending",
    "responsible_agency": "Department of Public Works",
    "final_address": "1817 Peniston St",
    "address_councildis": "B",
    "status": "Pending",
    "rowid": "1113806",
    "final_x": "3672717.32161",
    "final_y": "521976.312506",
    "longitude": "-90.09612829670805",
    "latitude": "29.929517403620462",
    "geocoded_column": {
      "latitude": "29.929517403620462",
      "longitude": "-90.09612829670805"
    }
  },
  {
    "service_request": "2024-1113805",
    "request_type": "Parks & Parkways",
    "request_reason": "Request Tree Service (Right of Way/Public Property)",
    "date_created": "2024-07-18T19:35:29.000",
    "date_modified": "2024-07-18T19:36:18.000",
    "request_status": "Pending",
    "responsible_agency": "Department of Parks & Parkway",
    "final_address": "JEFFERSON AVE & ANNUNCIATION ST",
    "address_councildis": "B",
    "status": "Pending",
    "rowid": "1113805",
    "final_x": "3666499.5",
    "final_y": "517569.48",
    "longitude": "-90.1159047106468",
    "latitude": "29.91758314030071",
    "geocoded_column": {
      "latitude": "29.91758314030071",
      "longitude": "-90.1159047106468"
    }
  },
  {
    "service_request": "2024-1113804",
    "request_type": "Trash/Recycling",
    "request_reason": "Request a Large Item Pick Up",
    "date_created": "2024-07-18T19:24:04.000",
    "date_modified": "2024-07-18T19:24:05.000",
    "request_status": "Pending",
    "responsible_agency": "Department of Sanitation",
    "final_address": "47 Marywood Ct",
    "address_councildis": "E",
    "status": "Assigned to Contractor",
    "contractor": "Waste Pro",
    "rowid": "1113804",
    "final_x": "3712179.97656",
    "final_y": "567072.598628",
    "longitude": "-89.96985916897015",
    "latitude": "30.052284449063876",
    "geocoded_column": {
      "latitude": "30.052284449063876",
      "longitude": "-89.96985916897015"
    }
  },
  {
    "service_request": "2024-1113803",
    "request_type": "Trash/Recycling",
    "request_reason": "Replace Trash Cart",
    "date_created": "2024-07-18T18:45:10.000",
    "date_modified": "2024-07-18T18:45:11.000",
    "request_status": "Pending",
    "responsible_agency": "Department of Sanitation",
    "final_address": "715 Wagner St",
    "address_councildis": "C",
    "status": "Assigned to Contractor",
    "contractor": "Richards Disposal",
    "rowid": "1113803",
    "final_x": "3690491.21129",
    "final_y": "528799.979584",
    "longitude": "-90.03977637245335",
    "latitude": "29.9477405080928",
    "geocoded_column": {
      "latitude": "29.9477405080928",
      "longitude": "-90.03977637245335"
    }
  },
  {
    "service_request": "2024-1113802",
    "request_type": "Traffic Signals/Signs/Striping/Streetlights",
    "request_reason": "Traffic Sign Missing/Damaged",
    "date_created": "2024-07-18T18:43:57.000",
    "date_modified": "2024-07-18T18:43:57.000",
    "request_status": "Pending",
    "responsible_agency": "Department of Public Works",
    "final_address": "BURGUNDY ST & ANDRY ST",
    "address_councildis": "E",
    "status": "Pending",
    "rowid": "1113802",
    "final_x": "3696946.1",
    "final_y": "533190.78",
    "longitude": "-90.0192368622843",
    "latitude": "29.959611718824487",
    "geocoded_column": {
      "latitude": "29.959611718824487",
      "longitude": "-90.0192368622843"
    }
  },
  {
    "service_request": "2024-1113801",
    "request_type": "Trash/Recycling",
    "request_reason": "Request a Large Item Pick Up",
    "date_created": "2024-07-18T18:37:30.000",
    "date_modified": "2024-07-18T18:37:31.000",
    "request_status": "Pending",
    "responsible_agency": "Department of Sanitation",
    "final_address": "3607 St Claude Ave",
    "address_councildis": "C",
    "status": "Assigned to Contractor",
    "contractor": "IV Waste",
    "rowid": "1113801",
    "final_x": "3690825.37929",
    "final_y": "535658.616134",
    "longitude": "-90.0384765592741",
    "latitude": "29.96658899709738",
    "geocoded_column": {
      "latitude": "29.96658899709738",
      "longitude": "-90.0384765592741"
    }
  },
  {
    "service_request": "2024-1113800",
    "request_type": "Parks & Parkways",
    "request_reason": "Request Tree Service (Right of Way/Public Property)",
    "date_created": "2024-07-18T18:34:19.000",
    "date_modified": "2024-07-18T20:03:31.000",
    "request_status": "Pending",
    "responsible_agency": "Department of Parks & Parkway",
    "final_address": "3309 Grand-Route St John St",
    "address_councildis": "A",
    "status": "Pending",
    "rowid": "1113800",
    "final_x": "3675586.41845",
    "final_y": "540370.814091",
    "longitude": "-90.08643917799672",
    "latitude": "29.9800106468759",
    "geocoded_column": {
      "latitude": "29.9800106468759",
      "longitude": "-90.08643917799672"
    }
  },
  {
    "service_request": "2024-1113799",
    "request_type": "Parks & Parkways",
    "request_reason": "Request Tree Service (Right of Way/Public Property)",
    "date_created": "2024-07-18T18:33:18.000",
    "date_modified": "2024-07-18T20:04:30.000",
    "request_status": "Pending",
    "responsible_agency": "Department of Parks & Parkway",
    "final_address": "3309 Grand-Route St John St",
    "address_councildis": "A",
    "status": "Pending",
    "rowid": "1113799",
    "final_x": "3675586.41845",
    "final_y": "540370.814091",
    "longitude": "-90.08643917799672",
    "latitude": "29.9800106468759",
    "geocoded_column": {
      "latitude": "29.9800106468759",
      "longitude": "-90.08643917799672"
    }
  },
  {
    "service_request": "2024-1113798",
    "request_type": "Property Maintenance",
    "request_reason": "Property Maintenance",
    "date_created": "2024-07-18T18:17:44.000",
    "date_modified": "2024-07-18T18:17:44.000",
    "request_status": "Pending",
    "responsible_agency": "Department of Code Enforcement",
    "final_address": "2501 Banks St",
    "address_councildis": "B",
    "status": "Pending",
    "rowid": "1113798",
    "final_x": "3675422.22798",
    "final_y": "533620.953349",
    "longitude": "-90.08718961099208",
    "latitude": "29.96145573647873",
    "geocoded_column": {
      "latitude": "29.96145573647873",
      "longitude": "-90.08718961099208"
    }
  },
  {
    "service_request": "2024-1113797",
    "request_type": "Trash/Recycling",
    "request_reason": "Replace Trash Cart",
    "date_created": "2024-07-18T17:50:45.000",
    "date_modified": "2024-07-18T17:50:46.000",
    "request_status": "Pending",
    "responsible_agency": "Department of Sanitation",
    "final_address": "4015 Ulloa Street ",
    "address_councildis": "A",
    "status": "Assigned to Contractor",
    "contractor": "IV Waste",
    "rowid": "1113797",
    "final_x": "3669964.54945",
    "final_y": "536293.755335",
    "longitude": "-90.1043335432278",
    "latitude": "29.96896712653616",
    "geocoded_column": {
      "latitude": "29.96896712653616",
      "longitude": "-90.1043335432278"
    }
  },
  {
    "service_request": "2024-1113796",
    "request_type": "Traffic Signals/Signs/Striping/Streetlights",
    "request_reason": "Traffic Sign Missing/Damaged",
    "date_created": "2024-07-18T17:45:28.000",
    "date_modified": "2024-07-18T17:45:28.000",
    "request_status": "Pending",
    "responsible_agency": "Department of Public Works",
    "final_address": "BURGUNDY ST & ANDRY ST",
    "address_councildis": "E",
    "status": "Pending",
    "rowid": "1113796",
    "final_x": "3696946.1",
    "final_y": "533190.78",
    "longitude": "-90.0192368622843",
    "latitude": "29.959611718824487",
    "geocoded_column": {
      "latitude": "29.959611718824487",
      "longitude": "-90.0192368622843"
    }
  },
  {
    "service_request": "2024-1113794",
    "request_type": "Trash/Recycling",
    "request_reason": "Replace Trash Cart",
    "date_created": "2024-07-18T17:38:38.000",
    "date_modified": "2024-07-18T17:38:39.000",
    "request_status": "Pending",
    "responsible_agency": "Department of Sanitation",
    "final_address": "7731 Allison Rd",
    "address_councildis": "E",
    "status": "Assigned to Contractor",
    "contractor": "Waste Pro",
    "rowid": "1113794",
    "final_x": "3699969.70404",
    "final_y": "560900.585886",
    "longitude": "-90.00867751754741",
    "latitude": "30.035707683829635",
    "geocoded_column": {
      "latitude": "30.035707683829635",
      "longitude": "-90.00867751754741"
    }
  },
  {
    "service_request": "2024-1113793",
    "request_type": "Roads/Drainage",
    "request_reason": "Pothole",
    "date_created": "2024-07-18T17:35:11.000",
    "date_modified": "2024-07-18T17:35:11.000",
    "request_status": "Pending",
    "responsible_agency": "Department of Public Works",
    "final_address": "1400 BLK Valence St",
    "address_councildis": "B",
    "status": "Pending",
    "rowid": "1113793",
    "final_x": "3669784.65285",
    "final_y": "520336.257015",
    "longitude": "-90.1054417057675",
    "latitude": "29.925094517046503",
    "geocoded_column": {
      "latitude": "29.925094517046503",
      "longitude": "-90.1054417057675"
    }
  },
  {
    "service_request": "2024-1113792",
    "request_type": "Roads/Drainage",
    "request_reason": "Street Subsidence (Sinking)",
    "date_created": "2024-07-18T17:28:29.000",
    "date_modified": "2024-07-18T17:28:29.000",
    "request_status": "Pending",
    "responsible_agency": "Department of Public Works",
    "final_address": "2251 Cambronne St",
    "address_councildis": "A",
    "status": "Pending",
    "rowid": "1113792",
    "final_x": "3663838.73095",
    "final_y": "531975.581827",
    "longitude": "-90.123823320781",
    "latitude": "29.957272805862658",
    "geocoded_column": {
      "latitude": "29.957272805862658",
      "longitude": "-90.123823320781"
    }
  },
  {
    "service_request": "2024-1113791",
    "request_type": "Roads/Drainage",
    "request_reason": "Damaged Sidewalk",
    "date_created": "2024-07-18T17:28:20.000",
    "date_modified": "2024-07-18T17:28:20.000",
    "request_status": "Pending",
    "responsible_agency": "Department of Public Works",
    "final_address": "5200 BLK Danneel St",
    "address_councildis": "B",
    "status": "Pending",
    "rowid": "1113791",
    "final_x": "3668060.05328",
    "final_y": "522163.577836",
    "longitude": "-90.11082418753892",
    "latitude": "29.93016977275902",
    "geocoded_column": {
      "latitude": "29.93016977275902",
      "longitude": "-90.11082418753892"
    }
  },
  {
    "service_request": "2024-1113790",
    "request_type": "Traffic Signals/Signs/Striping/Streetlights",
    "request_reason": "Street Light Knocked Down/Leaning",
    "date_created": "2024-07-18T17:27:20.000",
    "date_modified": "2024-07-18T17:27:21.000",
    "request_status": "Pending",
    "responsible_agency": "Department of Public Works",
    "final_address": "1215 St Roch Ave",
    "address_councildis": "C",
    "status": "Pending",
    "contractor": "Legacy Professional Services",
    "rowid": "1113790",
    "final_x": "3686541.14204",
    "final_y": "536928.894984",
    "longitude": "-90.05196125122221",
    "latitude": "29.97021424781064",
    "geocoded_column": {
      "latitude": "29.97021424781064",
      "longitude": "-90.05196125122221"
    }
  },
  {
    "service_request": "2024-1113789",
    "request_type": "Traffic Signals/Signs/Striping/Streetlights",
    "request_reason": "Traffic Signal Malfunctioning/Damaged",
    "date_created": "2024-07-18T17:10:34.000",
    "date_modified": "2024-07-18T17:10:34.000",
    "request_status": "Pending",
    "responsible_agency": "Department of Public Works",
    "final_address": "846 Howard Ave",
    "address_councildis": "B",
    "status": "Pending",
    "rowid": "1113789",
    "final_x": "3679453.33045",
    "final_y": "527486.561855",
    "longitude": "-90.0746728681028",
    "latitude": "29.94446706335573",
    "geocoded_column": {
      "latitude": "29.94446706335573",
      "longitude": "-90.0746728681028"
    }
  },
  {
    "service_request": "2024-1113788",
    "request_type": "Roads/Drainage",
    "request_reason": "Accessibility Ramps, Curbs and Sidewalk Repair",
    "date_created": "2024-07-18T17:02:22.000",
    "date_modified": "2024-07-18T17:02:22.000",
    "request_status": "Pending",
    "responsible_agency": "Department of Public Works",
    "final_address": "6704 General Haig St",
    "address_councildis": "A",
    "status": "Pending",
    "rowid": "1113788",
    "final_x": "3670919.50785",
    "final_y": "551932.892246",
    "longitude": "-90.10078644603321",
    "latitude": "30.011941169992387",
    "geocoded_column": {
      "latitude": "30.011941169992387",
      "longitude": "-90.10078644603321"
    }
  },
  {
    "service_request": "2024-1113787",
    "request_type": "Trash/Recycling",
    "request_reason": "Request a Large Item Pick Up",
    "date_created": "2024-07-18T17:01:26.000",
    "date_modified": "2024-07-18T17:01:27.000",
    "request_status": "Pending",
    "responsible_agency": "Department of Sanitation",
    "final_address": "7113 Mayo Rd",
    "address_councildis": "E",
    "status": "Assigned to Contractor",
    "contractor": "Waste Pro",
    "rowid": "1113787",
    "final_x": "3701534.1649",
    "final_y": "559151.531804",
    "longitude": "-90.00379770828911",
    "latitude": "30.03084864223681",
    "geocoded_column": {
      "latitude": "30.03084864223681",
      "longitude": "-90.00379770828911"
    }
  },
  {
    "service_request": "2024-1113786",
    "request_type": "Roads/Drainage",
    "request_reason": "Damaged Sidewalk",
    "date_created": "2024-07-18T17:00:54.000",
    "date_modified": "2024-07-18T17:00:55.000",
    "request_status": "Pending",
    "responsible_agency": "Department of Public Works",
    "final_address": "5141 Lakeview Ct",
    "address_councildis": "E",
    "status": "Pending",
    "rowid": "1113786",
    "final_x": "3698935.08176",
    "final_y": "556283.062362",
    "longitude": "-90.01211534609476",
    "latitude": "30.02304411734554",
    "geocoded_column": {
      "latitude": "30.02304411734554",
      "longitude": "-90.01211534609476"
    }
  },
  {
    "service_request": "2024-1113785",
    "request_type": "Trash/Recycling",
    "request_reason": "Replace Trash Cart",
    "date_created": "2024-07-18T16:48:55.000",
    "date_modified": "2024-07-18T16:48:55.000",
    "request_status": "Pending",
    "responsible_agency": "Department of Sanitation",
    "final_address": "830 Mandeville St",
    "address_councildis": "C",
    "status": "Assigned to Contractor",
    "contractor": "IV Waste",
    "rowid": "1113785",
    "final_x": "3685815.66639",
    "final_y": "535548.552774",
    "longitude": "-90.0543010352035",
    "latitude": "29.966441074307024",
    "geocoded_column": {
      "latitude": "29.966441074307024",
      "longitude": "-90.0543010352035"
    }
  },
  {
    "service_request": "2024-1113784",
    "request_type": "Trash/Recycling",
    "request_reason": "Request a Large Item Pick Up",
    "date_created": "2024-07-18T16:44:46.000",
    "date_modified": "2024-07-18T16:44:47.000",
    "request_status": "Pending",
    "responsible_agency": "Department of Sanitation",
    "final_address": "1017 Broadway St",
    "address_councildis": "A",
    "status": "Assigned to Contractor",
    "contractor": "IV Waste",
    "rowid": "1113784",
    "final_x": "3663901.7609",
    "final_y": "526007.700158",
    "longitude": "-90.12382320957343",
    "latitude": "29.94086122481862",
    "geocoded_column": {
      "latitude": "29.94086122481862",
      "longitude": "-90.12382320957343"
    }
  },
  {
    "service_request": "2024-1113783",
    "request_type": "Traffic Signals/Signs/Striping/Streetlights",
    "request_reason": "Traffic Signal Malfunctioning/Damaged",
    "date_created": "2024-07-18T16:43:02.000",
    "date_modified": "2024-07-18T16:43:02.000",
    "request_status": "Pending",
    "responsible_agency": "Department of Public Works",
    "final_address": "Esplanade Avenue & Moss Street",
    "address_councildis": "A",
    "status": "Pending",
    "rowid": "1113783",
    "final_x": "3674746.6459",
    "final_y": "541602.452364",
    "longitude": "-90.08904929006643",
    "latitude": "29.983422329205908",
    "geocoded_column": {
      "latitude": "29.983422329205908",
      "longitude": "-90.08904929006643"
    }
  },
  {
    "service_request": "2024-1113782",
    "request_type": "Roads/Drainage",
    "request_reason": "Catch Basin - Clogged",
    "date_created": "2024-07-18T16:42:17.000",
    "date_modified": "2024-07-18T16:42:17.000",
    "request_status": "Pending",
    "responsible_agency": "Department of Public Works",
    "final_address": "8728 Green St",
    "address_councildis": "A",
    "status": "Pending",
    "rowid": "1113782",
    "final_x": "3661361.93062",
    "final_y": "531241.164034",
    "longitude": "-90.13166866545957",
    "latitude": "29.95532504969928",
    "geocoded_column": {
      "latitude": "29.95532504969928",
      "longitude": "-90.13166866545957"
    }
  },
  {
    "service_request": "2024-1113781",
    "request_type": "Trash/Recycling",
    "request_reason": "Missed Trash Pick-Up",
    "date_created": "2024-07-18T16:40:24.000",
    "date_modified": "2024-07-18T16:40:25.000",
    "request_status": "Pending",
    "responsible_agency": "Department of Sanitation",
    "final_address": "1123 Lowerline St",
    "address_councildis": "A",
    "status": "Assigned to Contractor",
    "contractor": "IV Waste",
    "rowid": "1113781",
    "final_x": "3663591.57472",
    "final_y": "526621.343038",
    "longitude": "-90.12478209262228",
    "latitude": "29.942557546230105",
    "geocoded_column": {
      "latitude": "29.942557546230105",
      "longitude": "-90.12478209262228"
    }
  },
  {
    "service_request": "2024-1113780",
    "request_type": "Mosquito, Termite & Rodent Control",
    "request_reason": "Mosquito Complaint",
    "date_created": "2024-07-18T16:38:37.000",
    "date_modified": "2024-07-18T16:40:49.000",
    "request_status": "Pending",
    "responsible_agency": "Mosquito, Termite & Rodent Control Board",
    "final_address": "N JOHNSON ST & FELICIANA ST",
    "address_councildis": "D",
    "status": "Pending",
    "rowid": "1113780",
    "final_x": "3689577.1",
    "final_y": "539447.48",
    "longitude": "-90.04228378639493",
    "latitude": "29.977045766039456",
    "geocoded_column": {
      "latitude": "29.977045766039456",
      "longitude": "-90.04228378639493"
    }
  },
  {
    "service_request": "2024-1113779",
    "request_type": "Trash/Recycling",
    "request_reason": "Request a Large Item Pick Up",
    "date_created": "2024-07-18T16:33:08.000",
    "date_modified": "2024-07-18T16:33:09.000",
    "request_status": "Pending",
    "responsible_agency": "Department of Sanitation",
    "final_address": "4528 Bonita Dr",
    "address_councildis": "E",
    "status": "Assigned to Contractor",
    "contractor": "Waste Pro",
    "rowid": "1113779",
    "final_x": "3704565.24158",
    "final_y": "553909.635287",
    "longitude": "-89.9944130598669",
    "latitude": "30.016338402697038",
    "geocoded_column": {
      "latitude": "30.016338402697038",
      "longitude": "-89.9944130598669"
    }
  },
  {
    "service_request": "2024-1113778",
    "request_type": "Trash/Recycling",
    "request_reason": "Replace Trash Cart",
    "date_created": "2024-07-18T16:31:08.000",
    "date_modified": "2024-07-18T16:31:09.000",
    "request_status": "Pending",
    "responsible_agency": "Department of Sanitation",
    "final_address": "3409 Fern St, 70125 New Orleans LA",
    "status": "Assigned to Contractor",
    "rowid": "1113778",
    "longitude": "0.0",
    "latitude": "0.0",
    "geocoded_column": {
      "latitude": "0.0",
      "longitude": "0.0"
    }
  },
  {
    "service_request": "2024-1113777",
    "request_type": "Traffic Signals/Signs/Striping/Streetlights",
    "request_reason": "Street Light Outage/Malfunction",
    "date_created": "2024-07-18T16:29:48.000",
    "date_modified": "2024-07-18T16:29:48.000",
    "request_status": "Pending",
    "responsible_agency": "Department of Public Works",
    "final_address": "1504 Annette St",
    "address_councildis": "C",
    "status": "Assigned to Contractor",
    "contractor": "Legacy Professional Services",
    "rowid": "1113777",
    "final_x": "3682993.17218",
    "final_y": "537698.245064",
    "longitude": "-90.0631391683503",
    "latitude": "29.97243831306167",
    "geocoded_column": {
      "latitude": "29.97243831306167",
      "longitude": "-90.0631391683503"
    }
  },
  {
    "service_request": "2024-1113776",
    "request_type": "Trash/Recycling",
    "request_reason": "Missed Trash Pick-Up",
    "date_created": "2024-07-18T16:26:16.000",
    "date_modified": "2024-07-18T16:26:17.000",
    "request_status": "Pending",
    "responsible_agency": "Department of Sanitation",
    "final_address": "1001 Jourdan Ave",
    "address_councildis": "E",
    "status": "Assigned to Contractor",
    "contractor": "Waste Pro",
    "rowid": "1113776",
    "final_x": "3694972.97066",
    "final_y": "534088.906821",
    "longitude": "-90.02543514903665",
    "latitude": "29.962143324380477",
    "geocoded_column": {
      "latitude": "29.962143324380477",
      "longitude": "-90.02543514903665"
    }
  },
  {
    "service_request": "2024-1113775",
    "request_type": "Roads/Drainage",
    "request_reason": "Catch Basin - Clogged",
    "date_created": "2024-07-18T16:23:14.000",
    "date_modified": "2024-07-18T16:23:14.000",
    "request_status": "Pending",
    "responsible_agency": "Department of Public Works",
    "final_address": "6258 Marshal Foch St",
    "address_councildis": "A",
    "status": "Pending",
    "rowid": "1113775",
    "final_x": "3669894.74119",
    "final_y": "548933.368211",
    "longitude": "-90.10412579327652",
    "latitude": "30.003723800700943",
    "geocoded_column": {
      "latitude": "30.003723800700943",
      "longitude": "-90.10412579327652"
    }
  },
  {
    "service_request": "2024-1113774",
    "request_type": "Traffic Signals/Signs/Striping/Streetlights",
    "request_reason": "Traffic Signal Malfunctioning/Damaged",
    "date_created": "2024-07-18T16:22:32.000",
    "date_modified": "2024-07-18T16:22:32.000",
    "request_status": "Pending",
    "responsible_agency": "Department of Public Works",
    "final_address": "FRANKLIN AVE & LEON C SIMON DR",
    "address_councildis": "D",
    "status": "Pending",
    "rowid": "1113774",
    "final_x": "3686215.6",
    "final_y": "557350.08",
    "longitude": "-90.05226831351399",
    "latitude": "30.026375154078544",
    "geocoded_column": {
      "latitude": "30.026375154078544",
      "longitude": "-90.05226831351399"
    }
  },
  {
    "service_request": "2024-1113773",
    "request_type": "Roads/Drainage",
    "request_reason": "Street Subsidence (Sinking)",
    "date_created": "2024-07-18T16:19:34.000",
    "date_modified": "2024-07-18T16:19:34.000",
    "request_status": "Pending",
    "responsible_agency": "Department of Public Works",
    "final_address": "6208 Marshal Foch St",
    "address_councildis": "A",
    "status": "Pending",
    "rowid": "1113773",
    "final_x": "3669881.48378",
    "final_y": "548580.019155",
    "longitude": "-90.10417965030305",
    "latitude": "30.002752605073617",
    "geocoded_column": {
      "latitude": "30.002752605073617",
      "longitude": "-90.10417965030305"
    }
  },
  {
    "service_request": "2024-1113772",
    "request_type": "Roads/Drainage",
    "request_reason": "Street Flooding / Drainage",
    "date_created": "2024-07-18T16:19:25.000",
    "date_modified": "2024-07-18T16:19:25.000",
    "request_status": "Pending",
    "responsible_agency": "Department of Public Works",
    "final_address": "120 Audubon Blvd",
    "address_councildis": "A",
    "status": "Pending",
    "rowid": "1113772",
    "final_x": "3665874.7616",
    "final_y": "527986.242623",
    "longitude": "-90.11752779228469",
    "latitude": "29.946244167002178",
    "geocoded_column": {
      "latitude": "29.946244167002178",
      "longitude": "-90.11752779228469"
    }
  },
  {
    "service_request": "2024-1113771",
    "request_type": "Trash/Recycling",
    "request_reason": "Request a Large Item Pick Up",
    "date_created": "2024-07-18T16:17:29.000",
    "date_modified": "2024-07-18T16:17:30.000",
    "request_status": "Pending",
    "responsible_agency": "Department of Sanitation",
    "final_address": "1635 Second St",
    "address_councildis": "B",
    "status": "Assigned to Contractor",
    "contractor": "IV Waste",
    "rowid": "1113771",
    "final_x": "3676536.43112",
    "final_y": "523345.583931",
    "longitude": "-90.08402492426008",
    "latitude": "29.9331685149435",
    "geocoded_column": {
      "latitude": "29.9331685149435",
      "longitude": "-90.08402492426008"
    }
  },
  {
    "service_request": "2024-1113770",
    "request_type": "Roads/Drainage",
    "request_reason": "Street Flooding / Drainage",
    "date_created": "2024-07-18T16:16:57.000",
    "date_modified": "2024-07-18T16:16:57.000",
    "request_status": "Pending",
    "responsible_agency": "Department of Public Works",
    "final_address": "4909 Baccich St",
    "address_councildis": "D",
    "status": "Pending",
    "rowid": "1113770",
    "final_x": "3687734.46665",
    "final_y": "551118.733205",
    "longitude": "-90.04768981037742",
    "latitude": "30.009194475733068",
    "geocoded_column": {
      "latitude": "30.009194475733068",
      "longitude": "-90.04768981037742"
    }
  },
  {
    "service_request": "2024-1113769",
    "request_type": "Traffic Signals/Signs/Striping/Streetlights",
    "request_reason": "Traffic Signal Malfunctioning/Damaged",
    "date_created": "2024-07-18T16:09:23.000",
    "date_modified": "2024-07-18T16:09:24.000",
    "request_status": "Pending",
    "responsible_agency": "Department of Public Works",
    "final_address": "Esplanade Avenue & Moss Street",
    "address_councildis": "A",
    "status": "Pending",
    "rowid": "1113769",
    "final_x": "3674746.6459",
    "final_y": "541602.452364",
    "longitude": "-90.08904929006643",
    "latitude": "29.983422329205908",
    "geocoded_column": {
      "latitude": "29.983422329205908",
      "longitude": "-90.08904929006643"
    }
  },
  {
    "service_request": "2024-1113768",
    "request_type": "Trash/Recycling",
    "request_reason": "Order Recycling Cart",
    "date_created": "2024-07-18T16:08:58.000",
    "date_modified": "2024-07-18T16:08:59.000",
    "request_status": "Pending",
    "responsible_agency": "Department of Sanitation",
    "final_address": "3155 N Villere St",
    "address_councildis": "C",
    "status": "Pending",
    "rowid": "1113768",
    "final_x": "3689754.18921",
    "final_y": "537024.44884",
    "longitude": "-90.04181074015555",
    "latitude": "29.97037779852177",
    "geocoded_column": {
      "latitude": "29.97037779852177",
      "longitude": "-90.04181074015555"
    }
  },
  {
    "service_request": "2024-1113767",
    "request_type": "Property Maintenance",
    "request_reason": "Property Maintenance",
    "date_created": "2024-07-18T16:05:30.000",
    "date_modified": "2024-07-18T16:18:52.000",
    "case_close_date": "2024-07-18T11:18:52.000",
    "request_status": "Closed",
    "responsible_agency": "Department of Code Enforcement",
    "final_address": "10911 Lake Forest Blvd",
    "address_councildis": "E",
    "status": "Referred to Code Enforcement",
    "rowid": "1113767",
    "final_x": "3713785.40063",
    "final_y": "560368.857566",
    "longitude": "-89.96503797213117",
    "latitude": "30.033799244623992",
    "geocoded_column": {
      "latitude": "30.033799244623992",
      "longitude": "-89.96503797213117"
    }
  },
  {
    "service_request": "2024-1113766",
    "request_type": "Property Maintenance",
    "request_reason": "Property Maintenance",
    "date_created": "2024-07-18T16:04:44.000",
    "date_modified": "2024-07-18T16:25:42.000",
    "case_close_date": "2024-07-18T11:25:42.000",
    "request_status": "Closed",
    "responsible_agency": "Department of Code Enforcement",
    "final_address": "4700 Longfellow Dr",
    "address_councildis": "E",
    "status": "Referred to Code Enforcement",
    "rowid": "1113766",
    "final_x": "3709580.80811",
    "final_y": "555552.466265",
    "longitude": "-89.9785048234846",
    "latitude": "30.020693446855855",
    "geocoded_column": {
      "latitude": "30.020693446855855",
      "longitude": "-89.9785048234846"
    }
  },
  {
    "service_request": "2024-1113765",
    "request_type": "EMS",
    "request_reason": "EMS General",
    "date_created": "2024-07-18T16:02:04.000",
    "date_modified": "2024-07-18T16:02:04.000",
    "request_status": "Pending",
    "responsible_agency": "Emergency Medical Services",
    "final_address": "825 Chartres St",
    "address_councildis": "C",
    "status": "Pending",
    "rowid": "1113765",
    "final_x": "3683170.60885",
    "final_y": "532725.400004",
    "longitude": "-90.06275294101172",
    "latitude": "29.958759292230887",
    "geocoded_column": {
      "latitude": "29.958759292230887",
      "longitude": "-90.06275294101172"
    }
  },
  {
    "service_request": "2024-1113764",
    "request_type": "Trash/Recycling",
    "request_reason": "Missed Trash Pick-Up",
    "date_created": "2024-07-18T16:01:19.000",
    "date_modified": "2024-07-18T16:01:20.000",
    "request_status": "Pending",
    "responsible_agency": "Department of Sanitation",
    "final_address": "3128 Ursulines Ave",
    "address_councildis": "A",
    "status": "Assigned to Contractor",
    "contractor": "IV Waste",
    "rowid": "1113764",
    "final_x": "3675901.56725",
    "final_y": "539414.377738",
    "longitude": "-90.08547670380095",
    "latitude": "29.977371341988764",
    "geocoded_column": {
      "latitude": "29.977371341988764",
      "longitude": "-90.08547670380095"
    }
  },
  {
    "service_request": "2024-1113763",
    "request_type": "Parks & Parkways",
    "request_reason": "Request Tree Service (Right of Way/Public Property)",
    "date_created": "2024-07-18T16:00:55.000",
    "date_modified": "2024-07-18T16:02:12.000",
    "request_status": "Pending",
    "responsible_agency": "Department of Parks & Parkway",
    "final_address": "KENSINGTON BLVD & LAKE FOREST BLVD",
    "address_councildis": "E",
    "status": "Pending",
    "rowid": "1113763",
    "final_x": "3713760.7",
    "final_y": "560185.68",
    "longitude": "-89.96512294020796",
    "latitude": "30.033296390536652",
    "geocoded_column": {
      "latitude": "30.033296390536652",
      "longitude": "-89.96512294020796"
    }
  },
  {
    "service_request": "2024-1113762",
    "request_type": "Roads/Drainage",
    "request_reason": "Man hole cover issue",
    "date_created": "2024-07-18T16:00:04.000",
    "date_modified": "2024-07-18T16:02:31.000",
    "request_status": "Pending",
    "responsible_agency": "Department of Public Works",
    "final_address": "4300 S Carrollton Ave",
    "address_councildis": "A",
    "status": "Pending",
    "rowid": "1113762",
    "final_x": "3669876.34311",
    "final_y": "536840.007368",
    "longitude": "-90.104593606373",
    "latitude": "29.970471737717265",
    "geocoded_column": {
      "latitude": "29.970471737717265",
      "longitude": "-90.104593606373"
    }
  },
  {
    "service_request": "2024-1113761",
    "request_type": "Trash/Recycling",
    "request_reason": "Missed Trash Pick-Up",
    "date_created": "2024-07-18T15:56:53.000",
    "date_modified": "2024-07-18T15:56:54.000",
    "request_status": "Pending",
    "responsible_agency": "Department of Sanitation",
    "final_address": "8546 Grant St",
    "address_councildis": "E",
    "status": "Assigned to Contractor",
    "contractor": "Waste Pro",
    "rowid": "1113761",
    "final_x": "3707041.2922",
    "final_y": "554283.172568",
    "longitude": "-89.98657601069921",
    "latitude": "30.01728569909759",
    "geocoded_column": {
      "latitude": "30.01728569909759",
      "longitude": "-89.98657601069921"
    }
  },
  {
    "service_request": "2024-1113760",
    "request_type": "Trash/Recycling",
    "request_reason": "Repair Recycling Cart",
    "date_created": "2024-07-18T15:55:26.000",
    "date_modified": "2024-07-18T15:55:27.000",
    "request_status": "Pending",
    "responsible_agency": "Department of Sanitation",
    "final_address": "7236 Gem St",
    "address_councildis": "D",
    "status": "Pending",
    "rowid": "1113760",
    "final_x": "3669728.18606",
    "final_y": "555216.223129",
    "longitude": "-90.10443909728616",
    "latitude": "30.021004348646404",
    "geocoded_column": {
      "latitude": "30.021004348646404",
      "longitude": "-90.10443909728616"
    }
  },
  {
    "service_request": "2024-1113759",
    "request_type": "Trash/Recycling",
    "request_reason": "Repair Trash Cart",
    "date_created": "2024-07-18T15:55:04.000",
    "date_modified": "2024-07-18T15:55:05.000",
    "request_status": "Pending",
    "responsible_agency": "Department of Sanitation",
    "final_address": "4851 Ken Ct",
    "address_councildis": "C",
    "status": "Assigned to Contractor",
    "contractor": "Richards Disposal",
    "rowid": "1113759",
    "final_x": "3702144.70257",
    "final_y": "518440.761846",
    "longitude": "-90.00336160432953",
    "latitude": "29.918889384303846",
    "geocoded_column": {
      "latitude": "29.918889384303846",
      "longitude": "-90.00336160432953"
    }
  },
  {
    "service_request": "2024-1113758",
    "request_type": "Trash/Recycling",
    "request_reason": "Illegal Dumping",
    "date_created": "2024-07-18T15:49:41.000",
    "date_modified": "2024-07-18T15:49:42.000",
    "request_status": "Pending",
    "responsible_agency": "Department of Sanitation",
    "final_address": "2502 Milan St",
    "address_councildis": "B",
    "status": "Pending",
    "rowid": "1113758",
    "final_x": "3671236.86862",
    "final_y": "524147.580732",
    "longitude": "-90.10072809544845",
    "latitude": "29.935531562496003",
    "geocoded_column": {
      "latitude": "29.935531562496003",
      "longitude": "-90.10072809544845"
    }
  },
  {
    "service_request": "2024-1113757",
    "request_type": "Property Maintenance",
    "request_reason": "Property Maintenance",
    "date_created": "2024-07-18T15:48:16.000",
    "date_modified": "2024-07-18T16:28:33.000",
    "case_close_date": "2024-07-18T11:28:33.000",
    "request_status": "Closed",
    "responsible_agency": "Department of Code Enforcement",
    "final_address": "4683 Longfellow Dr",
    "address_councildis": "E",
    "status": "Referred to Code Enforcement",
    "rowid": "1113757",
    "final_x": "3709721.22328",
    "final_y": "555504.977049",
    "longitude": "-89.97806293211175",
    "latitude": "30.020558304223243",
    "geocoded_column": {
      "latitude": "30.020558304223243",
      "longitude": "-89.97806293211175"
    }
  },
  {
    "service_request": "2024-1113756",
    "request_type": "Trash/Recycling",
    "request_reason": "Request a Large Item Pick Up",
    "date_created": "2024-07-18T15:47:05.000",
    "date_modified": "2024-07-18T15:47:06.000",
    "request_status": "Pending",
    "responsible_agency": "Department of Sanitation",
    "final_address": "3609 Dumaine St",
    "address_councildis": "A",
    "status": "Assigned to Contractor",
    "contractor": "IV Waste",
    "rowid": "1113756",
    "final_x": "3674291.04232",
    "final_y": "539769.588298",
    "longitude": "-90.09055111622504",
    "latitude": "29.97839617784701",
    "geocoded_column": {
      "latitude": "29.97839617784701",
      "longitude": "-90.09055111622504"
    }
  },
  {
    "service_request": "2024-1113755",
    "request_type": "Trash/Recycling",
    "request_reason": "Order Trash Cart",
    "date_created": "2024-07-18T15:46:28.000",
    "date_modified": "2024-07-18T15:46:29.000",
    "request_status": "Pending",
    "responsible_agency": "Department of Sanitation",
    "final_address": "7108 Selma St",
    "address_councildis": "E",
    "status": "Assigned to Contractor",
    "contractor": "Waste Pro",
    "rowid": "1113755",
    "final_x": "3701402.95044",
    "final_y": "553814.802455",
    "longitude": "-90.00440793412466",
    "latitude": "30.016178872527462",
    "geocoded_column": {
      "latitude": "30.016178872527462",
      "longitude": "-90.00440793412466"
    }
  },
  {
    "service_request": "2024-1113754",
    "request_type": "Trash/Recycling",
    "request_reason": "Request a Large Item Pick Up",
    "date_created": "2024-07-18T15:46:05.000",
    "date_modified": "2024-07-18T15:46:06.000",
    "request_status": "Pending",
    "responsible_agency": "Department of Sanitation",
    "final_address": "5710 New England Dr",
    "address_councildis": "E",
    "status": "Assigned to Contractor",
    "contractor": "Waste Pro",
    "rowid": "1113754",
    "final_x": "3723528.74323",
    "final_y": "564692.384034",
    "longitude": "-89.93408143791062",
    "latitude": "30.0453636486076",
    "geocoded_column": {
      "latitude": "30.0453636486076",
      "longitude": "-89.93408143791062"
    }
  },
  {
    "service_request": "2024-1113753",
    "request_type": "Roads/Drainage",
    "request_reason": "Man hole cover issue",
    "date_created": "2024-07-18T15:45:15.000",
    "date_modified": "2024-07-18T15:45:15.000",
    "request_status": "Pending",
    "responsible_agency": "Department of Public Works",
    "final_address": "1603 S Rendon St",
    "address_councildis": "B",
    "status": "Inspected",
    "rowid": "1113753",
    "final_x": "3669768.59278",
    "final_y": "531052.97197",
    "longitude": "-90.10512979338195",
    "latitude": "29.954562489088413",
    "geocoded_column": {
      "latitude": "29.954562489088413",
      "longitude": "-90.10512979338195"
    }
  },
  {
    "service_request": "2024-1113752",
    "request_type": "Abandoned Vehicles",
    "request_reason": "Abandoned/Junk Vehicles",
    "date_created": "2024-07-18T15:45:02.000",
    "date_modified": "2024-07-18T15:45:03.000",
    "request_status": "Pending",
    "responsible_agency": "Department of Public Works",
    "final_address": "8409 Dixon St",
    "address_councildis": "A",
    "status": "Pending",
    "rowid": "1113752",
    "final_x": "3667538.43194",
    "final_y": "536336.853767",
    "longitude": "-90.1119939588622",
    "latitude": "29.96915696131199",
    "geocoded_column": {
      "latitude": "29.96915696131199",
      "longitude": "-90.1119939588622"
    }
  },
  {
    "service_request": "2024-1113751",
    "request_type": "Roads/Drainage",
    "request_reason": "Street Flooding / Drainage",
    "date_created": "2024-07-18T15:44:22.000",
    "date_modified": "2024-07-18T15:44:22.000",
    "request_status": "Pending",
    "responsible_agency": "Department of Public Works",
    "final_address": "3805 Octavia St",
    "address_councildis": "A",
    "status": "Pending",
    "rowid": "1113751",
    "final_x": "3668826.2827",
    "final_y": "529392.729665",
    "longitude": "-90.1081613042878",
    "latitude": "29.950025105536138",
    "geocoded_column": {
      "latitude": "29.950025105536138",
      "longitude": "-90.1081613042878"
    }
  },
  {
    "service_request": "2024-1113750",
    "request_type": "Traffic Signals/Signs/Striping/Streetlights",
    "request_reason": "Traffic Signal Malfunctioning/Damaged",
    "date_created": "2024-07-18T15:38:47.000",
    "date_modified": "2024-07-18T15:38:48.000",
    "request_status": "Pending",
    "responsible_agency": "Department of Public Works",
    "final_address": "FRANKLIN AVE & N MIRO ST",
    "address_councildis": "D",
    "status": "Pending",
    "rowid": "1113750",
    "final_x": "3687634.8",
    "final_y": "540595.28",
    "longitude": "-90.04837752680744",
    "latitude": "29.980261842020028",
    "geocoded_column": {
      "latitude": "29.980261842020028",
      "longitude": "-90.04837752680744"
    }
  },
  {
    "service_request": "2024-1113749",
    "request_type": "Trash/Recycling",
    "request_reason": "MIssed Recycling Pick-Up",
    "date_created": "2024-07-18T15:38:40.000",
    "date_modified": "2024-07-18T15:38:41.000",
    "request_status": "Pending",
    "responsible_agency": "Department of Sanitation",
    "final_address": "4430 Lancelot Dr, New Orleans, Louisiana, 70127",
    "address_councildis": "E",
    "status": "Assigned to Contractor",
    "contractor": "Waste Pro",
    "rowid": "1113749",
    "final_x": "3707544.13688",
    "final_y": "553760.070743",
    "longitude": "-89.98500668723098",
    "latitude": "30.01583111096896",
    "geocoded_column": {
      "latitude": "30.01583111096896",
      "longitude": "-89.98500668723098"
    }
  },
  {
    "service_request": "2024-1113748",
    "request_type": "Traffic Signals/Signs/Striping/Streetlights",
    "request_reason": "Street Light Outage/Malfunction",
    "date_created": "2024-07-18T15:32:55.000",
    "date_modified": "2024-07-18T15:32:56.000",
    "request_status": "Pending",
    "responsible_agency": "Department of Public Works",
    "final_address": "DAUPHINE ST & GALLIER ST",
    "address_councildis": "C",
    "status": "Assigned to Contractor",
    "contractor": "Legacy Professional Services",
    "rowid": "1113748",
    "final_x": "3690181.4",
    "final_y": "534494.78",
    "longitude": "-90.0405517002611",
    "latitude": "29.9634088495161",
    "geocoded_column": {
      "latitude": "29.9634088495161",
      "longitude": "-90.0405517002611"
    }
  },
  {
    "service_request": "2024-1113747",
    "request_type": "Trash/Recycling",
    "request_reason": "Order Trash Cart",
    "date_created": "2024-07-18T15:32:25.000",
    "date_modified": "2024-07-18T15:32:26.000",
    "request_status": "Pending",
    "responsible_agency": "Department of Sanitation",
    "final_address": "1827 Independence St",
    "address_councildis": "D",
    "status": "Assigned to Contractor",
    "contractor": "IV Waste",
    "rowid": "1113747",
    "final_x": "3691699.4534",
    "final_y": "538347.688265",
    "longitude": "-90.03562007563178",
    "latitude": "29.973955806335873",
    "geocoded_column": {
      "latitude": "29.973955806335873",
      "longitude": "-90.03562007563178"
    }
  },
  {
    "service_request": "2024-1113746",
    "request_type": "Trash/Recycling",
    "request_reason": "MIssed Recycling Pick-Up",
    "date_created": "2024-07-18T15:30:48.000",
    "date_modified": "2024-07-18T15:55:39.000",
    "case_close_date": "2024-07-18T10:55:39.000",
    "request_status": "Closed",
    "responsible_agency": "Department of Sanitation",
    "final_address": "7007 Magazine St Apt 1A",
    "address_councildis": "A",
    "status": "Invalid Request",
    "contractor": "IV Waste",
    "contractor_action": "Invalid",
    "rowid": "1113746",
    "final_x": "3661300.13613",
    "final_y": "520967.294777",
    "longitude": "-90.13220385622304",
    "latitude": "29.92707695035863",
    "geocoded_column": {
      "latitude": "29.92707695035863",
      "longitude": "-90.13220385622304"
    }
  },
  {
    "service_request": "2024-1113745",
    "request_type": "Property Maintenance",
    "request_reason": "Property Maintenance",
    "date_created": "2024-07-18T15:24:39.000",
    "date_modified": "2024-07-18T16:29:42.000",
    "case_close_date": "2024-07-18T11:29:42.000",
    "request_status": "Closed",
    "responsible_agency": "Department of Code Enforcement",
    "final_address": "7311 Beau St",
    "address_councildis": "E",
    "status": "Referred to Code Enforcement",
    "rowid": "1113745",
    "final_x": "3695669.36074",
    "final_y": "557730.172187",
    "longitude": "-90.02238193489183",
    "latitude": "30.027126254214675",
    "geocoded_column": {
      "latitude": "30.027126254214675",
      "longitude": "-90.02238193489183"
    }
  },
  {
    "service_request": "2024-1113744",
    "request_type": "Roads/Drainage",
    "request_reason": "Man hole cover issue",
    "date_created": "2024-07-18T15:21:48.000",
    "date_modified": "2024-07-18T15:43:22.000",
    "request_status": "Pending",
    "responsible_agency": "Department of Public Works",
    "final_address": "2603 Jefferson Ave.",
    "address_councildis": "B",
    "rowid": "1113744",
    "final_x": "3668219.59975",
    "final_y": "524986.294333",
    "longitude": "-90.11022540584088",
    "latitude": "29.937926657971296",
    "geocoded_column": {
      "latitude": "29.937926657971296",
      "longitude": "-90.11022540584088"
    }
  },
  {
    "service_request": "2024-1113743",
    "request_type": "Trash/Recycling",
    "request_reason": "Replace Recycling Cart",
    "date_created": "2024-07-18T15:21:25.000",
    "date_modified": "2024-07-18T15:21:25.000",
    "request_status": "Pending",
    "responsible_agency": "Department of Sanitation",
    "final_address": "5426 Constance St",
    "address_councildis": "A",
    "status": "Pending",
    "rowid": "1113743",
    "final_x": "3666446.32167",
    "final_y": "518419.67967",
    "longitude": "-90.11604405608793",
    "latitude": "29.919922476577995",
    "geocoded_column": {
      "latitude": "29.919922476577995",
      "longitude": "-90.11604405608793"
    }
  },
  {
    "service_request": "2024-1113742",
    "request_type": "Trash/Recycling",
    "request_reason": "Request a Large Item Pick Up",
    "date_created": "2024-07-18T15:11:51.000",
    "date_modified": "2024-07-18T15:11:52.000",
    "request_status": "Pending",
    "responsible_agency": "Department of Sanitation",
    "final_address": "3402 Octavia St",
    "address_councildis": "A",
    "status": "Assigned to Contractor",
    "contractor": "IV Waste",
    "rowid": "1113742",
    "final_x": "3668423.18196",
    "final_y": "528081.496767",
    "longitude": "-90.10947830622754",
    "latitude": "29.946431487114538",
    "geocoded_column": {
      "latitude": "29.946431487114538",
      "longitude": "-90.10947830622754"
    }
  },
  {
    "service_request": "2024-1113740",
    "request_type": "Traffic Signals/Signs/Striping/Streetlights",
    "request_reason": "Street Light Outage/Malfunction",
    "date_created": "2024-07-18T15:00:22.000",
    "date_modified": "2024-07-18T15:00:23.000",
    "request_status": "Pending",
    "responsible_agency": "Department of Public Works",
    "final_address": "3481 Wall Blvd",
    "address_councildis": "C",
    "status": "Assigned to Contractor",
    "contractor": "Legacy Professional Services",
    "rowid": "1113740",
    "final_x": "3696164.17808",
    "final_y": "523770.109819",
    "longitude": "-90.02204641484875",
    "latitude": "29.93373279071038",
    "geocoded_column": {
      "latitude": "29.93373279071038",
      "longitude": "-90.02204641484875"
    }
  },
  {
    "service_request": "2024-1113739",
    "request_type": "Trash/Recycling",
    "request_reason": "Request a Large Item Pick Up",
    "date_created": "2024-07-18T14:59:19.000",
    "date_modified": "2024-07-18T14:59:26.000",
    "request_status": "Pending",
    "responsible_agency": "Department of Sanitation",
    "final_address": "5032 Loyola Ave",
    "address_councildis": "B",
    "status": "Assigned to Contractor",
    "contractor": "IV Waste",
    "rowid": "1113739",
    "final_x": "3668532.8267",
    "final_y": "522825.187579",
    "longitude": "-90.10930940225465",
    "latitude": "29.931975110282863",
    "geocoded_column": {
      "latitude": "29.931975110282863",
      "longitude": "-90.10930940225465"
    }
  },
  {
    "service_request": "2024-1113738",
    "request_type": "Trash/Recycling",
    "request_reason": "Return Recycling Cart",
    "date_created": "2024-07-18T14:59:07.000",
    "date_modified": "2024-07-18T14:59:07.000",
    "request_status": "Pending",
    "responsible_agency": "Department of Sanitation",
    "final_address": "4800 Congress Dr",
    "address_councildis": "D",
    "status": "Pending",
    "rowid": "1113738",
    "final_x": "3692179.71389",
    "final_y": "551895.364822",
    "longitude": "-90.03361798805147",
    "latitude": "30.011192034839336",
    "geocoded_column": {
      "latitude": "30.011192034839336",
      "longitude": "-90.03361798805147"
    }
  },
  {
    "service_request": "2024-1113737",
    "request_type": "Roads/Drainage",
    "request_reason": "Street Flooding / Drainage",
    "date_created": "2024-07-18T14:58:29.000",
    "date_modified": "2024-07-18T14:58:29.000",
    "request_status": "Pending",
    "responsible_agency": "Department of Public Works",
    "final_address": "1600 BLK Clio St",
    "address_councildis": "B",
    "status": "Pending",
    "rowid": "1113737",
    "final_x": "3679515.33844",
    "final_y": "526488.278504",
    "longitude": "-90.07451171734161",
    "latitude": "29.941720243270822",
    "geocoded_column": {
      "latitude": "29.941720243270822",
      "longitude": "-90.07451171734161"
    }
  },
  {
    "service_request": "2024-1113736",
    "request_type": "Trash/Recycling",
    "request_reason": "Repair Trash Cart",
    "date_created": "2024-07-18T14:58:01.000",
    "date_modified": "2024-07-18T14:58:02.000",
    "request_status": "Pending",
    "responsible_agency": "Department of Sanitation",
    "final_address": "4800 Congress Dr",
    "address_councildis": "D",
    "status": "Assigned to Contractor",
    "contractor": "IV Waste",
    "rowid": "1113736",
    "final_x": "3692179.71389",
    "final_y": "551895.364822",
    "longitude": "-90.03361798805147",
    "latitude": "30.011192034839336",
    "geocoded_column": {
      "latitude": "30.011192034839336",
      "longitude": "-90.03361798805147"
    }
  },
  {
    "service_request": "2024-1113735",
    "request_type": "Trash/Recycling",
    "request_reason": "Request a Large Item Pick Up",
    "date_created": "2024-07-18T14:57:02.000",
    "date_modified": "2024-07-18T14:59:17.000",
    "request_status": "Pending",
    "responsible_agency": "Department of Sanitation",
    "final_address": "1817 Dante St",
    "address_councildis": "A",
    "status": "Assigned to Contractor",
    "contractor": "IV Waste",
    "rowid": "1113735",
    "final_x": "3662996.34215",
    "final_y": "530520.696706",
    "longitude": "-90.12653172650889",
    "latitude": "29.95329676604839",
    "geocoded_column": {
      "latitude": "29.95329676604839",
      "longitude": "-90.12653172650889"
    }
  },
  {
    "service_request": "2024-1113734",
    "request_type": "Roads/Drainage",
    "request_reason": "Catch Basin - Clogged",
    "date_created": "2024-07-18T14:53:46.000",
    "date_modified": "2024-07-18T14:53:46.000",
    "request_status": "Pending",
    "responsible_agency": "Department of Public Works",
    "final_address": "2800 BLK Robert St",
    "address_councildis": "B",
    "status": "Pending",
    "rowid": "1113734",
    "final_x": "3668875.85086",
    "final_y": "525763.623457",
    "longitude": "-90.10812731874904",
    "latitude": "29.940044784514974",
    "geocoded_column": {
      "latitude": "29.940044784514974",
      "longitude": "-90.10812731874904"
    }
  },
  {
    "service_request": "2024-1113733",
    "request_type": "Roads/Drainage",
    "request_reason": "Catch Basin - Clogged",
    "date_created": "2024-07-18T14:52:28.000",
    "date_modified": "2024-07-18T14:52:29.000",
    "request_status": "Pending",
    "responsible_agency": "Department of Public Works",
    "final_address": "5002 S Claiborne Ave",
    "address_councildis": "B",
    "status": "Pending",
    "rowid": "1113733",
    "final_x": "3668824.421",
    "final_y": "525851.554109",
    "longitude": "-90.10828672308644",
    "latitude": "29.94028807741969",
    "geocoded_column": {
      "latitude": "29.94028807741969",
      "longitude": "-90.10828672308644"
    }
  },
  {
    "service_request": "2024-1113732",
    "request_type": "Abandoned Vehicles",
    "request_reason": "Abandoned/Junk Vehicles",
    "date_created": "2024-07-18T14:52:07.000",
    "date_modified": "2024-07-18T14:52:08.000",
    "request_status": "Pending",
    "responsible_agency": "Department of Public Works",
    "final_address": "2600 S Derbigny St",
    "address_councildis": "B",
    "status": "Pending",
    "rowid": "1113732",
    "final_x": "3673452.72251",
    "final_y": "527334.317311",
    "longitude": "-90.09362376684987",
    "latitude": "29.94422831921629",
    "geocoded_column": {
      "latitude": "29.94422831921629",
      "longitude": "-90.09362376684987"
    }
  },
  {
    "service_request": "2024-1113731",
    "request_type": "Trash/Recycling",
    "request_reason": "Request a Large Item Pick Up",
    "date_created": "2024-07-18T14:49:29.000",
    "date_modified": "2024-07-18T14:49:30.000",
    "request_status": "Pending",
    "responsible_agency": "Department of Sanitation",
    "final_address": "201 16Th St",
    "address_councildis": "A",
    "status": "Assigned to Contractor",
    "contractor": "IV Waste",
    "rowid": "1113731",
    "final_x": "3665664.22554",
    "final_y": "548451.630418",
    "longitude": "-90.11750689956494",
    "latitude": "30.002523297269494",
    "geocoded_column": {
      "latitude": "30.002523297269494",
      "longitude": "-90.11750689956494"
    }
  },
  {
    "service_request": "2024-1113730",
    "request_type": "Roads/Drainage",
    "request_reason": "Catch Basin - Clogged",
    "date_created": "2024-07-18T14:48:57.000",
    "date_modified": "2024-07-18T14:48:58.000",
    "request_status": "Pending",
    "responsible_agency": "Department of Public Works",
    "final_address": "14100 Michoud Blvd",
    "address_councildis": "E",
    "status": "Pending",
    "rowid": "1113730",
    "final_x": "3725642.99545",
    "final_y": "572199.841129",
    "longitude": "-89.92710828389505",
    "latitude": "30.065934837013195",
    "geocoded_column": {
      "latitude": "30.065934837013195",
      "longitude": "-89.92710828389505"
    }
  },
  {
    "service_request": "2024-1113729",
    "request_type": "Traffic Signals/Signs/Striping/Streetlights",
    "request_reason": "Street Light Outage/Malfunction",
    "date_created": "2024-07-18T14:43:40.000",
    "date_modified": "2024-07-18T14:43:41.000",
    "request_status": "Pending",
    "responsible_agency": "Department of Public Works",
    "final_address": "700 N Galvez St Apt 101",
    "address_councildis": "D",
    "status": "Assigned to Contractor",
    "contractor": "Legacy Professional Services",
    "rowid": "1113729",
    "final_x": "3678344.35291",
    "final_y": "535525.328902",
    "longitude": "-90.07789615040488",
    "latitude": "29.966604416744747",
    "geocoded_column": {
      "latitude": "29.966604416744747",
      "longitude": "-90.07789615040488"
    }
  },
  {
    "service_request": "2024-1113728",
    "request_type": "Mosquito, Termite & Rodent Control",
    "request_reason": "Mosquito Complaint",
    "date_created": "2024-07-18T14:42:50.000",
    "date_modified": "2024-07-18T14:42:50.000",
    "request_status": "Pending",
    "responsible_agency": "Mosquito, Termite & Rodent Control Board",
    "final_address": "1300 Milton St",
    "address_councildis": "D",
    "status": "Pending",
    "rowid": "1113728",
    "final_x": "3677574.22555",
    "final_y": "545899.127248",
    "longitude": "-90.07996986183966",
    "latitude": "29.995151953314476",
    "geocoded_column": {
      "latitude": "29.995151953314476",
      "longitude": "-90.07996986183966"
    }
  },
  {
    "service_request": "2024-1113727",
    "request_type": "Trash/Recycling",
    "request_reason": "Request a Large Item Pick Up",
    "date_created": "2024-07-18T14:42:39.000",
    "date_modified": "2024-07-18T14:42:40.000",
    "request_status": "Pending",
    "responsible_agency": "Department of Sanitation",
    "final_address": "4343 Genoa St",
    "address_councildis": "E",
    "status": "Assigned to Contractor",
    "contractor": "Waste Pro",
    "rowid": "1113727",
    "final_x": "3760916.38589",
    "final_y": "573658.667946",
    "longitude": "-89.8155461661284",
    "latitude": "30.068708476580923",
    "geocoded_column": {
      "latitude": "30.068708476580923",
      "longitude": "-89.8155461661284"
    }
  },
  {
    "service_request": "2024-1113726",
    "request_type": "Traffic Signals/Signs/Striping/Streetlights",
    "request_reason": "Traffic Sign Missing/Damaged",
    "date_created": "2024-07-18T14:40:32.000",
    "date_modified": "2024-07-18T14:40:33.000",
    "request_status": "Pending",
    "responsible_agency": "Department of Public Works",
    "final_address": "825 Franklin Ave",
    "address_councildis": "C",
    "status": "Pending",
    "rowid": "1113726",
    "final_x": "3686916.98057",
    "final_y": "535513.022854",
    "longitude": "-90.05082436420297",
    "latitude": "29.966309531067093",
    "geocoded_column": {
      "latitude": "29.966309531067093",
      "longitude": "-90.05082436420297"
    }
  },
  {
    "service_request": "2024-1113725",
    "request_type": "Roads/Drainage",
    "request_reason": "Damaged Sidewalk",
    "date_created": "2024-07-18T14:36:29.000",
    "date_modified": "2024-07-18T14:36:30.000",
    "request_status": "Pending",
    "responsible_agency": "Department of Public Works",
    "final_address": "5545 Grand Bayou Dr",
    "address_councildis": "E",
    "status": "Pending",
    "rowid": "1113725",
    "final_x": "3725183.86579",
    "final_y": "564184.178401",
    "longitude": "-89.92887021022582",
    "latitude": "30.043910616028906",
    "geocoded_column": {
      "latitude": "30.043910616028906",
      "longitude": "-89.92887021022582"
    }
  },
  {
    "service_request": "2024-1113724",
    "request_type": "Roads/Drainage",
    "request_reason": "Catch Basin - Clogged",
    "date_created": "2024-07-18T14:35:10.000",
    "date_modified": "2024-07-18T14:35:10.000",
    "request_status": "Pending",
    "responsible_agency": "Department of Public Works",
    "final_address": "3800 Laurel St",
    "address_councildis": "B",
    "status": "Pending",
    "rowid": "1113724",
    "final_x": "3673538.41217",
    "final_y": "518292.31423",
    "longitude": "-90.09366207925038",
    "latitude": "29.919363187825986",
    "geocoded_column": {
      "latitude": "29.919363187825986",
      "longitude": "-90.09366207925038"
    }
  },
  {
    "service_request": "2024-1113723",
    "request_type": "Roads/Drainage",
    "request_reason": "Street Flooding / Drainage",
    "date_created": "2024-07-18T14:33:46.000",
    "date_modified": "2024-07-18T14:33:46.000",
    "request_status": "Pending",
    "responsible_agency": "Department of Public Works",
    "final_address": "5500 Annunciation St",
    "address_councildis": "A",
    "status": "Pending",
    "rowid": "1113723",
    "final_x": "3666110.76788",
    "final_y": "517515.153078",
    "longitude": "-90.11713354543012",
    "latitude": "29.917445109215052",
    "geocoded_column": {
      "latitude": "29.917445109215052",
      "longitude": "-90.11713354543012"
    }
  },
  {
    "service_request": "2024-1113722",
    "request_type": "Parks & Parkways",
    "request_reason": "Request Tree Service (Right of Way/Public Property)",
    "date_created": "2024-07-18T14:31:38.000",
    "date_modified": "2024-07-18T14:31:38.000",
    "request_status": "Pending",
    "responsible_agency": "Department of Parks & Parkway",
    "final_address": "2019 St Philip St",
    "address_councildis": "D",
    "status": "Pending",
    "rowid": "1113722",
    "final_x": "3679480.19157",
    "final_y": "536284.746823",
    "longitude": "-90.07428283012412",
    "latitude": "29.96865828842867",
    "geocoded_column": {
      "latitude": "29.96865828842867",
      "longitude": "-90.07428283012412"
    }
  },
  {
    "service_request": "2024-1113721",
    "request_type": "Trash/Recycling",
    "request_reason": "Request a Large Item Pick Up",
    "date_created": "2024-07-18T14:31:09.000",
    "date_modified": "2024-07-18T14:31:10.000",
    "request_status": "Pending",
    "responsible_agency": "Department of Sanitation",
    "final_address": "7621 Daniel Dr",
    "address_councildis": "E",
    "status": "Assigned to Contractor",
    "contractor": "Waste Pro",
    "rowid": "1113721",
    "final_x": "3705191.8602",
    "final_y": "562860.025056",
    "longitude": "-89.99210221797789",
    "latitude": "30.040928337653188",
    "geocoded_column": {
      "latitude": "30.040928337653188",
      "longitude": "-89.99210221797789"
    }
  },
  {
    "service_request": "2024-1113720",
    "request_type": "Roads/Drainage",
    "request_reason": "Catch Basin - Clogged",
    "date_created": "2024-07-18T14:25:58.000",
    "date_modified": "2024-07-18T14:25:59.000",
    "request_status": "Pending",
    "responsible_agency": "Department of Public Works",
    "final_address": "3216 Tulane Ave",
    "address_councildis": "B",
    "status": "Pending",
    "rowid": "1113720",
    "final_x": "3672453.07502",
    "final_y": "534622.826566",
    "longitude": "-90.09653155682629",
    "latitude": "29.964299007032405",
    "geocoded_column": {
      "latitude": "29.964299007032405",
      "longitude": "-90.09653155682629"
    }
  },
  {
    "service_request": "2024-1113719",
    "request_type": "Trash/Recycling",
    "request_reason": "Request a Large Item Pick Up",
    "date_created": "2024-07-18T14:24:23.000",
    "date_modified": "2024-07-18T14:24:24.000",
    "request_status": "Pending",
    "responsible_agency": "Department of Sanitation",
    "final_address": "2529 Fats Domino Ave, New Orleans, Louisiana, 70117",
    "address_councildis": "E",
    "status": "Assigned to Contractor",
    "contractor": "Waste Pro",
    "rowid": "1113719",
    "final_x": "3699552.85706",
    "final_y": "539249.842698",
    "longitude": "-90.01078453744061",
    "latitude": "29.976189504573945",
    "geocoded_column": {
      "latitude": "29.976189504573945",
      "longitude": "-90.01078453744061"
    }
  },
  {
    "service_request": "2024-1113718",
    "request_type": "Roads/Drainage",
    "request_reason": "Street Subsidence (Sinking)",
    "date_created": "2024-07-18T14:22:24.000",
    "date_modified": "2024-07-18T14:22:24.000",
    "request_status": "Pending",
    "responsible_agency": "Department of Public Works",
    "final_address": "12931 Chanelle Ct",
    "address_councildis": "E",
    "status": "Pending",
    "rowid": "1113718",
    "final_x": "3717055.63692",
    "final_y": "567483.821156",
    "longitude": "-89.95443318702804",
    "latitude": "30.0532547157596",
    "geocoded_column": {
      "latitude": "30.0532547157596",
      "longitude": "-89.95443318702804"
    }
  },
  {
    "service_request": "2024-1113717",
    "request_type": "Roads/Drainage",
    "request_reason": "Pothole",
    "date_created": "2024-07-18T14:22:11.000",
    "date_modified": "2024-07-18T14:22:11.000",
    "request_status": "Pending",
    "responsible_agency": "Department of Public Works",
    "final_address": "6000 BLK Constance St",
    "address_councildis": "A",
    "status": "Pending",
    "rowid": "1113717",
    "final_x": "3664297.78784",
    "final_y": "518991.241989",
    "longitude": "-90.12280690478909",
    "latitude": "29.921556681266853",
    "geocoded_column": {
      "latitude": "29.921556681266853",
      "longitude": "-90.12280690478909"
    }
  },
  {
    "service_request": "2024-1113716",
    "request_type": "Property Maintenance",
    "request_reason": "Property Maintenance",
    "date_created": "2024-07-18T14:20:41.000",
    "date_modified": "2024-07-18T14:20:41.000",
    "request_status": "Pending",
    "responsible_agency": "Department of Code Enforcement",
    "final_address": "2855 St Charles Ave",
    "address_councildis": "B",
    "status": "Pending",
    "rowid": "1113716",
    "final_x": "3675502.7972",
    "final_y": "522369.56633",
    "longitude": "-90.08732154746049",
    "latitude": "29.930515731521275",
    "geocoded_column": {
      "latitude": "29.930515731521275",
      "longitude": "-90.08732154746049"
    }
  },
  {
    "service_request": "2024-1113715",
    "request_type": "Roads/Drainage",
    "request_reason": "Catch Basin - Clogged",
    "date_created": "2024-07-18T14:19:32.000",
    "date_modified": "2024-07-18T14:19:32.000",
    "request_status": "Pending",
    "responsible_agency": "Department of Public Works",
    "final_address": "9145 Colapissa St",
    "address_councildis": "A",
    "status": "Pending",
    "rowid": "1113715",
    "final_x": "3663732.40608",
    "final_y": "536008.236551",
    "longitude": "-90.12402467144551",
    "latitude": "29.968364371764018",
    "geocoded_column": {
      "latitude": "29.968364371764018",
      "longitude": "-90.12402467144551"
    }
  },
  {
    "service_request": "2024-1113714",
    "request_type": "Trash/Recycling",
    "request_reason": "Request a Large Item Pick Up",
    "date_created": "2024-07-18T14:19:21.000",
    "date_modified": "2024-07-18T14:19:22.000",
    "request_status": "Pending",
    "responsible_agency": "Department of Sanitation",
    "final_address": "928 Mazant St",
    "address_councildis": "C",
    "status": "Assigned to Contractor",
    "contractor": "IV Waste",
    "rowid": "1113714",
    "final_x": "3691933.87101",
    "final_y": "534676.007686",
    "longitude": "-90.03501112616924",
    "latitude": "29.963852679300714",
    "geocoded_column": {
      "latitude": "29.963852679300714",
      "longitude": "-90.03501112616924"
    }
  },
  {
    "service_request": "2024-1113713",
    "request_type": "Roads/Drainage",
    "request_reason": "Catch Basin - Clogged",
    "date_created": "2024-07-18T14:19:00.000",
    "date_modified": "2024-07-18T14:19:01.000",
    "request_status": "Pending",
    "responsible_agency": "Department of Public Works",
    "final_address": "3108 Mistletoe St",
    "address_councildis": "A",
    "status": "Pending",
    "rowid": "1113713",
    "final_x": "3663711.56583",
    "final_y": "536109.371527",
    "longitude": "-90.12408711560872",
    "latitude": "29.968643064376522",
    "geocoded_column": {
      "latitude": "29.968643064376522",
      "longitude": "-90.12408711560872"
    }
  },
  {
    "service_request": "2024-1113712",
    "request_type": "Roads/Drainage",
    "request_reason": "Pothole",
    "date_created": "2024-07-18T14:18:41.000",
    "date_modified": "2024-07-18T14:18:41.000",
    "request_status": "Pending",
    "responsible_agency": "Department of Public Works",
    "final_address": "600 BLK Constance St",
    "address_councildis": "B",
    "status": "Pending",
    "rowid": "1113712",
    "final_x": "3681569.24247",
    "final_y": "528493.193457",
    "longitude": "-90.067957225121",
    "latitude": "29.947170883965494",
    "geocoded_column": {
      "latitude": "29.947170883965494",
      "longitude": "-90.067957225121"
    }
  },
  {
    "service_request": "2024-1113711",
    "request_type": "Trash/Recycling",
    "request_reason": "Request a Large Item Pick Up",
    "date_created": "2024-07-18T14:17:31.000",
    "date_modified": "2024-07-18T14:17:32.000",
    "request_status": "Pending",
    "responsible_agency": "Department of Sanitation",
    "final_address": "6026 Dauphine St",
    "address_councildis": "E",
    "status": "Assigned to Contractor",
    "contractor": "Waste Pro",
    "rowid": "1113711",
    "final_x": "3698950.09405",
    "final_y": "532207.191875",
    "longitude": "-90.01294453915925",
    "latitude": "29.956843854240645",
    "geocoded_column": {
      "latitude": "29.956843854240645",
      "longitude": "-90.01294453915925"
    }
  },
  {
    "service_request": "2024-1113710",
    "request_type": "Roads/Drainage",
    "request_reason": "Ditch Issue",
    "date_created": "2024-07-18T14:14:34.000",
    "date_modified": "2024-07-18T14:14:34.000",
    "request_status": "Pending",
    "responsible_agency": "Department of Public Works",
    "final_address": "AURORA DR & GENERAL MEYER AVE",
    "address_councildis": "C",
    "status": "Pending",
    "rowid": "1113710",
    "final_x": "3706976.0",
    "final_y": "520828.68",
    "longitude": "-89.98802333804582",
    "latitude": "29.925300250332246",
    "geocoded_column": {
      "latitude": "29.925300250332246",
      "longitude": "-89.98802333804582"
    }
  },
  {
    "service_request": "2024-1113709",
    "request_type": "Graffiti Removal",
    "request_reason": "Graffiti Removal",
    "date_created": "2024-07-18T14:14:00.000",
    "date_modified": "2024-07-18T14:14:01.000",
    "request_status": "Pending",
    "responsible_agency": "Department of Code Enforcement",
    "final_address": "SUPERDOME EXIT & E PONTCHARTRAIN EXPRESSWAY & S CLAIBORNE AV OVERPASS",
    "address_councildis": "B",
    "status": "Pending",
    "rowid": "1113709",
    "final_x": "3676082.0",
    "final_y": "529638.18",
    "longitude": "-90.08524315439396",
    "latitude": "29.950484697005123",
    "geocoded_column": {
      "latitude": "29.950484697005123",
      "longitude": "-90.08524315439396"
    }
  },
  {
    "service_request": "2024-1113708",
    "request_type": "Trash/Recycling",
    "request_reason": "Illegal Dumping",
    "date_created": "2024-07-18T14:12:54.000",
    "date_modified": "2024-07-18T14:12:55.000",
    "request_status": "Pending",
    "responsible_agency": "Department of Sanitation",
    "final_address": "SUPERDOME EXIT & E PONTCHARTRAIN EXPRESSWAY & S CLAIBORNE AV OVERPASS",
    "address_councildis": "B",
    "status": "Pending",
    "rowid": "1113708",
    "final_x": "3676082.0",
    "final_y": "529638.18",
    "longitude": "-90.08524315439396",
    "latitude": "29.950484697005123",
    "geocoded_column": {
      "latitude": "29.950484697005123",
      "longitude": "-90.08524315439396"
    }
  },
  {
    "service_request": "2024-1113707",
    "request_type": "Property Maintenance",
    "request_reason": "Property Maintenance",
    "date_created": "2024-07-18T14:10:13.000",
    "date_modified": "2024-07-18T16:33:26.000",
    "case_close_date": "2024-07-18T11:33:26.000",
    "request_status": "Closed",
    "responsible_agency": "Department of Code Enforcement",
    "final_address": "2504 Forstall St",
    "address_councildis": "E",
    "status": "Referred to Code Enforcement",
    "rowid": "1113707",
    "final_x": "3697710.24675",
    "final_y": "539525.76289",
    "longitude": "-90.016593996589",
    "latitude": "29.977006535562026",
    "geocoded_column": {
      "latitude": "29.977006535562026",
      "longitude": "-90.016593996589"
    }
  },
  {
    "service_request": "2024-1113706",
    "request_type": "Roads/Drainage",
    "request_reason": "Catch Basin - Clogged",
    "date_created": "2024-07-18T14:09:17.000",
    "date_modified": "2024-07-18T14:09:18.000",
    "request_status": "Pending",
    "responsible_agency": "Department of Public Works",
    "final_address": "1327 Ferry Pl",
    "address_councildis": "A",
    "status": "Pending",
    "rowid": "1113706",
    "final_x": "3660150.5424",
    "final_y": "530789.317378",
    "longitude": "-90.13550872321565",
    "latitude": "29.954117492963814",
    "geocoded_column": {
      "latitude": "29.954117492963814",
      "longitude": "-90.13550872321565"
    }
  },
  {
    "service_request": "2024-1113705",
    "request_type": "Trash/Recycling",
    "request_reason": "Illegal Dumping",
    "date_created": "2024-07-18T14:08:46.000",
    "date_modified": "2024-07-18T14:08:47.000",
    "request_status": "Pending",
    "responsible_agency": "Department of Sanitation",
    "final_address": "LAW ST & FORSTALL ST",
    "address_councildis": "E",
    "status": "Pending",
    "rowid": "1113705",
    "final_x": "3697835.4",
    "final_y": "539817.18",
    "longitude": "-90.01618814491314",
    "latitude": "29.977803872103138",
    "geocoded_column": {
      "latitude": "29.977803872103138",
      "longitude": "-90.01618814491314"
    }
  },
  {
    "service_request": "2024-1113704",
    "request_type": "Roads/Drainage",
    "request_reason": "Catch Basin - Broken/Damage",
    "date_created": "2024-07-18T14:07:59.000",
    "date_modified": "2024-07-18T14:07:59.000",
    "request_status": "Pending",
    "responsible_agency": "Department of Public Works",
    "final_address": "TERPSICHORE ST & ORETHA CASTLE HALEY BLVD",
    "address_councildis": "B",
    "status": "Pending",
    "rowid": "1113704",
    "final_x": "3677854.3",
    "final_y": "526020.78",
    "longitude": "-90.07977210431389",
    "latitude": "29.94048484889236",
    "geocoded_column": {
      "latitude": "29.94048484889236",
      "longitude": "-90.07977210431389"
    }
  },
  {
    "service_request": "2024-1113703",
    "request_type": "Roads/Drainage",
    "request_reason": "Man hole cover issue",
    "date_created": "2024-07-18T14:07:21.000",
    "date_modified": "2024-07-18T14:07:21.000",
    "request_status": "Pending",
    "responsible_agency": "Department of Public Works",
    "final_address": "8500 BLK S Claiborne Ave",
    "address_councildis": "A",
    "status": "Pending",
    "rowid": "1113703",
    "final_x": "3663690.62042",
    "final_y": "532653.527656",
    "longitude": "-90.12426842226928",
    "latitude": "29.959141234194007",
    "geocoded_column": {
      "latitude": "29.959141234194007",
      "longitude": "-90.12426842226928"
    }
  },
  {
    "service_request": "2024-1113702",
    "request_type": "Roads/Drainage",
    "request_reason": "Catch Basin - Broken/Damage",
    "date_created": "2024-07-18T14:06:16.000",
    "date_modified": "2024-07-18T14:06:16.000",
    "request_status": "Pending",
    "responsible_agency": "Department of Public Works",
    "final_address": "1600 BLK Oretha Castle Haley Blvd",
    "address_councildis": "B",
    "status": "Pending",
    "rowid": "1113702",
    "final_x": "3677775.9515",
    "final_y": "525888.784952",
    "longitude": "-90.08002402171877",
    "latitude": "29.940124262722875",
    "geocoded_column": {
      "latitude": "29.940124262722875",
      "longitude": "-90.08002402171877"
    }
  },
  {
    "service_request": "2024-1113701",
    "request_type": "Property Maintenance",
    "request_reason": "Property Maintenance",
    "date_created": "2024-07-18T14:06:02.000",
    "date_modified": "2024-07-18T16:41:53.000",
    "case_close_date": "2024-07-18T11:41:53.000",
    "request_status": "Closed",
    "responsible_agency": "Department of Code Enforcement",
    "final_address": "2519 Reynes St",
    "address_councildis": "E",
    "status": "Referred to Code Enforcement",
    "rowid": "1113701",
    "final_x": "3697522.03402",
    "final_y": "539652.102282",
    "longitude": "-90.01718384610572",
    "latitude": "29.977359868959443",
    "geocoded_column": {
      "latitude": "29.977359868959443",
      "longitude": "-90.01718384610572"
    }
  },
  {
    "service_request": "2024-1113700",
    "request_type": "Roads/Drainage",
    "request_reason": "Catch Basin - Clogged",
    "date_created": "2024-07-18T14:05:55.000",
    "date_modified": "2024-07-18T14:05:55.000",
    "request_status": "Pending",
    "responsible_agency": "Department of Public Works",
    "final_address": "2430 St Philip St",
    "address_councildis": "D",
    "status": "Pending",
    "rowid": "1113700",
    "final_x": "3678251.4621",
    "final_y": "537150.815496",
    "longitude": "-90.07813326691537",
    "latitude": "29.97107674782507",
    "geocoded_column": {
      "latitude": "29.97107674782507",
      "longitude": "-90.07813326691537"
    }
  },
  {
    "service_request": "2024-1113699",
    "request_type": "Trash/Recycling",
    "request_reason": "Illegal Dumping",
    "date_created": "2024-07-18T14:02:05.000",
    "date_modified": "2024-07-18T14:02:06.000",
    "request_status": "Pending",
    "responsible_agency": "Department of Sanitation",
    "final_address": "4611 Alcee Fortier Blvd",
    "address_councildis": "E",
    "status": "Pending",
    "rowid": "1113699",
    "final_x": "3730727.16211",
    "final_y": "561752.256607",
    "longitude": "-89.91144662136902",
    "latitude": "30.037035862566157",
    "geocoded_column": {
      "latitude": "30.037035862566157",
      "longitude": "-89.91144662136902"
    }
  },
  {
    "service_request": "2024-1113698",
    "request_type": "Trash/Recycling",
    "request_reason": "Request a Large Item Pick Up",
    "date_created": "2024-07-18T14:01:38.000",
    "date_modified": "2024-07-18T14:01:39.000",
    "request_status": "Pending",
    "responsible_agency": "Department of Sanitation",
    "final_address": "7721 Lafourche St",
    "address_councildis": "E",
    "status": "Assigned to Contractor",
    "contractor": "Waste Pro",
    "rowid": "1113698",
    "final_x": "3709955.69323",
    "final_y": "566019.280227",
    "longitude": "-89.9769288153541",
    "latitude": "30.049460836942078",
    "geocoded_column": {
      "latitude": "30.049460836942078",
      "longitude": "-89.9769288153541"
    }
  },
  {
    "service_request": "2024-1113697",
    "request_type": "Roads/Drainage",
    "request_reason": "Catch Basin - Clogged",
    "date_created": "2024-07-18T14:00:28.000",
    "date_modified": "2024-07-18T14:00:28.000",
    "request_status": "Pending",
    "responsible_agency": "Department of Public Works",
    "final_address": "500 BLK Burgundy St",
    "address_councildis": "C",
    "status": "Pending",
    "rowid": "1113697",
    "final_x": "3681346.33773",
    "final_y": "532659.720886",
    "longitude": "-90.06851580626676",
    "latitude": "29.958634192895335",
    "geocoded_column": {
      "latitude": "29.958634192895335",
      "longitude": "-90.06851580626676"
    }
  },
  {
    "service_request": "2024-1113696",
    "request_type": "Traffic Signals/Signs/Striping/Streetlights",
    "request_reason": "Street Light Outage/Malfunction",
    "date_created": "2024-07-18T13:44:53.000",
    "date_modified": "2024-07-18T13:44:54.000",
    "request_status": "Pending",
    "responsible_agency": "Department of Public Works",
    "final_address": "5919 General Diaz St",
    "address_councildis": "A",
    "status": "Assigned to Contractor",
    "contractor": "Legacy Professional Services",
    "rowid": "1113696",
    "final_x": "3669547.29812",
    "final_y": "546693.402641",
    "longitude": "-90.10529926740287",
    "latitude": "29.99757491746909",
    "geocoded_column": {
      "latitude": "29.99757491746909",
      "longitude": "-90.10529926740287"
    }
  },
  {
    "service_request": "2024-1113695",
    "request_type": "Trash/Recycling",
    "request_reason": "Illegal Dumping",
    "date_created": "2024-07-18T13:42:33.000",
    "date_modified": "2024-07-18T13:42:34.000",
    "request_status": "Pending",
    "responsible_agency": "Department of Sanitation",
    "final_address": "1200 Block of Forstall",
    "address_councildis": "E",
    "status": "Pending",
    "rowid": "1113695",
    "final_x": "3701006.57137",
    "final_y": "538138.287369",
    "longitude": "-90.00623396968545",
    "latitude": "29.973086914739937",
    "geocoded_column": {
      "latitude": "29.973086914739937",
      "longitude": "-90.00623396968545"
    }
  },
  {
    "service_request": "2024-1113694",
    "request_type": "Trash/Recycling",
    "request_reason": "Illegal Dumping",
    "date_created": "2024-07-18T13:40:43.000",
    "date_modified": "2024-07-18T13:40:44.000",
    "request_status": "Pending",
    "responsible_agency": "Department of Sanitation",
    "final_address": "1200 Block of Forstall",
    "address_councildis": "E",
    "status": "Pending",
    "rowid": "1113694",
    "final_x": "3701246.55023",
    "final_y": "537160.842133",
    "longitude": "-90.00551184669852",
    "latitude": "29.97039164994043",
    "geocoded_column": {
      "latitude": "29.97039164994043",
      "longitude": "-90.00551184669852"
    }
  },
  {
    "service_request": "2024-1113693",
    "request_type": "Trash/Recycling",
    "request_reason": "Request a Large Item Pick Up",
    "date_created": "2024-07-18T13:40:38.000",
    "date_modified": "2024-07-18T13:41:00.000",
    "request_status": "Pending",
    "responsible_agency": "Department of Sanitation",
    "final_address": "4826 Citrus Dr",
    "address_councildis": "E",
    "status": "Assigned to Contractor",
    "contractor": "Waste Pro",
    "rowid": "1113693",
    "final_x": "3710643.42897",
    "final_y": "556456.240282",
    "longitude": "-89.97511343976889",
    "latitude": "30.02314388143371",
    "geocoded_column": {
      "latitude": "30.02314388143371",
      "longitude": "-89.97511343976889"
    }
  },
  {
    "service_request": "2024-1113692",
    "request_type": "Trash/Recycling",
    "request_reason": "Illegal Dumping",
    "date_created": "2024-07-18T13:37:24.000",
    "date_modified": "2024-07-18T13:37:25.000",
    "request_status": "Pending",
    "responsible_agency": "Department of Sanitation",
    "final_address": "1200 Block of Forstall",
    "address_councildis": "E",
    "status": "Pending",
    "rowid": "1113692",
    "final_x": "3696397.94148",
    "final_y": "534737.363712",
    "longitude": "-90.02091187427426",
    "latitude": "29.963881550580577",
    "geocoded_column": {
      "latitude": "29.963881550580577",
      "longitude": "-90.02091187427426"
    }
  },
  {
    "service_request": "2024-1113691",
    "request_type": "Trash/Recycling",
    "request_reason": "Illegal Dumping",
    "date_created": "2024-07-18T13:35:33.000",
    "date_modified": "2024-07-18T13:35:33.000",
    "request_status": "Pending",
    "responsible_agency": "Department of Sanitation",
    "final_address": "4117 N Claiborne Ave",
    "address_councildis": "D",
    "status": "Pending",
    "rowid": "1113691",
    "final_x": "3692739.69853",
    "final_y": "537096.719368",
    "longitude": "-90.03237961867578",
    "latitude": "29.970483650880702",
    "geocoded_column": {
      "latitude": "29.970483650880702",
      "longitude": "-90.03237961867578"
    }
  },
  {
    "service_request": "2024-1113690",
    "request_type": "Abandoned Vehicles",
    "request_reason": "Abandoned/Junk Vehicles",
    "date_created": "2024-07-18T13:33:04.000",
    "date_modified": "2024-07-18T13:35:24.000",
    "request_status": "Pending",
    "responsible_agency": "Department of Public Works",
    "final_address": "7531 Briarheath Dr",
    "address_councildis": "E",
    "status": "Pending",
    "rowid": "1113690",
    "final_x": "3714847.28191",
    "final_y": "566842.812836",
    "longitude": "-89.96143739336084",
    "latitude": "30.051565091939295",
    "geocoded_column": {
      "latitude": "30.051565091939295",
      "longitude": "-89.96143739336084"
    }
  },
  {
    "service_request": "2024-1113689",
    "request_type": "Roads/Drainage",
    "request_reason": "Catch Basin - Clogged",
    "date_created": "2024-07-18T13:32:53.000",
    "date_modified": "2024-07-18T13:32:53.000",
    "request_status": "Pending",
    "responsible_agency": "Department of Public Works",
    "final_address": "3926 Magazine St",
    "address_councildis": "B",
    "status": "Pending",
    "rowid": "1113689",
    "final_x": "3672834.64616",
    "final_y": "518927.303863",
    "longitude": "-90.0958618725394",
    "latitude": "29.921130123979815",
    "geocoded_column": {
      "latitude": "29.921130123979815",
      "longitude": "-90.0958618725394"
    }
  },
  {
    "service_request": "2024-1113686",
    "request_type": "Trash/Recycling",
    "request_reason": "Repair Trash Cart",
    "date_created": "2024-07-18T13:28:28.000",
    "date_modified": "2024-07-18T13:28:29.000",
    "request_status": "Pending",
    "responsible_agency": "Department of Sanitation",
    "final_address": "9738 W Rockton Cir",
    "address_councildis": "E",
    "status": "Assigned to Contractor",
    "contractor": "Waste Pro",
    "rowid": "1113686",
    "final_x": "3707869.11409",
    "final_y": "562524.743584",
    "longitude": "-89.98365372804501",
    "latitude": "30.03992000795981",
    "geocoded_column": {
      "latitude": "30.03992000795981",
      "longitude": "-89.98365372804501"
    }
  },
  {
    "service_request": "2024-1113685",
    "request_type": "Trash/Recycling",
    "request_reason": "Order Recycling Cart",
    "date_created": "2024-07-18T13:28:03.000",
    "date_modified": "2024-07-18T13:28:04.000",
    "request_status": "Pending",
    "responsible_agency": "Department of Sanitation",
    "final_address": "9738 W Rockton Cir",
    "address_councildis": "E",
    "status": "Pending",
    "rowid": "1113685",
    "final_x": "3707869.11409",
    "final_y": "562524.743584",
    "longitude": "-89.98365372804501",
    "latitude": "30.03992000795981",
    "geocoded_column": {
      "latitude": "30.03992000795981",
      "longitude": "-89.98365372804501"
    }
  },
  {
    "service_request": "2024-1113683",
    "request_type": "Traffic Signals/Signs/Striping/Streetlights",
    "request_reason": "Street Light Outage/Malfunction",
    "date_created": "2024-07-18T13:16:46.000",
    "date_modified": "2024-07-18T13:16:47.000",
    "request_status": "Pending",
    "responsible_agency": "Department of Public Works",
    "final_address": "3758 Lang St",
    "address_councildis": "C",
    "status": "Assigned to Contractor",
    "contractor": "Legacy Professional Services",
    "rowid": "1113683",
    "final_x": "3701978.93681",
    "final_y": "517096.818933",
    "longitude": "-90.00393405419008",
    "latitude": "29.915199291054577",
    "geocoded_column": {
      "latitude": "29.915199291054577",
      "longitude": "-90.00393405419008"
    }
  },
  {
    "service_request": "2024-1113681",
    "request_type": "Property Maintenance",
    "request_reason": "Property Maintenance",
    "date_created": "2024-07-18T12:55:50.000",
    "date_modified": "2024-07-18T16:48:42.000",
    "case_close_date": "2024-07-18T11:48:42.000",
    "request_status": "Closed",
    "responsible_agency": "Department of Code Enforcement",
    "final_address": "3519 S Miro St",
    "address_councildis": "B",
    "status": "Referred to Code Enforcement",
    "rowid": "1113681",
    "final_x": "3671131.99271",
    "final_y": "527999.026879",
    "longitude": "-90.10092841403116",
    "latitude": "29.946124889391342",
    "geocoded_column": {
      "latitude": "29.946124889391342",
      "longitude": "-90.10092841403116"
    }
  },
  {
    "service_request": "2024-1113680",
    "request_type": "Trash/Recycling",
    "request_reason": "Request a Large Item Pick Up",
    "date_created": "2024-07-18T12:55:03.000",
    "date_modified": "2024-07-18T12:55:04.000",
    "request_status": "Pending",
    "responsible_agency": "Department of Sanitation",
    "final_address": "6643 E Hermes St",
    "address_councildis": "D",
    "status": "Assigned to Contractor",
    "contractor": "Waste Pro",
    "rowid": "1113680",
    "final_x": "3697812.07178",
    "final_y": "556126.460378",
    "longitude": "-90.01566947888226",
    "latitude": "30.02264907847129",
    "geocoded_column": {
      "latitude": "30.02264907847129",
      "longitude": "-90.01566947888226"
    }
  },
  {
    "service_request": "2024-1113679",
    "request_type": "Safety & Permits",
    "request_reason": "Licenses & Permits",
    "date_created": "2024-07-18T12:52:54.000",
    "date_modified": "2024-07-18T12:52:55.000",
    "request_status": "Pending",
    "responsible_agency": "Safety and Permits",
    "final_address": "2106 Baronne St",
    "address_councildis": "B",
    "status": "Pending",
    "rowid": "1113679",
    "final_x": "3677282.27362",
    "final_y": "524614.143996",
    "longitude": "-90.08162659997583",
    "latitude": "29.936634258061485",
    "geocoded_column": {
      "latitude": "29.936634258061485",
      "longitude": "-90.08162659997583"
    }
  },
  {
    "service_request": "2024-1113678",
    "request_type": "Trash/Recycling",
    "request_reason": "Request a Large Item Pick Up",
    "date_created": "2024-07-18T12:49:51.000",
    "date_modified": "2024-07-18T12:49:52.000",
    "request_status": "Pending",
    "responsible_agency": "Department of Sanitation",
    "final_address": "6432 Lafaye St",
    "address_councildis": "D",
    "status": "Assigned to Contractor",
    "contractor": "IV Waste",
    "rowid": "1113678",
    "final_x": "3686937.8157",
    "final_y": "557068.826266",
    "longitude": "-90.04999615465013",
    "latitude": "30.025579589562593",
    "geocoded_column": {
      "latitude": "30.025579589562593",
      "longitude": "-90.04999615465013"
    }
  },
  {
    "service_request": "2024-1113677",
    "request_type": "Trash/Recycling",
    "request_reason": "Request a Large Item Pick Up",
    "date_created": "2024-07-18T12:45:17.000",
    "date_modified": "2024-07-18T12:45:18.000",
    "request_status": "Pending",
    "responsible_agency": "Department of Sanitation",
    "final_address": "7595 Shorewood Blvd",
    "address_councildis": "E",
    "status": "Assigned to Contractor",
    "contractor": "Waste Pro",
    "rowid": "1113677",
    "final_x": "3719980.99852",
    "final_y": "572765.201705",
    "longitude": "-89.94498475200254",
    "latitude": "30.067679185010572",
    "geocoded_column": {
      "latitude": "30.067679185010572",
      "longitude": "-89.94498475200254"
    }
  },
  {
    "service_request": "2024-1113676",
    "request_type": "Trash/Recycling",
    "request_reason": "Request a Large Item Pick Up",
    "date_created": "2024-07-18T12:42:31.000",
    "date_modified": "2024-07-18T12:42:31.000",
    "request_status": "Pending",
    "responsible_agency": "Department of Sanitation",
    "final_address": "1566 Annunciation St",
    "address_councildis": "B",
    "status": "Assigned to Contractor",
    "contractor": "IV Waste",
    "rowid": "1113676",
    "final_x": "3680901.9252",
    "final_y": "523083.904187",
    "longitude": "-90.07025246265205",
    "latitude": "29.932317384244527",
    "geocoded_column": {
      "latitude": "29.932317384244527",
      "longitude": "-90.07025246265205"
    }
  },
  {
    "service_request": "2024-1113675",
    "request_type": "Property Maintenance",
    "request_reason": "Property Maintenance",
    "date_created": "2024-07-18T12:33:48.000",
    "date_modified": "2024-07-18T12:33:49.000",
    "request_status": "Pending",
    "responsible_agency": "Department of Code Enforcement",
    "final_address": "3315 Pauger St",
    "address_councildis": "D",
    "status": "Pending",
    "rowid": "1113675",
    "final_x": "3683455.8902",
    "final_y": "541883.300876",
    "longitude": "-90.06153112436341",
    "latitude": "29.98393164123807",
    "geocoded_column": {
      "latitude": "29.98393164123807",
      "longitude": "-90.06153112436341"
    }
  },
  {
    "service_request": "2024-1113674",
    "request_type": "Property Maintenance",
    "request_reason": "Property Maintenance",
    "date_created": "2024-07-18T12:32:40.000",
    "date_modified": "2024-07-18T12:32:40.000",
    "request_status": "Pending",
    "responsible_agency": "Department of Code Enforcement",
    "final_address": "14550 Hayne Blvd",
    "address_councildis": "E",
    "status": "Pending",
    "rowid": "1113674",
    "final_x": "3719219.80543",
    "final_y": "574536.430827",
    "longitude": "-89.94732327230793",
    "latitude": "30.072574655649667",
    "geocoded_column": {
      "latitude": "30.072574655649667",
      "longitude": "-89.94732327230793"
    }
  },
  {
    "service_request": "2024-1113673",
    "request_type": "Property Maintenance",
    "request_reason": "Property Maintenance",
    "date_created": "2024-07-18T12:29:38.000",
    "date_modified": "2024-07-18T12:29:39.000",
    "request_status": "Pending",
    "responsible_agency": "Department of Code Enforcement",
    "final_address": "7917 Bass St",
    "address_councildis": "E",
    "status": "Pending",
    "rowid": "1113673",
    "final_x": "3719583.52172",
    "final_y": "574250.383978",
    "longitude": "-89.94618440033842",
    "latitude": "30.07177604587618",
    "geocoded_column": {
      "latitude": "30.07177604587618",
      "longitude": "-89.94618440033842"
    }
  },
  {
    "service_request": "2024-1113672",
    "request_type": "Traffic Signals/Signs/Striping/Streetlights",
    "request_reason": "Street Name Sign Damaged or Missing",
    "date_created": "2024-07-18T12:24:29.000",
    "date_modified": "2024-07-18T12:24:30.000",
    "request_status": "Pending",
    "responsible_agency": "Department of Public Works",
    "final_address": "CITY PARK AVE & CONTI ST",
    "address_councildis": "A",
    "status": "Pending",
    "rowid": "1113672",
    "final_x": "3668924.8",
    "final_y": "541459.48",
    "longitude": "-90.10744261666858",
    "latitude": "29.98320175304132",
    "geocoded_column": {
      "latitude": "29.98320175304132",
      "longitude": "-90.10744261666858"
    }
  },