[
  {
    "service_request": "2022-921039",
    "request_type": "Trash/Recycling",
    "request_reason": "Missed Trash Pick-Up",
    "date_created": "2022-09-18T23:16:30.000",
    "date_modified": "2022-09-18T23:16:31.000",
    "request_status": "Pending",
    "responsible_agency": "Department of Sanitation",
    "final_address": "11030 Chaucer St",
    "address_councildis": "E",
    "status": "Assigned to Contractor",
    "contractor": "Metro Disposal",
    "rowid": "921039",
    "final_x": "3713343.29931",
    "final_y": "562160.142943",
    "longitude": "-89.96636751949532",
    "latitude": "30.038739070635426",
    "geocoded_column": {
      "latitude": "30.038739070635426",
      "longitude": "-89.96636751949532"
    }
  },
  {
    "service_request": "2022-921038",
    "request_type": "Trash/Recycling",
    "request_reason": "Missed Trash Pick-Up",
    "date_created": "2022-09-18T21:59:58.000",
    "date_modified": "2022-09-18T21:59:59.000",
    "request_status": "Pending",
    "responsible_agency": "Department of Sanitation",
    "final_address": "1127 N Derbigny St",
    "address_councildis": "D",
    "status": "Assigned to Contractor",
    "contractor": "Richards Disposal",
    "rowid": "921038",
    "final_x": "3680509.60968",
    "final_y": "536249.116551",
    "longitude": "-90.07103311050922",
    "latitude": "29.968529175182194",
    "geocoded_column": {
      "latitude": "29.968529175182194",
      "longitude": "-90.07103311050922"
    }
  },
  {
    "service_request": "2022-921037",
    "request_type": "Trash/Recycling",
    "request_reason": "Missed Trash Pick-Up",
    "date_created": "2022-09-18T21:36:14.000",
    "date_modified": "2022-09-18T21:37:28.000",
    "request_status": "Pending",
    "responsible_agency": "Department of Sanitation",
    "final_address": "5597 Stillwater Dr",
    "address_councildis": "E",
    "status": "Assigned to Contractor",
    "contractor": "Metro Disposal",
    "rowid": "921037",
    "final_x": "3716421.50802",
    "final_y": "561165.454174",
    "longitude": "-89.95667741203678",
    "latitude": "30.035902746191187",
    "geocoded_column": {
      "latitude": "30.035902746191187",
      "longitude": "-89.95667741203678"
    }
  },
  {
    "service_request": "2022-921036",
    "request_type": "Abandoned Vehicles",
    "request_reason": "Abandoned/Junk Vehicles",
    "date_created": "2022-09-18T21:26:20.000",
    "date_modified": "2022-09-18T21:26:20.000",
    "request_status": "Pending",
    "responsible_agency": "Department of Public Works",
    "final_address": "8000 Block of Morrison Rd, New Orleans, Louisiana, 70126",
    "status": "Pending",
    "rowid": "921036",
    "longitude": "0.0",
    "latitude": "0.0",
    "geocoded_column": {
      "latitude": "0.0",
      "longitude": "0.0"
    }
  },
  {
    "service_request": "2022-921035",
    "request_type": "Traffic Signals/Signs/Striping/Streetlights",
    "request_reason": "Street Light Outage/Malfunction",
    "date_created": "2022-09-18T20:27:34.000",
    "date_modified": "2022-09-18T20:27:35.000",
    "request_status": "Pending",
    "responsible_agency": "Department of Public Works",
    "final_address": "2427 Camp St",
    "address_councildis": "B",
    "status": "Pending",
    "contractor": "Legacy Professional Services",
    "rowid": "921035",
    "final_x": "3677647.66869",
    "final_y": "521736.710778",
    "longitude": "-90.08057234983823",
    "latitude": "29.928711278139698",
    "geocoded_column": {
      "latitude": "29.928711278139698",
      "longitude": "-90.08057234983823"
    }
  },
  {
    "service_request": "2022-921033",
    "request_type": "Taxi Issues",
    "request_reason": "Taxi Complaint",
    "date_created": "2022-09-18T19:46:57.000",
    "date_modified": "2022-09-18T19:46:57.000",
    "request_status": "Pending",
    "responsible_agency": "Ground Transportation Bureau",
    "status": "Pending",
    "rowid": "921033",
    "longitude": "0.0",
    "latitude": "0.0",
    "geocoded_column": {
      "latitude": "0.0",
      "longitude": "0.0"
    }
  },
  {
    "service_request": "2022-921032",
    "request_type": "Trash/Recycling",
    "request_reason": "Missed Trash Pick-Up",
    "date_created": "2022-09-18T19:38:48.000",
    "date_modified": "2022-09-18T19:39:08.000",
    "request_status": "Pending",
    "responsible_agency": "Department of Sanitation",
    "final_address": "1662 Abundance St",
    "address_councildis": "D",
    "status": "Assigned to Contractor",
    "contractor": "Metro Disposal",
    "rowid": "921032",
    "final_x": "3680434.6525",
    "final_y": "543303.392334",
    "longitude": "-90.07102440727711",
    "latitude": "29.987928255139828",
    "geocoded_column": {
      "latitude": "29.987928255139828",
      "longitude": "-90.07102440727711"
    }
  },
  {
    "service_request": "2022-921031",
    "request_type": "Trash/Recycling",
    "request_reason": "Missed Trash Pick-Up",
    "date_created": "2022-09-18T19:28:25.000",
    "date_modified": "2022-09-18T19:33:09.000",
    "request_status": "Pending",
    "responsible_agency": "Department of Sanitation",
    "final_address": "4120 Pitt St, New Orleans, Louisiana, 70115",
    "address_councildis": "B",
    "status": "Assigned to Contractor",
    "contractor": "Richards Disposal",
    "rowid": "921031",
    "final_x": "3671793.08596",
    "final_y": "520625.007416",
    "longitude": "-90.09909189639845",
    "latitude": "29.925829155507298",
    "geocoded_column": {
      "latitude": "29.925829155507298",
      "longitude": "-90.09909189639845"
    }
  },
  {
    "service_request": "2022-921030",
    "request_type": "Trash/Recycling",
    "request_reason": "Request a Large Item Pick Up",
    "date_created": "2022-09-18T19:21:48.000",
    "date_modified": "2022-09-18T19:21:49.000",
    "request_status": "Pending",
    "responsible_agency": "Department of Sanitation",
    "final_address": "3414 N Rampart St",
    "address_councildis": "C",
    "status": "Assigned to Contractor",
    "contractor": "Metro Disposal",
    "rowid": "921030",
    "final_x": "3690182.00611",
    "final_y": "535216.250054",
    "longitude": "-90.04052408079178",
    "latitude": "29.965392620938854",
    "geocoded_column": {
      "latitude": "29.965392620938854",
      "longitude": "-90.04052408079178"
    }
  },
  {
    "service_request": "2022-921029",
    "request_type": "Trash/Recycling",
    "request_reason": "Missed Trash Pick-Up",
    "date_created": "2022-09-18T19:06:06.000",
    "date_modified": "2022-09-18T19:06:06.000",
    "request_status": "Pending",
    "responsible_agency": "Department of Sanitation",
    "final_address": "7730 Swift St",
    "address_councildis": "E",
    "status": "Assigned to Contractor",
    "contractor": "Metro Disposal",
    "rowid": "921029",
    "final_x": "3695270.65469",
    "final_y": "559134.242268",
    "longitude": "-90.02359108949773",
    "latitude": "30.030999448196816",
    "geocoded_column": {
      "latitude": "30.030999448196816",
      "longitude": "-90.02359108949773"
    }
  },
  {
    "service_request": "2022-921027",
    "request_type": "Trash/Recycling",
    "request_reason": "Missed Trash Pick-Up",
    "date_created": "2022-09-18T19:05:54.000",
    "date_modified": "2022-09-18T19:05:54.000",
    "request_status": "Pending",
    "responsible_agency": "Department of Sanitation",
    "final_address": "504 S Alexander St",
    "address_councildis": "A",
    "status": "Assigned to Contractor",
    "contractor": "Richards Disposal",
    "rowid": "921027",
    "final_x": "3669008.93767",
    "final_y": "537821.549065",
    "longitude": "-90.10729981214295",
    "latitude": "29.97319619614067",
    "geocoded_column": {
      "latitude": "29.97319619614067",
      "longitude": "-90.10729981214295"
    }
  },
  {
    "service_request": "2022-921028",
    "request_type": "Trash/Recycling",
    "request_reason": "Missed Trash Pick-Up",
    "date_created": "2022-09-18T19:05:54.000",
    "date_modified": "2022-09-18T19:05:55.000",
    "request_status": "Pending",
    "responsible_agency": "Department of Sanitation",
    "final_address": "1502 Conery St",
    "address_councildis": "B",
    "status": "Assigned to Contractor",
    "contractor": "Richards Disposal",
    "rowid": "921028",
    "final_x": "3675938.78056",
    "final_y": "521977.203322",
    "longitude": "-90.08595869604144",
    "latitude": "29.92942381741005",
    "geocoded_column": {
      "latitude": "29.92942381741005",
      "longitude": "-90.08595869604144"
    }
  },
  {
    "service_request": "2022-921026",
    "request_type": "Trash/Recycling",
    "request_reason": "Missed Trash Pick-Up",
    "date_created": "2022-09-18T18:56:44.000",
    "date_modified": "2022-09-18T18:56:45.000",
    "request_status": "Pending",
    "responsible_agency": "Department of Sanitation",
    "final_address": "500 Tupelo St",
    "address_councildis": "E",
    "status": "Assigned to Contractor",
    "contractor": "Metro Disposal",
    "rowid": "921026",
    "final_x": "3698646.29872",
    "final_y": "531292.730946",
    "longitude": "-90.01393707199921",
    "latitude": "29.95433903251166",
    "geocoded_column": {
      "latitude": "29.95433903251166",
      "longitude": "-90.01393707199921"
    }
  },
  {
    "service_request": "2022-921025",
    "request_type": "Trash/Recycling",
    "request_reason": "Missed Trash Pick-Up",
    "date_created": "2022-09-18T18:53:41.000",
    "date_modified": "2022-09-18T18:53:42.000",
    "request_status": "Pending",
    "responsible_agency": "Department of Sanitation",
    "final_address": "5854 W Louis Prima Dr",
    "address_councildis": "E",
    "status": "Assigned to Contractor",
    "contractor": "Metro Disposal",
    "rowid": "921025",
    "final_x": "3715200.72261",
    "final_y": "562866.20208",
    "longitude": "-89.9604708818996",
    "latitude": "30.040619389399783",
    "geocoded_column": {
      "latitude": "30.040619389399783",
      "longitude": "-89.9604708818996"
    }
  },
  {
    "service_request": "2022-921024",
    "request_type": "Trash/Recycling",
    "request_reason": "Missed Trash Pick-Up",
    "date_created": "2022-09-18T18:53:01.000",
    "date_modified": "2022-09-18T18:53:02.000",
    "request_status": "Pending",
    "responsible_agency": "Department of Sanitation",
    "final_address": "453 Audubon Blvd",
    "address_councildis": "B",
    "status": "Assigned to Contractor",
    "contractor": "Richards Disposal",
    "rowid": "921024",
    "final_x": "3667692.22023",
    "final_y": "530654.810626",
    "longitude": "-90.11169959542475",
    "latitude": "29.95352870950375",
    "geocoded_column": {
      "latitude": "29.95352870950375",
      "longitude": "-90.11169959542475"
    }
  },
  {
    "service_request": "2022-921023",
    "request_type": "Trash/Recycling",
    "request_reason": "Missed Trash Pick-Up",
    "date_created": "2022-09-18T18:49:08.000",
    "date_modified": "2022-09-18T18:49:09.000",
    "request_status": "Pending",
    "responsible_agency": "Department of Sanitation",
    "final_address": "5508 St Anthony Ave",
    "address_councildis": "D",
    "status": "Assigned to Contractor",
    "contractor": "Metro Disposal",
    "rowid": "921023",
    "final_x": "3682044.04392",
    "final_y": "553120.266391",
    "longitude": "-90.06559781224588",
    "latitude": "30.01487229521824",
    "geocoded_column": {
      "latitude": "30.01487229521824",
      "longitude": "-90.06559781224588"
    }
  },
  {
    "service_request": "2022-921022",
    "request_type": "Abandoned Vehicles",
    "request_reason": "Abandoned/Junk Vehicles",
    "date_created": "2022-09-18T18:48:06.000",
    "date_modified": "2022-09-18T18:48:06.000",
    "request_status": "Pending",
    "responsible_agency": "Department of Public Works",
    "final_address": "4507 Touro St",
    "address_councildis": "D",
    "status": "Pending",
    "rowid": "921022",
    "final_x": "3683233.56156",
    "final_y": "549217.888211",
    "longitude": "-90.0619763146818",
    "latitude": "30.004105929151763",
    "geocoded_column": {
      "latitude": "30.004105929151763",
      "longitude": "-90.0619763146818"
    }
  },
  {
    "service_request": "2022-921021",
    "request_type": "Health Related Questions",
    "request_reason": "Noise Ordinance Complaint",
    "date_created": "2022-09-18T18:42:03.000",
    "date_modified": "2022-09-18T18:42:03.000",
    "request_status": "Pending",
    "responsible_agency": "Health Department",
    "final_address": "corner Kentucky Street and North Villere Street, 70117",
    "status": "Pending",
    "rowid": "921021",
    "longitude": "0.0",
    "latitude": "0.0",
    "geocoded_column": {
      "latitude": "0.0",
      "longitude": "0.0"
    }
  },
  {
    "service_request": "2022-921020",
    "request_type": "Trash/Recycling",
    "request_reason": "Request a Large Item Pick Up",
    "date_created": "2022-09-18T18:28:04.000",
    "date_modified": "2022-09-18T18:28:04.000",
    "request_status": "Pending",
    "responsible_agency": "Department of Sanitation",
    "final_address": "401 S Norman C Francis Prkwy",
    "address_councildis": "B",
    "status": "Assigned to Contractor",
    "contractor": "Richards Disposal",
    "rowid": "921020",
    "final_x": "3672328.77505",
    "final_y": "535807.993799",
    "longitude": "-90.09688370059384",
    "latitude": "29.9675615078165",
    "geocoded_column": {
      "latitude": "29.9675615078165",
      "longitude": "-90.09688370059384"
    }
  },
  {
    "service_request": "2022-921019",
    "request_type": "Trash/Recycling",
    "request_reason": "Missed Trash Pick-Up",
    "date_created": "2022-09-18T18:21:17.000",
    "date_modified": "2022-09-18T18:21:18.000",
    "request_status": "Pending",
    "responsible_agency": "Department of Sanitation",
    "final_address": "2422 Monroe St",
    "address_councildis": "A",
    "status": "Assigned to Contractor",
    "contractor": "Richards Disposal",
    "rowid": "921019",
    "final_x": "3663438.33722",
    "final_y": "533216.245764",
    "longitude": "-90.12504633690708",
    "latitude": "29.960695842833577",
    "geocoded_column": {
      "latitude": "29.960695842833577",
      "longitude": "-90.12504633690708"
    }
  },
  {
    "service_request": "2022-921017",
    "request_type": "Traffic Signals/Signs/Striping/Streetlights",
    "request_reason": "Traffic Sign Missing/Damaged",
    "date_created": "2022-09-18T17:52:47.000",
    "date_modified": "2022-09-18T17:52:47.000",
    "request_status": "Pending",
    "responsible_agency": "Department of Public Works",
    "final_address": "14TH ST & FLEUR DE LIS DR",
    "address_councildis": "A",
    "status": "Pending",
    "rowid": "921017",
    "final_x": "3665152.4",
    "final_y": "548129.38",
    "longitude": "-90.11913461669027",
    "latitude": "30.0016521426651",
    "geocoded_column": {
      "latitude": "30.0016521426651",
      "longitude": "-90.11913461669027"
    }
  },
  {
    "service_request": "2022-921016",
    "request_type": "Traffic Signals/Signs/Striping/Streetlights",
    "request_reason": "Traffic Sign Missing/Damaged",
    "date_created": "2022-09-18T17:51:14.000",
    "date_modified": "2022-09-18T17:51:14.000",
    "request_status": "Pending",
    "responsible_agency": "Department of Public Works",
    "final_address": "12TH ST & FLEUR DE LIS DR",
    "address_councildis": "A",
    "status": "Pending",
    "rowid": "921016",
    "final_x": "3665136.3",
    "final_y": "547828.58",
    "longitude": "-90.11919554741684",
    "latitude": "30.000825515254167",
    "geocoded_column": {
      "latitude": "30.000825515254167",
      "longitude": "-90.11919554741684"
    }
  },
  {
    "service_request": "2022-921015",
    "request_type": "Traffic Signals/Signs/Striping/Streetlights",
    "request_reason": "Traffic Sign Missing/Damaged",
    "date_created": "2022-09-18T17:48:18.000",
    "date_modified": "2022-09-18T17:48:18.000",
    "request_status": "Pending",
    "responsible_agency": "Department of Public Works",
    "final_address": "14TH ST & FLEUR DE LIS DR",
    "address_councildis": "A",
    "status": "Pending",
    "rowid": "921015",
    "final_x": "3665152.4",
    "final_y": "548129.38",
    "longitude": "-90.11913461669027",
    "latitude": "30.0016521426651",
    "geocoded_column": {
      "latitude": "30.0016521426651",
      "longitude": "-90.11913461669027"
    }
  },
  {
    "service_request": "2022-921014",
    "request_type": "Trash/Recycling",
    "request_reason": "Missed Trash Pick-Up",
    "date_created": "2022-09-18T17:47:13.000",
    "date_modified": "2022-09-18T17:47:14.000",
    "request_status": "Pending",
    "responsible_agency": "Department of Sanitation",
    "final_address": "5320 Wildair Dr",
    "address_councildis": "D",
    "status": "Assigned to Contractor",
    "contractor": "Metro Disposal",
    "rowid": "921014",
    "final_x": "3681579.55669",
    "final_y": "552657.726742",
    "longitude": "-90.06708151752858",
    "latitude": "30.013614601339896",
    "geocoded_column": {
      "latitude": "30.013614601339896",
      "longitude": "-90.06708151752858"
    }
  },
  {
    "service_request": "2022-921013",
    "request_type": "Trash/Recycling",
    "request_reason": "Missed Trash Pick-Up",
    "date_created": "2022-09-18T17:45:48.000",
    "date_modified": "2022-09-18T17:45:49.000",
    "request_status": "Pending",
    "responsible_agency": "Department of Sanitation",
    "final_address": "4420 Pauger St",
    "address_councildis": "D",
    "status": "Assigned to Contractor",
    "contractor": "Metro Disposal",
    "rowid": "921013",
    "final_x": "3682803.378",
    "final_y": "548937.690195",
    "longitude": "-90.06334515098254",
    "latitude": "30.00334860257981",
    "geocoded_column": {
      "latitude": "30.00334860257981",
      "longitude": "-90.06334515098254"
    }
  },
  {
    "service_request": "2022-921012",
    "request_type": "Traffic Signals/Signs/Striping/Streetlights",
    "request_reason": "Request for Stop Sign",
    "date_created": "2022-09-18T17:45:35.000",
    "date_modified": "2022-09-18T17:45:35.000",
    "request_status": "Pending",
    "responsible_agency": "Department of Public Works",
    "final_address": "30TH ST & FLEUR DE LIS DR",
    "address_councildis": "A",
    "status": "Pending",
    "rowid": "921012",
    "final_x": "3665356.8",
    "final_y": "550520.58",
    "longitude": "-90.11840879882759",
    "latitude": "30.00822115860913",
    "geocoded_column": {
      "latitude": "30.00822115860913",
      "longitude": "-90.11840879882759"
    }
  },
  {
    "service_request": "2022-921011",
    "request_type": "Trash/Recycling",
    "request_reason": "Missed Trash Pick-Up",
    "date_created": "2022-09-18T17:41:45.000",
    "date_modified": "2022-09-18T17:41:46.000",
    "request_status": "Pending",
    "responsible_agency": "Department of Sanitation",
    "final_address": "322 Millaudon St",
    "address_councildis": "A",
    "status": "Assigned to Contractor",
    "contractor": "Richards Disposal",
    "rowid": "921011",
    "final_x": "3661564.29152",
    "final_y": "524309.184444",
    "longitude": "-90.13125930946391",
    "latitude": "29.93625848128017",
    "geocoded_column": {
      "latitude": "29.93625848128017",
      "longitude": "-90.13125930946391"
    }
  },
  {
    "service_request": "2022-921010",
    "request_type": "Roads/Drainage",
    "request_reason": "Street Subsidence (Sinking)",
    "date_created": "2022-09-18T17:36:03.000",
    "date_modified": "2022-09-18T17:36:03.000",
    "request_status": "Pending",
    "responsible_agency": "Department of Public Works",
    "final_address": "1654 Burbank Dr",
    "address_councildis": "D",
    "status": "Pending",
    "rowid": "921010",
    "final_x": "3679521.37717",
    "final_y": "554365.135128",
    "longitude": "-90.07352498301324",
    "latitude": "30.018371735011417",
    "geocoded_column": {
      "latitude": "30.018371735011417",
      "longitude": "-90.07352498301324"
    }
  },
  {
    "service_request": "2022-921009",
    "request_type": "Trash/Recycling",
    "request_reason": "Replace Trash Cart",
    "date_created": "2022-09-18T17:34:27.000",
    "date_modified": "2022-09-18T17:34:28.000",
    "request_status": "Pending",
    "responsible_agency": "Department of Sanitation",
    "final_address": "628 Jefferson Ave",
    "address_councildis": "A",
    "status": "Assigned to Contractor",
    "contractor": "Richards Disposal",
    "rowid": "921009",
    "final_x": "3666485.87521",
    "final_y": "517755.82815",
    "longitude": "-90.11594146737902",
    "latitude": "29.918095937436913",
    "geocoded_column": {
      "latitude": "29.918095937436913",
      "longitude": "-90.11594146737902"
    }
  },
  {
    "service_request": "2022-921008",
    "request_type": "Trash/Recycling",
    "request_reason": "Missed Trash Pick-Up",
    "date_created": "2022-09-18T17:13:34.000",
    "date_modified": "2022-09-18T17:13:35.000",
    "request_status": "Pending",
    "responsible_agency": "Department of Sanitation",
    "final_address": "2145 Prentiss Ave",
    "address_councildis": "D",
    "status": "Assigned to Contractor",
    "contractor": "Metro Disposal",
    "rowid": "921008",
    "final_x": "3683295.65231",
    "final_y": "553888.069591",
    "longitude": "-90.06161641188008",
    "latitude": "30.016945338428965",
    "geocoded_column": {
      "latitude": "30.016945338428965",
      "longitude": "-90.06161641188008"
    }
  },
  {
    "service_request": "2022-921007",
    "request_type": "Trash/Recycling",
    "request_reason": "Missed Trash Pick-Up",
    "date_created": "2022-09-18T17:06:03.000",
    "date_modified": "2022-09-18T17:06:04.000",
    "request_status": "Pending",
    "responsible_agency": "Department of Sanitation",
    "final_address": "5118 Royal St, New Orleans, Louisiana, 70117",
    "address_councildis": "E",
    "status": "Assigned to Contractor",
    "contractor": "Metro Disposal",
    "rowid": "921007",
    "final_x": "3695982.41334",
    "final_y": "532654.616324",
    "longitude": "-90.02229931914293",
    "latitude": "29.958167811717384",
    "geocoded_column": {
      "latitude": "29.958167811717384",
      "longitude": "-90.02229931914293"
    }
  },
  {
    "service_request": "2022-921006",
    "request_type": "Abandoned Vehicles",
    "request_reason": "Abandoned/Junk Vehicles",
    "date_created": "2022-09-18T16:40:17.000",
    "date_modified": "2022-09-18T16:40:17.000",
    "request_status": "Pending",
    "responsible_agency": "Department of Public Works",
    "final_address": "4816 Wilson Ave",
    "address_councildis": "E",
    "status": "Pending",
    "rowid": "921006",
    "final_x": "3702894.25444",
    "final_y": "555306.896729",
    "longitude": "-89.9996412304403",
    "latitude": "30.020233918461493",
    "geocoded_column": {
      "latitude": "30.020233918461493",
      "longitude": "-89.9996412304403"
    }
  },
  {
    "service_request": "2022-921005",
    "request_type": "Trash/Recycling",
    "request_reason": "Missed Trash Pick-Up",
    "date_created": "2022-09-18T16:08:26.000",
    "date_modified": "2022-09-18T16:08:26.000",
    "request_status": "Pending",
    "responsible_agency": "Department of Sanitation",
    "final_address": "2221 Brainard St",
    "address_councildis": "B",
    "status": "Assigned to Contractor",
    "contractor": "Richards Disposal",
    "rowid": "921005",
    "final_x": "3677014.3341",
    "final_y": "524173.968508",
    "longitude": "-90.08248766719669",
    "latitude": "29.935431965296686",
    "geocoded_column": {
      "latitude": "29.935431965296686",
      "longitude": "-90.08248766719669"
    }
  },
  {
    "service_request": "2022-921004",
    "request_type": "Safety & Permits",
    "request_reason": "Construction permit",
    "date_created": "2022-09-18T16:06:43.000",
    "date_modified": "2022-09-18T16:06:43.000",
    "request_status": "Pending",
    "responsible_agency": "Department of Code Enforcement",
    "final_address": "416 S Bernadotte St",
    "address_councildis": "A",
    "status": "Pending",
    "rowid": "921004",
    "final_x": "3668010.9954",
    "final_y": "538938.108106",
    "longitude": "-90.11041388869208",
    "latitude": "29.976295681569255",
    "geocoded_column": {
      "latitude": "29.976295681569255",
      "longitude": "-90.11041388869208"
    }
  },
  {
    "service_request": "2022-921003",
    "request_type": "Parks & Parkways",
    "request_reason": "Request Tree Service (Right of Way/Public Property)",
    "date_created": "2022-09-18T16:05:25.000",
    "date_modified": "2022-09-18T16:05:26.000",
    "request_status": "Pending",
    "responsible_agency": "Department of Parks & Parkway",
    "final_address": "BLAIR ST & PATTERSON DR",
    "address_councildis": "C",
    "status": "Pending",
    "rowid": "921003",
    "final_x": "3709588.9",
    "final_y": "520167.68",
    "longitude": "-89.97979996272332",
    "latitude": "29.923398121255516",
    "geocoded_column": {
      "latitude": "29.923398121255516",
      "longitude": "-89.97979996272332"
    }
  },
  {
    "service_request": "2022-921002",
    "request_type": "Trash/Recycling",
    "request_reason": "Missed Trash Pick-Up",
    "date_created": "2022-09-18T16:01:37.000",
    "date_modified": "2022-09-18T16:01:38.000",
    "request_status": "Pending",
    "responsible_agency": "Department of Sanitation",
    "final_address": "7631 Pebble Dr",
    "address_councildis": "E",
    "status": "Assigned to Contractor",
    "contractor": "Metro Disposal",
    "rowid": "921002",
    "final_x": "3715215.23583",
    "final_y": "568976.619238",
    "longitude": "-89.96019359997136",
    "latitude": "30.057420064983567",
    "geocoded_column": {
      "latitude": "30.057420064983567",
      "longitude": "-89.96019359997136"
    }
  },
  {
    "service_request": "2022-921001",
    "request_type": "Traffic Signals/Signs/Striping/Streetlights",
    "request_reason": "Request for Traffic Calming due to Speeding",
    "date_created": "2022-09-18T15:42:19.000",
    "date_modified": "2022-09-18T15:42:19.000",
    "request_status": "Pending",
    "responsible_agency": "Department of Public Works",
    "final_address": "2021 Brainard St",
    "address_councildis": "B",
    "status": "Pending",
    "rowid": "921001",
    "final_x": "3677523.85365",
    "final_y": "524573.468604",
    "longitude": "-90.08086532463037",
    "latitude": "29.93651515551024",
    "geocoded_column": {
      "latitude": "29.93651515551024",
      "longitude": "-90.08086532463037"
    }
  },
  {
    "service_request": "2022-921000",
    "request_type": "Abandoned Vehicles",
    "request_reason": "Abandoned/Junk Vehicles",
    "date_created": "2022-09-18T15:41:27.000",
    "date_modified": "2022-09-18T15:41:27.000",
    "request_status": "Pending",
    "responsible_agency": "Department of Public Works",
    "final_address": "1119 N Johnson St",
    "address_councildis": "D",
    "status": "Pending",
    "rowid": "921000",
    "final_x": "3679633.69282",
    "final_y": "536842.09524",
    "longitude": "-90.07377871642537",
    "latitude": "29.970186166771573",
    "geocoded_column": {
      "latitude": "29.970186166771573",
      "longitude": "-90.07377871642537"
    }
  },
  {
    "service_request": "2022-920999",
    "request_type": "Traffic Signals/Signs/Striping/Streetlights",
    "request_reason": "Traffic Signal Malfunctioning/Damaged",
    "date_created": "2022-09-18T15:38:07.000",
    "date_modified": "2022-09-18T15:38:07.000",
    "request_status": "Pending",
    "responsible_agency": "Department of Public Works",
    "final_address": "1728 Jackson Ave",
    "address_councildis": "B",
    "status": "Pending",
    "rowid": "920999",
    "final_x": "3677195.66453",
    "final_y": "524177.176764",
    "longitude": "-90.08191509512355",
    "latitude": "29.935435342795145",
    "geocoded_column": {
      "latitude": "29.935435342795145",
      "longitude": "-90.08191509512355"
    }
  },
  {
    "service_request": "2022-920998",
    "request_type": "Abandoned Vehicles",
    "request_reason": "Abandoned/Junk Vehicles",
    "date_created": "2022-09-18T15:13:20.000",
    "date_modified": "2022-09-18T15:13:21.000",
    "request_status": "Pending",
    "responsible_agency": "Department of Public Works",
    "final_address": "1829 S Rendon St",
    "address_councildis": "B",
    "status": "Pending",
    "rowid": "920998",
    "final_x": "3669351.96705",
    "final_y": "530353.190018",
    "longitude": "-90.10646899786057",
    "latitude": "29.952650591177893",
    "geocoded_column": {
      "latitude": "29.952650591177893",
      "longitude": "-90.10646899786057"
    }
  },
  {
    "service_request": "2022-920997",
    "request_type": "Trash/Recycling",
    "request_reason": "Missed Trash Pick-Up",
    "date_created": "2022-09-18T15:11:37.000",
    "date_modified": "2022-09-18T15:11:38.000",
    "request_status": "Pending",
    "responsible_agency": "Department of Sanitation",
    "final_address": "5730 Elysian Fields Ave",
    "address_councildis": "D",
    "status": "Assigned to Contractor",
    "contractor": "Metro Disposal",
    "rowid": "920997",
    "final_x": "3683410.66562",
    "final_y": "554072.984344",
    "longitude": "-90.06124653170953",
    "latitude": "30.01745027597235",
    "geocoded_column": {
      "latitude": "30.01745027597235",
      "longitude": "-90.06124653170953"
    }
  },
  {
    "service_request": "2022-920996",
    "request_type": "Trash/Recycling",
    "request_reason": "Missed Trash Pick-Up",
    "date_created": "2022-09-18T15:04:18.000",
    "date_modified": "2022-09-18T15:04:19.000",
    "request_status": "Pending",
    "responsible_agency": "Department of Sanitation",
    "final_address": "5334 Vermillion Blvd",
    "address_councildis": "D",
    "status": "Assigned to Contractor",
    "contractor": "Metro Disposal",
    "rowid": "920996",
    "final_x": "3683223.33928",
    "final_y": "552556.196054",
    "longitude": "-90.06189158524695",
    "latitude": "30.013285378745227",
    "geocoded_column": {
      "latitude": "30.013285378745227",
      "longitude": "-90.06189158524695"
    }
  },
  {
    "service_request": "2022-920995",
    "request_type": "Trash/Recycling",
    "request_reason": "Replace Trash Cart",
    "date_created": "2022-09-18T15:00:59.000",
    "date_modified": "2022-09-18T15:01:00.000",
    "request_status": "Pending",
    "responsible_agency": "Department of Sanitation",
    "final_address": "4341 Alba Rd, New Orleans, Louisiana, 70129",
    "address_councildis": "E",
    "status": "Assigned to Contractor",
    "contractor": "Metro Disposal",
    "rowid": "920995",
    "final_x": "3761748.63766",
    "final_y": "572738.118441",
    "longitude": "-89.81295391509738",
    "latitude": "30.06614705218067",
    "geocoded_column": {
      "latitude": "30.06614705218067",
      "longitude": "-89.81295391509738"
    }
  },
  {
    "service_request": "2022-920994",
    "request_type": "Trash/Recycling",
    "request_reason": "Missed Trash Pick-Up",
    "date_created": "2022-09-18T14:59:45.000",
    "date_modified": "2022-09-18T14:59:46.000",
    "request_status": "Pending",
    "responsible_agency": "Department of Sanitation",
    "final_address": "4341 Alba Rd, New Orleans, Louisiana, 70129",
    "address_councildis": "E",
    "status": "Assigned to Contractor",
    "contractor": "Metro Disposal",
    "rowid": "920994",
    "final_x": "3761748.63766",
    "final_y": "572738.118441",
    "longitude": "-89.81295391509738",
    "latitude": "30.06614705218067",
    "geocoded_column": {
      "latitude": "30.06614705218067",
      "longitude": "-89.81295391509738"
    }
  },
  {
    "service_request": "2022-920993",
    "request_type": "Trash/Recycling",
    "request_reason": "Missed Trash Pick-Up",
    "date_created": "2022-09-18T14:57:43.000",
    "date_modified": "2022-09-18T14:57:44.000",
    "request_status": "Pending",
    "responsible_agency": "Department of Sanitation",
    "final_address": "5701 Warrington Dr",
    "address_councildis": "D",
    "status": "Assigned to Contractor",
    "contractor": "Metro Disposal",
    "rowid": "920993",
    "final_x": "3680892.63669",
    "final_y": "553680.934615",
    "longitude": "-90.06921616133165",
    "latitude": "30.016448906451384",
    "geocoded_column": {
      "latitude": "30.016448906451384",
      "longitude": "-90.06921616133165"
    }
  },
  {
    "service_request": "2022-920991",
    "request_type": "Trash/Recycling",
    "request_reason": "Missed Trash Pick-Up",
    "date_created": "2022-09-18T14:13:36.000",
    "date_modified": "2022-09-18T14:13:37.000",
    "request_status": "Pending",
    "responsible_agency": "Department of Sanitation",
    "final_address": "5700 Elysian Fields Ave",
    "address_councildis": "D",
    "status": "Assigned to Contractor",
    "contractor": "Metro Disposal",
    "rowid": "920991",
    "final_x": "3683424.24661",
    "final_y": "553898.678551",
    "longitude": "-90.06120973558242",
    "latitude": "30.016970584250764",
    "geocoded_column": {
      "latitude": "30.016970584250764",
      "longitude": "-90.06120973558242"
    }
  },
  {
    "service_request": "2022-920990",
    "request_type": "Trash/Recycling",
    "request_reason": "Request a Large Item Pick Up",
    "date_created": "2022-09-18T14:00:50.000",
    "date_modified": "2022-09-18T14:00:51.000",
    "request_status": "Pending",
    "responsible_agency": "Department of Sanitation",
    "final_address": "8222 S Claiborne Ave",
    "address_councildis": "A",
    "status": "Assigned to Contractor",
    "contractor": "Richards Disposal",
    "rowid": "920990",
    "final_x": "3664399.2281",
    "final_y": "531803.114179",
    "longitude": "-90.12205919032418",
    "latitude": "29.95678229592399",
    "geocoded_column": {
      "latitude": "29.95678229592399",
      "longitude": "-90.12205919032418"
    }
  },
  {
    "service_request": "2022-920989",
    "request_type": "Trash/Recycling",
    "request_reason": "Missed Trash Pick-Up",
    "date_created": "2022-09-18T13:45:20.000",
    "date_modified": "2022-09-18T13:45:20.000",
    "request_status": "Pending",
    "responsible_agency": "Department of Sanitation",
    "final_address": "11141 N Parkwood Ct",
    "address_councildis": "E",
    "status": "Assigned to Contractor",
    "contractor": "Metro Disposal",
    "rowid": "920989",
    "final_x": "3716328.01528",
    "final_y": "559157.428316",
    "longitude": "-89.9570490822011",
    "latitude": "30.030384570174927",
    "geocoded_column": {
      "latitude": "30.030384570174927",
      "longitude": "-89.9570490822011"
    }
  },
  {
    "service_request": "2022-920988",
    "request_type": "Trash/Recycling",
    "request_reason": "Request a Large Item Pick Up",
    "date_created": "2022-09-18T13:34:54.000",
    "date_modified": "2022-09-18T13:34:55.000",
    "request_status": "Pending",
    "responsible_agency": "Department of Sanitation",
    "final_address": "1550 Dufossat St",
    "address_councildis": "B",
    "status": "Assigned to Contractor",
    "contractor": "Richards Disposal",
    "rowid": "920988",
    "final_x": "3667995.99418",
    "final_y": "520953.558713",
    "longitude": "-90.11106715863139",
    "latitude": "29.92684448400555",
    "geocoded_column": {
      "latitude": "29.92684448400555",
      "longitude": "-90.11106715863139"
    }
  },
  {
    "service_request": "2022-920987",
    "request_type": "Trash/Recycling",
    "request_reason": "Request a Large Item Pick Up",
    "date_created": "2022-09-18T13:33:04.000",
    "date_modified": "2022-09-18T13:33:05.000",
    "request_status": "Pending",
    "responsible_agency": "Department of Sanitation",
    "final_address": "10 Gull St",
    "address_councildis": "D",
    "status": "Assigned to Contractor",
    "contractor": "Metro Disposal",
    "rowid": "920987",
    "final_x": "3675009.10273",
    "final_y": "555145.572377",
    "longitude": "-90.08775531624744",
    "latitude": "30.020653296231",
    "geocoded_column": {
      "latitude": "30.020653296231",
      "longitude": "-90.08775531624744"
    }
  },
  {
    "service_request": "2022-920986",
    "request_type": "Property Maintenance",
    "request_reason": "Property Maintenance",
    "date_created": "2022-09-18T13:19:30.000",
    "date_modified": "2022-09-18T13:19:30.000",
    "request_status": "Pending",
    "responsible_agency": "Department of Code Enforcement",
    "final_address": "1403 Arts St",
    "address_councildis": "C",
    "status": "Pending",
    "rowid": "920986",
    "final_x": "3687148.61865",
    "final_y": "537627.49108",
    "longitude": "-90.0500180711814",
    "latitude": "29.97211644939365",
    "geocoded_column": {
      "latitude": "29.97211644939365",
      "longitude": "-90.0500180711814"
    }
  },
  {
    "service_request": "2022-920985",
    "request_type": "Trash/Recycling",
    "request_reason": "Missed Trash Pick-Up",
    "date_created": "2022-09-18T13:14:26.000",
    "date_modified": "2022-09-18T13:14:27.000",
    "request_status": "Pending",
    "responsible_agency": "Department of Sanitation",
    "final_address": "6014 Vermillion Blvd, New Orleans, Louisiana, 70122",
    "address_councildis": "D",
    "status": "Assigned to Contractor",
    "contractor": "Metro Disposal",
    "rowid": "920985",
    "final_x": "3682985.34498",
    "final_y": "554932.352664",
    "longitude": "-90.06256026077457",
    "latitude": "30.019826200564356",
    "geocoded_column": {
      "latitude": "30.019826200564356",
      "longitude": "-90.06256026077457"
    }
  },
  {
    "service_request": "2022-920984",
    "request_type": "Property Maintenance",
    "request_reason": "Property Maintenance",
    "date_created": "2022-09-18T12:33:17.000",
    "date_modified": "2022-09-18T12:33:58.000",
    "request_status": "Pending",
    "responsible_agency": "Department of Code Enforcement",
    "final_address": "6739 Catina St",
    "address_councildis": "A",
    "status": "Pending",
    "rowid": "920984",
    "final_x": "3667118.85396",
    "final_y": "552489.164886",
    "longitude": "-90.1127756564614",
    "latitude": "30.013582589454955",
    "geocoded_column": {
      "latitude": "30.013582589454955",
      "longitude": "-90.1127756564614"
    }
  },
  {
    "service_request": "2022-920983",
    "request_type": "Abandoned Vehicles",
    "request_reason": "Abandoned/Junk Vehicles",
    "date_created": "2022-09-18T12:25:51.000",
    "date_modified": "2022-09-18T12:25:51.000",
    "request_status": "Pending",
    "responsible_agency": "Department of Public Works",
    "final_address": "2200 Royal St, New Orleans, Louisiana, 70117",
    "address_councildis": "C",
    "status": "Pending",
    "rowid": "920983",
    "final_x": "3685225.28021",
    "final_y": "534850.911046",
    "longitude": "-90.05619001924795",
    "latitude": "29.964540908372264",
    "geocoded_column": {
      "latitude": "29.964540908372264",
      "longitude": "-90.05619001924795"
    }
  },
  {
    "service_request": "2022-920980",
    "request_type": "Traffic Signals/Signs/Striping/Streetlights",
    "request_reason": "Street Light Outage/Malfunction",
    "date_created": "2022-09-18T11:59:53.000",
    "date_modified": "2022-09-18T11:59:54.000",
    "request_status": "Pending",
    "responsible_agency": "Department of Public Works",
    "final_address": "6479 Memphis St",
    "address_councildis": "A",
    "status": "Pending",
    "contractor": "Legacy Professional Services",
    "rowid": "920980",
    "final_x": "3669584.40474",
    "final_y": "550584.160916",
    "longitude": "-90.10505029704869",
    "latitude": "30.008272053735055",
    "geocoded_column": {
      "latitude": "30.008272053735055",
      "longitude": "-90.10505029704869"
    }
  },
  {
    "service_request": "2022-920979",
    "request_type": "Trash/Recycling",
    "request_reason": "Illegal Dumping",
    "date_created": "2022-09-18T11:59:45.000",
    "date_modified": "2022-09-18T11:59:45.000",
    "request_status": "Pending",
    "responsible_agency": "Department of Sanitation",
    "final_address": "1784 Pace Blvd",
    "address_councildis": "C",
    "status": "Pending",
    "rowid": "920979",
    "final_x": "3694429.42557",
    "final_y": "523875.623868",
    "longitude": "-90.02751912252755",
    "latitude": "29.93407739150418",
    "geocoded_column": {
      "latitude": "29.93407739150418",
      "longitude": "-90.02751912252755"
    }
  },
  {
    "service_request": "2022-920978",
    "request_type": "Trash/Recycling",
    "request_reason": "Missed Trash Pick-Up",
    "date_created": "2022-09-18T11:56:14.000",
    "date_modified": "2022-09-18T11:56:14.000",
    "request_status": "Pending",
    "responsible_agency": "Department of Sanitation",
    "final_address": "1421 Deslonde St",
    "address_councildis": "E",
    "status": "Assigned to Contractor",
    "contractor": "Metro Disposal",
    "rowid": "920978",
    "final_x": "3695809.31152",
    "final_y": "535752.799687",
    "longitude": "-90.02273402513772",
    "latitude": "29.966692164126396",
    "geocoded_column": {
      "latitude": "29.966692164126396",
      "longitude": "-90.02273402513772"
    }
  },
  {
    "service_request": "2022-920977",
    "request_type": "Trash/Recycling",
    "request_reason": "Missed Trash Pick-Up",
    "date_created": "2022-09-18T11:55:26.000",
    "date_modified": "2022-09-18T11:55:27.000",
    "request_status": "Pending",
    "responsible_agency": "Department of Sanitation",
    "final_address": "1421 Deslonde St",
    "address_councildis": "E",
    "status": "Assigned to Contractor",
    "contractor": "Metro Disposal",
    "rowid": "920977",
    "final_x": "3695809.31152",
    "final_y": "535752.799687",
    "longitude": "-90.02273402513772",
    "latitude": "29.966692164126396",
    "geocoded_column": {
      "latitude": "29.966692164126396",
      "longitude": "-90.02273402513772"
    }
  },
  {
    "service_request": "2022-920976",
    "request_type": "Abandoned Vehicles",
    "request_reason": "Abandoned/Junk Vehicles",
    "date_created": "2022-09-18T11:45:16.000",
    "date_modified": "2022-09-18T11:45:16.000",
    "request_status": "Pending",
    "responsible_agency": "Department of Public Works",
    "final_address": "1784 Pace Blvd",
    "address_councildis": "C",
    "status": "Pending",
    "rowid": "920976",
    "final_x": "3694429.42557",
    "final_y": "523875.623868",
    "longitude": "-90.02751912252755",
    "latitude": "29.93407739150418",
    "geocoded_column": {
      "latitude": "29.93407739150418",
      "longitude": "-90.02751912252755"
    }
  },
  {
    "service_request": "2022-920975",
    "request_type": "Roads/Drainage",
    "request_reason": "Accessibility Ramps, Curbs and Sidewalk Repair",
    "date_created": "2022-09-18T11:34:35.000",
    "date_modified": "2022-09-18T11:34:35.000",
    "request_status": "Pending",
    "responsible_agency": "Department of Public Works",
    "final_address": "4800 Canal St",
    "address_councildis": "A",
    "status": "Pending",
    "rowid": "920975",
    "final_x": "3668726.27777",
    "final_y": "540033.165771",
    "longitude": "-90.10811782560283",
    "latitude": "29.979285710546975",
    "geocoded_column": {
      "latitude": "29.979285710546975",
      "longitude": "-90.10811782560283"
    }
  },
  {
    "service_request": "2022-920973",
    "request_type": "Abandoned Vehicles",
    "request_reason": "Abandoned/Junk Vehicles",
    "date_created": "2022-09-18T11:22:53.000",
    "date_modified": "2022-09-18T11:22:53.000",
    "request_status": "Pending",
    "responsible_agency": "Department of Public Works",
    "final_address": "3155 N Villere St",
    "address_councildis": "C",
    "status": "Pending",
    "rowid": "920973",
    "final_x": "3689754.18921",
    "final_y": "537024.44884",
    "longitude": "-90.04181074015555",
    "latitude": "29.97037779852177",
    "geocoded_column": {
      "latitude": "29.97037779852177",
      "longitude": "-90.04181074015555"
    }
  },
  {
    "service_request": "2022-920972",
    "request_type": "Abandoned Vehicles",
    "request_reason": "Abandoned/Junk Vehicles",
    "date_created": "2022-09-18T11:18:23.000",
    "date_modified": "2022-09-18T11:18:23.000",
    "request_status": "Pending",
    "responsible_agency": "Department of Public Works",
    "final_address": "Columbus St & N Miro St, New Orleans, Louisiana, 70119",
    "address_councildis": "D",
    "status": "Pending",
    "rowid": "920972",
    "final_x": "3680047.6",
    "final_y": "538486.58",
    "longitude": "-90.07241440410503",
    "latitude": "29.974695416386204",
    "geocoded_column": {
      "latitude": "29.974695416386204",
      "longitude": "-90.07241440410503"
    }
  },
  {
    "service_request": "2022-920971",
    "request_type": "Trash/Recycling",
    "request_reason": "Missed Trash Pick-Up",
    "date_created": "2022-09-18T11:15:38.000",
    "date_modified": "2022-09-18T11:15:38.000",
    "request_status": "Pending",
    "responsible_agency": "Department of Sanitation",
    "final_address": "5727 Brighton Pl",
    "address_councildis": "C",
    "status": "Assigned to Contractor",
    "contractor": "Richards Disposal",
    "rowid": "920971",
    "final_x": "3704691.81732",
    "final_y": "520225.594232",
    "longitude": "-89.9952559567758",
    "latitude": "29.9237155174798",
    "geocoded_column": {
      "latitude": "29.9237155174798",
      "longitude": "-89.9952559567758"
    }
  },
  {
    "service_request": "2022-920970",
    "request_type": "Trash/Recycling",
    "request_reason": "Missed Trash Pick-Up",
    "date_created": "2022-09-18T11:15:10.000",
    "date_modified": "2022-09-18T11:15:11.000",
    "request_status": "Pending",
    "responsible_agency": "Department of Sanitation",
    "final_address": "4800 Cleveland Ave",
    "address_councildis": "A",
    "status": "Assigned to Contractor",
    "contractor": "Richards Disposal",
    "rowid": "920970",
    "final_x": "3668492.1874",
    "final_y": "539707.030474",
    "longitude": "-90.10886818476337",
    "latitude": "29.97839582905405",
    "geocoded_column": {
      "latitude": "29.97839582905405",
      "longitude": "-90.10886818476337"
    }
  },
  {
    "service_request": "2022-920968",
    "request_type": "Parks & Parkways",
    "request_reason": "Request Tree Service (Right of Way/Public Property)",
    "date_created": "2022-09-18T10:47:30.000",
    "date_modified": "2022-09-18T10:47:30.000",
    "request_status": "Pending",
    "responsible_agency": "Department of Parks & Parkway",
    "final_address": "2122 N Broad St",
    "address_councildis": "D",
    "status": "Pending",
    "rowid": "920968",
    "final_x": "3680936.86517",
    "final_y": "542441.314253",
    "longitude": "-90.06946812074908",
    "latitude": "29.98554262073168",
    "geocoded_column": {
      "latitude": "29.98554262073168",
      "longitude": "-90.06946812074908"
    }
  },
  {
    "service_request": "2022-920967",
    "request_type": "Property Maintenance",
    "request_reason": "Property Maintenance",
    "date_created": "2022-09-18T10:47:12.000",
    "date_modified": "2022-09-18T10:47:12.000",
    "request_status": "Pending",
    "responsible_agency": "Department of Code Enforcement",
    "final_address": "3216 Pine St",
    "address_councildis": "B",
    "status": "Pending",
    "rowid": "920967",
    "final_x": "3667987.29709",
    "final_y": "532804.06938",
    "longitude": "-90.11069545114728",
    "latitude": "29.9594298117696",
    "geocoded_column": {
      "latitude": "29.9594298117696",
      "longitude": "-90.11069545114728"
    }
  },
  {
    "service_request": "2022-920966",
    "request_type": "Traffic Signals/Signs/Striping/Streetlights",
    "request_reason": "Street Light Outage/Malfunction",
    "date_created": "2022-09-18T10:23:57.000",
    "date_modified": "2022-09-18T10:23:58.000",
    "request_status": "Pending",
    "responsible_agency": "Department of Public Works",
    "final_address": "5468 Patio Way",
    "address_councildis": "E",
    "status": "Pending",
    "contractor": "Legacy Professional Services",
    "rowid": "920966",
    "final_x": "3725681.01542",
    "final_y": "563869.018721",
    "longitude": "-89.92731124414881",
    "latitude": "30.04302729335529",
    "geocoded_column": {
      "latitude": "30.04302729335529",
      "longitude": "-89.92731124414881"
    }
  },
  {
    "service_request": "2022-920965",
    "request_type": "Trash/Recycling",
    "request_reason": "Missed Trash Pick-Up",
    "date_created": "2022-09-18T10:17:18.000",
    "date_modified": "2022-09-18T10:17:19.000",
    "request_status": "Pending",
    "responsible_agency": "Department of Sanitation",
    "final_address": "5118 Elysian Fields Ave",
    "address_councildis": "D",
    "status": "Assigned to Contractor",
    "contractor": "Metro Disposal",
    "rowid": "920965",
    "final_x": "3683663.5133",
    "final_y": "551696.309461",
    "longitude": "-90.06053104884565",
    "latitude": "30.010907566328843",
    "geocoded_column": {
      "latitude": "30.010907566328843",
      "longitude": "-90.06053104884565"
    }
  },
  {
    "service_request": "2022-920964",
    "request_type": "Parks & Parkways",
    "request_reason": "Request Grass Cutting Service (City Owned Property)",
    "date_created": "2022-09-18T10:16:43.000",
    "date_modified": "2022-09-18T10:16:43.000",
    "request_status": "Pending",
    "responsible_agency": "Department of Parks & Parkway",
    "final_address": "7130 Neptune Ct",
    "address_councildis": "E",
    "status": "Pending",
    "rowid": "920964",
    "final_x": "3701589.14839",
    "final_y": "559353.404765",
    "longitude": "-90.00361655732887",
    "latitude": "30.031401960282402",
    "geocoded_column": {
      "latitude": "30.031401960282402",
      "longitude": "-90.00361655732887"
    }
  },
  {
    "service_request": "2022-920963",
    "request_type": "Traffic Signals/Signs/Striping/Streetlights",
    "request_reason": "Street Light Outage/Malfunction",
    "date_created": "2022-09-18T10:15:07.000",
    "date_modified": "2022-09-18T10:15:08.000",
    "request_status": "Pending",
    "responsible_agency": "Department of Public Works",
    "final_address": "42 Eugenie Ct",
    "address_councildis": "C",
    "status": "Pending",
    "contractor": "Legacy Professional Services",
    "rowid": "920963",
    "final_x": "3700360.49104",
    "final_y": "511426.262704",
    "longitude": "-90.00924925214744",
    "latitude": "29.89965870863002",
    "geocoded_column": {
      "latitude": "29.89965870863002",
      "longitude": "-90.00924925214744"
    }
  },
  {
    "service_request": "2022-920962",
    "request_type": "Trash/Recycling",
    "request_reason": "Missed Trash Pick-Up",
    "date_created": "2022-09-18T10:13:39.000",
    "date_modified": "2022-09-18T10:13:40.000",
    "request_status": "Pending",
    "responsible_agency": "Department of Sanitation",
    "final_address": "5701 Pasteur Blvd",
    "address_councildis": "D",
    "status": "Assigned to Contractor",
    "contractor": "Metro Disposal",
    "rowid": "920962",
    "final_x": "3682944.50677",
    "final_y": "553846.695383",
    "longitude": "-90.0627273345483",
    "latitude": "30.016842285704186",
    "geocoded_column": {
      "latitude": "30.016842285704186",
      "longitude": "-90.0627273345483"
    }
  },
  {
    "service_request": "2022-920961",
    "request_type": "Property Maintenance",
    "request_reason": "Property Maintenance",
    "date_created": "2022-09-18T10:08:04.000",
    "date_modified": "2022-09-18T10:08:04.000",
    "request_status": "Pending",
    "responsible_agency": "Department of Code Enforcement",
    "final_address": "3430 Bloomingdale Ct",
    "address_councildis": "B",
    "status": "Pending",
    "rowid": "920961",
    "final_x": "3669090.13492",
    "final_y": "532858.735108",
    "longitude": "-90.10721109143792",
    "latitude": "29.95954772161994",
    "geocoded_column": {
      "latitude": "29.95954772161994",
      "longitude": "-90.10721109143792"
    }
  },
  {
    "service_request": "2022-920960",
    "request_type": "Trash/Recycling",
    "request_reason": "Missed Trash Pick-Up",
    "date_created": "2022-09-18T10:07:34.000",
    "date_modified": "2022-09-18T10:07:35.000",
    "request_status": "Pending",
    "responsible_agency": "Department of Sanitation",
    "final_address": "5316 Wickfield Dr",
    "address_councildis": "D",
    "status": "Assigned to Contractor",
    "contractor": "Metro Disposal",
    "rowid": "920960",
    "final_x": "3681087.29307",
    "final_y": "552512.96367",
    "longitude": "-90.06864186183476",
    "latitude": "30.01323150401495",
    "geocoded_column": {
      "latitude": "30.01323150401495",
      "longitude": "-90.06864186183476"
    }
  },
  {
    "service_request": "2022-920959",
    "request_type": "Property Maintenance",
    "request_reason": "Property Maintenance",
    "date_created": "2022-09-18T10:07:33.000",
    "date_modified": "2022-09-18T10:07:33.000",
    "request_status": "Pending",
    "responsible_agency": "Department of Code Enforcement",
    "final_address": "3424 Bloomingdale Ct",
    "address_councildis": "B",
    "status": "Pending",
    "rowid": "920959",
    "final_x": "3669078.23457",
    "final_y": "532824.342404",
    "longitude": "-90.10724983219579",
    "latitude": "29.959453503187383",
    "geocoded_column": {
      "latitude": "29.959453503187383",
      "longitude": "-90.10724983219579"
    }
  },
  {
    "service_request": "2022-920958",
    "request_type": "Property Maintenance",
    "request_reason": "Property Maintenance",
    "date_created": "2022-09-18T10:06:47.000",
    "date_modified": "2022-09-18T10:06:47.000",
    "request_status": "Pending",
    "responsible_agency": "Department of Code Enforcement",
    "final_address": "3420 Bloomingdale Ct",
    "address_councildis": "B",
    "status": "Pending",
    "rowid": "920958",
    "final_x": "3669070.17511",
    "final_y": "532794.836676",
    "longitude": "-90.10727627910407",
    "latitude": "29.959372609307362",
    "geocoded_column": {
      "latitude": "29.959372609307362",
      "longitude": "-90.10727627910407"
    }
  },
  {
    "service_request": "2022-920957",
    "request_type": "Trash/Recycling",
    "request_reason": "Missed Trash Pick-Up",
    "date_created": "2022-09-18T10:06:44.000",
    "date_modified": "2022-09-18T10:06:45.000",
    "request_status": "Pending",
    "responsible_agency": "Department of Sanitation",
    "final_address": "316 Wallace Dr",
    "address_councildis": "D",
    "status": "Assigned to Contractor",
    "contractor": "Metro Disposal",
    "rowid": "920957",
    "final_x": "3682108.10466",
    "final_y": "547926.005138",
    "longitude": "-90.06557698639085",
    "latitude": "30.000588001700553",
    "geocoded_column": {
      "latitude": "30.000588001700553",
      "longitude": "-90.06557698639085"
    }
  },
  {
    "service_request": "2022-920956",
    "request_type": "Property Maintenance",
    "request_reason": "Property Maintenance",
    "date_created": "2022-09-18T10:06:14.000",
    "date_modified": "2022-09-18T10:06:14.000",
    "request_status": "Pending",
    "responsible_agency": "Department of Code Enforcement",
    "final_address": "3416 Bloomingdale Ct",
    "address_councildis": "B",
    "status": "Pending",
    "rowid": "920956",
    "final_x": "3669055.57889",
    "final_y": "532768.37562",
    "longitude": "-90.10732326468114",
    "latitude": "29.959300279579598",
    "geocoded_column": {
      "latitude": "29.959300279579598",
      "longitude": "-90.10732326468114"
    }
  },
  {
    "service_request": "2022-920955",
    "request_type": "Property Maintenance",
    "request_reason": "Property Maintenance",
    "date_created": "2022-09-18T10:05:35.000",
    "date_modified": "2022-09-18T10:05:35.000",
    "request_status": "Pending",
    "responsible_agency": "Department of Code Enforcement",
    "final_address": "3412 Bloomingdale Ct",
    "address_councildis": "B",
    "status": "Pending",
    "rowid": "920955",
    "final_x": "3669049.40929",
    "final_y": "532746.524228",
    "longitude": "-90.10734348513866",
    "latitude": "29.95924037697966",
    "geocoded_column": {
      "latitude": "29.95924037697966",
      "longitude": "-90.10734348513866"
    }
  },
  {
    "service_request": "2022-920954",
    "request_type": "Property Maintenance",
    "request_reason": "Property Maintenance",
    "date_created": "2022-09-18T10:04:59.000",
    "date_modified": "2022-09-18T10:04:59.000",
    "request_status": "Pending",
    "responsible_agency": "Department of Code Enforcement",
    "final_address": "3412 Bloomingdale Ct",
    "address_councildis": "B",
    "status": "Pending",
    "rowid": "920954",
    "final_x": "3669049.40929",
    "final_y": "532746.524228",
    "longitude": "-90.10734348513866",
    "latitude": "29.95924037697966",
    "geocoded_column": {
      "latitude": "29.95924037697966",
      "longitude": "-90.10734348513866"
    }
  },
  {
    "service_request": "2022-920953",
    "request_type": "Property Maintenance",
    "request_reason": "Property Maintenance",
    "date_created": "2022-09-18T10:04:21.000",
    "date_modified": "2022-09-18T10:04:21.000",
    "request_status": "Pending",
    "responsible_agency": "Department of Code Enforcement",
    "final_address": "3408 Bloomingdale Ct",
    "address_councildis": "B",
    "status": "Pending",
    "rowid": "920953",
    "final_x": "3669041.51297",
    "final_y": "532715.457028",
    "longitude": "-90.10736946951204",
    "latitude": "29.95915518474659",
    "geocoded_column": {
      "latitude": "29.95915518474659",
      "longitude": "-90.10736946951204"
    }
  },
  {
    "service_request": "2022-920952",
    "request_type": "Property Maintenance",
    "request_reason": "Property Maintenance",
    "date_created": "2022-09-18T10:03:53.000",
    "date_modified": "2022-09-18T10:03:53.000",
    "request_status": "Pending",
    "responsible_agency": "Department of Code Enforcement",
    "final_address": "3255 Bloomingdale Ct",
    "address_councildis": "B",
    "status": "Pending",
    "rowid": "920952",
    "final_x": "3668926.22746",
    "final_y": "532398.367811",
    "longitude": "-90.10774422390162",
    "latitude": "29.95828668515033",
    "geocoded_column": {
      "latitude": "29.95828668515033",
      "longitude": "-90.10774422390162"
    }
  },
  {
    "service_request": "2022-920951",
    "request_type": "Trash/Recycling",
    "request_reason": "Request a Large Item Pick Up",
    "date_created": "2022-09-18T10:03:49.000",
    "date_modified": "2022-09-18T10:03:49.000",
    "request_status": "Pending",
    "responsible_agency": "Department of Sanitation",
    "final_address": "2930 Grand Route St John St",
    "address_councildis": "A",
    "status": "Assigned to Contractor",
    "contractor": "Metro Disposal",
    "rowid": "920951",
    "final_x": "3677427.76149",
    "final_y": "540247.894091",
    "longitude": "-90.08062769237112",
    "latitude": "29.979617435064785",
    "geocoded_column": {
      "latitude": "29.979617435064785",
      "longitude": "-90.08062769237112"
    }
  },
  {
    "service_request": "2022-920950",
    "request_type": "Property Maintenance",
    "request_reason": "Property Maintenance",
    "date_created": "2022-09-18T10:03:22.000",
    "date_modified": "2022-09-18T10:03:22.000",
    "request_status": "Pending",
    "responsible_agency": "Department of Code Enforcement",
    "final_address": "3251 Bloomingdale Ct",
    "address_councildis": "B",
    "status": "Pending",
    "rowid": "920950",
    "final_x": "3668918.96711",
    "final_y": "532369.281283",
    "longitude": "-90.10776813256372",
    "latitude": "29.958206920317934",
    "geocoded_column": {
      "latitude": "29.958206920317934",
      "longitude": "-90.10776813256372"
    }
  },
  {
    "service_request": "2022-920949",
    "request_type": "Property Maintenance",
    "request_reason": "Property Maintenance",
    "date_created": "2022-09-18T10:02:48.000",
    "date_modified": "2022-09-18T10:02:48.000",
    "request_status": "Pending",
    "responsible_agency": "Department of Code Enforcement",
    "final_address": "3422 Lowerline St",
    "address_councildis": "B",
    "status": "Pending",
    "rowid": "920949",
    "final_x": "3668186.22637",
    "final_y": "533602.063173",
    "longitude": "-90.11004037519686",
    "latitude": "29.96161819331945",
    "geocoded_column": {
      "latitude": "29.96161819331945",
      "longitude": "-90.11004037519686"
    }
  },
  {
    "service_request": "2022-920947",
    "request_type": "Property Maintenance",
    "request_reason": "Property Maintenance",
    "date_created": "2022-09-18T10:02:14.000",
    "date_modified": "2022-09-18T10:02:14.000",
    "request_status": "Pending",
    "responsible_agency": "Department of Code Enforcement",
    "final_address": "3336 Fern St",
    "address_councildis": "B",
    "status": "Pending",
    "rowid": "920947",
    "final_x": "3667759.66145",
    "final_y": "533640.141317",
    "longitude": "-90.11138611853536",
    "latitude": "29.9617354106716",
    "geocoded_column": {
      "latitude": "29.9617354106716",
      "longitude": "-90.11138611853536"
    }
  },
  {
    "service_request": "2022-920946",
    "request_type": "Property Maintenance",
    "request_reason": "Property Maintenance",
    "date_created": "2022-09-18T10:01:40.000",
    "date_modified": "2022-09-18T10:01:40.000",
    "request_status": "Pending",
    "responsible_agency": "Department of Code Enforcement",
    "final_address": "3335 Fern St",
    "address_councildis": "B",
    "status": "Pending",
    "rowid": "920946",
    "final_x": "3667802.92493",
    "final_y": "533583.999685",
    "longitude": "-90.11125138986337",
    "latitude": "29.96157977103676",
    "geocoded_column": {
      "latitude": "29.96157977103676",
      "longitude": "-90.11125138986337"
    }
  },
  {
    "service_request": "2022-920945",
    "request_type": "Property Maintenance",
    "request_reason": "Property Maintenance",
    "date_created": "2022-09-18T10:00:26.000",
    "date_modified": "2022-09-18T10:00:26.000",
    "request_status": "Pending",
    "responsible_agency": "Department of Code Enforcement",
    "final_address": "3321 Fern St",
    "address_councildis": "B",
    "status": "Pending",
    "rowid": "920945",
    "final_x": "3667717.63969",
    "final_y": "533493.096836",
    "longitude": "-90.11152376816294",
    "latitude": "29.961332319020162",
    "geocoded_column": {
      "latitude": "29.961332319020162",
      "longitude": "-90.11152376816294"
    }
  },
  {
    "service_request": "2022-920944",
    "request_type": "Property Maintenance",
    "request_reason": "Property Maintenance",
    "date_created": "2022-09-18T09:59:48.000",
    "date_modified": "2022-09-18T09:59:48.000",
    "request_status": "Pending",
    "responsible_agency": "Department of Code Enforcement",
    "final_address": "7708 Forshey St",
    "address_councildis": "B",
    "status": "Pending",
    "rowid": "920944",
    "final_x": "3668027.66119",
    "final_y": "532946.179076",
    "longitude": "-90.11056320162817",
    "latitude": "29.959819382270172",
    "geocoded_column": {
      "latitude": "29.959819382270172",
      "longitude": "-90.11056320162817"
    }
  },
  {
    "service_request": "2022-920943",
    "request_type": "Property Maintenance",
    "request_reason": "Property Maintenance",
    "date_created": "2022-09-18T09:59:13.000",
    "date_modified": "2022-09-18T09:59:13.000",
    "request_status": "Pending",
    "responsible_agency": "Department of Code Enforcement",
    "final_address": "2922 Audubon St",
    "address_councildis": "B",
    "status": "Pending",
    "rowid": "920943",
    "final_x": "3667795.79617",
    "final_y": "531552.858819",
    "longitude": "-90.11134230410654",
    "latitude": "29.955995011113593",
    "geocoded_column": {
      "latitude": "29.955995011113593",
      "longitude": "-90.11134230410654"
    }
  },
  {
    "service_request": "2022-920942",
    "request_type": "Property Maintenance",
    "request_reason": "Property Maintenance",
    "date_created": "2022-09-18T09:58:40.000",
    "date_modified": "2022-09-18T09:58:40.000",
    "request_status": "Pending",
    "responsible_agency": "Department of Code Enforcement",
    "final_address": "3116 Broadway St",
    "address_councildis": "B",
    "status": "Pending",
    "rowid": "920942",
    "final_x": "3667986.31117",
    "final_y": "532300.228611",
    "longitude": "-90.1107155406446",
    "latitude": "29.95804444445073",
    "geocoded_column": {
      "latitude": "29.95804444445073",
      "longitude": "-90.1107155406446"
    }
  },
  {
    "service_request": "2022-920941",
    "request_type": "Property Maintenance",
    "request_reason": "Property Maintenance",
    "date_created": "2022-09-18T09:58:06.000",
    "date_modified": "2022-09-18T09:58:06.000",
    "request_status": "Pending",
    "responsible_agency": "Department of Code Enforcement",
    "final_address": "7109 Fig St",
    "address_councildis": "B",
    "status": "Pending",
    "rowid": "920941",
    "final_x": "3667874.21466",
    "final_y": "531758.298819",
    "longitude": "-90.11108776502056",
    "latitude": "29.956557603914163",
    "geocoded_column": {
      "latitude": "29.956557603914163",
      "longitude": "-90.11108776502056"
    }
  },
  {
    "service_request": "2022-920940",
    "request_type": "Property Maintenance",
    "request_reason": "Property Maintenance",
    "date_created": "2022-09-18T09:56:44.000",
    "date_modified": "2022-09-18T09:56:44.000",
    "request_status": "Pending",
    "responsible_agency": "Department of Code Enforcement",
    "final_address": "7907 Olive St",
    "address_councildis": "B",
    "status": "Pending",
    "rowid": "920940",
    "final_x": "3667777.24749",
    "final_y": "533742.290885",
    "longitude": "-90.11132714435288",
    "latitude": "29.96201577256159",
    "geocoded_column": {
      "latitude": "29.96201577256159",
      "longitude": "-90.11132714435288"
    }
  },
  {
    "service_request": "2022-920939",
    "request_type": "Property Maintenance",
    "request_reason": "Property Maintenance",
    "date_created": "2022-09-18T09:55:43.000",
    "date_modified": "2022-09-18T09:55:43.000",
    "request_status": "Pending",
    "responsible_agency": "Department of Code Enforcement",
    "final_address": "7818 Olive St",
    "address_councildis": "B",
    "status": "Pending",
    "rowid": "920939",
    "final_x": "3667958.17524",
    "final_y": "533475.222468",
    "longitude": "-90.1107647987778",
    "latitude": "29.961276115796963",
    "geocoded_column": {
      "latitude": "29.961276115796963",
      "longitude": "-90.1107647987778"
    }
  },
  {
    "service_request": "2022-920938",
    "request_type": "Property Maintenance",
    "request_reason": "Property Maintenance",
    "date_created": "2022-09-18T09:55:05.000",
    "date_modified": "2022-09-18T09:55:05.000",
    "request_status": "Pending",
    "responsible_agency": "Department of Code Enforcement",
    "final_address": "7809 Olive St",
    "address_councildis": "B",
    "status": "Pending",
    "rowid": "920938",
    "final_x": "3668045.46343",
    "final_y": "533495.036228",
    "longitude": "-90.11048848949022",
    "latitude": "29.961328035954903",
    "geocoded_column": {
      "latitude": "29.961328035954903",
      "longitude": "-90.11048848949022"
    }
  },
  {
    "service_request": "2022-920937",
    "request_type": "Property Maintenance",
    "request_reason": "Property Maintenance",
    "date_created": "2022-09-18T09:54:30.000",
    "date_modified": "2022-09-18T09:54:30.000",
    "request_status": "Pending",
    "responsible_agency": "Department of Code Enforcement",
    "final_address": "3305 Audubon Ct",
    "address_councildis": "B",
    "status": "Pending",
    "rowid": "920937",
    "final_x": "3668791.39124",
    "final_y": "532438.934724",
    "longitude": "-90.10816863168708",
    "latitude": "29.95840219567973",
    "geocoded_column": {
      "latitude": "29.95840219567973",
      "longitude": "-90.10816863168708"
    }
  },
  {
    "service_request": "2022-920936",
    "request_type": "Property Maintenance",
    "request_reason": "Property Maintenance",
    "date_created": "2022-09-18T09:53:56.000",
    "date_modified": "2022-09-18T09:53:56.000",
    "request_status": "Pending",
    "responsible_agency": "Department of Code Enforcement",
    "final_address": "3301 Audubon Ct",
    "address_councildis": "B",
    "status": "Pending",
    "rowid": "920936",
    "final_x": "3668777.48212",
    "final_y": "532409.598787",
    "longitude": "-90.10821354353968",
    "latitude": "29.958321940448542",
    "geocoded_column": {
      "latitude": "29.958321940448542",
      "longitude": "-90.10821354353968"
    }
  },
  {
    "service_request": "2022-920935",
    "request_type": "Property Maintenance",
    "request_reason": "Property Maintenance",
    "date_created": "2022-09-18T09:53:07.000",
    "date_modified": "2022-09-18T09:53:07.000",
    "request_status": "Pending",
    "responsible_agency": "Department of Code Enforcement",
    "final_address": "7728 Forshey St",
    "address_councildis": "B",
    "status": "Pending",
    "rowid": "920935",
    "final_x": "3667928.68788",
    "final_y": "533037.430084",
    "longitude": "-90.11087266410584",
    "latitude": "29.96007319623772",
    "geocoded_column": {
      "latitude": "29.96007319623772",
      "longitude": "-90.11087266410584"
    }
  },
  {
    "service_request": "2022-920934",
    "request_type": "Trash/Recycling",
    "request_reason": "Missed Trash Pick-Up",
    "date_created": "2022-09-18T09:52:44.000",
    "date_modified": "2022-09-18T09:52:45.000",
    "request_status": "Pending",
    "responsible_agency": "Department of Sanitation",
    "final_address": "1811 Louisa St",
    "address_councildis": "D",
    "status": "Assigned to Contractor",
    "contractor": "Metro Disposal",
    "rowid": "920934",
    "final_x": "3690282.8655",
    "final_y": "538608.570697",
    "longitude": "-90.04008466328578",
    "latitude": "29.974717178602628",
    "geocoded_column": {
      "latitude": "29.974717178602628",
      "longitude": "-90.04008466328578"
    }
  },
  {
    "service_request": "2022-920933",
    "request_type": "Property Maintenance",
    "request_reason": "Property Maintenance",
    "date_created": "2022-09-18T09:50:30.000",
    "date_modified": "2022-09-18T09:50:30.000",
    "request_status": "Pending",
    "responsible_agency": "Department of Code Enforcement",
    "final_address": "3214 Burdette St",
    "address_councildis": "B",
    "status": "Pending",
    "rowid": "920933",
    "final_x": "3667670.82586",
    "final_y": "533029.07098",
    "longitude": "-90.1116872210859",
    "latitude": "29.960057773393782",
    "geocoded_column": {
      "latitude": "29.960057773393782",
      "longitude": "-90.1116872210859"
    }
  },
  {
    "service_request": "2022-920932",
    "request_type": "Property Maintenance",
    "request_reason": "Property Maintenance",
    "date_created": "2022-09-18T09:49:55.000",
    "date_modified": "2022-09-18T09:49:55.000",
    "request_status": "Pending",
    "responsible_agency": "Department of Code Enforcement",
    "final_address": "3210 Burdette St",
    "address_councildis": "B",
    "status": "Pending",
    "rowid": "920932",
    "final_x": "3667656.30042",
    "final_y": "533012.729092",
    "longitude": "-90.11173363961083",
    "latitude": "29.96001326440163",
    "geocoded_column": {
      "latitude": "29.96001326440163",
      "longitude": "-90.11173363961083"
    }
  },
  {
    "service_request": "2022-920931",
    "request_type": "Property Maintenance",
    "request_reason": "Property Maintenance",
    "date_created": "2022-09-18T09:49:19.000",
    "date_modified": "2022-09-18T09:49:19.000",
    "request_status": "Pending",
    "responsible_agency": "Department of Code Enforcement",
    "final_address": "3208 Burdette St",
    "address_councildis": "B",
    "status": "Pending",
    "rowid": "920931",
    "final_x": "3667639.9586",
    "final_y": "532995.9337",
    "longitude": "-90.11178580911205",
    "latitude": "29.95996756165057",
    "geocoded_column": {
      "latitude": "29.95996756165057",
      "longitude": "-90.11178580911205"
    }
  },
  {
    "service_request": "2022-920930",
    "request_type": "Property Maintenance",
    "request_reason": "Property Maintenance",
    "date_created": "2022-09-18T09:47:33.000",
    "date_modified": "2022-09-18T09:47:33.000",
    "request_status": "Pending",
    "responsible_agency": "Department of Code Enforcement",
    "final_address": "3205 Lowerline St",
    "address_councildis": "B",
    "status": "Pending",
    "rowid": "920930",
    "final_x": "3667763.83137",
    "final_y": "532844.994436",
    "longitude": "-90.11139972750864",
    "latitude": "29.959548896686748",
    "geocoded_column": {
      "latitude": "29.959548896686748",
      "longitude": "-90.11139972750864"
    }
  },
  {
    "service_request": "2022-920929",
    "request_type": "Property Maintenance",
    "request_reason": "Property Maintenance",
    "date_created": "2022-09-18T09:46:52.000",
    "date_modified": "2022-09-18T09:46:52.000",
    "request_status": "Pending",
    "responsible_agency": "Department of Code Enforcement",
    "final_address": "7709 Olive St",
    "address_councildis": "B",
    "status": "Pending",
    "rowid": "920929",
    "final_x": "3668272.8953",
    "final_y": "533281.274372",
    "longitude": "-90.1097775052841",
    "latitude": "29.960733585627203",
    "geocoded_column": {
      "latitude": "29.960733585627203",
      "longitude": "-90.1097775052841"
    }
  },
  {
    "service_request": "2022-920928",
    "request_type": "Property Maintenance",
    "request_reason": "Property Maintenance",
    "date_created": "2022-09-18T09:46:15.000",
    "date_modified": "2022-09-18T09:46:15.000",
    "request_status": "Pending",
    "responsible_agency": "Department of Code Enforcement",
    "final_address": "3230 Pine St",
    "address_councildis": "B",
    "status": "Pending",
    "rowid": "920928",
    "final_x": "3668063.22503",
    "final_y": "532888.151748",
    "longitude": "-90.11045285416333",
    "latitude": "29.95965878265978",
    "geocoded_column": {
      "latitude": "29.95965878265978",
      "longitude": "-90.11045285416333"
    }
  },
  {
    "service_request": "2022-920927",
    "request_type": "Property Maintenance",
    "request_reason": "Property Maintenance",
    "date_created": "2022-09-18T09:45:09.000",
    "date_modified": "2022-09-18T09:45:09.000",
    "request_status": "Pending",
    "responsible_agency": "Department of Code Enforcement",
    "final_address": "3218 Pine St",
    "address_councildis": "B",
    "status": "Pending",
    "rowid": "920927",
    "final_x": "3667996.71681",
    "final_y": "532815.437444",
    "longitude": "-90.11066532274532",
    "latitude": "29.959460793826242",
    "geocoded_column": {
      "latitude": "29.959460793826242",
      "longitude": "-90.11066532274532"
    }
  },
  {
    "service_request": "2022-920926",
    "request_type": "Property Maintenance",
    "request_reason": "Property Maintenance",
    "date_created": "2022-09-18T09:44:38.000",
    "date_modified": "2022-09-18T09:44:38.000",
    "request_status": "Pending",
    "responsible_agency": "Department of Code Enforcement",
    "final_address": "3214 Pine St",
    "address_councildis": "B",
    "status": "Pending",
    "rowid": "920926",
    "final_x": "3667977.87828",
    "final_y": "532789.453252",
    "longitude": "-90.11072568609484",
    "latitude": "29.959389898573306",
    "geocoded_column": {
      "latitude": "29.959389898573306",
      "longitude": "-90.11072568609484"
    }
  },
  {
    "service_request": "2022-920925",
    "request_type": "Property Maintenance",
    "request_reason": "Property Maintenance",
    "date_created": "2022-09-18T09:43:55.000",
    "date_modified": "2022-09-18T09:43:55.000",
    "request_status": "Pending",
    "responsible_agency": "Department of Code Enforcement",
    "final_address": "3200 Pine St",
    "address_councildis": "B",
    "status": "Pending",
    "rowid": "920925",
    "final_x": "3667926.55943",
    "final_y": "532711.825028",
    "longitude": "-90.11089035460758",
    "latitude": "29.95917795206067",
    "geocoded_column": {
      "latitude": "29.95917795206067",
      "longitude": "-90.11089035460758"
    }
  },
  {
    "service_request": "2022-920924",
    "request_type": "Property Maintenance",
    "request_reason": "Property Maintenance",
    "date_created": "2022-09-18T09:43:11.000",
    "date_modified": "2022-09-18T09:43:11.000",
    "request_status": "Pending",
    "responsible_agency": "Department of Code Enforcement",
    "final_address": "3335 Audubon Ct",
    "address_councildis": "B",
    "status": "Pending",
    "rowid": "920924",
    "final_x": "3668878.28372",
    "final_y": "532625.536644",
    "longitude": "-90.10788794593125",
    "latitude": "29.958912734458693",
    "geocoded_column": {
      "latitude": "29.958912734458693",
      "longitude": "-90.10788794593125"
    }
  },
  {
    "service_request": "2022-920923",
    "request_type": "Property Maintenance",
    "request_reason": "Property Maintenance",
    "date_created": "2022-09-18T09:42:38.000",
    "date_modified": "2022-09-18T09:42:38.000",
    "request_status": "Pending",
    "responsible_agency": "Department of Code Enforcement",
    "final_address": "1828 Wagner St",
    "address_councildis": "C",
    "status": "Pending",
    "rowid": "920923",
    "final_x": "3690368.18454",
    "final_y": "524078.428156",
    "longitude": "-90.04033303896034",
    "latitude": "29.93476167107427",
    "geocoded_column": {
      "latitude": "29.93476167107427",
      "longitude": "-90.04033303896034"
    }
  },
  {
    "service_request": "2022-920922",
    "request_type": "Property Maintenance",
    "request_reason": "Property Maintenance",
    "date_created": "2022-09-18T09:42:29.000",
    "date_modified": "2022-09-18T09:42:29.000",
    "request_status": "Pending",
    "responsible_agency": "Department of Code Enforcement",
    "final_address": "3425 Audubon Ct",
    "address_councildis": "B",
    "status": "Pending",
    "rowid": "920922",
    "final_x": "3668978.04154",
    "final_y": "532849.191044",
    "longitude": "-90.10756537982314",
    "latitude": "29.959524776261475",
    "geocoded_column": {
      "latitude": "29.959524776261475",
      "longitude": "-90.10756537982314"
    }
  },
  {
    "service_request": "2022-920921",
    "request_type": "Property Maintenance",
    "request_reason": "Property Maintenance",
    "date_created": "2022-09-18T09:41:43.000",
    "date_modified": "2022-09-18T09:41:43.000",
    "request_status": "Pending",
    "responsible_agency": "Department of Code Enforcement",
    "final_address": "7113 Edinburgh St",
    "address_councildis": "B",
    "status": "Pending",
    "rowid": "920921",
    "final_x": "3668889.07758",
    "final_y": "533196.043524",
    "longitude": "-90.10783459394086",
    "latitude": "29.960481122515105",
    "geocoded_column": {
      "latitude": "29.960481122515105",
      "longitude": "-90.10783459394086"
    }
  },
  {
    "service_request": "2022-920920",
    "request_type": "Property Maintenance",
    "request_reason": "Property Maintenance",
    "date_created": "2022-09-18T09:40:53.000",
    "date_modified": "2022-09-18T09:40:53.000",
    "request_status": "Pending",
    "responsible_agency": "Department of Code Enforcement",
    "final_address": "3415 Pine St",
    "address_councildis": "B",
    "status": "Pending",
    "rowid": "920920",
    "final_x": "3668430.81742",
    "final_y": "533287.81754",
    "longitude": "-90.10927859559392",
    "latitude": "29.960746939391893",
    "geocoded_column": {
      "latitude": "29.960746939391893",
      "longitude": "-90.10927859559392"
    }
  },
  {
    "service_request": "2022-920919",
    "request_type": "Property Maintenance",
    "request_reason": "Property Maintenance",
    "date_created": "2022-09-18T09:40:17.000",
    "date_modified": "2022-09-18T09:40:17.000",
    "request_status": "Pending",
    "responsible_agency": "Department of Code Enforcement",
    "final_address": "3417 Pine St",
    "address_councildis": "B",
    "status": "Pending",
    "rowid": "920919",
    "final_x": "3668443.03233",
    "final_y": "533307.448836",
    "longitude": "-90.10923936089772",
    "latitude": "29.960800560169574",
    "geocoded_column": {
      "latitude": "29.960800560169574",
      "longitude": "-90.10923936089772"
    }
  },
  {
    "service_request": "2022-920918",
    "request_type": "Trash/Recycling",
    "request_reason": "Missed Trash Pick-Up",
    "date_created": "2022-09-18T09:39:32.000",
    "date_modified": "2022-09-18T09:39:33.000",
    "request_status": "Pending",
    "responsible_agency": "Department of Sanitation",
    "final_address": "4342 Genoa St",
    "address_councildis": "E",
    "status": "Assigned to Contractor",
    "contractor": "Metro Disposal",
    "rowid": "920918",
    "final_x": "3761023.01449",
    "final_y": "573632.229994",
    "longitude": "-89.81521020552164",
    "latitude": "30.06863190042958",
    "geocoded_column": {
      "latitude": "30.06863190042958",
      "longitude": "-89.81521020552164"
    }
  },
  {
    "service_request": "2022-920917",
    "request_type": "Property Maintenance",
    "request_reason": "Property Maintenance",
    "date_created": "2022-09-18T09:39:30.000",
    "date_modified": "2022-09-18T09:39:30.000",
    "request_status": "Pending",
    "responsible_agency": "Department of Code Enforcement",
    "final_address": "7011 Olive St",
    "address_councildis": "B",
    "status": "Pending",
    "rowid": "920917",
    "final_x": "3668815.52782",
    "final_y": "532787.835652",
    "longitude": "-90.1080806336793",
    "latitude": "29.959360848474507",
    "geocoded_column": {
      "latitude": "29.959360848474507",
      "longitude": "-90.1080806336793"
    }
  },
  {
    "service_request": "2022-920916",
    "request_type": "Property Maintenance",
    "request_reason": "Property Maintenance",
    "date_created": "2022-09-18T09:36:56.000",
    "date_modified": "2022-09-18T09:36:56.000",
    "request_status": "Pending",
    "responsible_agency": "Department of Code Enforcement",
    "final_address": "4716 Clio St",
    "address_councildis": "B",
    "status": "Pending",
    "rowid": "920916",
    "final_x": "3669573.16852",
    "final_y": "532701.238724",
    "longitude": "-90.10569110736881",
    "latitude": "29.959100437438412",
    "geocoded_column": {
      "latitude": "29.959100437438412",
      "longitude": "-90.10569110736881"
    }
  },
  {
    "service_request": "2022-920915",
    "request_type": "Property Maintenance",
    "request_reason": "Property Maintenance",
    "date_created": "2022-09-18T09:36:18.000",
    "date_modified": "2022-09-18T09:36:18.000",
    "request_status": "Pending",
    "responsible_agency": "Department of Code Enforcement",
    "final_address": "1300 S Telemachus St",
    "address_councildis": "B",
    "status": "Pending",
    "rowid": "920915",
    "final_x": "3669141.90222",
    "final_y": "532523.988996",
    "longitude": "-90.10705893434609",
    "latitude": "29.958625757113207",
    "geocoded_column": {
      "latitude": "29.958625757113207",
      "longitude": "-90.10705893434609"
    }
  },
  {
    "service_request": "2022-920914",
    "request_type": "Property Maintenance",
    "request_reason": "Property Maintenance",
    "date_created": "2022-09-18T09:35:12.000",
    "date_modified": "2022-09-18T09:35:12.000",
    "request_status": "Pending",
    "responsible_agency": "Department of Code Enforcement",
    "final_address": "1204 S Telemachus St",
    "address_councildis": "B",
    "status": "Pending",
    "rowid": "920914",
    "final_x": "3669266.70292",
    "final_y": "532838.963204",
    "longitude": "-90.1066541973803",
    "latitude": "29.959488159050576",
    "geocoded_column": {
      "latitude": "29.959488159050576",
      "longitude": "-90.1066541973803"
    }
  },
  {
    "service_request": "2022-920913",
    "request_type": "Property Maintenance",
    "request_reason": "Property Maintenance",
    "date_created": "2022-09-18T09:34:11.000",
    "date_modified": "2022-09-18T09:34:11.000",
    "request_status": "Pending",
    "responsible_agency": "Department of Code Enforcement",
    "final_address": "1204 S Telemachus St",
    "address_councildis": "B",
    "status": "Pending",
    "rowid": "920913",
    "final_x": "3669266.70292",
    "final_y": "532838.963204",
    "longitude": "-90.1066541973803",
    "latitude": "29.959488159050576",
    "geocoded_column": {
      "latitude": "29.959488159050576",
      "longitude": "-90.1066541973803"
    }
  },
  {
    "service_request": "2022-920912",
    "request_type": "Property Maintenance",
    "request_reason": "Property Maintenance",
    "date_created": "2022-09-18T09:32:55.000",
    "date_modified": "2022-09-18T09:32:55.000",
    "request_status": "Pending",
    "responsible_agency": "Department of Code Enforcement",
    "final_address": "1225 S Telemachus St",
    "address_councildis": "B",
    "status": "Pending",
    "rowid": "920912",
    "final_x": "3669129.42695",
    "final_y": "532733.040132",
    "longitude": "-90.10709126361354",
    "latitude": "29.95920094580923",
    "geocoded_column": {
      "latitude": "29.95920094580923",
      "longitude": "-90.10709126361354"
    }
  },
  {
    "service_request": "2022-920911",
    "request_type": "Property Maintenance",
    "request_reason": "Property Maintenance",
    "date_created": "2022-09-18T09:28:53.000",
    "date_modified": "2022-09-18T09:28:53.000",
    "request_status": "Pending",
    "responsible_agency": "Department of Code Enforcement",
    "final_address": "4828 Thalia St",
    "address_councildis": "B",
    "status": "Pending",
    "rowid": "920911",
    "final_x": "3669000.28314",
    "final_y": "532149.146499",
    "longitude": "-90.10751879448752",
    "latitude": "29.95759923050415",
    "geocoded_column": {
      "latitude": "29.95759923050415",
      "longitude": "-90.10751879448752"
    }
  },
  {
    "service_request": "2022-920910",
    "request_type": "Abandoned Vehicles",
    "request_reason": "Abandoned/Junk Vehicles",
    "date_created": "2022-09-18T09:16:24.000",
    "date_modified": "2022-09-18T09:16:24.000",
    "request_status": "Pending",
    "responsible_agency": "Department of Public Works",
    "final_address": "931 Dauphine St",
    "address_councildis": "C",
    "status": "Pending",
    "rowid": "920910",
    "final_x": "3682559.00943",
    "final_y": "533700.370309",
    "longitude": "-90.06465012527642",
    "latitude": "29.96145876085319",
    "geocoded_column": {
      "latitude": "29.96145876085319",
      "longitude": "-90.06465012527642"
    }
  },
  {
    "service_request": "2022-920909",
    "request_type": "Trash/Recycling",
    "request_reason": "Missed Trash Pick-Up",
    "date_created": "2022-09-18T08:49:38.000",
    "date_modified": "2022-09-18T08:49:38.000",
    "request_status": "Pending",
    "responsible_agency": "Department of Sanitation",
    "final_address": "5165 Wildair Dr",
    "address_councildis": "D",
    "status": "Assigned to Contractor",
    "contractor": "Metro Disposal",
    "rowid": "920909",
    "final_x": "3681728.44501",
    "final_y": "551555.619349",
    "longitude": "-90.06664960137984",
    "latitude": "30.01057968037623",
    "geocoded_column": {
      "latitude": "30.01057968037623",
      "longitude": "-90.06664960137984"
    }
  },
  {
    "service_request": "2022-920908",
    "request_type": "Trash/Recycling",
    "request_reason": "Missed Trash Pick-Up",
    "date_created": "2022-09-18T08:49:23.000",
    "date_modified": "2022-09-18T08:49:23.000",
    "request_status": "Pending",
    "responsible_agency": "Department of Sanitation",
    "final_address": "6014 Vermillion Blvd, New Orleans, Louisiana, 70122",
    "address_councildis": "D",
    "status": "Assigned to Contractor",
    "contractor": "Metro Disposal",
    "rowid": "920908",
    "final_x": "3682985.34498",
    "final_y": "554932.352664",
    "longitude": "-90.06256026077457",
    "latitude": "30.019826200564356",
    "geocoded_column": {
      "latitude": "30.019826200564356",
      "longitude": "-90.06256026077457"
    }
  },
  {
    "service_request": "2022-920907",
    "request_type": "Trash/Recycling",
    "request_reason": "Request a Large Item Pick Up",
    "date_created": "2022-09-18T08:45:53.000",
    "date_modified": "2022-09-18T08:45:54.000",
    "request_status": "Pending",
    "responsible_agency": "Department of Sanitation",
    "final_address": "600 Aurora Dr",
    "address_councildis": "C",
    "status": "Assigned to Contractor",
    "contractor": "Richards Disposal",
    "rowid": "920907",
    "final_x": "3706854.63038",
    "final_y": "519307.626551",
    "longitude": "-89.98846281514332",
    "latitude": "29.9211218018844",
    "geocoded_column": {
      "latitude": "29.9211218018844",
      "longitude": "-89.98846281514332"
    }
  },
  {
    "service_request": "2022-920906",
    "request_type": "Roads/Drainage",
    "request_reason": "Pothole",
    "date_created": "2022-09-18T08:40:30.000",
    "date_modified": "2022-09-18T08:40:31.000",
    "request_status": "Pending",
    "responsible_agency": "Department of Public Works",
    "final_address": "3600 BLK Indiana St",
    "address_councildis": "C",
    "status": "Pending",
    "rowid": "920906",
    "final_x": "3693352.95381",
    "final_y": "519984.66848",
    "longitude": "-90.03105709455711",
    "latitude": "29.923412271937643",
    "geocoded_column": {
      "latitude": "29.923412271937643",
      "longitude": "-90.03105709455711"
    }
  },
  {
    "service_request": "2022-920905",
    "request_type": "Trash/Recycling",
    "request_reason": "Missed Trash Pick-Up",
    "date_created": "2022-09-18T08:38:00.000",
    "date_modified": "2022-09-18T08:38:01.000",
    "request_status": "Pending",
    "responsible_agency": "Department of Sanitation",
    "final_address": "4619 Iberville St",
    "address_councildis": "A",
    "status": "Assigned to Contractor",
    "contractor": "Richards Disposal",
    "rowid": "920905",
    "final_x": "3669557.37274",
    "final_y": "540164.609483",
    "longitude": "-90.10548844501554",
    "latitude": "29.97962267478204",
    "geocoded_column": {
      "latitude": "29.97962267478204",
      "longitude": "-90.10548844501554"
    }
  },
  {
    "service_request": "2022-920904",
    "request_type": "Trash/Recycling",
    "request_reason": "Missed Trash Pick-Up",
    "date_created": "2022-09-18T08:36:21.000",
    "date_modified": "2022-09-18T08:36:21.000",
    "request_status": "Pending",
    "responsible_agency": "Department of Sanitation",
    "final_address": "100 BLK S Bernadotte St",
    "address_councildis": "A",
    "status": "Assigned to Contractor",
    "contractor": "Richards Disposal",
    "rowid": "920904",
    "final_x": "3668687.63437",
    "final_y": "539889.91279",
    "longitude": "-90.10824471444174",
    "latitude": "29.978892949350755",
    "geocoded_column": {
      "latitude": "29.978892949350755",
      "longitude": "-90.10824471444174"
    }
  },
  {
    "service_request": "2022-920903",
    "request_type": "Traffic Signals/Signs/Striping/Streetlights",
    "request_reason": "Street Light Outage/Malfunction",
    "date_created": "2022-09-18T08:26:21.000",
    "date_modified": "2022-09-18T08:26:21.000",
    "request_status": "Pending",
    "responsible_agency": "Department of Public Works",
    "final_address": "3100 Ursulines Ave",
    "address_councildis": "A",
    "status": "Pending",
    "contractor": "Legacy Professional Services",
    "rowid": "920903",
    "final_x": "3676097.77909",
    "final_y": "539257.132554",
    "longitude": "-90.084862412193",
    "latitude": "29.97693309473388",
    "geocoded_column": {
      "latitude": "29.97693309473388",
      "longitude": "-90.084862412193"
    }
  },
  {
    "service_request": "2022-920902",
    "request_type": "Trash/Recycling",
    "request_reason": "Missed Trash Pick-Up",
    "date_created": "2022-09-18T07:51:16.000",
    "date_modified": "2022-09-18T07:51:16.000",
    "request_status": "Pending",
    "responsible_agency": "Department of Sanitation",
    "final_address": "4351 San Remo St",
    "address_councildis": "E",
    "status": "Assigned to Contractor",
    "contractor": "Metro Disposal",
    "rowid": "920902",
    "final_x": "3760526.57974",
    "final_y": "573623.996714",
    "longitude": "-89.81677984866538",
    "latitude": "30.068627338119175",
    "geocoded_column": {
      "latitude": "30.068627338119175",
      "longitude": "-89.81677984866538"
    }
  },
  {
    "service_request": "2022-920901",
    "request_type": "Trash/Recycling",
    "request_reason": "Missed Trash Pick-Up",
    "date_created": "2022-09-18T07:45:39.000",
    "date_modified": "2022-09-18T07:45:40.000",
    "request_status": "Pending",
    "responsible_agency": "Department of Sanitation",
    "final_address": "5303 Wildair Dr",
    "address_councildis": "D",
    "status": "Assigned to Contractor",
    "contractor": "Metro Disposal",
    "rowid": "920901",
    "final_x": "3681761.42268",
    "final_y": "552244.84207",
    "longitude": "-90.06652133825455",
    "latitude": "30.012473790856575",
    "geocoded_column": {
      "latitude": "30.012473790856575",
      "longitude": "-90.06652133825455"
    }
  },
  {
    "service_request": "2022-920900",
    "request_type": "Trash/Recycling",
    "request_reason": "Missed Trash Pick-Up",
    "date_created": "2022-09-18T07:41:03.000",
    "date_modified": "2022-09-18T07:41:03.000",
    "request_status": "Pending",
    "responsible_agency": "Department of Sanitation",
    "final_address": "5416 Grand Bayou Dr",
    "address_councildis": "E",
    "status": "Assigned to Contractor",
    "contractor": "Metro Disposal",
    "rowid": "920900",
    "final_x": "3725942.59379",
    "final_y": "563949.187105",
    "longitude": "-89.9264814503644",
    "latitude": "30.043238894988793",
    "geocoded_column": {
      "latitude": "30.043238894988793",
      "longitude": "-89.9264814503644"
    }
  },
  {
    "service_request": "2022-920899",
    "request_type": "Health Related Questions",
    "request_reason": "Noise Ordinance Complaint",
    "date_created": "2022-09-18T03:27:57.000",
    "date_modified": "2022-09-18T03:27:57.000",
    "request_status": "Pending",
    "responsible_agency": "Health Department",
    "final_address": "1200 St Bernard Ave",
    "address_councildis": "C",
    "status": "Pending",
    "rowid": "920899",
    "final_x": "3683033.3165",
    "final_y": "536132.891847",
    "longitude": "-90.06306719052876",
    "latitude": "29.96813290984115",
    "geocoded_column": {
      "latitude": "29.96813290984115",
      "longitude": "-90.06306719052876"
    }
  },
  {
    "service_request": "2022-920898",
    "request_type": "Traffic Signals/Signs/Striping/Streetlights",
    "request_reason": "Street Light Knocked Down/Leaning",
    "date_created": "2022-09-18T03:00:39.000",
    "date_modified": "2022-09-18T03:00:40.000",
    "request_status": "Pending",
    "responsible_agency": "Department of Public Works",
    "final_address": "2318 N Robertson St",
    "address_councildis": "C",
    "status": "Pending",
    "contractor": "Legacy Professional Services",
    "rowid": "920898",
    "final_x": "3685831.09711",
    "final_y": "537808.09652",
    "longitude": "-90.0541726468882",
    "latitude": "29.97265355922506",
    "geocoded_column": {
      "latitude": "29.97265355922506",
      "longitude": "-90.0541726468882"
    }
  },
  {
    "service_request": "2022-920896",
    "request_type": "Trash/Recycling",
    "request_reason": "Missed Trash Pick-Up",
    "date_created": "2022-09-17T23:36:00.000",
    "date_modified": "2022-09-17T23:36:01.000",
    "request_status": "Pending",
    "responsible_agency": "Department of Sanitation",
    "final_address": "4900 Elysian Fields Ave",
    "address_councildis": "D",
    "status": "Assigned to Contractor",
    "contractor": "Metro Disposal",
    "rowid": "920896",
    "final_x": "3683697.24809",
    "final_y": "550794.845397",
    "longitude": "-90.06045610588485",
    "latitude": "30.008427836908034",
    "geocoded_column": {
      "latitude": "30.008427836908034",
      "longitude": "-90.06045610588485"
    }
  },
  {
    "service_request": "2022-920895",
    "request_type": "Traffic Signals/Signs/Striping/Streetlights",
    "request_reason": "Street Light Outage/Malfunction",
    "date_created": "2022-09-17T22:48:13.000",
    "date_modified": "2022-09-17T22:48:14.000",
    "request_status": "Pending",
    "responsible_agency": "Department of Public Works",
    "final_address": "118 City Park Ave",
    "address_councildis": "A",
    "status": "Pending",
    "contractor": "Legacy Professional Services",
    "rowid": "920895",
    "final_x": "3667651.43245",
    "final_y": "540854.232907",
    "longitude": "-90.1114849682831",
    "latitude": "29.98157492613766",
    "geocoded_column": {
      "latitude": "29.98157492613766",
      "longitude": "-90.1114849682831"
    }
  },
  {
    "service_request": "2022-920893",
    "request_type": "Trash/Recycling",
    "request_reason": "Request a Large Item Pick Up",
    "date_created": "2022-09-17T22:30:40.000",
    "date_modified": "2022-09-17T22:30:41.000",
    "request_status": "Pending",
    "responsible_agency": "Department of Sanitation",
    "final_address": "2325 Clouet St",
    "address_councildis": "D",
    "status": "Assigned to Contractor",
    "contractor": "Metro Disposal",
    "rowid": "920893",
    "final_x": "3690271.49142",
    "final_y": "540682.665419",
    "longitude": "-90.0400466511945",
    "latitude": "29.98042055540787",
    "geocoded_column": {
      "latitude": "29.98042055540787",
      "longitude": "-90.0400466511945"
    }
  },
  {
    "service_request": "2022-920892",
    "request_type": "Roads/Drainage",
    "request_reason": "Damaged Sidewalk",
    "date_created": "2022-09-17T22:30:03.000",
    "date_modified": "2022-09-17T22:30:03.000",
    "request_status": "Pending",
    "responsible_agency": "Department of Public Works",
    "final_address": "2511 St Peter St",
    "address_councildis": "D",
    "status": "Pending",
    "rowid": "920892",
    "final_x": "3677392.8964",
    "final_y": "536351.997511",
    "longitude": "-90.08087230824275",
    "latitude": "29.968906103815026",
    "geocoded_column": {
      "latitude": "29.968906103815026",
      "longitude": "-90.08087230824275"
    }
  },
  {
    "service_request": "2022-920891",
    "request_type": "Abandoned Vehicles",
    "request_reason": "Abandoned/Junk Vehicles",
    "date_created": "2022-09-17T22:08:33.000",
    "date_modified": "2022-09-17T22:08:33.000",
    "request_status": "Pending",
    "responsible_agency": "Department of Public Works",
    "final_address": "3036 College Ct",
    "address_councildis": "B",
    "status": "Pending",
    "rowid": "920891",
    "final_x": "3668323.74983",
    "final_y": "531708.022403",
    "longitude": "-90.10966997050657",
    "latitude": "29.95640616770465",
    "geocoded_column": {
      "latitude": "29.95640616770465",
      "longitude": "-90.10966997050657"
    }
  },