[
  {
    "service_request": "2025-1168640",
    "request_type": "Utility Poles",
    "request_reason": "Wires Sagging/Hanging Low",
    "date_created": "2025-02-12T22:54:02.000",
    "date_modified": "2025-02-12T22:54:05.000",
    "request_status": "Pending",
    "responsible_agency": "Utility Company Collective",
    "final_address": "509 Olivier St",
    "address_councildis": "C",
    "status": "Pending",
    "rowid": "1168640",
    "final_x": "3687226.60534",
    "final_y": "529834.844673",
    "longitude": "-90.05004740202222",
    "latitude": "29.950686967732675",
    "geocoded_column": {
      "latitude": "29.950686967732675",
      "longitude": "-90.05004740202222"
    }
  },
  {
    "service_request": "2025-1168639",
    "request_type": "Trash/Recycling",
    "request_reason": "Replace Trash Cart",
    "date_created": "2025-02-12T22:40:16.000",
    "date_modified": "2025-02-12T22:40:19.000",
    "request_status": "Pending",
    "responsible_agency": "Department of Sanitation",
    "final_address": "0 BLK Blanc Pl",
    "address_councildis": "B",
    "status": "Assigned to Contractor",
    "contractor": "IV Waste",
    "rowid": "1168639",
    "final_x": "3667951.08401",
    "final_y": "520874.262829",
    "longitude": "-90.11121159835395",
    "latitude": "29.926627762655404",
    "geocoded_column": {
      "latitude": "29.926627762655404",
      "longitude": "-90.11121159835395"
    }
  },
  {
    "service_request": "2025-1168638",
    "request_type": "Street and Traffic Signs",
    "request_reason": "Additional Signage Request",
    "date_created": "2025-02-12T22:38:22.000",
    "date_modified": "2025-02-12T22:38:24.000",
    "request_status": "Pending",
    "responsible_agency": "Department of Public Works",
    "final_address": "800 BLK Saint Ann St",
    "address_councildis": "C",
    "status": "Pending",
    "rowid": "1168638",
    "final_x": "3682350.72975",
    "final_y": "533087.908021",
    "longitude": "-90.06532923866595",
    "latitude": "29.9597810381969",
    "geocoded_column": {
      "latitude": "29.9597810381969",
      "longitude": "-90.06532923866595"
    }
  },
  {
    "service_request": "2025-1168637",
    "request_type": "Trash/Recycling",
    "request_reason": "Replace Trash Cart",
    "date_created": "2025-02-12T22:15:53.000",
    "date_modified": "2025-02-12T22:15:55.000",
    "request_status": "Pending",
    "responsible_agency": "Department of Sanitation",
    "final_address": "1028 Valmont St",
    "address_councildis": "B",
    "status": "Assigned to Contractor",
    "contractor": "IV Waste",
    "rowid": "1168637",
    "final_x": "3667474.92365",
    "final_y": "519266.824055",
    "longitude": "-90.11276876335945",
    "latitude": "29.922221769978776",
    "geocoded_column": {
      "latitude": "29.922221769978776",
      "longitude": "-90.11276876335945"
    }
  },
  {
    "service_request": "2025-1168636",
    "request_type": "Trash/Recycling",
    "request_reason": "Return Trash Cart",
    "date_created": "2025-02-12T21:29:55.000",
    "date_modified": "2025-02-12T21:29:57.000",
    "request_status": "Pending",
    "responsible_agency": "Department of Sanitation",
    "final_address": "5721 Wright Rd",
    "address_councildis": "E",
    "status": "Assigned to Contractor",
    "contractor": "Waste Pro",
    "rowid": "1168636",
    "final_x": "3714724.35083",
    "final_y": "561050.372766",
    "longitude": "-89.9620450366768",
    "latitude": "30.03564227483661",
    "geocoded_column": {
      "latitude": "30.03564227483661",
      "longitude": "-89.9620450366768"
    }
  },
  {
    "service_request": "2025-1168635",
    "request_type": "Trash/Recycling",
    "request_reason": "Order Recycling Cart",
    "date_created": "2025-02-12T21:26:32.000",
    "date_modified": "2025-02-12T21:26:34.000",
    "request_status": "Pending",
    "responsible_agency": "Department of Sanitation",
    "final_address": "5721 Wright Rd",
    "address_councildis": "E",
    "status": "Pending",
    "rowid": "1168635",
    "final_x": "3714724.35083",
    "final_y": "561050.372766",
    "longitude": "-89.9620450366768",
    "latitude": "30.03564227483661",
    "geocoded_column": {
      "latitude": "30.03564227483661",
      "longitude": "-89.9620450366768"
    }
  },
  {
    "service_request": "2025-1168634",
    "request_type": "Trash/Recycling",
    "request_reason": "Order Second Trash Cart",
    "date_created": "2025-02-12T21:23:54.000",
    "date_modified": "2025-02-12T21:23:56.000",
    "request_status": "Pending",
    "responsible_agency": "Department of Sanitation",
    "final_address": "5721 Wright Rd",
    "address_councildis": "E",
    "status": "Assigned to Contractor",
    "contractor": "Waste Pro",
    "rowid": "1168634",
    "final_x": "3714724.35083",
    "final_y": "561050.372766",
    "longitude": "-89.9620450366768",
    "latitude": "30.03564227483661",
    "geocoded_column": {
      "latitude": "30.03564227483661",
      "longitude": "-89.9620450366768"
    }
  },
  {
    "service_request": "2025-1168633",
    "request_type": "Trash/Recycling",
    "request_reason": "Order Trash Cart",
    "date_created": "2025-02-12T21:23:19.000",
    "date_modified": "2025-02-12T21:23:21.000",
    "request_status": "Pending",
    "responsible_agency": "Department of Sanitation",
    "final_address": "34 Lake Breeze Dr",
    "address_councildis": "E",
    "status": "Assigned to Contractor",
    "contractor": "Waste Pro",
    "rowid": "1168633",
    "final_x": "3762957.84675",
    "final_y": "571922.481512",
    "longitude": "-89.80916583334803",
    "latitude": "30.063860255351834",
    "geocoded_column": {
      "latitude": "30.063860255351834",
      "longitude": "-89.80916583334803"
    }
  },
  {
    "service_request": "2025-1168632",
    "request_type": "Trash/Recycling",
    "request_reason": "Order Trash Cart",
    "date_created": "2025-02-12T21:17:57.000",
    "date_modified": "2025-02-12T21:17:59.000",
    "request_status": "Pending",
    "responsible_agency": "Department of Sanitation",
    "final_address": "34 Lake Breeze Dr",
    "address_councildis": "E",
    "status": "Assigned to Contractor",
    "contractor": "Waste Pro",
    "rowid": "1168632",
    "final_x": "3763121.63395",
    "final_y": "572001.038824",
    "longitude": "-89.80864480044966",
    "latitude": "30.06407026031545",
    "geocoded_column": {
      "latitude": "30.06407026031545",
      "longitude": "-89.80864480044966"
    }
  },
  {
    "service_request": "2025-1168631",
    "request_type": "Abandoned Vehicles",
    "request_reason": "Abandoned/Junk Vehicles",
    "date_created": "2025-02-12T21:12:44.000",
    "date_modified": "2025-02-12T21:12:46.000",
    "request_status": "Pending",
    "responsible_agency": "Department of Public Works",
    "final_address": "5160 Lakeview Ct",
    "address_councildis": "E",
    "status": "Pending",
    "rowid": "1168631",
    "final_x": "3698841.1281",
    "final_y": "556464.555546",
    "longitude": "-90.01240560599653",
    "latitude": "30.023546132743174",
    "geocoded_column": {
      "latitude": "30.023546132743174",
      "longitude": "-90.01240560599653"
    }
  },
  {
    "service_request": "2025-1168630",
    "request_type": "Abandoned Vehicles",
    "request_reason": "Abandoned/Junk Vehicles",
    "date_created": "2025-02-12T21:04:53.000",
    "date_modified": "2025-02-12T21:04:55.000",
    "request_status": "Pending",
    "responsible_agency": "Department of Public Works",
    "final_address": "645 N Dorgenois St",
    "address_councildis": "D",
    "status": "Pending",
    "rowid": "1168630",
    "final_x": "3677037.38613",
    "final_y": "536507.057287",
    "longitude": "-90.08198968549227",
    "latitude": "29.96934314549711",
    "geocoded_column": {
      "latitude": "29.96934314549711",
      "longitude": "-90.08198968549227"
    }
  },
  {
    "service_request": "2025-1168629",
    "request_type": "Abandoned Vehicles",
    "request_reason": "Abandoned/Junk Vehicles",
    "date_created": "2025-02-12T20:49:37.000",
    "date_modified": "2025-02-12T20:49:38.000",
    "request_status": "Pending",
    "responsible_agency": "Department of Public Works",
    "final_address": "2401 St Ann St",
    "address_councildis": "D",
    "status": "Pending",
    "rowid": "1168629",
    "final_x": "3678006.47618",
    "final_y": "536449.586183",
    "longitude": "-90.07893120924889",
    "latitude": "29.969155983851625",
    "geocoded_column": {
      "latitude": "29.969155983851625",
      "longitude": "-90.07893120924889"
    }
  },
  {
    "service_request": "2025-1168628",
    "request_type": "Streetlights",
    "request_reason": "Streetlight Outage/Malfunction",
    "date_created": "2025-02-12T19:46:09.000",
    "date_modified": "2025-02-12T19:46:10.000",
    "request_status": "Pending",
    "responsible_agency": "Department of Public Works",
    "final_address": "328 16Th St",
    "address_councildis": "A",
    "status": "Pending",
    "contractor": "Legacy Professional Services",
    "rowid": "1168628",
    "final_x": "3664943.41408",
    "final_y": "548353.125906",
    "longitude": "-90.11978734109833",
    "latitude": "30.002273454427016",
    "geocoded_column": {
      "latitude": "30.002273454427016",
      "longitude": "-90.11978734109833"
    }
  },
  {
    "service_request": "2025-1168627",
    "request_type": "Abandoned Vehicles",
    "request_reason": "Vehicle Blocking Your Driveway",
    "date_created": "2025-02-12T19:23:45.000",
    "date_modified": "2025-02-12T19:23:47.000",
    "request_status": "Pending",
    "responsible_agency": "Department of Public Works",
    "final_address": "1321 Bartholomew St",
    "address_councildis": "D",
    "status": "Pending",
    "rowid": "1168627",
    "final_x": "3692070.79504",
    "final_y": "536205.545479",
    "longitude": "-90.03452398542987",
    "latitude": "29.96805410301657",
    "geocoded_column": {
      "latitude": "29.96805410301657",
      "longitude": "-90.03452398542987"
    }
  },
  {
    "service_request": "2025-1168626",
    "request_type": "Trash/Recycling",
    "request_reason": "Replace Trash Cart",
    "date_created": "2025-02-12T18:39:24.000",
    "date_modified": "2025-02-12T18:39:25.000",
    "request_status": "Pending",
    "responsible_agency": "Department of Sanitation",
    "final_address": "4858 Knight Dr",
    "address_councildis": "E",
    "status": "Assigned to Contractor",
    "contractor": "Waste Pro",
    "rowid": "1168626",
    "final_x": "3707973.0394",
    "final_y": "556457.509146",
    "longitude": "-89.9835511647812",
    "latitude": "30.023234135030837",
    "geocoded_column": {
      "latitude": "30.023234135030837",
      "longitude": "-89.9835511647812"
    }
  },
  {
    "service_request": "2025-1168625",
    "request_type": "Trash/Recycling",
    "request_reason": "Request a Large Item Pick Up",
    "date_created": "2025-02-12T18:36:30.000",
    "date_modified": "2025-02-12T18:36:32.000",
    "request_status": "Pending",
    "responsible_agency": "Department of Sanitation",
    "final_address": "1419 St Anthony St",
    "address_councildis": "C",
    "status": "Assigned to Contractor",
    "contractor": "IV Waste",
    "rowid": "1168625",
    "final_x": "3683451.74741",
    "final_y": "537468.322632",
    "longitude": "-90.0616989674256",
    "latitude": "29.971792120564757",
    "geocoded_column": {
      "latitude": "29.971792120564757",
      "longitude": "-90.0616989674256"
    }
  },
  {
    "service_request": "2025-1168624",
    "request_type": "Trash/Recycling",
    "request_reason": "Order Second Trash Cart",
    "date_created": "2025-02-12T18:32:55.000",
    "date_modified": "2025-02-12T18:32:58.000",
    "request_status": "Pending",
    "responsible_agency": "Department of Sanitation",
    "final_address": "4501 Bundy Rd",
    "address_councildis": "E",
    "status": "Assigned to Contractor",
    "contractor": "Waste Pro",
    "rowid": "1168624",
    "final_x": "3709576.93163",
    "final_y": "554427.214232",
    "longitude": "-89.97855910947135",
    "latitude": "30.017599568111656",
    "geocoded_column": {
      "latitude": "30.017599568111656",
      "longitude": "-89.97855910947135"
    }
  },
  {
    "service_request": "2025-1168621",
    "request_type": "Roads and Streets",
    "request_reason": "Pothole",
    "date_created": "2025-02-12T18:31:30.000",
    "date_modified": "2025-02-12T18:31:33.000",
    "request_status": "Pending",
    "responsible_agency": "Department of Public Works",
    "final_address": "1327 Coliseum St",
    "address_councildis": "B",
    "status": "Pending",
    "rowid": "1168621",
    "final_x": "3679989.93839",
    "final_y": "525132.443453",
    "longitude": "-90.07306039024776",
    "latitude": "29.937977801724248",
    "geocoded_column": {
      "latitude": "29.937977801724248",
      "longitude": "-90.07306039024776"
    }
  },
  {
    "service_request": "2025-1168622",
    "request_type": "Roads and Streets",
    "request_reason": "Pothole",
    "date_created": "2025-02-12T18:31:30.000",
    "date_modified": "2025-02-12T18:31:33.000",
    "request_status": "Pending",
    "responsible_agency": "Department of Public Works",
    "final_address": "1327 Coliseum St",
    "address_councildis": "B",
    "status": "Pending",
    "rowid": "1168622",
    "final_x": "3679989.93839",
    "final_y": "525132.443453",
    "longitude": "-90.07306039024776",
    "latitude": "29.937977801724248",
    "geocoded_column": {
      "latitude": "29.937977801724248",
      "longitude": "-90.07306039024776"
    }
  },
  {
    "service_request": "2025-1168623",
    "request_type": "Roads and Streets",
    "request_reason": "Pothole",
    "date_created": "2025-02-12T18:31:30.000",
    "date_modified": "2025-02-12T18:31:33.000",
    "request_status": "Pending",
    "responsible_agency": "Department of Public Works",
    "final_address": "1327 Coliseum St",
    "address_councildis": "B",
    "status": "Pending",
    "rowid": "1168623",
    "final_x": "3679989.93839",
    "final_y": "525132.443453",
    "longitude": "-90.07306039024776",
    "latitude": "29.937977801724248",
    "geocoded_column": {
      "latitude": "29.937977801724248",
      "longitude": "-90.07306039024776"
    }
  },
  {
    "service_request": "2025-1168620",
    "request_type": "Trash/Recycling",
    "request_reason": "Return Trash Cart",
    "date_created": "2025-02-12T18:26:31.000",
    "date_modified": "2025-02-12T18:26:33.000",
    "request_status": "Pending",
    "responsible_agency": "Department of Sanitation",
    "final_address": "2731 Jackson Ave",
    "address_councildis": "B",
    "status": "Assigned to Contractor",
    "contractor": "IV Waste",
    "rowid": "1168620",
    "final_x": "3674912.0171",
    "final_y": "527314.406335",
    "longitude": "-90.08901703694161",
    "latitude": "29.94413007698659",
    "geocoded_column": {
      "latitude": "29.94413007698659",
      "longitude": "-90.08901703694161"
    }
  },
  {
    "service_request": "2025-1168619",
    "request_type": "Trash/Recycling",
    "request_reason": "Change Size of Trash Cart",
    "date_created": "2025-02-12T18:07:48.000",
    "date_modified": "2025-02-12T18:07:50.000",
    "request_status": "Pending",
    "responsible_agency": "Department of Sanitation",
    "final_address": "929 Dumaine St",
    "address_councildis": "C",
    "status": "Assigned to Contractor",
    "contractor": "IV Waste",
    "rowid": "1168619",
    "final_x": "3682267.59868",
    "final_y": "533640.107717",
    "longitude": "-90.06557245509038",
    "latitude": "29.96130192795399",
    "geocoded_column": {
      "latitude": "29.96130192795399",
      "longitude": "-90.06557245509038"
    }
  },
  {
    "service_request": "2025-1168618",
    "request_type": "Trash/Recycling",
    "request_reason": "Request a Large Item Pick Up",
    "date_created": "2025-02-12T17:49:38.000",
    "date_modified": "2025-02-12T17:49:39.000",
    "request_status": "Pending",
    "responsible_agency": "Department of Sanitation",
    "final_address": "8714 Spruce St",
    "address_councildis": "A",
    "status": "Assigned to Contractor",
    "contractor": "IV Waste",
    "rowid": "1168618",
    "final_x": "3662158.30752",
    "final_y": "531943.744835",
    "longitude": "-90.12913067065588",
    "latitude": "29.957233930977267",
    "geocoded_column": {
      "latitude": "29.957233930977267",
      "longitude": "-90.12913067065588"
    }
  },
  {
    "service_request": "2025-1168617",
    "request_type": "Trash/Recycling",
    "request_reason": "Return Recycling Cart",
    "date_created": "2025-02-12T17:47:19.000",
    "date_modified": "2025-02-12T17:47:21.000",
    "request_status": "Pending",
    "responsible_agency": "Department of Sanitation",
    "final_address": "301 Berkley Dr",
    "address_councildis": "C",
    "status": "Pending",
    "rowid": "1168617",
    "final_x": "3707029.91672",
    "final_y": "517945.866038",
    "longitude": "-89.98795998914827",
    "latitude": "29.917371775909338",
    "geocoded_column": {
      "latitude": "29.917371775909338",
      "longitude": "-89.98795998914827"
    }
  },
  {
    "service_request": "2025-1168615",
    "request_type": "Trash/Recycling",
    "request_reason": "Request a Large Item Pick Up",
    "date_created": "2025-02-12T17:22:01.000",
    "date_modified": "2025-02-12T17:22:04.000",
    "request_status": "Pending",
    "responsible_agency": "Department of Sanitation",
    "final_address": "7056 E Tamaron Blvd",
    "address_councildis": "E",
    "status": "Assigned to Contractor",
    "contractor": "Waste Pro",
    "rowid": "1168615",
    "final_x": "3718802.9029",
    "final_y": "568506.369189",
    "longitude": "-89.9488715593406",
    "latitude": "30.056008369038516",
    "geocoded_column": {
      "latitude": "30.056008369038516",
      "longitude": "-89.9488715593406"
    }
  },
  {
    "service_request": "2025-1168614",
    "request_type": "Drainage",
    "request_reason": "Drainage Issue (Catch Basins, Culverts, Ditches, and Manhole Covers)",
    "date_created": "2025-02-12T17:15:07.000",
    "date_modified": "2025-02-12T17:15:09.000",
    "request_status": "Pending",
    "responsible_agency": "Sewerage & Water Board ",
    "final_address": "111 Fontainebleau Dr",
    "address_councildis": "B",
    "status": "Pending",
    "rowid": "1168614",
    "final_x": "3667327.70055",
    "final_y": "530360.33389",
    "longitude": "-90.11286050267489",
    "latitude": "29.952729675668497",
    "geocoded_column": {
      "latitude": "29.952729675668497",
      "longitude": "-90.11286050267489"
    }
  },
  {
    "service_request": "2025-1168613",
    "request_type": "Street and Traffic Signs",
    "request_reason": "Traffic or Parking Sign Damaged or Missing",
    "date_created": "2025-02-12T17:09:38.000",
    "date_modified": "2025-02-12T17:09:40.000",
    "request_status": "Pending",
    "responsible_agency": "Department of Public Works",
    "final_address": "200 BLK Clinton St",
    "address_councildis": "C",
    "status": "Pending",
    "rowid": "1168613",
    "final_x": "3682262.90873",
    "final_y": "530618.581595",
    "longitude": "-90.06569282187012",
    "latitude": "29.952993902194727",
    "geocoded_column": {
      "latitude": "29.952993902194727",
      "longitude": "-90.06569282187012"
    }
  },
  {
    "service_request": "2025-1168612",
    "request_type": "Trash/Recycling",
    "request_reason": "Illegal Dumping",
    "date_created": "2025-02-12T17:07:22.000",
    "date_modified": "2025-02-12T17:07:26.000",
    "request_status": "Pending",
    "responsible_agency": "Department of Sanitation",
    "final_address": "200 BLK Clinton St",
    "address_councildis": "C",
    "status": "Pending",
    "rowid": "1168612",
    "final_x": "3682262.90873",
    "final_y": "530618.581595",
    "longitude": "-90.06569282187012",
    "latitude": "29.952993902194727",
    "geocoded_column": {
      "latitude": "29.952993902194727",
      "longitude": "-90.06569282187012"
    }
  },
  {
    "service_request": "2025-1168611",
    "request_type": "Trash/Recycling",
    "request_reason": "Repair Trash Cart",
    "date_created": "2025-02-12T16:57:30.000",
    "date_modified": "2025-02-12T16:57:32.000",
    "request_status": "Pending",
    "responsible_agency": "Department of Sanitation",
    "final_address": "4023 Vincennes Pl",
    "address_councildis": "B",
    "status": "Assigned to Contractor",
    "contractor": "IV Waste",
    "rowid": "1168611",
    "final_x": "3668483.44167",
    "final_y": "530124.423809",
    "longitude": "-90.10921913570536",
    "latitude": "29.95204710061884",
    "geocoded_column": {
      "latitude": "29.95204710061884",
      "longitude": "-90.10921913570536"
    }
  },
  {
    "service_request": "2025-1168610",
    "request_type": "Street and Traffic Signs",
    "request_reason": "Additional Signage Request",
    "date_created": "2025-02-12T16:56:08.000",
    "date_modified": "2025-02-12T16:56:10.000",
    "request_status": "Pending",
    "responsible_agency": "Department of Public Works",
    "final_address": "11600 Morrison Rd",
    "address_councildis": "E",
    "status": "Pending",
    "rowid": "1168610",
    "final_x": "3712842.9731",
    "final_y": "566029.157283",
    "longitude": "-89.96780295767543",
    "latitude": "30.049393700817774",
    "geocoded_column": {
      "latitude": "30.049393700817774",
      "longitude": "-89.96780295767543"
    }
  },
  {
    "service_request": "2025-1168609",
    "request_type": "Trash/Recycling",
    "request_reason": "Request a Large Item Pick Up",
    "date_created": "2025-02-12T16:53:57.000",
    "date_modified": "2025-02-12T16:54:00.000",
    "request_status": "Pending",
    "responsible_agency": "Department of Sanitation",
    "final_address": "4701 Eastview Dr",
    "address_councildis": "E",
    "status": "Assigned to Contractor",
    "contractor": "Waste Pro",
    "rowid": "1168609",
    "final_x": "3705185.35377",
    "final_y": "555055.453273",
    "longitude": "-89.99241142390187",
    "latitude": "30.019469022428357",
    "geocoded_column": {
      "latitude": "30.019469022428357",
      "longitude": "-89.99241142390187"
    }
  },
  {
    "service_request": "2025-1168608",
    "request_type": "Trash/Recycling",
    "request_reason": "MIssed Recycling Pick-Up",
    "date_created": "2025-02-12T16:52:42.000",
    "date_modified": "2025-02-12T16:52:46.000",
    "request_status": "Pending",
    "responsible_agency": "Department of Sanitation",
    "final_address": "4300 St Claude Ave",
    "address_councildis": "C",
    "status": "Assigned to Contractor",
    "contractor": "IV Waste",
    "rowid": "1168608",
    "final_x": "3692811.37366",
    "final_y": "534997.198534",
    "longitude": "-90.03222855107038",
    "latitude": "29.96470847271701",
    "geocoded_column": {
      "latitude": "29.96470847271701",
      "longitude": "-90.03222855107038"
    }
  },
  {
    "service_request": "2025-1168607",
    "request_type": "Roads and Streets",
    "request_reason": "Abandoned Service Cut",
    "date_created": "2025-02-12T16:49:05.000",
    "date_modified": "2025-02-12T16:49:06.000",
    "request_status": "Pending",
    "responsible_agency": "Department of Public Works",
    "final_address": "939 Tricou St",
    "address_councildis": "E",
    "status": "Pending",
    "rowid": "1168607",
    "final_x": "3699980.91165",
    "final_y": "532574.158532",
    "longitude": "-90.0096761795655",
    "latitude": "29.957820180158002",
    "geocoded_column": {
      "latitude": "29.957820180158002",
      "longitude": "-90.0096761795655"
    }
  },
  {
    "service_request": "2025-1168606",
    "request_type": "Drainage",
    "request_reason": "Catch Basin Clogged",
    "date_created": "2025-02-12T16:48:51.000",
    "date_modified": "2025-02-12T16:48:53.000",
    "request_status": "Pending",
    "responsible_agency": "Sewerage & Water Board ",
    "final_address": "2400 St Charles Ave",
    "address_councildis": "B",
    "status": "Pending",
    "rowid": "1168606",
    "final_x": "3676943.10312",
    "final_y": "523100.818555",
    "longitude": "-90.08274952030912",
    "latitude": "29.932483292009874",
    "geocoded_column": {
      "latitude": "29.932483292009874",
      "longitude": "-90.08274952030912"
    }
  },
  {
    "service_request": "2025-1168605",
    "request_type": "Traffic Safety",
    "request_reason": "Request for Traffic Calming due to Speeding",
    "date_created": "2025-02-12T16:47:31.000",
    "date_modified": "2025-02-12T16:47:32.000",
    "request_status": "Pending",
    "responsible_agency": "Department of Public Works",
    "final_address": "750 St Andrew St",
    "address_councildis": "B",
    "status": "Pending",
    "rowid": "1168605",
    "final_x": "3680228.75925",
    "final_y": "521638.121785",
    "longitude": "-90.07242780944688",
    "latitude": "29.92836234437501",
    "geocoded_column": {
      "latitude": "29.92836234437501",
      "longitude": "-90.07242780944688"
    }
  },
  {
    "service_request": "2025-1168604",
    "request_type": "Parks & Parkways",
    "request_reason": "Request Tree Service (Right of Way/Public Property)",
    "date_created": "2025-02-12T16:47:28.000",
    "date_modified": "2025-02-12T16:47:29.000",
    "request_status": "Pending",
    "responsible_agency": "Department of Parks & Parkway",
    "final_address": "4658 Knight Dr",
    "address_councildis": "E",
    "status": "Pending",
    "rowid": "1168604",
    "final_x": "3708115.04945",
    "final_y": "555011.324377",
    "longitude": "-89.98315629281466",
    "latitude": "30.019253089187004",
    "geocoded_column": {
      "latitude": "30.019253089187004",
      "longitude": "-89.98315629281466"
    }
  },
  {
    "service_request": "2025-1168603",
    "request_type": "Trash/Recycling",
    "request_reason": "Request a Large Item Pick Up",
    "date_created": "2025-02-12T16:46:48.000",
    "date_modified": "2025-02-12T16:46:50.000",
    "request_status": "Pending",
    "responsible_agency": "Department of Sanitation",
    "final_address": "6019 Louisville St",
    "address_councildis": "A",
    "status": "Assigned to Contractor",
    "contractor": "IV Waste",
    "rowid": "1168603",
    "final_x": "3667841.35745",
    "final_y": "547492.885522",
    "longitude": "-90.11066135540084",
    "latitude": "29.999823381258206",
    "geocoded_column": {
      "latitude": "29.999823381258206",
      "longitude": "-90.11066135540084"
    }
  },
  {
    "service_request": "2025-1168602",
    "request_type": "Parks & Parkways",
    "request_reason": "Request Tree Service (Right of Way/Public Property)",
    "date_created": "2025-02-12T16:38:58.000",
    "date_modified": "2025-02-12T16:39:00.000",
    "request_status": "Pending",
    "responsible_agency": "Department of Parks & Parkway",
    "final_address": "8600 Oleander St",
    "address_councildis": "A",
    "status": "Pending",
    "rowid": "1168602",
    "final_x": "3665401.9344",
    "final_y": "534848.134342",
    "longitude": "-90.11879103392262",
    "latitude": "29.965125919035987",
    "geocoded_column": {
      "latitude": "29.965125919035987",
      "longitude": "-90.11879103392262"
    }
  },
  {
    "service_request": "2025-1168601",
    "request_type": "Trash/Recycling",
    "request_reason": "Illegal Dumping",
    "date_created": "2025-02-12T16:38:55.000",
    "date_modified": "2025-02-12T16:38:57.000",
    "request_status": "Pending",
    "responsible_agency": "Department of Sanitation",
    "final_address": "1835 Murl St",
    "address_councildis": "C",
    "status": "Pending",
    "rowid": "1168601",
    "final_x": "3695310.05136",
    "final_y": "524342.258812",
    "longitude": "-90.02472220976341",
    "latitude": "29.935332853262505",
    "geocoded_column": {
      "latitude": "29.935332853262505",
      "longitude": "-90.02472220976341"
    }
  },
  {
    "service_request": "2025-1168600",
    "request_type": "Roads and Streets",
    "request_reason": "ADA Ramps Damaged or Missing",
    "date_created": "2025-02-12T16:37:56.000",
    "date_modified": "2025-02-12T16:37:58.000",
    "request_status": "Pending",
    "responsible_agency": "Department of Public Works",
    "final_address": "CARLISLE CT & RUE MICHELE",
    "address_councildis": "C",
    "status": "Pending",
    "rowid": "1168600",
    "final_x": "3703566.8",
    "final_y": "516611.58",
    "longitude": "-89.99894005195986",
    "latitude": "29.9138142996345",
    "geocoded_column": {
      "latitude": "29.9138142996345",
      "longitude": "-89.99894005195986"
    }
  },
  {
    "service_request": "2025-1168599",
    "request_type": "Trash/Recycling",
    "request_reason": "Request a Large Item Pick Up",
    "date_created": "2025-02-12T16:36:03.000",
    "date_modified": "2025-02-12T16:36:05.000",
    "request_status": "Pending",
    "responsible_agency": "Department of Sanitation",
    "final_address": "3208 General Taylor St",
    "address_councildis": "B",
    "status": "Assigned to Contractor",
    "contractor": "IV Waste",
    "rowid": "1168599",
    "final_x": "3671236.95764",
    "final_y": "526755.812478",
    "longitude": "-90.10063923079494",
    "latitude": "29.942703350939105",
    "geocoded_column": {
      "latitude": "29.942703350939105",
      "longitude": "-90.10063923079494"
    }
  },
  {
    "service_request": "2025-1168598",
    "request_type": "Trash/Recycling",
    "request_reason": "Request a Large Item Pick Up",
    "date_created": "2025-02-12T16:31:29.000",
    "date_modified": "2025-02-12T16:31:31.000",
    "request_status": "Pending",
    "responsible_agency": "Department of Sanitation",
    "final_address": "3129 Trafalgar St",
    "address_councildis": "A",
    "status": "Assigned to Contractor",
    "contractor": "IV Waste",
    "rowid": "1168598",
    "final_x": "3678790.15291",
    "final_y": "543210.204686",
    "longitude": "-90.07622206292291",
    "latitude": "29.987721733342276",
    "geocoded_column": {
      "latitude": "29.987721733342276",
      "longitude": "-90.07622206292291"
    }
  },
  {
    "service_request": "2025-1168597",
    "request_type": "Trash/Recycling",
    "request_reason": "Request a Large Item Pick Up",
    "date_created": "2025-02-12T16:31:20.000",
    "date_modified": "2025-02-12T16:31:22.000",
    "request_status": "Pending",
    "responsible_agency": "Department of Sanitation",
    "final_address": "4921 Tynecastle Dr",
    "address_councildis": "E",
    "status": "Assigned to Contractor",
    "contractor": "Waste Pro",
    "rowid": "1168597",
    "final_x": "3718504.54271",
    "final_y": "557997.723035",
    "longitude": "-89.95021555227486",
    "latitude": "30.02712378493039",
    "geocoded_column": {
      "latitude": "30.02712378493039",
      "longitude": "-89.95021555227486"
    }
  },
  {
    "service_request": "2025-1168596",
    "request_type": "Mosquito, Termite & Rodent Control",
    "request_reason": "Rodent Complaint (Rats)",
    "date_created": "2025-02-12T16:28:31.000",
    "date_modified": "2025-02-12T16:28:33.000",
    "request_status": "Pending",
    "responsible_agency": "Mosquito, Termite & Rodent Control Board",
    "final_address": "4740 Iberville St",
    "address_councildis": "A",
    "status": "Pending",
    "rowid": "1168596",
    "final_x": "3669076.45262",
    "final_y": "540331.915211",
    "longitude": "-90.10700173400848",
    "latitude": "29.9800968701747",
    "geocoded_column": {
      "latitude": "29.9800968701747",
      "longitude": "-90.10700173400848"
    }
  },
  {
    "service_request": "2025-1168595",
    "request_type": "Parks & Parkways",
    "request_reason": "Request Tree Service (Right of Way/Public Property)",
    "date_created": "2025-02-12T16:27:01.000",
    "date_modified": "2025-02-12T16:27:03.000",
    "request_status": "Pending",
    "responsible_agency": "Department of Parks & Parkway",
    "final_address": "7700 Lake Forest Blvd",
    "address_councildis": "E",
    "status": "Pending",
    "rowid": "1168595",
    "final_x": "3702744.66647",
    "final_y": "556555.226394",
    "longitude": "-90.00006798355324",
    "latitude": "30.02367113140911",
    "geocoded_column": {
      "latitude": "30.02367113140911",
      "longitude": "-90.00006798355324"
    }
  },
  {
    "service_request": "2025-1168594",
    "request_type": "Trash/Recycling",
    "request_reason": "Request a Large Item Pick Up",
    "date_created": "2025-02-12T16:18:01.000",
    "date_modified": "2025-02-12T16:18:03.000",
    "request_status": "Pending",
    "responsible_agency": "Department of Sanitation",
    "final_address": "6110 Lafaye St",
    "address_councildis": "D",
    "status": "Assigned to Contractor",
    "contractor": "IV Waste",
    "rowid": "1168594",
    "final_x": "3687040.72073",
    "final_y": "555730.210329",
    "longitude": "-90.0497183742899",
    "latitude": "30.021895724083542",
    "geocoded_column": {
      "latitude": "30.021895724083542",
      "longitude": "-90.0497183742899"
    }
  },
  {
    "service_request": "2025-1168593",
    "request_type": "Trash/Recycling",
    "request_reason": "Repair Trash Cart",
    "date_created": "2025-02-12T16:18:00.000",
    "date_modified": "2025-02-12T16:19:15.000",
    "request_status": "Pending",
    "responsible_agency": "Department of Sanitation",
    "final_address": "6905 Vicksburg St",
    "address_councildis": "A",
    "status": "Assigned to Contractor",
    "contractor": "IV Waste",
    "rowid": "1168593",
    "final_x": "3669477.2297",
    "final_y": "553341.135831",
    "longitude": "-90.10529554753045",
    "latitude": "30.015855922300922",
    "geocoded_column": {
      "latitude": "30.015855922300922",
      "longitude": "-90.10529554753045"
    }
  },
  {
    "service_request": "2025-1168592",
    "request_type": "Parks & Parkways",
    "request_reason": "Park Maintenance/Clean Up",
    "date_created": "2025-02-12T16:17:24.000",
    "date_modified": "2025-02-12T16:17:26.000",
    "request_status": "Pending",
    "responsible_agency": "Department of Parks & Parkway",
    "final_address": "7500 BLK Bullard Ave",
    "address_councildis": "E",
    "status": "Pending",
    "rowid": "1168592",
    "final_x": "3713101.42415",
    "final_y": "567487.364813",
    "longitude": "-89.9669311428773",
    "latitude": "30.053394706246085",
    "geocoded_column": {
      "latitude": "30.053394706246085",
      "longitude": "-89.9669311428773"
    }
  },
  {
    "service_request": "2025-1168591",
    "request_type": "Trash/Recycling",
    "request_reason": "Request a Large Item Pick Up",
    "date_created": "2025-02-12T16:16:57.000",
    "date_modified": "2025-02-12T16:17:00.000",
    "request_status": "Pending",
    "responsible_agency": "Department of Sanitation",
    "final_address": "3111 Law St",
    "address_councildis": "D",
    "status": "Assigned to Contractor",
    "contractor": "IV Waste",
    "rowid": "1168591",
    "final_x": "3690538.23075",
    "final_y": "541664.056908",
    "longitude": "-90.03916916809045",
    "latitude": "29.98311075067631",
    "geocoded_column": {
      "latitude": "29.98311075067631",
      "longitude": "-90.03916916809045"
    }
  },
  {
    "service_request": "2025-1168590",
    "request_type": "Parks & Parkways",
    "request_reason": "Request Tree Service (Right of Way/Public Property)",
    "date_created": "2025-02-12T16:13:46.000",
    "date_modified": "2025-02-12T16:18:40.000",
    "request_status": "Pending",
    "responsible_agency": "Department of Parks & Parkway",
    "final_address": "3212 St Charles Ave",
    "address_councildis": "B",
    "status": "Pending",
    "rowid": "1168590",
    "final_x": "3674753.54094",
    "final_y": "521705.572025",
    "longitude": "-90.08970959013618",
    "latitude": "29.928712344124584",
    "geocoded_column": {
      "latitude": "29.928712344124584",
      "longitude": "-90.08970959013618"
    }
  },
  {
    "service_request": "2025-1168589",
    "request_type": "Trash/Recycling",
    "request_reason": "Request a Large Item Pick Up",
    "date_created": "2025-02-12T16:12:51.000",
    "date_modified": "2025-02-12T16:12:52.000",
    "request_status": "Pending",
    "responsible_agency": "Department of Sanitation",
    "final_address": "901 Webster St",
    "address_councildis": "A",
    "status": "Assigned to Contractor",
    "contractor": "IV Waste",
    "rowid": "1168589",
    "final_x": "3664299.37684",
    "final_y": "519797.805688",
    "longitude": "-90.12277499124255",
    "latitude": "29.923774432923828",
    "geocoded_column": {
      "latitude": "29.923774432923828",
      "longitude": "-90.12277499124255"
    }
  },
  {
    "service_request": "2025-1168587",
    "request_type": "Trash/Recycling",
    "request_reason": "Repair Trash Cart",
    "date_created": "2025-02-12T16:11:45.000",
    "date_modified": "2025-02-12T16:11:47.000",
    "request_status": "Pending",
    "responsible_agency": "Department of Sanitation",
    "final_address": "901 Webster St",
    "address_councildis": "A",
    "status": "Assigned to Contractor",
    "contractor": "IV Waste",
    "rowid": "1168587",
    "final_x": "3664299.37684",
    "final_y": "519797.805688",
    "longitude": "-90.12277499124255",
    "latitude": "29.923774432923828",
    "geocoded_column": {
      "latitude": "29.923774432923828",
      "longitude": "-90.12277499124255"
    }
  },
  {
    "service_request": "2025-1168586",
    "request_type": "Trash/Recycling",
    "request_reason": "Repair Trash Cart",
    "date_created": "2025-02-12T16:10:32.000",
    "date_modified": "2025-02-12T16:10:34.000",
    "request_status": "Pending",
    "responsible_agency": "Department of Sanitation",
    "final_address": "2411 Athis St",
    "address_councildis": "D",
    "status": "Assigned to Contractor",
    "contractor": "IV Waste",
    "rowid": "1168586",
    "final_x": "3685190.14345",
    "final_y": "554397.869976",
    "longitude": "-90.05561265472681",
    "latitude": "30.018289151870206",
    "geocoded_column": {
      "latitude": "30.018289151870206",
      "longitude": "-90.05561265472681"
    }
  },
  {
    "service_request": "2025-1168585",
    "request_type": "Trash/Recycling",
    "request_reason": "Request a Large Item Pick Up",
    "date_created": "2025-02-12T16:08:38.000",
    "date_modified": "2025-02-12T17:18:29.000",
    "case_close_date": "2025-02-12T11:18:28.000",
    "request_status": "Closed",
    "responsible_agency": "Department of Sanitation",
    "final_address": "2539 Fats Domino Ave",
    "address_councildis": "E",
    "status": "Duplicate Request",
    "contractor": "Waste Pro",
    "contractor_action": "Duplicate",
    "rowid": "1168585",
    "final_x": "3699572.99095",
    "final_y": "539315.465034",
    "longitude": "-90.01071855679875",
    "latitude": "29.976369303193767",
    "geocoded_column": {
      "latitude": "29.976369303193767",
      "longitude": "-90.01071855679875"
    }
  },
  {
    "service_request": "2025-1168584",
    "request_type": "Trash/Recycling",
    "request_reason": "Repair Trash Cart",
    "date_created": "2025-02-12T16:08:02.000",
    "date_modified": "2025-02-12T16:08:04.000",
    "request_status": "Pending",
    "responsible_agency": "Department of Sanitation",
    "final_address": "230 S Pierce St",
    "address_councildis": "A",
    "status": "Assigned to Contractor",
    "contractor": "IV Waste",
    "rowid": "1168584",
    "final_x": "3671098.8347",
    "final_y": "537477.881736",
    "longitude": "-90.10071115889521",
    "latitude": "29.9721895745693",
    "geocoded_column": {
      "latitude": "29.9721895745693",
      "longitude": "-90.10071115889521"
    }
  },
  {
    "service_request": "2025-1168583",
    "request_type": "Alley Ways",
    "request_reason": "Alley Way Regrading",
    "date_created": "2025-02-12T16:07:49.000",
    "date_modified": "2025-02-12T16:07:51.000",
    "request_status": "Pending",
    "responsible_agency": "Department of Public Works",
    "final_address": "6951 Louisville St",
    "address_councildis": "A",
    "status": "Pending",
    "rowid": "1168583",
    "final_x": "3668428.18452",
    "final_y": "553796.663127",
    "longitude": "-90.10859468622132",
    "latitude": "30.017139333909427",
    "geocoded_column": {
      "latitude": "30.017139333909427",
      "longitude": "-90.10859468622132"
    }
  },
  {
    "service_request": "2025-1168582",
    "request_type": "Mosquito, Termite & Rodent Control",
    "request_reason": "Rodent Complaint (Rats)",
    "date_created": "2025-02-12T16:07:23.000",
    "date_modified": "2025-02-12T16:07:25.000",
    "request_status": "Pending",
    "responsible_agency": "Mosquito, Termite & Rodent Control Board",
    "final_address": "3716 Fairmont Dr",
    "address_councildis": "D",
    "status": "Pending",
    "rowid": "1168582",
    "final_x": "3685222.69417",
    "final_y": "546210.911504",
    "longitude": "-90.05579821454072",
    "latitude": "29.99577699068297",
    "geocoded_column": {
      "latitude": "29.99577699068297",
      "longitude": "-90.05579821454072"
    }
  },
  {
    "service_request": "2025-1168581",
    "request_type": "Trash/Recycling",
    "request_reason": "Illegal Dumping",
    "date_created": "2025-02-12T16:06:26.000",
    "date_modified": "2025-02-12T16:06:28.000",
    "request_status": "Pending",
    "responsible_agency": "Department of Sanitation",
    "final_address": "CARNOT ST & ALLEN ST",
    "address_councildis": "D",
    "status": "Pending",
    "rowid": "1168581",
    "final_x": "3681689.1",
    "final_y": "549756.28",
    "longitude": "-90.06683674135088",
    "latitude": "30.0056333418329",
    "geocoded_column": {
      "latitude": "30.0056333418329",
      "longitude": "-90.06683674135088"
    }
  },
  {
    "service_request": "2025-1168580",
    "request_type": "Trash/Recycling",
    "request_reason": "Illegal Dumping",
    "date_created": "2025-02-12T15:57:37.000",
    "date_modified": "2025-02-12T15:57:39.000",
    "request_status": "Pending",
    "responsible_agency": "Department of Sanitation",
    "final_address": "PASTEUR BLVD & FILMORE ST",
    "address_councildis": "D",
    "status": "Pending",
    "rowid": "1168580",
    "final_x": "3682984.3",
    "final_y": "552231.08",
    "longitude": "-90.06265821271829",
    "latitude": "30.012398718855874",
    "geocoded_column": {
      "latitude": "30.012398718855874",
      "longitude": "-90.06265821271829"
    }
  },
  {
    "service_request": "2025-1168579",
    "request_type": "Mosquito, Termite & Rodent Control",
    "request_reason": "Rodent Complaint (Rats)",
    "date_created": "2025-02-12T15:54:10.000",
    "date_modified": "2025-02-12T15:54:12.000",
    "request_status": "Pending",
    "responsible_agency": "Mosquito, Termite & Rodent Control Board",
    "final_address": "PARIS AVE & PRATT DR",
    "address_councildis": "D",
    "status": "Pending",
    "rowid": "1168579",
    "final_x": "3679477.7",
    "final_y": "548477.28",
    "longitude": "-90.0738674690131",
    "latitude": "30.002183571369457",
    "geocoded_column": {
      "latitude": "30.002183571369457",
      "longitude": "-90.0738674690131"
    }
  },
  {
    "service_request": "2025-1168578",
    "request_type": "Property Maintenance",
    "request_reason": "Property Maintenance",
    "date_created": "2025-02-12T15:53:50.000",
    "date_modified": "2025-02-12T15:53:51.000",
    "request_status": "Pending",
    "responsible_agency": "Department of Code Enforcement",
    "final_address": "334 Bermuda St",
    "address_councildis": "C",
    "status": "Pending",
    "rowid": "1168578",
    "final_x": "3686477.92655",
    "final_y": "530565.750722",
    "longitude": "-90.05238554144559",
    "latitude": "29.952719743768533",
    "geocoded_column": {
      "latitude": "29.952719743768533",
      "longitude": "-90.05238554144559"
    }
  },
  {
    "service_request": "2025-1168577",
    "request_type": "Trash/Recycling",
    "request_reason": "Request a Large Item Pick Up",
    "date_created": "2025-02-12T15:53:15.000",
    "date_modified": "2025-02-12T15:53:17.000",
    "request_status": "Pending",
    "responsible_agency": "Department of Sanitation",
    "final_address": "512 Austerlitz St",
    "address_councildis": "B",
    "status": "Assigned to Contractor",
    "contractor": "IV Waste",
    "rowid": "1168577",
    "final_x": "3672942.14081",
    "final_y": "517827.75167",
    "longitude": "-90.09556005199936",
    "latitude": "29.918103513418078",
    "geocoded_column": {
      "latitude": "29.918103513418078",
      "longitude": "-90.09556005199936"
    }
  },
  {
    "service_request": "2025-1168576",
    "request_type": "Trash/Recycling",
    "request_reason": "Illegal Dumping",
    "date_created": "2025-02-12T15:51:01.000",
    "date_modified": "2025-02-12T15:51:03.000",
    "request_status": "Pending",
    "responsible_agency": "Department of Sanitation",
    "final_address": "HAYNE BLVD & LAMB RD",
    "address_councildis": "E",
    "status": "Pending",
    "rowid": "1168576",
    "final_x": "3696530.3",
    "final_y": "560647.58",
    "longitude": "-90.0195557622221",
    "latitude": "30.035120895592602",
    "geocoded_column": {
      "latitude": "30.035120895592602",
      "longitude": "-90.0195557622221"
    }
  },
  {
    "service_request": "2025-1168575",
    "request_type": "Trash/Recycling",
    "request_reason": "Illegal Dumping",
    "date_created": "2025-02-12T15:50:51.000",
    "date_modified": "2025-02-12T15:50:52.000",
    "request_status": "Pending",
    "responsible_agency": "Department of Sanitation",
    "final_address": "4128 LaSalle St",
    "address_councildis": "B",
    "status": "Pending",
    "rowid": "1168575",
    "final_x": "3671441.07547",
    "final_y": "523753.445627",
    "longitude": "-90.10009680315675",
    "latitude": "29.934441776521318",
    "geocoded_column": {
      "latitude": "29.934441776521318",
      "longitude": "-90.10009680315675"
    }
  },
  {
    "service_request": "2025-1168574",
    "request_type": "Trash/Recycling",
    "request_reason": "Request a Large Item Pick Up",
    "date_created": "2025-02-12T15:47:04.000",
    "date_modified": "2025-02-12T15:47:06.000",
    "request_status": "Pending",
    "responsible_agency": "Department of Sanitation",
    "final_address": "7330 Lake Barrington Dr",
    "address_councildis": "E",
    "status": "Assigned to Contractor",
    "contractor": "Waste Pro",
    "rowid": "1168574",
    "final_x": "3712166.40786",
    "final_y": "564972.351906",
    "longitude": "-89.9699810387647",
    "latitude": "30.046510066114426",
    "geocoded_column": {
      "latitude": "30.046510066114426",
      "longitude": "-89.9699810387647"
    }
  },
  {
    "service_request": "2025-1168573",
    "request_type": "Trash/Recycling",
    "request_reason": "Return Recycling Cart",
    "date_created": "2025-02-12T15:44:23.000",
    "date_modified": "2025-02-12T15:44:25.000",
    "request_status": "Pending",
    "responsible_agency": "Department of Sanitation",
    "final_address": "4901 St Charles Ave",
    "address_councildis": "B",
    "status": "Pending",
    "rowid": "1168573",
    "final_x": "3669029.03022",
    "final_y": "520880.183673",
    "longitude": "-90.10780860647249",
    "latitude": "29.92661238584354",
    "geocoded_column": {
      "latitude": "29.92661238584354",
      "longitude": "-90.10780860647249"
    }
  },
  {
    "service_request": "2025-1168572",
    "request_type": "Health Related Request",
    "request_reason": "Noise Ordinance Complaint",
    "date_created": "2025-02-12T15:41:01.000",
    "date_modified": "2025-02-12T16:07:38.000",
    "case_close_date": "2025-02-12T10:07:37.000",
    "request_status": "Closed",
    "responsible_agency": "Health Department",
    "final_address": "1027 Henriette Delille St",
    "address_councildis": "C",
    "status": "Invalid Request",
    "rowid": "1168572",
    "final_x": "3681842.77628",
    "final_y": "534694.710278",
    "longitude": "-90.0668771601929",
    "latitude": "29.96421464137617",
    "geocoded_column": {
      "latitude": "29.96421464137617",
      "longitude": "-90.0668771601929"
    }
  },
  {
    "service_request": "2025-1168571",
    "request_type": "Roads and Streets",
    "request_reason": "Sidewalk Damaged or Missing",
    "date_created": "2025-02-12T15:40:16.000",
    "date_modified": "2025-02-12T15:40:18.000",
    "request_status": "Pending",
    "responsible_agency": "Department of Public Works",
    "final_address": "1912 Marigny St",
    "address_councildis": "D",
    "status": "Pending",
    "rowid": "1168571",
    "final_x": "3685131.24533",
    "final_y": "539415.679178",
    "longitude": "-90.05632632064747",
    "latitude": "29.977095313279044",
    "geocoded_column": {
      "latitude": "29.977095313279044",
      "longitude": "-90.05632632064747"
    }
  },
  {
    "service_request": "2025-1168570",
    "request_type": "Trash/Recycling",
    "request_reason": "Missed Trash Pick-Up",
    "date_created": "2025-02-12T15:37:27.000",
    "date_modified": "2025-02-12T15:37:31.000",
    "case_close_date": "2025-02-12T09:37:30.000",
    "request_status": "Closed",
    "responsible_agency": "Department of Sanitation",
    "final_address": "6992 Queensway Dr",
    "address_councildis": "E",
    "status": "Assigned to Contractor",
    "contractor": "Waste Pro",
    "contractor_action": "Invalid Request",
    "rowid": "1168570",
    "final_x": "3719325.96498",
    "final_y": "569192.220454",
    "longitude": "-89.94719204880143",
    "latitude": "30.057876787424348",
    "geocoded_column": {
      "latitude": "30.057876787424348",
      "longitude": "-89.94719204880143"
    }
  },
  {
    "service_request": "2025-1168569",
    "request_type": "Abandoned Vehicles",
    "request_reason": "Abandoned/Junk Vehicles",
    "date_created": "2025-02-12T15:29:17.000",
    "date_modified": "2025-02-12T15:31:24.000",
    "request_status": "Pending",
    "responsible_agency": "Department of Public Works",
    "final_address": "5214 Lafaye St",
    "address_councildis": "D",
    "status": "Pending",
    "rowid": "1168569",
    "final_x": "3687163.2173",
    "final_y": "552421.514518",
    "longitude": "-90.04944845895297",
    "latitude": "30.012794258325346",
    "geocoded_column": {
      "latitude": "30.012794258325346",
      "longitude": "-90.04944845895297"
    }
  },
  {
    "service_request": "2025-1168568",
    "request_type": "Traffic Signals",
    "request_reason": "Traffic Signal Malfunctioning or Damaged",
    "date_created": "2025-02-12T15:29:14.000",
    "date_modified": "2025-02-12T15:29:15.000",
    "request_status": "Pending",
    "responsible_agency": "Department of Public Works",
    "final_address": "S NORMAN C FRANCIS PKWY & BANKS ST",
    "address_councildis": "B",
    "status": "Pending",
    "rowid": "1168568",
    "final_x": "3672396.1",
    "final_y": "535812.98",
    "longitude": "-90.09667091655827",
    "latitude": "29.967573220426527",
    "geocoded_column": {
      "latitude": "29.967573220426527",
      "longitude": "-90.09667091655827"
    }
  },
  {
    "service_request": "2025-1168567",
    "request_type": "Trash/Recycling",
    "request_reason": "Request a Large Item Pick Up",
    "date_created": "2025-02-12T15:28:37.000",
    "date_modified": "2025-02-12T15:28:40.000",
    "request_status": "Pending",
    "responsible_agency": "Department of Sanitation",
    "final_address": "102 Cambridge Ct",
    "address_councildis": "C",
    "status": "Assigned to Contractor",
    "contractor": "Richards Disposal",
    "rowid": "1168567",
    "final_x": "3705667.97387",
    "final_y": "518485.625207",
    "longitude": "-89.99223889617556",
    "latitude": "29.918899826674743",
    "geocoded_column": {
      "latitude": "29.918899826674743",
      "longitude": "-89.99223889617556"
    }
  },
  {
    "service_request": "2025-1168566",
    "request_type": "Streetlights",
    "request_reason": "Streetlight Outage/Malfunction",
    "date_created": "2025-02-12T15:27:48.000",
    "date_modified": "2025-02-12T15:27:50.000",
    "request_status": "Pending",
    "responsible_agency": "Department of Public Works",
    "final_address": "1917 Marigny St",
    "address_councildis": "D",
    "status": "Pending",
    "contractor": "Legacy Professional Services",
    "rowid": "1168566",
    "final_x": "3685204.42268",
    "final_y": "539422.575434",
    "longitude": "-90.05609496054457",
    "latitude": "29.977112032907225",
    "geocoded_column": {
      "latitude": "29.977112032907225",
      "longitude": "-90.05609496054457"
    }
  },
  {
    "service_request": "2025-1168565",
    "request_type": "Trash/Recycling",
    "request_reason": "Order Trash Cart",
    "date_created": "2025-02-12T15:27:07.000",
    "date_modified": "2025-02-12T15:27:10.000",
    "request_status": "Pending",
    "responsible_agency": "Department of Sanitation",
    "final_address": "1610 Rev. John Raphael, Jr. Way",
    "address_councildis": "B",
    "status": "Assigned to Contractor",
    "contractor": "IV Waste",
    "rowid": "1168565",
    "final_x": "3676448.62421",
    "final_y": "526775.035902",
    "longitude": "-90.08418409832093",
    "latitude": "29.942601014213682",
    "geocoded_column": {
      "latitude": "29.942601014213682",
      "longitude": "-90.08418409832093"
    }
  },
  {
    "service_request": "2025-1168564",
    "request_type": "Parks & Parkways",
    "request_reason": "Request Tree Service (Right of Way/Public Property)",
    "date_created": "2025-02-12T15:25:36.000",
    "date_modified": "2025-02-12T15:26:20.000",
    "request_status": "Pending",
    "responsible_agency": "Department of Parks & Parkway",
    "final_address": "9019 Dixon St",
    "address_councildis": "A",
    "status": "Pending",
    "rowid": "1168564",
    "final_x": "3665973.16596",
    "final_y": "537746.938184",
    "longitude": "-90.11688992588546",
    "latitude": "29.97308000721843",
    "geocoded_column": {
      "latitude": "29.97308000721843",
      "longitude": "-90.11688992588546"
    }
  },
  {
    "service_request": "2025-1168563",
    "request_type": "Trash/Recycling",
    "request_reason": "Request a Large Item Pick Up",
    "date_created": "2025-02-12T15:23:25.000",
    "date_modified": "2025-02-12T15:23:29.000",
    "case_close_date": "2025-02-12T09:23:28.000",
    "request_status": "Closed",
    "responsible_agency": "Department of Sanitation",
    "final_address": "102 Cambridge Ct",
    "address_councildis": "C",
    "status": "Assigned to Contractor",
    "contractor": "Richards Disposal",
    "contractor_action": "Completed",
    "rowid": "1168563",
    "final_x": "3705667.97387",
    "final_y": "518485.625207",
    "longitude": "-89.99223889617556",
    "latitude": "29.918899826674743",
    "geocoded_column": {
      "latitude": "29.918899826674743",
      "longitude": "-89.99223889617556"
    }
  },
  {
    "service_request": "2025-1168562",
    "request_type": "Property Maintenance",
    "request_reason": "Property Maintenance",
    "date_created": "2025-02-12T15:19:07.000",
    "date_modified": "2025-02-12T15:27:15.000",
    "case_close_date": "2025-02-12T09:27:14.000",
    "request_status": "Closed",
    "responsible_agency": "Department of Code Enforcement",
    "final_address": "4835 Corinne St",
    "address_councildis": "E",
    "status": "Referred to Code Enforcement",
    "rowid": "1168562",
    "final_x": "3715073.19992",
    "final_y": "557236.347419",
    "longitude": "-89.96108696889746",
    "latitude": "30.025143744790675",
    "geocoded_column": {
      "latitude": "30.025143744790675",
      "longitude": "-89.96108696889746"
    }
  },
  {
    "service_request": "2025-1168561",
    "request_type": "Trash/Recycling",
    "request_reason": "Request a Large Item Pick Up",
    "date_created": "2025-02-12T15:16:53.000",
    "date_modified": "2025-02-12T15:16:56.000",
    "request_status": "Pending",
    "responsible_agency": "Department of Sanitation",
    "final_address": "7521 Mackenzie St",
    "address_councildis": "E",
    "status": "Assigned to Contractor",
    "contractor": "Waste Pro",
    "rowid": "1168561",
    "final_x": "3711464.94046",
    "final_y": "565501.646178",
    "longitude": "-89.97217814775424",
    "latitude": "30.047988341924675",
    "geocoded_column": {
      "latitude": "30.047988341924675",
      "longitude": "-89.97217814775424"
    }
  },
  {
    "service_request": "2025-1168560",
    "request_type": "Streetlights",
    "request_reason": "Streetlight Outage/Malfunction",
    "date_created": "2025-02-12T15:15:43.000",
    "date_modified": "2025-02-12T15:15:44.000",
    "request_status": "Pending",
    "responsible_agency": "Department of Public Works",
    "final_address": "2020 Valentine Ct",
    "address_councildis": "C",
    "status": "Pending",
    "contractor": "Legacy Professional Services",
    "rowid": "1168560",
    "final_x": "3699801.15204",
    "final_y": "523858.159611",
    "longitude": "-90.01056152908515",
    "latitude": "29.93385995191881",
    "geocoded_column": {
      "latitude": "29.93385995191881",
      "longitude": "-90.01056152908515"
    }
  },
  {
    "service_request": "2025-1168559",
    "request_type": "Trash/Recycling",
    "request_reason": "Request a Large Item Pick Up",
    "date_created": "2025-02-12T15:10:31.000",
    "date_modified": "2025-02-12T15:22:15.000",
    "request_status": "Pending",
    "responsible_agency": "Department of Sanitation",
    "final_address": "2929 Octavia St",
    "address_councildis": "A",
    "status": "Assigned to Contractor",
    "contractor": "IV Waste",
    "rowid": "1168559",
    "final_x": "3668105.52628",
    "final_y": "526189.262526",
    "longitude": "-90.11054501738286",
    "latitude": "29.941237780725963",
    "geocoded_column": {
      "latitude": "29.941237780725963",
      "longitude": "-90.11054501738286"
    }
  },
  {
    "service_request": "2025-1168558",
    "request_type": "Trash/Recycling",
    "request_reason": "Illegal Dumping",
    "date_created": "2025-02-12T15:09:15.000",
    "date_modified": "2025-02-12T15:09:19.000",
    "request_status": "Pending",
    "responsible_agency": "Department of Sanitation",
    "final_address": "425 Milan St",
    "address_councildis": "B",
    "status": "Pending",
    "rowid": "1168558",
    "final_x": "3671982.83764",
    "final_y": "517464.06271",
    "longitude": "-90.09860042824032",
    "latitude": "29.917131943412528",
    "geocoded_column": {
      "latitude": "29.917131943412528",
      "longitude": "-90.09860042824032"
    }
  },
  {
    "service_request": "2025-1168557",
    "request_type": "Mosquito, Termite & Rodent Control",
    "request_reason": "Rodent Complaint (Rats)",
    "date_created": "2025-02-12T15:08:27.000",
    "date_modified": "2025-02-12T15:08:29.000",
    "request_status": "Pending",
    "responsible_agency": "Mosquito, Termite & Rodent Control Board",
    "final_address": "2230 Jena St",
    "address_councildis": "B",
    "status": "Pending",
    "rowid": "1168557",
    "final_x": "3670158.78145",
    "final_y": "523224.531835",
    "longitude": "-90.10416289483953",
    "latitude": "29.933025319580135",
    "geocoded_column": {
      "latitude": "29.933025319580135",
      "longitude": "-90.10416289483953"
    }
  },
  {
    "service_request": "2025-1168556",
    "request_type": "General Services",
    "request_reason": "General Service Request",
    "date_created": "2025-02-12T15:07:48.000",
    "date_modified": "2025-02-12T15:10:15.000",
    "case_close_date": "2025-02-12T09:10:14.000",
    "request_status": "Closed",
    "responsible_agency": "Orleans Parish Communication District",
    "final_address": "3425 Milan St",
    "address_councildis": "B",
    "status": "Referred to External Agency",
    "rowid": "1168556",
    "final_x": "3670982.61595",
    "final_y": "527518.452479",
    "longitude": "-90.10141636215917",
    "latitude": "29.944807883564152",
    "geocoded_column": {
      "latitude": "29.944807883564152",
      "longitude": "-90.10141636215917"
    }
  },
  {
    "service_request": "2025-1168555",
    "request_type": "Trash/Recycling",
    "request_reason": "Request a Large Item Pick Up",
    "date_created": "2025-02-12T15:04:43.000",
    "date_modified": "2025-02-12T15:04:45.000",
    "request_status": "Pending",
    "responsible_agency": "Department of Sanitation",
    "final_address": "2729 Bristol Pl",
    "address_councildis": "C",
    "status": "Assigned to Contractor",
    "contractor": "Richards Disposal",
    "rowid": "1168555",
    "final_x": "3702541.59933",
    "final_y": "520914.882169",
    "longitude": "-90.00201807989372",
    "latitude": "29.925679688890888",
    "geocoded_column": {
      "latitude": "29.925679688890888",
      "longitude": "-90.00201807989372"
    }
  },
  {
    "service_request": "2025-1168554",
    "request_type": "Trash/Recycling",
    "request_reason": "Repair Trash Cart",
    "date_created": "2025-02-12T15:02:28.000",
    "date_modified": "2025-02-12T15:02:31.000",
    "request_status": "Pending",
    "responsible_agency": "Department of Sanitation",
    "final_address": "4538 Orleans Ave",
    "address_councildis": "A",
    "status": "Assigned to Contractor",
    "contractor": "IV Waste",
    "rowid": "1168554",
    "final_x": "3670815.99182",
    "final_y": "541405.347276",
    "longitude": "-90.10147107867452",
    "latitude": "29.982997136842346",
    "geocoded_column": {
      "latitude": "29.982997136842346",
      "longitude": "-90.10147107867452"
    }
  },
  {
    "service_request": "2025-1168553",
    "request_type": "Streetlights",
    "request_reason": "Streetlight Outage/Malfunction",
    "date_created": "2025-02-12T14:59:52.000",
    "date_modified": "2025-02-12T14:59:53.000",
    "request_status": "Pending",
    "responsible_agency": "Department of Public Works",
    "final_address": "5229 Berkley Dr",
    "address_councildis": "C",
    "status": "Pending",
    "contractor": "Legacy Professional Services",
    "rowid": "1168553",
    "final_x": "3703135.32561",
    "final_y": "518137.077302",
    "longitude": "-90.0002458959412",
    "latitude": "29.91802270310213",
    "geocoded_column": {
      "latitude": "29.91802270310213",
      "longitude": "-90.0002458959412"
    }
  },
  {
    "service_request": "2025-1168552",
    "request_type": "General Services",
    "request_reason": "General Service Request",
    "date_created": "2025-02-12T14:55:11.000",
    "date_modified": "2025-02-12T14:57:35.000",
    "case_close_date": "2025-02-12T08:57:34.000",
    "request_status": "Closed",
    "responsible_agency": "Orleans Parish Communication District",
    "final_address": "2005 Josephine St",
    "address_councildis": "B",
    "status": "Referred to External Agency",
    "rowid": "1168552",
    "final_x": "3676928.65966",
    "final_y": "525280.477949",
    "longitude": "-90.08272001531691",
    "latitude": "29.938477074341552",
    "geocoded_column": {
      "latitude": "29.938477074341552",
      "longitude": "-90.08272001531691"
    }
  },
  {
    "service_request": "2025-1168551",
    "request_type": "Property Maintenance",
    "request_reason": "Property Maintenance",
    "date_created": "2025-02-12T14:54:52.000",
    "date_modified": "2025-02-12T15:05:40.000",
    "case_close_date": "2025-02-12T09:05:39.000",
    "request_status": "Closed",
    "responsible_agency": "Department of Code Enforcement",
    "final_address": "1820 General Pershing St",
    "address_councildis": "B",
    "status": "Referred to Code Enforcement",
    "rowid": "1168551",
    "final_x": "3671099.31572",
    "final_y": "521816.01177",
    "longitude": "-90.10124150076255",
    "latitude": "29.92912456618847",
    "geocoded_column": {
      "latitude": "29.92912456618847",
      "longitude": "-90.10124150076255"
    }
  },
  {
    "service_request": "2025-1168550",
    "request_type": "Property Maintenance",
    "request_reason": "Property Maintenance",
    "date_created": "2025-02-12T14:51:17.000",
    "date_modified": "2025-02-12T14:51:19.000",
    "request_status": "Pending",
    "responsible_agency": "Department of Code Enforcement",
    "final_address": "2431 Clio St",
    "address_councildis": "B",
    "status": "Pending",
    "rowid": "1168550",
    "final_x": "3676800.97864",
    "final_y": "528289.112448",
    "longitude": "-90.08301947144625",
    "latitude": "29.94675365664025",
    "geocoded_column": {
      "latitude": "29.94675365664025",
      "longitude": "-90.08301947144625"
    }
  },
  {
    "service_request": "2025-1168549",
    "request_type": "Trash/Recycling",
    "request_reason": "Dead Animal Pick Up",
    "date_created": "2025-02-12T14:50:55.000",
    "date_modified": "2025-02-12T14:50:57.000",
    "request_status": "Pending",
    "responsible_agency": "Department of Sanitation",
    "final_address": "7949 Alabama St",
    "address_councildis": "D",
    "status": "Assigned to Contractor",
    "contractor": "Waste Pro",
    "rowid": "1168549",
    "final_x": "3694601.55818",
    "final_y": "559747.458717",
    "longitude": "-90.02568333075267",
    "latitude": "30.032706571504775",
    "geocoded_column": {
      "latitude": "30.032706571504775",
      "longitude": "-90.02568333075267"
    }
  },
  {
    "service_request": "2025-1168548",
    "request_type": "Property Maintenance",
    "request_reason": "Property Maintenance",
    "date_created": "2025-02-12T14:50:27.000",
    "date_modified": "2025-02-12T14:50:29.000",
    "request_status": "Pending",
    "responsible_agency": "Department of Code Enforcement",
    "final_address": "2433 Clio St",
    "address_councildis": "B",
    "status": "Pending",
    "rowid": "1168548",
    "final_x": "3676851.91029",
    "final_y": "528422.580416",
    "longitude": "-90.08285406270788",
    "latitude": "29.947119121008786",
    "geocoded_column": {
      "latitude": "29.947119121008786",
      "longitude": "-90.08285406270788"
    }
  },
  {
    "service_request": "2025-1168547",
    "request_type": "Trash/Recycling",
    "request_reason": "Request a Large Item Pick Up",
    "date_created": "2025-02-12T14:47:52.000",
    "date_modified": "2025-02-12T14:48:40.000",
    "request_status": "Pending",
    "responsible_agency": "Department of Sanitation",
    "final_address": "605 Leboeuf St",
    "address_councildis": "C",
    "status": "Assigned to Contractor",
    "contractor": "Richards Disposal",
    "rowid": "1168547",
    "final_x": "3689782.66684",
    "final_y": "529330.188929",
    "longitude": "-90.04199465305346",
    "latitude": "29.949220376875925",
    "geocoded_column": {
      "latitude": "29.949220376875925",
      "longitude": "-90.04199465305346"
    }
  },
  {
    "service_request": "2025-1168546",
    "request_type": "Trash/Recycling",
    "request_reason": "MIssed Recycling Pick-Up",
    "date_created": "2025-02-12T14:45:41.000",
    "date_modified": "2025-02-12T14:45:44.000",
    "request_status": "Pending",
    "responsible_agency": "Department of Sanitation",
    "final_address": "2049 Wagner St",
    "address_councildis": "C",
    "status": "Assigned to Contractor",
    "contractor": "Richards Disposal",
    "rowid": "1168546",
    "final_x": "3690251.46723",
    "final_y": "523010.967227",
    "longitude": "-90.040739527987",
    "latitude": "29.93183013551087",
    "geocoded_column": {
      "latitude": "29.93183013551087",
      "longitude": "-90.040739527987"
    }
  },
  {
    "service_request": "2025-1168545",
    "request_type": "Trash/Recycling",
    "request_reason": "Request a Large Item Pick Up",
    "date_created": "2025-02-12T14:41:55.000",
    "date_modified": "2025-02-12T14:41:57.000",
    "request_status": "Pending",
    "responsible_agency": "Department of Sanitation",
    "final_address": "14800 Emory Rd",
    "address_councildis": "E",
    "status": "Assigned to Contractor",
    "contractor": "Waste Pro",
    "rowid": "1168545",
    "final_x": "3720617.41004",
    "final_y": "573745.890346",
    "longitude": "-89.94293534063766",
    "latitude": "30.07035444688436",
    "geocoded_column": {
      "latitude": "30.07035444688436",
      "longitude": "-89.94293534063766"
    }
  },
  {
    "service_request": "2025-1168544",
    "request_type": "Trash/Recycling",
    "request_reason": "Dead Animal Pick Up",
    "date_created": "2025-02-12T14:41:40.000",
    "date_modified": "2025-02-12T14:41:42.000",
    "request_status": "Pending",
    "responsible_agency": "Department of Sanitation",
    "final_address": "1212 Forstall St",
    "address_councildis": "E",
    "status": "Assigned to Contractor",
    "contractor": "Waste Pro",
    "rowid": "1168544",
    "final_x": "3696346.95907",
    "final_y": "534688.817478",
    "longitude": "-90.02107462673737",
    "latitude": "29.963749671208532",
    "geocoded_column": {
      "latitude": "29.963749671208532",
      "longitude": "-90.02107462673737"
    }
  },
  {
    "service_request": "2025-1168543",
    "request_type": "Abandoned Vehicles",
    "request_reason": "Abandoned/Junk Vehicles",
    "date_created": "2025-02-12T14:40:53.000",
    "date_modified": "2025-02-12T14:42:20.000",
    "request_status": "Pending",
    "responsible_agency": "Department of Public Works",
    "final_address": "DWYER RD & LAMB RD",
    "address_councildis": "D",
    "status": "Inspected",
    "rowid": "1168543",
    "final_x": "3698284.4",
    "final_y": "555337.98",
    "longitude": "-90.0142057228728",
    "latitude": "30.020466114288958",
    "geocoded_column": {
      "latitude": "30.020466114288958",
      "longitude": "-90.0142057228728"
    }
  },
  {
    "service_request": "2025-1168542",
    "request_type": "Roads and Streets",
    "request_reason": "Sidewalk Damaged or Missing",
    "date_created": "2025-02-12T14:33:35.000",
    "date_modified": "2025-02-12T21:52:22.000",
    "case_close_date": "2025-02-12T15:52:21.000",
    "request_status": "Closed",
    "responsible_agency": "Department of Public Works",
    "final_address": "141 Chartres St",
    "address_councildis": "C",
    "status": "Duplicate Request",
    "rowid": "1168542",
    "final_x": "3681688.99509",
    "final_y": "530786.421506",
    "longitude": "-90.06749913305245",
    "latitude": "29.95347285081785",
    "geocoded_column": {
      "latitude": "29.95347285081785",
      "longitude": "-90.06749913305245"
    }
  },
  {
    "service_request": "2025-1168541",
    "request_type": "Drainage",
    "request_reason": "Catch Basin Clogged",
    "date_created": "2025-02-12T14:32:22.000",
    "date_modified": "2025-02-12T14:32:25.000",
    "request_status": "Pending",
    "responsible_agency": "Sewerage & Water Board ",
    "final_address": "141 Chartres St",
    "address_councildis": "C",
    "status": "Pending",
    "rowid": "1168541",
    "final_x": "3681688.99509",
    "final_y": "530786.421506",
    "longitude": "-90.06749913305245",
    "latitude": "29.95347285081785",
    "geocoded_column": {
      "latitude": "29.95347285081785",
      "longitude": "-90.06749913305245"
    }
  },
  {
    "service_request": "2025-1168540",
    "request_type": "Trash/Recycling",
    "request_reason": "Replace Trash Cart",
    "date_created": "2025-02-12T14:29:28.000",
    "date_modified": "2025-02-12T14:29:31.000",
    "request_status": "Pending",
    "responsible_agency": "Department of Sanitation",
    "final_address": "927 Seventh St",
    "address_councildis": "B",
    "status": "Assigned to Contractor",
    "contractor": "IV Waste",
    "rowid": "1168540",
    "final_x": "3676687.77429",
    "final_y": "519983.241592",
    "longitude": "-90.08366290896333",
    "latitude": "29.92391862839175",
    "geocoded_column": {
      "latitude": "29.92391862839175",
      "longitude": "-90.08366290896333"
    }
  },
  {
    "service_request": "2025-1168539",
    "request_type": "Trash/Recycling",
    "request_reason": "Missed Trash Pick-Up",
    "date_created": "2025-02-12T14:24:03.000",
    "date_modified": "2025-02-12T14:24:05.000",
    "request_status": "Pending",
    "responsible_agency": "Department of Sanitation",
    "final_address": "3365 Esplanade Ave",
    "address_councildis": "A",
    "status": "Assigned to Contractor",
    "contractor": "IV Waste",
    "rowid": "1168539",
    "final_x": "3675653.80981",
    "final_y": "540985.697867",
    "longitude": "-90.08620519053935",
    "latitude": "29.981699348986343",
    "geocoded_column": {
      "latitude": "29.981699348986343",
      "longitude": "-90.08620519053935"
    }
  },
  {
    "service_request": "2025-1168538",
    "request_type": "Trash/Recycling",
    "request_reason": "Missed Trash Pick-Up",
    "date_created": "2025-02-12T14:23:37.000",
    "date_modified": "2025-02-12T15:02:50.000",
    "case_close_date": "2025-02-12T09:02:50.000",
    "request_status": "Closed",
    "responsible_agency": "Department of Sanitation",
    "final_address": "4850 Brittany Ct",
    "address_councildis": "E",
    "status": "Invalid Request",
    "contractor": "Waste Pro",
    "contractor_action": "Invalid Request",
    "rowid": "1168538",
    "final_x": "3726796.98713",
    "final_y": "561687.147807",
    "longitude": "-89.92386918813139",
    "latitude": "30.03699035328484",
    "geocoded_column": {
      "latitude": "30.03699035328484",
      "longitude": "-89.92386918813139"
    }
  },
  {
    "service_request": "2025-1168537",
    "request_type": "Streetlights",
    "request_reason": "Streetlight Outage/Malfunction",
    "date_created": "2025-02-12T14:17:29.000",
    "date_modified": "2025-02-12T14:17:30.000",
    "request_status": "Pending",
    "responsible_agency": "Department of Public Works",
    "final_address": "872 Florida Blvd",
    "address_councildis": "A",
    "status": "Pending",
    "contractor": "Legacy Professional Services",
    "rowid": "1168537",
    "final_x": "3669432.45006",
    "final_y": "545189.497743",
    "longitude": "-90.1057129689375",
    "latitude": "29.99344308199599",
    "geocoded_column": {
      "latitude": "29.99344308199599",
      "longitude": "-90.1057129689375"
    }
  },
  {
    "service_request": "2025-1168536",
    "request_type": "Property Maintenance",
    "request_reason": "Property Maintenance",
    "date_created": "2025-02-12T14:12:06.000",
    "date_modified": "2025-02-12T14:30:46.000",
    "case_close_date": "2025-02-12T08:30:45.000",
    "request_status": "Closed",
    "responsible_agency": "Department of Code Enforcement",
    "final_address": "4202 Almonaster Ave",
    "address_councildis": "D",
    "status": "Referred to Code Enforcement",
    "rowid": "1168536",
    "final_x": "3690294.49468",
    "final_y": "547691.952274",
    "longitude": "-90.03972406440684",
    "latitude": "29.9996928549843",
    "geocoded_column": {
      "latitude": "29.9996928549843",
      "longitude": "-90.03972406440684"
    }
  },
  {
    "service_request": "2025-1168535",
    "request_type": "Abandoned Vehicles",
    "request_reason": "Abandoned/Junk Vehicles",
    "date_created": "2025-02-12T14:08:55.000",
    "date_modified": "2025-02-12T14:08:59.000",
    "request_status": "Pending",
    "responsible_agency": "Department of Public Works",
    "final_address": "2100 Pauger St",
    "address_councildis": "C",
    "status": "Pending",
    "rowid": "1168535",
    "final_x": "3683749.16642",
    "final_y": "537355.849096",
    "longitude": "-90.06076361815185",
    "latitude": "29.97147377824326",
    "geocoded_column": {
      "latitude": "29.97147377824326",
      "longitude": "-90.06076361815185"
    }
  },
  {
    "service_request": "2025-1168534",
    "request_type": "Property Maintenance",
    "request_reason": "Property Maintenance",
    "date_created": "2025-02-12T14:01:25.000",
    "date_modified": "2025-02-12T14:56:15.000",
    "case_close_date": "2025-02-12T08:56:13.000",
    "request_status": "Closed",
    "responsible_agency": "Department of Code Enforcement",
    "final_address": "2429 Philip St",
    "address_councildis": "B",
    "status": "Referred to Code Enforcement",
    "rowid": "1168534",
    "final_x": "3675409.64526",
    "final_y": "526035.97587",
    "longitude": "-90.08748976992358",
    "latitude": "29.94059994543265",
    "geocoded_column": {
      "latitude": "29.94059994543265",
      "longitude": "-90.08748976992358"
    }
  },
  {
    "service_request": "2025-1168533",
    "request_type": "Trash/Recycling",
    "request_reason": "Request a Large Item Pick Up",
    "date_created": "2025-02-12T14:00:07.000",
    "date_modified": "2025-02-12T14:00:11.000",
    "request_status": "Pending",
    "responsible_agency": "Department of Sanitation",
    "final_address": "7607 Berg Rd",
    "address_councildis": "E",
    "status": "Assigned to Contractor",
    "contractor": "Waste Pro",
    "rowid": "1168533",
    "final_x": "3712110.56818",
    "final_y": "566558.649059",
    "longitude": "-89.97009787248022",
    "latitude": "30.050873567395758",
    "geocoded_column": {
      "latitude": "30.050873567395758",
      "longitude": "-89.97009787248022"
    }
  },
  {
    "service_request": "2025-1168532",
    "request_type": "Trash/Recycling",
    "request_reason": "Request a Large Item Pick Up",
    "date_created": "2025-02-12T13:56:45.000",
    "date_modified": "2025-02-12T14:41:29.000",
    "case_close_date": "2025-02-12T08:41:27.000",
    "request_status": "Closed",
    "responsible_agency": "Department of Sanitation",
    "final_address": "4674 Nottingham Dr",
    "address_councildis": "E",
    "status": "Duplicate Request",
    "contractor": "Waste Pro",
    "contractor_action": "Duplicate",
    "rowid": "1168532",
    "final_x": "3716349.64421",
    "final_y": "556564.402842",
    "longitude": "-89.95707915191436",
    "latitude": "30.023254070482793",
    "geocoded_column": {
      "latitude": "30.023254070482793",
      "longitude": "-89.95707915191436"
    }
  },
  {
    "service_request": "2025-1168531",
    "request_type": "Parks & Parkways",
    "request_reason": "Request Tree Service (Right of Way/Public Property)",
    "date_created": "2025-02-12T13:53:58.000",
    "date_modified": "2025-02-12T13:54:00.000",
    "request_status": "Pending",
    "responsible_agency": "Department of Parks & Parkway",
    "final_address": "4818 Frenchmen St",
    "address_councildis": "D",
    "status": "Pending",
    "rowid": "1168531",
    "final_x": "3683407.56719",
    "final_y": "550410.26562",
    "longitude": "-90.06138478539923",
    "latitude": "30.007379226794193",
    "geocoded_column": {
      "latitude": "30.007379226794193",
      "longitude": "-90.06138478539923"
    }
  },
  {
    "service_request": "2025-1168530",
    "request_type": "Trash/Recycling",
    "request_reason": "Repair Trash Cart",
    "date_created": "2025-02-12T13:51:44.000",
    "date_modified": "2025-02-12T13:51:46.000",
    "request_status": "Pending",
    "responsible_agency": "Department of Sanitation",
    "final_address": "5821 Annunciation St",
    "address_councildis": "A",
    "status": "Assigned to Contractor",
    "contractor": "IV Waste",
    "rowid": "1168530",
    "final_x": "3665033.19623",
    "final_y": "517738.611382",
    "longitude": "-90.12052738058195",
    "latitude": "29.918090955080473",
    "geocoded_column": {
      "latitude": "29.918090955080473",
      "longitude": "-90.12052738058195"
    }
  },
  {
    "service_request": "2025-1168529",
    "request_type": "Trash/Recycling",
    "request_reason": "Request a Large Item Pick Up",
    "date_created": "2025-02-12T13:50:24.000",
    "date_modified": "2025-02-12T13:50:27.000",
    "request_status": "Pending",
    "responsible_agency": "Department of Sanitation",
    "final_address": "4674 Nottingham Dr",
    "address_councildis": "E",
    "status": "Assigned to Contractor",
    "contractor": "Waste Pro",
    "rowid": "1168529",
    "final_x": "3716349.64421",
    "final_y": "556564.402842",
    "longitude": "-89.95707915191436",
    "latitude": "30.023254070482793",
    "geocoded_column": {
      "latitude": "30.023254070482793",
      "longitude": "-89.95707915191436"
    }
  },
  {
    "service_request": "2025-1168528",
    "request_type": "Abandoned Vehicles",
    "request_reason": "Abandoned/Junk Vehicles",
    "date_created": "2025-02-12T13:43:28.000",
    "date_modified": "2025-02-12T13:44:58.000",
    "request_status": "Pending",
    "responsible_agency": "Department of Public Works",
    "final_address": "1045 Clouet St",
    "address_councildis": "C",
    "status": "Pending",
    "rowid": "1168528",
    "final_x": "3689006.75395",
    "final_y": "535904.233735",
    "longitude": "-90.04421101788574",
    "latitude": "29.967320743436115",
    "geocoded_column": {
      "latitude": "29.967320743436115",
      "longitude": "-90.04421101788574"
    }
  },
  {
    "service_request": "2025-1168527",
    "request_type": "Streetlights",
    "request_reason": "Streetlight Outage/Malfunction",
    "date_created": "2025-02-12T13:42:42.000",
    "date_modified": "2025-02-12T13:42:43.000",
    "request_status": "Pending",
    "responsible_agency": "Department of Public Works",
    "final_address": "1917 Marigny St",
    "address_councildis": "D",
    "status": "Pending",
    "contractor": "Legacy Professional Services",
    "rowid": "1168527",
    "final_x": "3685204.42268",
    "final_y": "539422.575434",
    "longitude": "-90.05609496054457",
    "latitude": "29.977112032907225",
    "geocoded_column": {
      "latitude": "29.977112032907225",
      "longitude": "-90.05609496054457"
    }
  },
  {
    "service_request": "2025-1168526",
    "request_type": "Abandoned Vehicles",
    "request_reason": "Abandoned/Junk Vehicles",
    "date_created": "2025-02-12T13:39:57.000",
    "date_modified": "2025-02-12T13:39:59.000",
    "request_status": "Pending",
    "responsible_agency": "Department of Public Works",
    "final_address": "221 N Prieur St",
    "address_councildis": "B",
    "status": "Pending",
    "rowid": "1168526",
    "final_x": "3677853.54664",
    "final_y": "533979.019397",
    "longitude": "-90.07949954772619",
    "latitude": "29.962367367799168",
    "geocoded_column": {
      "latitude": "29.962367367799168",
      "longitude": "-90.07949954772619"
    }
  },
  {
    "service_request": "2025-1168525",
    "request_type": "Trash/Recycling",
    "request_reason": "Request a Large Item Pick Up",
    "date_created": "2025-02-12T13:38:36.000",
    "date_modified": "2025-02-12T13:38:39.000",
    "request_status": "Pending",
    "responsible_agency": "Department of Sanitation",
    "final_address": "6205 Pasteur Blvd",
    "address_councildis": "D",
    "status": "Assigned to Contractor",
    "contractor": "IV Waste",
    "rowid": "1168525",
    "final_x": "3682813.84181",
    "final_y": "555810.080921",
    "longitude": "-90.06307140994726",
    "latitude": "30.022244859805564",
    "geocoded_column": {
      "latitude": "30.022244859805564",
      "longitude": "-90.06307140994726"
    }
  },
  {
    "service_request": "2025-1168524",
    "request_type": "Trash/Recycling",
    "request_reason": "Missed Trash Pick-Up",
    "date_created": "2025-02-12T13:28:27.000",
    "date_modified": "2025-02-12T13:47:54.000",
    "case_close_date": "2025-02-12T07:45:13.000",
    "request_status": "Closed",
    "responsible_agency": "Department of Sanitation",
    "final_address": "7832 Lafourche St",
    "address_councildis": "E",
    "status": "Invalid Request",
    "contractor": "Waste Pro",
    "contractor_action": "Invalid Request",
    "rowid": "1168524",
    "final_x": "3709685.13803",
    "final_y": "566299.272355",
    "longitude": "-89.97777345907953",
    "latitude": "30.050239505840572",
    "geocoded_column": {
      "latitude": "30.050239505840572",
      "longitude": "-89.97777345907953"
    }
  },
  {
    "service_request": "2025-1168523",
    "request_type": "Trash/Recycling",
    "request_reason": "Replace Recycling Cart",
    "date_created": "2025-02-12T13:27:56.000",
    "date_modified": "2025-02-12T13:27:58.000",
    "request_status": "Pending",
    "responsible_agency": "Department of Sanitation",
    "final_address": "3424 Cleveland Ave",
    "address_councildis": "B",
    "status": "Pending",
    "rowid": "1168523",
    "final_x": "3672665.69787",
    "final_y": "536561.657415",
    "longitude": "-90.09579398331907",
    "latitude": "29.969623827765364",
    "geocoded_column": {
      "latitude": "29.969623827765364",
      "longitude": "-90.09579398331907"
    }
  },
  {
    "service_request": "2025-1168522",
    "request_type": "Trash/Recycling",
    "request_reason": "Request a Large Item Pick Up",
    "date_created": "2025-02-12T13:27:47.000",
    "date_modified": "2025-02-12T13:27:49.000",
    "request_status": "Pending",
    "responsible_agency": "Department of Sanitation",
    "final_address": "7701 Branch Dr",
    "address_councildis": "E",
    "status": "Assigned to Contractor",
    "contractor": "Waste Pro",
    "rowid": "1168522",
    "final_x": "3714552.9237",
    "final_y": "569001.494822",
    "longitude": "-89.96228611708577",
    "latitude": "30.057510269463222",
    "geocoded_column": {
      "latitude": "30.057510269463222",
      "longitude": "-89.96228611708577"
    }
  },
  {
    "service_request": "2025-1168521",
    "request_type": "Trash/Recycling",
    "request_reason": "Repair Trash Cart",
    "date_created": "2025-02-12T13:22:24.000",
    "date_modified": "2025-02-12T13:22:26.000",
    "request_status": "Pending",
    "responsible_agency": "Department of Sanitation",
    "final_address": "2110 Amelia St",
    "address_councildis": "B",
    "status": "Assigned to Contractor",
    "contractor": "IV Waste",
    "rowid": "1168521",
    "final_x": "3672625.91937",
    "final_y": "523039.355323",
    "longitude": "-90.09638061076143",
    "latitude": "29.932443141774367",
    "geocoded_column": {
      "latitude": "29.932443141774367",
      "longitude": "-90.09638061076143"
    }
  },
  {
    "service_request": "2025-1168520",
    "request_type": "Trash/Recycling",
    "request_reason": "Illegal Dumping",
    "date_created": "2025-02-12T13:18:26.000",
    "date_modified": "2025-02-12T13:18:32.000",
    "request_status": "Pending",
    "responsible_agency": "Department of Sanitation",
    "final_address": "1125 Felicity St",
    "address_councildis": "B",
    "status": "Pending",
    "rowid": "1168520",
    "final_x": "3679851.2637",
    "final_y": "523230.519355",
    "longitude": "-90.0735642136091",
    "latitude": "29.932752331570473",
    "geocoded_column": {
      "latitude": "29.932752331570473",
      "longitude": "-90.0735642136091"
    }
  },
  {
    "service_request": "2025-1168519",
    "request_type": "Trash/Recycling",
    "request_reason": "Order Recycling Cart",
    "date_created": "2025-02-12T13:16:47.000",
    "date_modified": "2025-02-12T13:20:11.000",
    "request_status": "Pending",
    "responsible_agency": "Department of Sanitation",
    "final_address": "6518 Vicksburg St",
    "address_councildis": "A",
    "status": "Pending",
    "contractor": "Sanitation Dept. ",
    "rowid": "1168519",
    "final_x": "3669101.62804",
    "final_y": "550831.951573",
    "longitude": "-90.10656716187086",
    "latitude": "30.008967612123996",
    "geocoded_column": {
      "latitude": "30.008967612123996",
      "longitude": "-90.10656716187086"
    }
  },
  {
    "service_request": "2025-1168518",
    "request_type": "Trash/Recycling",
    "request_reason": "Order Trash Cart",
    "date_created": "2025-02-12T13:16:10.000",
    "date_modified": "2025-02-12T13:16:13.000",
    "request_status": "Pending",
    "responsible_agency": "Department of Sanitation",
    "final_address": "6518 Vicksburg St",
    "address_councildis": "A",
    "status": "Assigned to Contractor",
    "contractor": "IV Waste",
    "rowid": "1168518",
    "final_x": "3669101.62804",
    "final_y": "550831.951573",
    "longitude": "-90.10656716187086",
    "latitude": "30.008967612123996",
    "geocoded_column": {
      "latitude": "30.008967612123996",
      "longitude": "-90.10656716187086"
    }
  },
  {
    "service_request": "2025-1168517",
    "request_type": "Trash/Recycling",
    "request_reason": "Repair Trash Cart",
    "date_created": "2025-02-12T13:03:04.000",
    "date_modified": "2025-02-12T13:03:12.000",
    "request_status": "Pending",
    "responsible_agency": "Department of Sanitation",
    "final_address": "5340 Norgate Dr",
    "address_councildis": "E",
    "status": "Assigned to Contractor",
    "contractor": "Waste Pro",
    "rowid": "1168517",
    "final_x": "3707228.93412",
    "final_y": "557634.378971",
    "longitude": "-89.98585862640783",
    "latitude": "30.026494148840207",
    "geocoded_column": {
      "latitude": "30.026494148840207",
      "longitude": "-89.98585862640783"
    }
  },
  {
    "service_request": "2025-1168516",
    "request_type": "Streetlights",
    "request_reason": "Streetlight Outage/Malfunction",
    "date_created": "2025-02-12T13:03:01.000",
    "date_modified": "2025-02-12T13:03:02.000",
    "request_status": "Pending",
    "responsible_agency": "Department of Public Works",
    "final_address": "828 N Galvez St",
    "address_councildis": "D",
    "status": "Pending",
    "contractor": "Legacy Professional Services",
    "rowid": "1168516",
    "final_x": "3678741.89378",
    "final_y": "536120.197895",
    "longitude": "-90.07662011591162",
    "latitude": "29.968228120853862",
    "geocoded_column": {
      "latitude": "29.968228120853862",
      "longitude": "-90.07662011591162"
    }
  },
  {
    "service_request": "2025-1168515",
    "request_type": "Trash/Recycling",
    "request_reason": "Order Trash Cart",
    "date_created": "2025-02-12T13:02:40.000",
    "date_modified": "2025-02-12T13:02:43.000",
    "request_status": "Pending",
    "responsible_agency": "Department of Sanitation",
    "final_address": "7802 Star St",
    "address_councildis": "E",
    "status": "Assigned to Contractor",
    "contractor": "Waste Pro",
    "rowid": "1168515",
    "final_x": "3720712.20236",
    "final_y": "574358.225067",
    "longitude": "-89.94261218522544",
    "latitude": "30.072034944971183",
    "geocoded_column": {
      "latitude": "30.072034944971183",
      "longitude": "-89.94261218522544"
    }
  },
  {
    "service_request": "2025-1168514",
    "request_type": "Trash/Recycling",
    "request_reason": "Order Recycling Cart",
    "date_created": "2025-02-12T13:02:03.000",
    "date_modified": "2025-02-12T13:02:05.000",
    "request_status": "Pending",
    "responsible_agency": "Department of Sanitation",
    "final_address": "7802 Star St",
    "address_councildis": "E",
    "status": "Pending",
    "rowid": "1168514",
    "final_x": "3720712.20236",
    "final_y": "574358.225067",
    "longitude": "-89.94261218522544",
    "latitude": "30.072034944971183",
    "geocoded_column": {
      "latitude": "30.072034944971183",
      "longitude": "-89.94261218522544"
    }
  },
  {
    "service_request": "2025-1168513",
    "request_type": "Abandoned Vehicles",
    "request_reason": "Abandoned/Junk Vehicles",
    "date_created": "2025-02-12T13:02:00.000",
    "date_modified": "2025-02-12T13:02:31.000",
    "request_status": "Pending",
    "responsible_agency": "Department of Public Works",
    "final_address": "4910 Read Blvd",
    "address_councildis": "E",
    "status": "Inspected",
    "rowid": "1168513",
    "final_x": "3712584.71531",
    "final_y": "556996.28105",
    "longitude": "-89.96895914462193",
    "latitude": "30.024565366096155",
    "geocoded_column": {
      "latitude": "30.024565366096155",
      "longitude": "-89.96895914462193"
    }
  },
  {
    "service_request": "2025-1168512",
    "request_type": "Trash/Recycling",
    "request_reason": "Order Recycling Cart",
    "date_created": "2025-02-12T13:01:29.000",
    "date_modified": "2025-02-12T13:01:31.000",
    "request_status": "Pending",
    "responsible_agency": "Department of Sanitation",
    "final_address": "2037 Audubon St",
    "address_councildis": "A",
    "status": "Pending",
    "rowid": "1168512",
    "final_x": "3666202.49908",
    "final_y": "528908.456896",
    "longitude": "-90.11646208472514",
    "latitude": "29.94877039190224",
    "geocoded_column": {
      "latitude": "29.94877039190224",
      "longitude": "-90.11646208472514"
    }
  },
  {
    "service_request": "2025-1168511",
    "request_type": "Drainage",
    "request_reason": "Catch Basin Clogged",
    "date_created": "2025-02-12T13:00:10.000",
    "date_modified": "2025-02-12T13:00:12.000",
    "request_status": "Pending",
    "responsible_agency": "Sewerage & Water Board ",
    "final_address": "4846 Magazine St",
    "address_councildis": "B",
    "status": "Pending",
    "rowid": "1168511",
    "final_x": "3669193.0665",
    "final_y": "518560.499959",
    "longitude": "-90.10736913381412",
    "latitude": "29.920229166022256",
    "geocoded_column": {
      "latitude": "29.920229166022256",
      "longitude": "-90.10736913381412"
    }
  },
  {
    "service_request": "2025-1168510",
    "request_type": "Trash/Recycling",
    "request_reason": "Repair Trash Cart",
    "date_created": "2025-02-12T12:58:35.000",
    "date_modified": "2025-02-12T12:58:37.000",
    "request_status": "Pending",
    "responsible_agency": "Department of Sanitation",
    "final_address": "5242 Annunciation St",
    "address_councildis": "B",
    "status": "Assigned to Contractor",
    "contractor": "IV Waste",
    "rowid": "1168510",
    "final_x": "3667594.24634",
    "final_y": "517540.803062",
    "longitude": "-90.11245016116993",
    "latitude": "29.917472259636618",
    "geocoded_column": {
      "latitude": "29.917472259636618",
      "longitude": "-90.11245016116993"
    }
  },
  {
    "service_request": "2025-1168509",
    "request_type": "Trash/Recycling",
    "request_reason": "Request a Large Item Pick Up",
    "date_created": "2025-02-12T12:57:57.000",
    "date_modified": "2025-02-12T12:57:59.000",
    "request_status": "Pending",
    "responsible_agency": "Department of Sanitation",
    "final_address": "6865 Mayo Rd",
    "address_councildis": "E",
    "status": "Assigned to Contractor",
    "contractor": "Waste Pro",
    "rowid": "1168509",
    "final_x": "3702001.94173",
    "final_y": "557689.060955",
    "longitude": "-90.0023732125034",
    "latitude": "30.026812481083823",
    "geocoded_column": {
      "latitude": "30.026812481083823",
      "longitude": "-90.0023732125034"
    }
  },
  {
    "service_request": "2025-1168508",
    "request_type": "Trash/Recycling",
    "request_reason": "Repair Trash Cart",
    "date_created": "2025-02-12T12:57:15.000",
    "date_modified": "2025-02-12T12:57:16.000",
    "request_status": "Pending",
    "responsible_agency": "Department of Sanitation",
    "final_address": "1836 Third St",
    "address_councildis": "B",
    "status": "Assigned to Contractor",
    "contractor": "IV Waste",
    "rowid": "1168508",
    "final_x": "3675845.63432",
    "final_y": "523712.584315",
    "longitude": "-90.08619311585889",
    "latitude": "29.934198338035667",
    "geocoded_column": {
      "latitude": "29.934198338035667",
      "longitude": "-90.08619311585889"
    }
  },
  {
    "service_request": "2025-1168507",
    "request_type": "Trash/Recycling",
    "request_reason": "Request a Large Item Pick Up",
    "date_created": "2025-02-12T12:57:08.000",
    "date_modified": "2025-02-12T13:49:55.000",
    "case_close_date": "2025-02-12T07:49:54.000",
    "request_status": "Closed",
    "responsible_agency": "Department of Sanitation",
    "final_address": "4911 Magnolia St",
    "address_councildis": "B",
    "status": "Duplicate Request",
    "contractor": "IV Waste",
    "contractor_action": "Invalid Request",
    "rowid": "1168507",
    "final_x": "3669089.46644",
    "final_y": "524648.525436",
    "longitude": "-90.10749056344149",
    "latitude": "29.936972342251075",
    "geocoded_column": {
      "latitude": "29.936972342251075",
      "longitude": "-90.10749056344149"
    }
  },
  {
    "service_request": "2025-1168506",
    "request_type": "Trash/Recycling",
    "request_reason": "Request a Large Item Pick Up",
    "date_created": "2025-02-12T12:55:26.000",
    "date_modified": "2025-02-12T12:55:27.000",
    "request_status": "Pending",
    "responsible_agency": "Department of Sanitation",
    "final_address": "2312 Oriole St",
    "address_councildis": "D",
    "status": "Assigned to Contractor",
    "contractor": "IV Waste",
    "rowid": "1168506",
    "final_x": "3684165.39676",
    "final_y": "558010.785243",
    "longitude": "-90.05872348483226",
    "latitude": "30.02825471481307",
    "geocoded_column": {
      "latitude": "30.02825471481307",
      "longitude": "-90.05872348483226"
    }
  },
  {
    "service_request": "2025-1168505",
    "request_type": "Trash/Recycling",
    "request_reason": "Request a Large Item Pick Up",
    "date_created": "2025-02-12T12:55:11.000",
    "date_modified": "2025-02-12T12:55:14.000",
    "request_status": "Pending",
    "responsible_agency": "Department of Sanitation",
    "final_address": "7101 Neptune Ct",
    "address_councildis": "E",
    "status": "Assigned to Contractor",
    "contractor": "Waste Pro",
    "rowid": "1168505",
    "final_x": "3701836.93988",
    "final_y": "559283.994268",
    "longitude": "-90.00283607783518",
    "latitude": "30.03120319932816",
    "geocoded_column": {
      "latitude": "30.03120319932816",
      "longitude": "-90.00283607783518"
    }
  },
  {
    "service_request": "2025-1168504",
    "request_type": "Drainage",
    "request_reason": "Catch Basin Clogged",
    "date_created": "2025-02-12T12:53:19.000",
    "date_modified": "2025-02-12T12:53:21.000",
    "request_status": "Pending",
    "responsible_agency": "Sewerage & Water Board ",
    "final_address": "634 Orange St",
    "address_councildis": "B",
    "status": "Pending",
    "rowid": "1168504",
    "final_x": "3681681.14152",
    "final_y": "523067.137531",
    "longitude": "-90.06779313589075",
    "latitude": "29.93224764034096",
    "geocoded_column": {
      "latitude": "29.93224764034096",
      "longitude": "-90.06779313589075"
    }
  },
  {
    "service_request": "2025-1168503",
    "request_type": "Abandoned Vehicles",
    "request_reason": "Abandoned/Junk Vehicles",
    "date_created": "2025-02-12T12:53:17.000",
    "date_modified": "2025-02-12T12:56:00.000",
    "request_status": "Pending",
    "responsible_agency": "Department of Public Works",
    "final_address": "2325 Toledano St",
    "address_councildis": "B",
    "status": "Pending",
    "rowid": "1168503",
    "final_x": "3673514.03252",
    "final_y": "524192.398332",
    "longitude": "-90.09353752681758",
    "latitude": "29.93558724409901",
    "geocoded_column": {
      "latitude": "29.93558724409901",
      "longitude": "-90.09353752681758"
    }
  },
  {
    "service_request": "2025-1168502",
    "request_type": "Trash/Recycling",
    "request_reason": "Request a Large Item Pick Up",
    "date_created": "2025-02-12T12:53:10.000",
    "date_modified": "2025-02-12T16:37:42.000",
    "request_status": "Pending",
    "responsible_agency": "Department of Sanitation",
    "final_address": "4911 Magnolia St",
    "address_councildis": "B",
    "status": "Assigned to Contractor",
    "contractor": "IV Waste",
    "rowid": "1168502",
    "final_x": "3669089.46644",
    "final_y": "524648.525436",
    "longitude": "-90.10749056344149",
    "latitude": "29.936972342251075",
    "geocoded_column": {
      "latitude": "29.936972342251075",
      "longitude": "-90.10749056344149"
    }
  },