[
  {
    "service_request": "2024-1092012",
    "request_type": "Property Maintenance",
    "request_reason": "Property Maintenance",
    "date_created": "2024-05-09T22:40:50.000",
    "date_modified": "2024-05-09T22:40:50.000",
    "request_status": "Pending",
    "responsible_agency": "Department of Code Enforcement",
    "final_address": "4804 Rhodes Dr",
    "address_councildis": "E",
    "status": "Pending",
    "rowid": "1092012",
    "final_x": "3702458.19345",
    "final_y": "554693.042968",
    "longitude": "-90.00104158976065",
    "latitude": "30.01856000444719",
    "geocoded_column": {
      "latitude": "30.01856000444719",
      "longitude": "-90.00104158976065"
    }
  },
  {
    "service_request": "2024-1092011",
    "request_type": "Parks & Parkways",
    "request_reason": "Request Tree Service (Right of Way/Public Property)",
    "date_created": "2024-05-09T22:39:35.000",
    "date_modified": "2024-05-09T22:39:35.000",
    "request_status": "Pending",
    "responsible_agency": "Department of Parks & Parkway",
    "final_address": "8000 BLK Oak St",
    "address_councildis": "A",
    "status": "Pending",
    "rowid": "1092011",
    "final_x": "3662172.47319",
    "final_y": "528181.191457",
    "longitude": "-90.12921079288631",
    "latitude": "29.946887711344107",
    "geocoded_column": {
      "latitude": "29.946887711344107",
      "longitude": "-90.12921079288631"
    }
  },
  {
    "service_request": "2024-1092010",
    "request_type": "Roads/Drainage",
    "request_reason": "Pothole",
    "date_created": "2024-05-09T22:31:54.000",
    "date_modified": "2024-05-09T22:31:54.000",
    "request_status": "Pending",
    "responsible_agency": "Department of Public Works",
    "final_address": "6050 Chestnut St",
    "address_councildis": "A",
    "status": "Pending",
    "rowid": "1092010",
    "final_x": "3664529.75725",
    "final_y": "519895.110968",
    "longitude": "-90.1220445138364",
    "latitude": "29.924035297418104",
    "geocoded_column": {
      "latitude": "29.924035297418104",
      "longitude": "-90.1220445138364"
    }
  },
  {
    "service_request": "2024-1092009",
    "request_type": "Traffic Signals/Signs/Striping/Streetlights",
    "request_reason": "Street Light Outage/Malfunction",
    "date_created": "2024-05-09T22:31:20.000",
    "date_modified": "2024-05-09T22:31:23.000",
    "request_status": "Pending",
    "responsible_agency": "Department of Public Works",
    "final_address": "COLUMBUS ST & N ROMAN ST",
    "address_councildis": "D",
    "status": "Assigned to Contractor",
    "contractor": "Legacy Professional Services",
    "rowid": "1092009",
    "final_x": "3681160.9",
    "final_y": "537626.28",
    "longitude": "-90.06892831104153",
    "latitude": "29.972296155624605",
    "geocoded_column": {
      "latitude": "29.972296155624605",
      "longitude": "-90.06892831104153"
    }
  },
  {
    "service_request": "2024-1092008",
    "request_type": "Roads/Drainage",
    "request_reason": "Pothole",
    "date_created": "2024-05-09T22:30:07.000",
    "date_modified": "2024-05-09T22:30:07.000",
    "request_status": "Pending",
    "responsible_agency": "Department of Public Works",
    "final_address": "6060 Chestnut St",
    "address_councildis": "A",
    "status": "Pending",
    "rowid": "1092008",
    "final_x": "3664493.20845",
    "final_y": "519950.4654",
    "longitude": "-90.12215803894134",
    "latitude": "29.924188567075998",
    "geocoded_column": {
      "latitude": "29.924188567075998",
      "longitude": "-90.12215803894134"
    }
  },
  {
    "service_request": "2024-1092007",
    "request_type": "Roads/Drainage",
    "request_reason": "Pothole",
    "date_created": "2024-05-09T22:28:46.000",
    "date_modified": "2024-05-09T22:28:46.000",
    "request_status": "Pending",
    "responsible_agency": "Department of Public Works",
    "final_address": "6030 Chestnut St",
    "address_councildis": "A",
    "status": "Pending",
    "rowid": "1092007",
    "final_x": "3664661.37773",
    "final_y": "519852.51884",
    "longitude": "-90.1216304547064",
    "latitude": "29.923914355909606",
    "geocoded_column": {
      "latitude": "29.923914355909606",
      "longitude": "-90.1216304547064"
    }
  },
  {
    "service_request": "2024-1092006",
    "request_type": "Trash/Recycling",
    "request_reason": "Replace Trash Cart",
    "date_created": "2024-05-09T22:12:46.000",
    "date_modified": "2024-05-09T22:12:47.000",
    "request_status": "Pending",
    "responsible_agency": "Department of Sanitation",
    "final_address": "5967 Dreux Ave",
    "address_councildis": "D",
    "status": "Assigned to Contractor",
    "contractor": "Waste Pro",
    "rowid": "1092006",
    "final_x": "3696523.85834",
    "final_y": "553917.456407",
    "longitude": "-90.01981992340478",
    "latitude": "30.016615822783674",
    "geocoded_column": {
      "latitude": "30.016615822783674",
      "longitude": "-90.01981992340478"
    }
  },
  {
    "service_request": "2024-1092005",
    "request_type": "Abandoned Vehicles",
    "request_reason": "Abandoned/Junk Vehicles",
    "date_created": "2024-05-09T22:05:56.000",
    "date_modified": "2024-05-09T22:05:56.000",
    "request_status": "Pending",
    "responsible_agency": "Department of Public Works",
    "final_address": "5600 BLK Eads St",
    "address_councildis": "D",
    "status": "Pending",
    "rowid": "1092005",
    "final_x": "3686887.07206",
    "final_y": "553857.21622",
    "longitude": "-90.05027013253925",
    "latitude": "30.0167504147847",
    "geocoded_column": {
      "latitude": "30.0167504147847",
      "longitude": "-90.05027013253925"
    }
  },
  {
    "service_request": "2024-1092003",
    "request_type": "Property Maintenance",
    "request_reason": "Property Maintenance",
    "date_created": "2024-05-09T21:34:33.000",
    "date_modified": "2024-05-09T21:34:33.000",
    "request_status": "Pending",
    "responsible_agency": "Department of Code Enforcement",
    "final_address": "4825 Lonely Oak Dr",
    "address_councildis": "E",
    "status": "Pending",
    "rowid": "1092003",
    "final_x": "3702323.06052",
    "final_y": "555022.114265",
    "longitude": "-90.00145647209486",
    "latitude": "30.019469144048024",
    "geocoded_column": {
      "latitude": "30.019469144048024",
      "longitude": "-90.00145647209486"
    }
  },
  {
    "service_request": "2024-1092000",
    "request_type": "Property Maintenance",
    "request_reason": "Property Maintenance",
    "date_created": "2024-05-09T21:28:16.000",
    "date_modified": "2024-05-09T21:28:16.000",
    "request_status": "Pending",
    "responsible_agency": "Department of Code Enforcement",
    "final_address": "4825 Lonely Oak Dr",
    "address_councildis": "E",
    "status": "Pending",
    "rowid": "1092000",
    "final_x": "3702323.06052",
    "final_y": "555022.114265",
    "longitude": "-90.00145647209486",
    "latitude": "30.019469144048024",
    "geocoded_column": {
      "latitude": "30.019469144048024",
      "longitude": "-90.00145647209486"
    }
  },
  {
    "service_request": "2024-1091999",
    "request_type": "Trash/Recycling",
    "request_reason": "Request a Large Item Pick Up",
    "date_created": "2024-05-09T20:34:33.000",
    "date_modified": "2024-05-09T20:34:33.000",
    "request_status": "Pending",
    "responsible_agency": "Department of Sanitation",
    "final_address": "1725 Delachaise St",
    "address_councildis": "B",
    "status": "Assigned to Contractor",
    "contractor": "IV Waste",
    "rowid": "1091999",
    "final_x": "3673621.01499",
    "final_y": "521958.910842",
    "longitude": "-90.0932760907818",
    "latitude": "29.929442693780985",
    "geocoded_column": {
      "latitude": "29.929442693780985",
      "longitude": "-90.0932760907818"
    }
  },
  {
    "service_request": "2024-1091998",
    "request_type": "Parks & Parkways",
    "request_reason": "Tree Stump (removal, grind)",
    "date_created": "2024-05-09T20:33:57.000",
    "date_modified": "2024-05-09T20:33:57.000",
    "request_status": "Pending",
    "responsible_agency": "Department of Parks & Parkway",
    "final_address": "2000 S Carrollton Ave",
    "address_councildis": "A",
    "status": "Pending",
    "rowid": "1091998",
    "final_x": "3663869.15655",
    "final_y": "530500.026242",
    "longitude": "-90.12377643009548",
    "latitude": "29.953214623781495",
    "geocoded_column": {
      "latitude": "29.953214623781495",
      "longitude": "-90.12377643009548"
    }
  },
  {
    "service_request": "2024-1091997",
    "request_type": "Abandoned Vehicles",
    "request_reason": "Abandoned/Junk Vehicles",
    "date_created": "2024-05-09T20:31:40.000",
    "date_modified": "2024-05-09T20:31:40.000",
    "request_status": "Pending",
    "responsible_agency": "Department of Public Works",
    "final_address": "6740 Avenue A",
    "address_councildis": "A",
    "status": "Pending",
    "rowid": "1091997",
    "final_x": "3666030.83565",
    "final_y": "553005.350743",
    "longitude": "-90.11619591727839",
    "latitude": "30.015033742227047",
    "geocoded_column": {
      "latitude": "30.015033742227047",
      "longitude": "-90.11619591727839"
    }
  },
  {
    "service_request": "2024-1091996",
    "request_type": "Roads/Drainage",
    "request_reason": "Pothole",
    "date_created": "2024-05-09T20:12:39.000",
    "date_modified": "2024-05-09T20:12:39.000",
    "request_status": "Pending",
    "responsible_agency": "Department of Public Works",
    "final_address": "2312 N Roman St",
    "address_councildis": "D",
    "status": "Pending",
    "rowid": "1091996",
    "final_x": "3685690.87388",
    "final_y": "538923.623306",
    "longitude": "-90.05457617956648",
    "latitude": "29.975725171061246",
    "geocoded_column": {
      "latitude": "29.975725171061246",
      "longitude": "-90.05457617956648"
    }
  },
  {
    "service_request": "2024-1091995",
    "request_type": "Roads/Drainage",
    "request_reason": "Pothole",
    "date_created": "2024-05-09T20:03:15.000",
    "date_modified": "2024-05-09T20:03:15.000",
    "request_status": "Pending",
    "responsible_agency": "Department of Public Works",
    "final_address": "2318 N Roman St",
    "address_councildis": "D",
    "status": "Pending",
    "rowid": "1091995",
    "final_x": "3685771.2317",
    "final_y": "538924.186058",
    "longitude": "-90.05432236773113",
    "latitude": "29.975724252318372",
    "geocoded_column": {
      "latitude": "29.975724252318372",
      "longitude": "-90.05432236773113"
    }
  },
  {
    "service_request": "2024-1091994",
    "request_type": "Roads/Drainage",
    "request_reason": "Service Cut",
    "date_created": "2024-05-09T20:00:13.000",
    "date_modified": "2024-05-09T20:00:13.000",
    "request_status": "Pending",
    "responsible_agency": "Department of Public Works",
    "final_address": "2322 N Roman St",
    "address_councildis": "D",
    "status": "Pending",
    "rowid": "1091994",
    "final_x": "3685814.33487",
    "final_y": "538933.847306",
    "longitude": "-90.0541858954945",
    "latitude": "29.975749494361224",
    "geocoded_column": {
      "latitude": "29.975749494361224",
      "longitude": "-90.0541858954945"
    }
  },
  {
    "service_request": "2024-1091993",
    "request_type": "Trash/Recycling",
    "request_reason": "Request a Large Item Pick Up",
    "date_created": "2024-05-09T19:54:12.000",
    "date_modified": "2024-05-09T19:54:12.000",
    "request_status": "Pending",
    "responsible_agency": "Department of Sanitation",
    "final_address": "1996 Hope St",
    "address_councildis": "D",
    "status": "Assigned to Contractor",
    "contractor": "IV Waste",
    "rowid": "1091993",
    "final_x": "3682256.63343",
    "final_y": "541981.893772",
    "longitude": "-90.06531557507334",
    "latitude": "29.98423928292839",
    "geocoded_column": {
      "latitude": "29.98423928292839",
      "longitude": "-90.06531557507334"
    }
  },
  {
    "service_request": "2024-1091992",
    "request_type": "Roads/Drainage",
    "request_reason": "Pothole",
    "date_created": "2024-05-09T19:47:31.000",
    "date_modified": "2024-05-09T19:47:31.000",
    "request_status": "Pending",
    "responsible_agency": "Department of Public Works",
    "final_address": "2038 St Roch Ave",
    "address_councildis": "D",
    "status": "Pending",
    "rowid": "1091992",
    "final_x": "3686128.60649",
    "final_y": "540031.991499",
    "longitude": "-90.05315459092293",
    "latitude": "29.97875935441881",
    "geocoded_column": {
      "latitude": "29.97875935441881",
      "longitude": "-90.05315459092293"
    }
  },
  {
    "service_request": "2024-1091991",
    "request_type": "Trash/Recycling",
    "request_reason": "Start Trash Service",
    "date_created": "2024-05-09T19:28:50.000",
    "date_modified": "2024-05-09T19:28:50.000",
    "request_status": "Pending",
    "responsible_agency": "Department of Sanitation",
    "final_address": "1705 Burdette St",
    "address_councildis": "A",
    "status": "Assigned to Contractor",
    "contractor": "IV Waste",
    "rowid": "1091991",
    "final_x": "3664052.14503",
    "final_y": "528930.482496",
    "longitude": "-90.12325096702352",
    "latitude": "29.948893572976004",
    "geocoded_column": {
      "latitude": "29.948893572976004",
      "longitude": "-90.12325096702352"
    }
  },
  {
    "service_request": "2024-1091990",
    "request_type": "Trash/Recycling",
    "request_reason": "Request a Large Item Pick Up",
    "date_created": "2024-05-09T19:16:07.000",
    "date_modified": "2024-05-09T19:16:08.000",
    "request_status": "Pending",
    "responsible_agency": "Department of Sanitation",
    "final_address": "7703 Berg Rd",
    "address_councildis": "E",
    "status": "Assigned to Contractor",
    "contractor": "Waste Pro",
    "rowid": "1091990",
    "final_x": "3711766.37208",
    "final_y": "567061.684196",
    "longitude": "-89.97116684755179",
    "latitude": "30.05226796486996",
    "geocoded_column": {
      "latitude": "30.05226796486996",
      "longitude": "-89.97116684755179"
    }
  },
  {
    "service_request": "2024-1091989",
    "request_type": "Trash/Recycling",
    "request_reason": "Illegal Dumping",
    "date_created": "2024-05-09T19:08:21.000",
    "date_modified": "2024-05-09T19:08:21.000",
    "request_status": "Pending",
    "responsible_agency": "Department of Sanitation",
    "final_address": "15510 Dwyer Blvd",
    "address_councildis": "E",
    "status": "Pending",
    "rowid": "1091989",
    "final_x": "3730925.67962",
    "final_y": "563688.651233",
    "longitude": "-89.91074329848843",
    "latitude": "30.042353362796096",
    "geocoded_column": {
      "latitude": "30.042353362796096",
      "longitude": "-89.91074329848843"
    }
  },
  {
    "service_request": "2024-1091988",
    "request_type": "Roads/Drainage",
    "request_reason": "Pothole",
    "date_created": "2024-05-09T18:44:33.000",
    "date_modified": "2024-05-09T18:44:33.000",
    "request_status": "Pending",
    "responsible_agency": "Department of Public Works",
    "final_address": "7500 BLK Newcastle St",
    "address_councildis": "E",
    "status": "Pending",
    "rowid": "1091988",
    "final_x": "3697293.61784",
    "final_y": "559140.815233",
    "longitude": "-90.01719826100016",
    "latitude": "30.03095378574333",
    "geocoded_column": {
      "latitude": "30.03095378574333",
      "longitude": "-90.01719826100016"
    }
  },
  {
    "service_request": "2024-1091987",
    "request_type": "Abandoned Vehicles",
    "request_reason": "Abandoned/Junk Vehicles",
    "date_created": "2024-05-09T18:03:37.000",
    "date_modified": "2024-05-09T18:03:37.000",
    "request_status": "Pending",
    "responsible_agency": "Department of Public Works",
    "final_address": "302 S Genois St",
    "address_councildis": "B",
    "status": "Pending",
    "rowid": "1091987",
    "final_x": "3672101.08647",
    "final_y": "536484.523783",
    "longitude": "-90.0975797061349",
    "latitude": "29.96942849148354",
    "geocoded_column": {
      "latitude": "29.96942849148354",
      "longitude": "-90.0975797061349"
    }
  },
  {
    "service_request": "2024-1091986",
    "request_type": "Mosquito, Termite & Rodent Control",
    "request_reason": "Rodent Complaint (Rats)",
    "date_created": "2024-05-09T17:44:26.000",
    "date_modified": "2024-05-09T17:44:26.000",
    "request_status": "Pending",
    "responsible_agency": "Mosquito, Termite & Rodent Control Board",
    "final_address": "3450 Magazine St",
    "address_councildis": "B",
    "status": "Pending",
    "rowid": "1091986",
    "final_x": "3674611.81595",
    "final_y": "519354.234039",
    "longitude": "-90.09023751421243",
    "latitude": "29.92225115115243",
    "geocoded_column": {
      "latitude": "29.92225115115243",
      "longitude": "-90.09023751421243"
    }
  },
  {
    "service_request": "2024-1091985",
    "request_type": "Trash/Recycling",
    "request_reason": "Request a Large Item Pick Up",
    "date_created": "2024-05-09T17:38:51.000",
    "date_modified": "2024-05-09T17:38:52.000",
    "request_status": "Pending",
    "responsible_agency": "Department of Sanitation",
    "final_address": "1439 Toledano St",
    "address_councildis": "B",
    "status": "Assigned to Contractor",
    "contractor": "IV Waste",
    "rowid": "1091985",
    "final_x": "3674869.07963",
    "final_y": "521096.336889",
    "longitude": "-90.08936573727706",
    "latitude": "29.927033695920983",
    "geocoded_column": {
      "latitude": "29.927033695920983",
      "longitude": "-90.08936573727706"
    }
  },
  {
    "service_request": "2024-1091984",
    "request_type": "Trash/Recycling",
    "request_reason": "Order Recycling Cart",
    "date_created": "2024-05-09T17:35:34.000",
    "date_modified": "2024-05-09T17:35:34.000",
    "request_status": "Pending",
    "responsible_agency": "Department of Sanitation",
    "final_address": "2428 Burgundy St",
    "address_councildis": "C",
    "status": "Pending",
    "rowid": "1091984",
    "final_x": "3686086.6175",
    "final_y": "535606.504454",
    "longitude": "-90.05344333291241",
    "latitude": "29.966592102288296",
    "geocoded_column": {
      "latitude": "29.966592102288296",
      "longitude": "-90.05344333291241"
    }
  },
  {
    "service_request": "2024-1091983",
    "request_type": "Trash/Recycling",
    "request_reason": "Missed Trash Pick-Up",
    "date_created": "2024-05-09T17:19:55.000",
    "date_modified": "2024-05-09T17:19:56.000",
    "request_status": "Pending",
    "responsible_agency": "Department of Sanitation",
    "final_address": "1135 Jourdan Ave",
    "address_councildis": "E",
    "status": "Assigned to Contractor",
    "contractor": "Waste Pro",
    "rowid": "1091983",
    "final_x": "3695177.54378",
    "final_y": "534764.24007",
    "longitude": "-90.02476478632913",
    "latitude": "29.963993829783046",
    "geocoded_column": {
      "latitude": "29.963993829783046",
      "longitude": "-90.02476478632913"
    }
  },
  {
    "service_request": "2024-1091982",
    "request_type": "Trash/Recycling",
    "request_reason": "Request a Large Item Pick Up",
    "date_created": "2024-05-09T17:09:36.000",
    "date_modified": "2024-05-09T17:09:37.000",
    "request_status": "Pending",
    "responsible_agency": "Department of Sanitation",
    "final_address": "1007 Fourth St",
    "address_councildis": "B",
    "status": "Assigned to Contractor",
    "contractor": "IV Waste",
    "rowid": "1091982",
    "final_x": "3677506.79048",
    "final_y": "520774.506809",
    "longitude": "-90.0810502698121",
    "latitude": "29.92606976464972",
    "geocoded_column": {
      "latitude": "29.92606976464972",
      "longitude": "-90.0810502698121"
    }
  },
  {
    "service_request": "2024-1091981",
    "request_type": "Property Maintenance",
    "request_reason": "Property Maintenance",
    "date_created": "2024-05-09T16:55:16.000",
    "date_modified": "2024-05-09T16:55:16.000",
    "request_status": "Pending",
    "responsible_agency": "Department of Code Enforcement",
    "final_address": "1130 Reynes St",
    "address_councildis": "E",
    "status": "Pending",
    "rowid": "1091981",
    "final_x": "3695981.70141",
    "final_y": "534618.640838",
    "longitude": "-90.02223060404978",
    "latitude": "29.963568207262366",
    "geocoded_column": {
      "latitude": "29.963568207262366",
      "longitude": "-90.02223060404978"
    }
  },
  {
    "service_request": "2024-1091980",
    "request_type": "Traffic Signals/Signs/Striping/Streetlights",
    "request_reason": "Street Light Outage/Malfunction",
    "date_created": "2024-05-09T16:51:54.000",
    "date_modified": "2024-05-09T16:51:55.000",
    "request_status": "Pending",
    "responsible_agency": "Department of Public Works",
    "final_address": "1222 Third St",
    "address_councildis": "B",
    "status": "Assigned to Contractor",
    "contractor": "Legacy Professional Services",
    "rowid": "1091980",
    "final_x": "3677220.42536",
    "final_y": "521597.864313",
    "longitude": "-90.08192585615993",
    "latitude": "29.928342332644906",
    "geocoded_column": {
      "latitude": "29.928342332644906",
      "longitude": "-90.08192585615993"
    }
  },
  {
    "service_request": "2024-1091979",
    "request_type": "Trash/Recycling",
    "request_reason": "Missed Trash Pick-Up",
    "date_created": "2024-05-09T16:51:28.000",
    "date_modified": "2024-05-09T16:51:29.000",
    "request_status": "Pending",
    "responsible_agency": "Department of Sanitation",
    "final_address": "383 Broadway St",
    "address_councildis": "A",
    "status": "Assigned to Contractor",
    "contractor": "IV Waste",
    "rowid": "1091979",
    "final_x": "3661986.98522",
    "final_y": "523132.345659",
    "longitude": "-90.1299638639817",
    "latitude": "29.933010345861852",
    "geocoded_column": {
      "latitude": "29.933010345861852",
      "longitude": "-90.1299638639817"
    }
  },
  {
    "service_request": "2024-1091978",
    "request_type": "Trash/Recycling",
    "request_reason": "Request a Large Item Pick Up",
    "date_created": "2024-05-09T16:46:25.000",
    "date_modified": "2024-05-09T16:53:07.000",
    "case_close_date": "2024-05-09T11:53:07.000",
    "request_status": "Closed",
    "responsible_agency": "Department of Sanitation",
    "final_address": "5528 Camp St",
    "address_councildis": "A",
    "status": "Assigned to Contractor",
    "contractor": "IV Waste",
    "contractor_action": "Completed",
    "rowid": "1091978",
    "final_x": "3666263.29223",
    "final_y": "519197.419255",
    "longitude": "-90.11659572497574",
    "latitude": "29.922066361602717",
    "geocoded_column": {
      "latitude": "29.922066361602717",
      "longitude": "-90.11659572497574"
    }
  },
  {
    "service_request": "2024-1091977",
    "request_type": "Trash/Recycling",
    "request_reason": "Replace Trash Cart",
    "date_created": "2024-05-09T16:41:40.000",
    "date_modified": "2024-05-09T16:41:40.000",
    "request_status": "Pending",
    "responsible_agency": "Department of Sanitation",
    "final_address": "5530 Norgate Dr",
    "address_councildis": "E",
    "status": "Assigned to Contractor",
    "contractor": "Waste Pro",
    "rowid": "1091977",
    "final_x": "3707020.05534",
    "final_y": "558080.937243",
    "longitude": "-89.98650206835079",
    "latitude": "30.02772876199108",
    "geocoded_column": {
      "latitude": "30.02772876199108",
      "longitude": "-89.98650206835079"
    }
  },
  {
    "service_request": "2024-1091976",
    "request_type": "Abandoned Vehicles",
    "request_reason": "Abandoned/Junk Vehicles",
    "date_created": "2024-05-09T16:41:22.000",
    "date_modified": "2024-05-09T16:41:22.000",
    "request_status": "Pending",
    "responsible_agency": "Department of Public Works",
    "final_address": "4320 Laurel St",
    "address_councildis": "B",
    "status": "Pending",
    "rowid": "1091976",
    "final_x": "3671350.1163",
    "final_y": "518034.747382",
    "longitude": "-90.1005781917341",
    "latitude": "29.918719877746753",
    "geocoded_column": {
      "latitude": "29.918719877746753",
      "longitude": "-90.1005781917341"
    }
  },
  {
    "service_request": "2024-1091974",
    "request_type": "Safety & Permits",
    "request_reason": "Licenses & Permits",
    "date_created": "2024-05-09T16:40:17.000",
    "date_modified": "2024-05-09T16:40:17.000",
    "request_status": "Pending",
    "responsible_agency": "Safety and Permits",
    "final_address": "6008 Cameron Blvd",
    "address_councildis": "D",
    "status": "Pending",
    "rowid": "1091974",
    "final_x": "3682324.12949",
    "final_y": "554780.78108",
    "longitude": "-90.0646547885664",
    "latitude": "30.019429580940244",
    "geocoded_column": {
      "latitude": "30.019429580940244",
      "longitude": "-90.0646547885664"
    }
  },
  {
    "service_request": "2024-1091973",
    "request_type": "Trash/Recycling",
    "request_reason": "Request a Large Item Pick Up",
    "date_created": "2024-05-09T16:14:45.000",
    "date_modified": "2024-05-09T16:14:46.000",
    "request_status": "Pending",
    "responsible_agency": "Department of Sanitation",
    "final_address": "328 S Clark St",
    "address_councildis": "B",
    "status": "Assigned to Contractor",
    "contractor": "IV Waste",
    "rowid": "1091973",
    "final_x": "3672267.35739",
    "final_y": "536144.735431",
    "longitude": "-90.09706618568343",
    "latitude": "29.968489256231194",
    "geocoded_column": {
      "latitude": "29.968489256231194",
      "longitude": "-90.09706618568343"
    }
  },
  {
    "service_request": "2024-1091972",
    "request_type": "Property Maintenance",
    "request_reason": "Property Maintenance",
    "date_created": "2024-05-09T16:04:42.000",
    "date_modified": "2024-05-09T16:05:44.000",
    "request_status": "Pending",
    "responsible_agency": "Department of Code Enforcement",
    "final_address": "7060 Lake Willow Dr",
    "address_councildis": "E",
    "status": "Pending",
    "rowid": "1091972",
    "final_x": "3702191.74276",
    "final_y": "559184.812572",
    "longitude": "-90.00171853788154",
    "latitude": "30.030919155469594",
    "geocoded_column": {
      "latitude": "30.030919155469594",
      "longitude": "-90.00171853788154"
    }
  },
  {
    "service_request": "2024-1091971",
    "request_type": "EMS",
    "request_reason": "EMS Lost & Found",
    "date_created": "2024-05-09T15:55:12.000",
    "date_modified": "2024-05-09T15:55:12.000",
    "request_status": "Pending",
    "responsible_agency": "Emergency Medical Services",
    "final_address": "555 Canal St",
    "address_councildis": "C",
    "status": "Pending",
    "rowid": "1091971",
    "final_x": "3681657.1156",
    "final_y": "530427.761794",
    "longitude": "-90.06761230467993",
    "latitude": "29.952487626263423",
    "geocoded_column": {
      "latitude": "29.952487626263423",
      "longitude": "-90.06761230467993"
    }
  },
  {
    "service_request": "2024-1091970",
    "request_type": "Trash/Recycling",
    "request_reason": "Request a Large Item Pick Up",
    "date_created": "2024-05-09T15:53:31.000",
    "date_modified": "2024-05-09T15:53:31.000",
    "request_status": "Pending",
    "responsible_agency": "Department of Sanitation",
    "final_address": "1111 S Peters St Unit 212",
    "address_councildis": "B",
    "status": "Assigned to Contractor",
    "contractor": "Empire Services",
    "rowid": "1091970",
    "final_x": "3682207.0246",
    "final_y": "525866.091517",
    "longitude": "-90.06603524841776",
    "latitude": "29.93992785235849",
    "geocoded_column": {
      "latitude": "29.93992785235849",
      "longitude": "-90.06603524841776"
    }
  },
  {
    "service_request": "2024-1091969",
    "request_type": "Trash/Recycling",
    "request_reason": "Request a Large Item Pick Up",
    "date_created": "2024-05-09T15:52:57.000",
    "date_modified": "2024-05-09T16:24:12.000",
    "case_close_date": "2024-05-09T11:24:12.000",
    "request_status": "Closed",
    "responsible_agency": "Department of Sanitation",
    "final_address": "3708 Pauger St",
    "address_councildis": "D",
    "status": "Assigned to Contractor",
    "contractor": "IV Waste",
    "contractor_action": "Completed",
    "rowid": "1091969",
    "final_x": "3683198.56424",
    "final_y": "543659.253902",
    "longitude": "-90.06228167385692",
    "latitude": "29.98882273646926",
    "geocoded_column": {
      "latitude": "29.98882273646926",
      "longitude": "-90.06228167385692"
    }
  },
  {
    "service_request": "2024-1091968",
    "request_type": "Abandoned Vehicles",
    "request_reason": "Abandoned/Junk Vehicles",
    "date_created": "2024-05-09T15:43:25.000",
    "date_modified": "2024-05-09T15:43:25.000",
    "request_status": "Pending",
    "responsible_agency": "Department of Public Works",
    "final_address": "1318 France St",
    "address_councildis": "D",
    "status": "Pending",
    "rowid": "1091968",
    "final_x": "3692570.95209",
    "final_y": "536082.510663",
    "longitude": "-90.03294888682888",
    "latitude": "29.967700202709214",
    "geocoded_column": {
      "latitude": "29.967700202709214",
      "longitude": "-90.03294888682888"
    }
  },
  {
    "service_request": "2024-1091967",
    "request_type": "Trash/Recycling",
    "request_reason": "Request a Large Item Pick Up",
    "date_created": "2024-05-09T15:37:14.000",
    "date_modified": "2024-05-09T15:37:15.000",
    "request_status": "Pending",
    "responsible_agency": "Department of Sanitation",
    "final_address": "2901 First St",
    "address_councildis": "B",
    "status": "Assigned to Contractor",
    "contractor": "IV Waste",
    "rowid": "1091967",
    "final_x": "3674442.02587",
    "final_y": "527096.449919",
    "longitude": "-90.0905083970815",
    "latitude": "29.943544793989016",
    "geocoded_column": {
      "latitude": "29.943544793989016",
      "longitude": "-90.0905083970815"
    }
  },
  {
    "service_request": "2024-1091966",
    "request_type": "Traffic Signals/Signs/Striping/Streetlights",
    "request_reason": "Street Light Outage/Malfunction",
    "date_created": "2024-05-09T15:36:57.000",
    "date_modified": "2024-05-09T15:36:58.000",
    "request_status": "Pending",
    "responsible_agency": "Department of Public Works",
    "final_address": "1208 Michael St",
    "address_councildis": "C",
    "status": "Assigned to Contractor",
    "contractor": "Legacy Professional Services",
    "rowid": "1091966",
    "final_x": "3697269.19965",
    "final_y": "526861.502078",
    "longitude": "-90.01844594329057",
    "latitude": "29.942198232170767",
    "geocoded_column": {
      "latitude": "29.942198232170767",
      "longitude": "-90.01844594329057"
    }
  },
  {
    "service_request": "2024-1091964",
    "request_type": "Trash/Recycling",
    "request_reason": "Return Trash Cart",
    "date_created": "2024-05-09T15:24:52.000",
    "date_modified": "2024-05-09T15:24:52.000",
    "request_status": "Pending",
    "responsible_agency": "Department of Sanitation",
    "final_address": "4217 St Charles Ave",
    "address_councildis": "B",
    "status": "Assigned to Contractor",
    "contractor": "IV Waste",
    "rowid": "1091964",
    "final_x": "3671448.10414",
    "final_y": "520991.677817",
    "longitude": "-90.10016844674985",
    "latitude": "29.926847594992772",
    "geocoded_column": {
      "latitude": "29.926847594992772",
      "longitude": "-90.10016844674985"
    }
  },
  {
    "service_request": "2024-1091963",
    "request_type": "Traffic Signals/Signs/Striping/Streetlights",
    "request_reason": "Traffic Signal Malfunctioning/Damaged",
    "date_created": "2024-05-09T15:22:58.000",
    "date_modified": "2024-05-09T15:22:58.000",
    "request_status": "Pending",
    "responsible_agency": "Department of Public Works",
    "final_address": "N GALVEZ ST & ST BERNARD AVE",
    "address_councildis": "D",
    "status": "Pending",
    "rowid": "1091963",
    "final_x": "3681276.6",
    "final_y": "539516.38",
    "longitude": "-90.06849701914136",
    "latitude": "29.977489764684236",
    "geocoded_column": {
      "latitude": "29.977489764684236",
      "longitude": "-90.06849701914136"
    }
  },
  {
    "service_request": "2024-1091962",
    "request_type": "Traffic Signals/Signs/Striping/Streetlights",
    "request_reason": "Traffic Signal Malfunctioning/Damaged",
    "date_created": "2024-05-09T15:18:30.000",
    "date_modified": "2024-05-09T15:18:30.000",
    "request_status": "Pending",
    "responsible_agency": "Department of Public Works",
    "final_address": "ELYSIAN FIELDS AVE & N GALVEZ ST",
    "address_councildis": "D",
    "status": "Pending",
    "rowid": "1091962",
    "final_x": "3684673.9",
    "final_y": "539982.18",
    "longitude": "-90.05775084493696",
    "latitude": "29.978666998970876",
    "geocoded_column": {
      "latitude": "29.978666998970876",
      "longitude": "-90.05775084493696"
    }
  },
  {
    "service_request": "2024-1091961",
    "request_type": "Trash/Recycling",
    "request_reason": "Order Recycling Cart",
    "date_created": "2024-05-09T15:18:19.000",
    "date_modified": "2024-05-09T15:18:19.000",
    "request_status": "Pending",
    "responsible_agency": "Department of Sanitation",
    "final_address": "7115 Freret St",
    "address_councildis": "A",
    "status": "Pending",
    "rowid": "1091961",
    "final_x": "3663949.3104",
    "final_y": "525831.916029",
    "longitude": "-90.12367894561389",
    "latitude": "29.940376494367715",
    "geocoded_column": {
      "latitude": "29.940376494367715",
      "longitude": "-90.12367894561389"
    }
  },
  {
    "service_request": "2024-1091960",
    "request_type": "Traffic Signals/Signs/Striping/Streetlights",
    "request_reason": "Traffic Signal Malfunctioning/Damaged",
    "date_created": "2024-05-09T15:18:03.000",
    "date_modified": "2024-05-09T15:18:03.000",
    "request_status": "Pending",
    "responsible_agency": "Department of Public Works",
    "final_address": "N GALVEZ ST & ESPLANADE AVE",
    "address_councildis": "D",
    "status": "Pending",
    "rowid": "1091960",
    "final_x": "3679885.0",
    "final_y": "537689.48",
    "longitude": "-90.07295562584758",
    "latitude": "29.972508585194987",
    "geocoded_column": {
      "latitude": "29.972508585194987",
      "longitude": "-90.07295562584758"
    }
  },
  {
    "service_request": "2024-1091959",
    "request_type": "Traffic Signals/Signs/Striping/Streetlights",
    "request_reason": "Traffic Signal Malfunctioning/Damaged",
    "date_created": "2024-05-09T15:17:39.000",
    "date_modified": "2024-05-09T15:17:39.000",
    "request_status": "Pending",
    "responsible_agency": "Department of Public Works",
    "final_address": "N BROAD ST & ESPLANADE AVE",
    "address_councildis": "D",
    "status": "Pending",
    "rowid": "1091959",
    "final_x": "3678224.84",
    "final_y": "538942.48",
    "longitude": "-90.07815536068416",
    "latitude": "29.976004011799112",
    "geocoded_column": {
      "latitude": "29.976004011799112",
      "longitude": "-90.07815536068416"
    }
  },
  {
    "service_request": "2024-1091958",
    "request_type": "Traffic Signals/Signs/Striping/Streetlights",
    "request_reason": "Street Light Outage/Malfunction",
    "date_created": "2024-05-09T15:17:20.000",
    "date_modified": "2024-05-09T15:17:20.000",
    "request_status": "Pending",
    "responsible_agency": "Department of Public Works",
    "final_address": "2104 Elysian Fields Ave",
    "address_councildis": "D",
    "status": "Assigned to Contractor",
    "contractor": "Legacy Professional Services",
    "rowid": "1091958",
    "final_x": "3684610.74812",
    "final_y": "540024.278027",
    "longitude": "-90.0579488218835",
    "latitude": "29.978784686698784",
    "geocoded_column": {
      "latitude": "29.978784686698784",
      "longitude": "-90.0579488218835"
    }
  },
  {
    "service_request": "2024-1091957",
    "request_type": "Trash/Recycling",
    "request_reason": "Replace Trash Cart",
    "date_created": "2024-05-09T15:16:12.000",
    "date_modified": "2024-05-09T15:16:12.000",
    "request_status": "Pending",
    "responsible_agency": "Department of Sanitation",
    "final_address": "7115 Freret St",
    "address_councildis": "A",
    "status": "Assigned to Contractor",
    "contractor": "IV Waste",
    "rowid": "1091957",
    "final_x": "3663949.3104",
    "final_y": "525831.916029",
    "longitude": "-90.12367894561389",
    "latitude": "29.940376494367715",
    "geocoded_column": {
      "latitude": "29.940376494367715",
      "longitude": "-90.12367894561389"
    }
  },
  {
    "service_request": "2024-1091956",
    "request_type": "Roads/Drainage",
    "request_reason": "Road Shoulder Repair",
    "date_created": "2024-05-09T15:16:05.000",
    "date_modified": "2024-05-09T15:16:06.000",
    "request_status": "Pending",
    "responsible_agency": "Department of Public Works",
    "final_address": "3346 Trafalgar St",
    "address_councildis": "A",
    "status": "Pending",
    "rowid": "1091956",
    "final_x": "3677751.58779",
    "final_y": "543145.697741",
    "longitude": "-90.07950476794628",
    "latitude": "29.987575650887152",
    "geocoded_column": {
      "latitude": "29.987575650887152",
      "longitude": "-90.07950476794628"
    }
  },
  {
    "service_request": "2024-1091955",
    "request_type": "Property Maintenance",
    "request_reason": "Property Maintenance",
    "date_created": "2024-05-09T15:14:40.000",
    "date_modified": "2024-05-09T15:27:33.000",
    "case_close_date": "2024-05-09T10:27:33.000",
    "request_status": "Closed",
    "responsible_agency": "Department of Code Enforcement",
    "final_address": "8027 Bullard Ave",
    "address_councildis": "E",
    "status": "Referred to Code Enforcement",
    "rowid": "1091955",
    "final_x": "3712294.88677",
    "final_y": "568662.917349",
    "longitude": "-89.9694361447316",
    "latitude": "30.05665341658414",
    "geocoded_column": {
      "latitude": "30.05665341658414",
      "longitude": "-89.9694361447316"
    }
  },
  {
    "service_request": "2024-1091954",
    "request_type": "Trash/Recycling",
    "request_reason": "Repair Recycling Cart",
    "date_created": "2024-05-09T15:12:52.000",
    "date_modified": "2024-05-09T15:12:52.000",
    "request_status": "Pending",
    "responsible_agency": "Department of Sanitation",
    "final_address": "2363 Marais St",
    "address_councildis": "C",
    "status": "Pending",
    "rowid": "1091954",
    "final_x": "3686286.58505",
    "final_y": "536811.707336",
    "longitude": "-90.05276930340649",
    "latitude": "29.969899847539086",
    "geocoded_column": {
      "latitude": "29.969899847539086",
      "longitude": "-90.05276930340649"
    }
  },
  {
    "service_request": "2024-1091953",
    "request_type": "Abandoned Vehicles",
    "request_reason": "Abandoned/Junk Vehicles",
    "date_created": "2024-05-09T15:11:42.000",
    "date_modified": "2024-05-09T15:11:42.000",
    "request_status": "Pending",
    "responsible_agency": "Department of Public Works",
    "final_address": "1809 Arts St",
    "address_councildis": "D",
    "status": "Inspected",
    "rowid": "1091953",
    "final_x": "3687030.59017",
    "final_y": "539176.971594",
    "longitude": "-90.05033603115773",
    "latitude": "29.976380611035307",
    "geocoded_column": {
      "latitude": "29.976380611035307",
      "longitude": "-90.05033603115773"
    }
  },
  {
    "service_request": "2024-1091952",
    "request_type": "Trash/Recycling",
    "request_reason": "Order Recycling Cart",
    "date_created": "2024-05-09T15:10:42.000",
    "date_modified": "2024-05-09T15:32:24.000",
    "request_status": "Pending",
    "responsible_agency": "Department of Sanitation",
    "final_address": "7113 Freret St",
    "address_councildis": "A",
    "rowid": "1091952",
    "final_x": "3663937.0937",
    "final_y": "525843.844605",
    "longitude": "-90.12371711831831",
    "latitude": "29.940409648767822",
    "geocoded_column": {
      "latitude": "29.940409648767822",
      "longitude": "-90.12371711831831"
    }
  },
  {
    "service_request": "2024-1091951",
    "request_type": "Roads/Drainage",
    "request_reason": "Catch Basin - Clogged",
    "date_created": "2024-05-09T15:09:35.000",
    "date_modified": "2024-05-09T15:09:35.000",
    "request_status": "Pending",
    "responsible_agency": "Department of Public Works",
    "final_address": "4218 General Ogden St",
    "address_councildis": "A",
    "status": "Pending",
    "rowid": "1091951",
    "final_x": "538293.122953",
    "final_y": "538293.122953",
    "longitude": "-99.97950871700323",
    "latitude": "29.695545697809628",
    "geocoded_column": {
      "latitude": "29.695545697809628",
      "longitude": "-99.97950871700323"
    }
  },
  {
    "service_request": "2024-1091950",
    "request_type": "Trash/Recycling",
    "request_reason": "Repair Trash Cart",
    "date_created": "2024-05-09T15:09:01.000",
    "date_modified": "2024-05-09T15:09:02.000",
    "request_status": "Pending",
    "responsible_agency": "Department of Sanitation",
    "final_address": "5924 Airway St",
    "address_councildis": "D",
    "status": "Assigned to Contractor",
    "contractor": "Waste Pro",
    "rowid": "1091950",
    "final_x": "3696425.85859",
    "final_y": "552796.176662",
    "longitude": "-90.02017016028861",
    "latitude": "30.013535813831236",
    "geocoded_column": {
      "latitude": "30.013535813831236",
      "longitude": "-90.02017016028861"
    }
  },
  {
    "service_request": "2024-1091949",
    "request_type": "Trash/Recycling",
    "request_reason": "Order Recycling Cart",
    "date_created": "2024-05-09T15:08:21.000",
    "date_modified": "2024-05-09T15:08:21.000",
    "request_status": "Pending",
    "responsible_agency": "Department of Sanitation",
    "final_address": "4716 Odin St",
    "address_councildis": "D",
    "status": "Pending",
    "rowid": "1091949",
    "final_x": "3691168.98428",
    "final_y": "553729.848919",
    "longitude": "-90.0367456948915",
    "latitude": "30.01626767022717",
    "geocoded_column": {
      "latitude": "30.01626767022717",
      "longitude": "-90.0367456948915"
    }
  },
  {
    "service_request": "2024-1091948",
    "request_type": "Trash/Recycling",
    "request_reason": "Repair Trash Cart",
    "date_created": "2024-05-09T15:07:57.000",
    "date_modified": "2024-05-09T15:07:58.000",
    "request_status": "Pending",
    "responsible_agency": "Department of Sanitation",
    "final_address": "4716 Odin St",
    "address_councildis": "D",
    "status": "Assigned to Contractor",
    "contractor": "IV Waste",
    "rowid": "1091948",
    "final_x": "3691168.98428",
    "final_y": "553729.848919",
    "longitude": "-90.0367456948915",
    "latitude": "30.01626767022717",
    "geocoded_column": {
      "latitude": "30.01626767022717",
      "longitude": "-90.0367456948915"
    }
  },
  {
    "service_request": "2024-1091947",
    "request_type": "Trash/Recycling",
    "request_reason": "Replace Trash Cart",
    "date_created": "2024-05-09T15:07:23.000",
    "date_modified": "2024-05-09T15:07:24.000",
    "request_status": "Pending",
    "responsible_agency": "Department of Sanitation",
    "final_address": "4532 S Robertson St",
    "address_councildis": "B",
    "status": "Assigned to Contractor",
    "contractor": "IV Waste",
    "rowid": "1091947",
    "final_x": "3669826.25959",
    "final_y": "524291.964092",
    "longitude": "-90.10517652674902",
    "latitude": "29.93597021901269",
    "geocoded_column": {
      "latitude": "29.93597021901269",
      "longitude": "-90.10517652674902"
    }
  },
  {
    "service_request": "2024-1091946",
    "request_type": "Trash/Recycling",
    "request_reason": "Order Trash Cart",
    "date_created": "2024-05-09T15:05:22.000",
    "date_modified": "2024-05-09T15:05:23.000",
    "request_status": "Pending",
    "responsible_agency": "Department of Sanitation",
    "final_address": "7113 Freret St",
    "address_councildis": "A",
    "status": "Assigned to Contractor",
    "contractor": "IV Waste",
    "rowid": "1091946",
    "final_x": "3663937.0937",
    "final_y": "525843.844605",
    "longitude": "-90.12371711831831",
    "latitude": "29.940409648767822",
    "geocoded_column": {
      "latitude": "29.940409648767822",
      "longitude": "-90.12371711831831"
    }
  },
  {
    "service_request": "2024-1091945",
    "request_type": "Trash/Recycling",
    "request_reason": "Order Trash Cart",
    "date_created": "2024-05-09T15:04:38.000",
    "date_modified": "2024-05-09T15:04:38.000",
    "request_status": "Pending",
    "responsible_agency": "Department of Sanitation",
    "final_address": "9533 Dinkins St",
    "address_councildis": "E",
    "status": "Assigned to Contractor",
    "contractor": "Waste Pro",
    "rowid": "1091945",
    "final_x": "3706423.77182",
    "final_y": "564454.317409",
    "longitude": "-89.98814983443603",
    "latitude": "30.04527230153323",
    "geocoded_column": {
      "latitude": "30.04527230153323",
      "longitude": "-89.98814983443603"
    }
  },
  {
    "service_request": "2024-1091944",
    "request_type": "Traffic Signals/Signs/Striping/Streetlights",
    "request_reason": "Traffic Signal Malfunctioning/Damaged",
    "date_created": "2024-05-09T15:02:53.000",
    "date_modified": "2024-05-09T15:02:53.000",
    "request_status": "Pending",
    "responsible_agency": "Department of Public Works",
    "final_address": "CHEF MENTEUR HWY & LAINE AVE",
    "address_councildis": "E",
    "status": "Pending",
    "rowid": "1091944",
    "final_x": "3705937.9",
    "final_y": "553062.98",
    "longitude": "-89.99010744966556",
    "latitude": "30.013966251869064",
    "geocoded_column": {
      "latitude": "30.013966251869064",
      "longitude": "-89.99010744966556"
    }
  },
  {
    "service_request": "2024-1091943",
    "request_type": "Traffic Signals/Signs/Striping/Streetlights",
    "request_reason": "Traffic Signal Malfunctioning/Damaged",
    "date_created": "2024-05-09T15:01:56.000",
    "date_modified": "2024-05-09T15:14:13.000",
    "request_status": "Pending",
    "responsible_agency": "Department of Public Works",
    "final_address": "ELYSIAN FIELDS EXIT & N MIRO ST",
    "address_councildis": "D",
    "status": "Pending",
    "rowid": "1091943",
    "final_x": "3684658.1",
    "final_y": "540354.98",
    "longitude": "-90.05778763991917",
    "latitude": "29.979692551727254",
    "geocoded_column": {
      "latitude": "29.979692551727254",
      "longitude": "-90.05778763991917"
    }
  },
  {
    "service_request": "2024-1091942",
    "request_type": "Traffic Signals/Signs/Striping/Streetlights",
    "request_reason": "Traffic Signal Malfunctioning/Damaged",
    "date_created": "2024-05-09T15:01:36.000",
    "date_modified": "2024-05-09T15:01:37.000",
    "request_status": "Pending",
    "responsible_agency": "Department of Public Works",
    "final_address": "N GALVEZ ST & ELYSIAN FIELDS AVE",
    "address_councildis": "D",
    "status": "Pending",
    "rowid": "1091942",
    "final_x": "3684770.2",
    "final_y": "539990.98",
    "longitude": "-90.05744638462906",
    "latitude": "29.978688247796107",
    "geocoded_column": {
      "latitude": "29.978688247796107",
      "longitude": "-90.05744638462906"
    }
  },
  {
    "service_request": "2024-1091941",
    "request_type": "Roads/Drainage",
    "request_reason": "Leaking Hydrant",
    "date_created": "2024-05-09T15:01:25.000",
    "date_modified": "2024-05-09T16:13:29.000",
    "case_close_date": "2024-05-09T11:13:29.000",
    "request_status": "Closed",
    "responsible_agency": "Department of Public Works",
    "final_address": "7307 Saint Charles Ave, New Orleans, Louisiana, 70118",
    "address_councildis": "D",
    "status": "Referred to External Agency",
    "rowid": "1091941",
    "final_x": "3687880.8",
    "final_y": "560035.64",
    "longitude": "-90.04691121641319",
    "latitude": "30.03370814054373",
    "geocoded_column": {
      "latitude": "30.03370814054373",
      "longitude": "-90.04691121641319"
    }
  },
  {
    "service_request": "2024-1091940",
    "request_type": "Trash/Recycling",
    "request_reason": "Repair Trash Cart",
    "date_created": "2024-05-09T15:00:09.000",
    "date_modified": "2024-05-09T15:00:10.000",
    "request_status": "Pending",
    "responsible_agency": "Department of Sanitation",
    "final_address": "3025 Banks St",
    "address_councildis": "B",
    "status": "Assigned to Contractor",
    "contractor": "IV Waste",
    "rowid": "1091940",
    "final_x": "3673488.74868",
    "final_y": "535077.727942",
    "longitude": "-90.09324543122548",
    "latitude": "29.965519054117046",
    "geocoded_column": {
      "latitude": "29.965519054117046",
      "longitude": "-90.09324543122548"
    }
  },
  {
    "service_request": "2024-1091939",
    "request_type": "Traffic Signals/Signs/Striping/Streetlights",
    "request_reason": "Traffic Signal Malfunctioning/Damaged",
    "date_created": "2024-05-09T14:59:24.000",
    "date_modified": "2024-05-09T14:59:24.000",
    "request_status": "Pending",
    "responsible_agency": "Department of Public Works",
    "final_address": "2136 N Galvez St",
    "address_councildis": "D",
    "status": "Pending",
    "rowid": "1091939",
    "final_x": "3684537.26121",
    "final_y": "539942.99457",
    "longitude": "-90.05818377782167",
    "latitude": "29.97856343457613",
    "geocoded_column": {
      "latitude": "29.97856343457613",
      "longitude": "-90.05818377782167"
    }
  },
  {
    "service_request": "2024-1091938",
    "request_type": "Trash/Recycling",
    "request_reason": "Return Trash Cart",
    "date_created": "2024-05-09T14:58:34.000",
    "date_modified": "2024-05-09T14:58:35.000",
    "request_status": "Pending",
    "responsible_agency": "Department of Sanitation",
    "final_address": "3025 Banks St",
    "address_councildis": "B",
    "status": "Assigned to Contractor",
    "contractor": "IV Waste",
    "rowid": "1091938",
    "final_x": "3673488.74868",
    "final_y": "535077.727942",
    "longitude": "-90.09324543122548",
    "latitude": "29.965519054117046",
    "geocoded_column": {
      "latitude": "29.965519054117046",
      "longitude": "-90.09324543122548"
    }
  },
  {
    "service_request": "2024-1091937",
    "request_type": "Property Maintenance",
    "request_reason": "Property Maintenance",
    "date_created": "2024-05-09T14:56:46.000",
    "date_modified": "2024-05-09T15:06:07.000",
    "case_close_date": "2024-05-09T10:06:07.000",
    "request_status": "Closed",
    "responsible_agency": "Department of Code Enforcement",
    "final_address": "9930 Chef Menteur Hwy",
    "address_councildis": "E",
    "status": "Referred to Code Enforcement",
    "rowid": "1091937",
    "final_x": "3712214.00082",
    "final_y": "554406.052504",
    "longitude": "-89.97022789155774",
    "latitude": "30.01745538692855",
    "geocoded_column": {
      "latitude": "30.01745538692855",
      "longitude": "-89.97022789155774"
    }
  },
  {
    "service_request": "2024-1091936",
    "request_type": "Roads/Drainage",
    "request_reason": "Catch Basin - Clogged",
    "date_created": "2024-05-09T14:55:35.000",
    "date_modified": "2024-05-09T14:55:36.000",
    "request_status": "Pending",
    "responsible_agency": "Department of Public Works",
    "final_address": "4546 Desire Dr",
    "address_councildis": "D",
    "status": "Pending",
    "rowid": "1091936",
    "final_x": "3691859.7416",
    "final_y": "551164.014613",
    "longitude": "-90.03465509389007",
    "latitude": "30.009191068121144",
    "geocoded_column": {
      "latitude": "30.009191068121144",
      "longitude": "-90.03465509389007"
    }
  },
  {
    "service_request": "2024-1091932",
    "request_type": "Parks & Parkways",
    "request_reason": "Request Tree Service (Right of Way/Public Property)",
    "date_created": "2024-05-09T14:43:13.000",
    "date_modified": "2024-05-09T14:43:13.000",
    "request_status": "Pending",
    "responsible_agency": "Department of Parks & Parkway",
    "final_address": "2515 S Roman St",
    "address_councildis": "B",
    "status": "Pending",
    "rowid": "1091932",
    "final_x": "3673405.54049",
    "final_y": "527781.520319",
    "longitude": "-90.09375745960183",
    "latitude": "29.945459384197815",
    "geocoded_column": {
      "latitude": "29.945459384197815",
      "longitude": "-90.09375745960183"
    }
  },
  {
    "service_request": "2024-1091931",
    "request_type": "Traffic Signals/Signs/Striping/Streetlights",
    "request_reason": "Traffic Signal Malfunctioning/Damaged",
    "date_created": "2024-05-09T14:43:03.000",
    "date_modified": "2024-05-09T14:43:03.000",
    "request_status": "Pending",
    "responsible_agency": "Department of Public Works",
    "final_address": "1501 St Roch Ave",
    "address_councildis": "C",
    "status": "Pending",
    "rowid": "1091931",
    "final_x": "3686454.49647",
    "final_y": "537936.210889",
    "longitude": "-90.05219931823717",
    "latitude": "29.97298667842607",
    "geocoded_column": {
      "latitude": "29.97298667842607",
      "longitude": "-90.05219931823717"
    }
  },
  {
    "service_request": "2024-1091930",
    "request_type": "Trash/Recycling",
    "request_reason": "MIssed Recycling Pick-Up",
    "date_created": "2024-05-09T14:41:49.000",
    "date_modified": "2024-05-09T14:41:50.000",
    "request_status": "Pending",
    "responsible_agency": "Department of Sanitation",
    "final_address": "6561 E Hermes St",
    "address_councildis": "D",
    "status": "Assigned to Contractor",
    "contractor": "Waste Pro",
    "rowid": "1091930",
    "final_x": "3697930.7137",
    "final_y": "555763.915993",
    "longitude": "-90.01530777728833",
    "latitude": "30.021648467446955",
    "geocoded_column": {
      "latitude": "30.021648467446955",
      "longitude": "-90.01530777728833"
    }
  },
  {
    "service_request": "2024-1091929",
    "request_type": "Trash/Recycling",
    "request_reason": "Order Recycling Cart",
    "date_created": "2024-05-09T14:41:22.000",
    "date_modified": "2024-05-09T14:41:23.000",
    "request_status": "Pending",
    "responsible_agency": "Department of Sanitation",
    "final_address": "6561 E Hermes St",
    "address_councildis": "D",
    "status": "Pending",
    "rowid": "1091929",
    "final_x": "3697930.7137",
    "final_y": "555763.915993",
    "longitude": "-90.01530777728833",
    "latitude": "30.021648467446955",
    "geocoded_column": {
      "latitude": "30.021648467446955",
      "longitude": "-90.01530777728833"
    }
  },
  {
    "service_request": "2024-1091928",
    "request_type": "Traffic Signals/Signs/Striping/Streetlights",
    "request_reason": "Traffic Sign Missing/Damaged",
    "date_created": "2024-05-09T14:38:03.000",
    "date_modified": "2024-05-09T14:38:04.000",
    "request_status": "Pending",
    "responsible_agency": "Department of Public Works",
    "final_address": "700 BLK Patterson St",
    "address_councildis": "C",
    "status": "Pending",
    "rowid": "1091928",
    "final_x": "3687765.05488",
    "final_y": "531441.449372",
    "longitude": "-90.04829036761956",
    "latitude": "29.95508798652502",
    "geocoded_column": {
      "latitude": "29.95508798652502",
      "longitude": "-90.04829036761956"
    }
  },
  {
    "service_request": "2024-1091927",
    "request_type": "Property Maintenance",
    "request_reason": "Property Maintenance",
    "date_created": "2024-05-09T14:35:44.000",
    "date_modified": "2024-05-09T14:57:46.000",
    "case_close_date": "2024-05-09T09:57:46.000",
    "request_status": "Closed",
    "responsible_agency": "Department of Code Enforcement",
    "final_address": "2727 Dreux Ave",
    "address_councildis": "D",
    "status": "Referred to Code Enforcement",
    "rowid": "1091927",
    "final_x": "3687548.82095",
    "final_y": "552342.40943",
    "longitude": "-90.04823296813034",
    "latitude": "30.012564862710217",
    "geocoded_column": {
      "latitude": "30.012564862710217",
      "longitude": "-90.04823296813034"
    }
  },
  {
    "service_request": "2024-1091926",
    "request_type": "Property Maintenance",
    "request_reason": "Property Maintenance",
    "date_created": "2024-05-09T14:33:06.000",
    "date_modified": "2024-05-09T14:49:53.000",
    "case_close_date": "2024-05-09T09:49:53.000",
    "request_status": "Closed",
    "responsible_agency": "Department of Code Enforcement",
    "final_address": "1614 Port St",
    "address_councildis": "D",
    "status": "Referred to Code Enforcement",
    "rowid": "1091926",
    "final_x": "3687895.4838",
    "final_y": "538407.336649",
    "longitude": "-90.04763171843611",
    "latitude": "29.974237729462942",
    "geocoded_column": {
      "latitude": "29.974237729462942",
      "longitude": "-90.04763171843611"
    }
  },
  {
    "service_request": "2024-1091925",
    "request_type": "Traffic Signals/Signs/Striping/Streetlights",
    "request_reason": "Traffic Sign Missing/Damaged",
    "date_created": "2024-05-09T14:31:07.000",
    "date_modified": "2024-05-09T15:31:35.000",
    "case_close_date": "2024-05-09T10:31:35.000",
    "request_status": "Closed",
    "responsible_agency": "Department of Public Works",
    "final_address": "3610 General Ogden St",
    "address_councildis": "A",
    "status": "Resolved",
    "rowid": "1091925",
    "final_x": "3665674.04429",
    "final_y": "536699.888327",
    "longitude": "-90.11786969186794",
    "latitude": "29.970209696371946",
    "geocoded_column": {
      "latitude": "29.970209696371946",
      "longitude": "-90.11786969186794"
    }
  },
  {
    "service_request": "2024-1091924",
    "request_type": "Trash/Recycling",
    "request_reason": "Request a Large Item Pick Up",
    "date_created": "2024-05-09T14:28:33.000",
    "date_modified": "2024-05-09T14:28:33.000",
    "request_status": "Pending",
    "responsible_agency": "Department of Sanitation",
    "final_address": "4430 Shalimar Dr",
    "address_councildis": "D",
    "status": "Assigned to Contractor",
    "contractor": "Waste Pro",
    "rowid": "1091924",
    "final_x": "3697233.02563",
    "final_y": "552632.51151",
    "longitude": "-90.0176258860129",
    "latitude": "30.013060336447857",
    "geocoded_column": {
      "latitude": "30.013060336447857",
      "longitude": "-90.0176258860129"
    }
  },
  {
    "service_request": "2024-1091923",
    "request_type": "Traffic Signals/Signs/Striping/Streetlights",
    "request_reason": "Request for Stop Sign",
    "date_created": "2024-05-09T14:28:00.000",
    "date_modified": "2024-05-09T14:28:00.000",
    "request_status": "Pending",
    "responsible_agency": "Department of Public Works",
    "final_address": "3610 General Ogden St",
    "address_councildis": "A",
    "status": "Pending",
    "rowid": "1091923",
    "final_x": "3665674.04429",
    "final_y": "536699.888327",
    "longitude": "-90.11786969186794",
    "latitude": "29.970209696371946",
    "geocoded_column": {
      "latitude": "29.970209696371946",
      "longitude": "-90.11786969186794"
    }
  },
  {
    "service_request": "2024-1091922",
    "request_type": "Property Maintenance",
    "request_reason": "Property Maintenance",
    "date_created": "2024-05-09T14:23:11.000",
    "date_modified": "2024-05-09T15:20:04.000",
    "case_close_date": "2024-05-09T10:20:04.000",
    "request_status": "Closed",
    "responsible_agency": "Department of Code Enforcement",
    "final_address": "1605 Jourdan Ave",
    "address_councildis": "E",
    "status": "Referred to Code Enforcement",
    "rowid": "1091922",
    "final_x": "3695630.8465",
    "final_y": "536454.115143",
    "longitude": "-90.02327229216284",
    "latitude": "29.968626143631564",
    "geocoded_column": {
      "latitude": "29.968626143631564",
      "longitude": "-90.02327229216284"
    }
  },
  {
    "service_request": "2024-1091921",
    "request_type": "Trash/Recycling",
    "request_reason": "Request a Large Item Pick Up",
    "date_created": "2024-05-09T14:20:17.000",
    "date_modified": "2024-05-09T14:20:18.000",
    "request_status": "Pending",
    "responsible_agency": "Department of Sanitation",
    "final_address": "608 Verret St",
    "address_councildis": "C",
    "status": "Assigned to Contractor",
    "contractor": "Richards Disposal",
    "rowid": "1091921",
    "final_x": "3687087.83554",
    "final_y": "529390.760897",
    "longitude": "-90.05050126318514",
    "latitude": "29.949470161774954",
    "geocoded_column": {
      "latitude": "29.949470161774954",
      "longitude": "-90.05050126318514"
    }
  },
  {
    "service_request": "2024-1091920",
    "request_type": "Trash/Recycling",
    "request_reason": "Order Trash Cart",
    "date_created": "2024-05-09T14:19:05.000",
    "date_modified": "2024-05-09T14:19:05.000",
    "request_status": "Pending",
    "responsible_agency": "Department of Sanitation",
    "final_address": "4023 Loyola Ave",
    "address_councildis": "B",
    "status": "Assigned to Contractor",
    "contractor": "IV Waste",
    "rowid": "1091920",
    "final_x": "3671925.87886",
    "final_y": "523227.868859",
    "longitude": "-90.09858416795382",
    "latitude": "29.932982254020057",
    "geocoded_column": {
      "latitude": "29.932982254020057",
      "longitude": "-90.09858416795382"
    }
  },
  {
    "service_request": "2024-1091919",
    "request_type": "Property Maintenance",
    "request_reason": "Property Maintenance",
    "date_created": "2024-05-09T14:12:57.000",
    "date_modified": "2024-05-09T15:41:20.000",
    "case_close_date": "2024-05-09T10:41:20.000",
    "request_status": "Closed",
    "responsible_agency": "Department of Code Enforcement",
    "final_address": "2423 Andry St",
    "address_councildis": "E",
    "status": "Referred to Code Enforcement",
    "rowid": "1091919",
    "final_x": "3698596.93264",
    "final_y": "539008.08257",
    "longitude": "-90.01381240325686",
    "latitude": "29.97555505513653",
    "geocoded_column": {
      "latitude": "29.97555505513653",
      "longitude": "-90.01381240325686"
    }
  },
  {
    "service_request": "2024-1091918",
    "request_type": "Trash/Recycling",
    "request_reason": "Request a Large Item Pick Up",
    "date_created": "2024-05-09T14:12:31.000",
    "date_modified": "2024-05-09T14:12:31.000",
    "request_status": "Pending",
    "responsible_agency": "Department of Sanitation",
    "final_address": "4500 Shalimar Dr",
    "address_councildis": "D",
    "status": "Assigned to Contractor",
    "contractor": "Waste Pro",
    "rowid": "1091918",
    "final_x": "3697204.51069",
    "final_y": "552944.045463",
    "longitude": "-90.01770467612812",
    "latitude": "30.01391783789882",
    "geocoded_column": {
      "latitude": "30.01391783789882",
      "longitude": "-90.01770467612812"
    }
  },
  {
    "service_request": "2024-1091917",
    "request_type": "Trash/Recycling",
    "request_reason": "Illegal Dumping",
    "date_created": "2024-05-09T14:11:54.000",
    "date_modified": "2024-05-09T14:11:54.000",
    "request_status": "Pending",
    "responsible_agency": "Department of Sanitation",
    "final_address": "3310 Mansfield Ave",
    "address_councildis": "C",
    "status": "Pending",
    "rowid": "1091917",
    "final_x": "3709155.10072",
    "final_y": "518466.976566",
    "longitude": "-89.98123263966595",
    "latitude": "29.9187358655457",
    "geocoded_column": {
      "latitude": "29.9187358655457",
      "longitude": "-89.98123263966595"
    }
  },
  {
    "service_request": "2024-1091916",
    "request_type": "Trash/Recycling",
    "request_reason": "Return Trash Cart",
    "date_created": "2024-05-09T14:08:52.000",
    "date_modified": "2024-05-09T14:08:53.000",
    "request_status": "Pending",
    "responsible_agency": "Department of Sanitation",
    "final_address": "617 Olivier St",
    "address_councildis": "C",
    "status": "Assigned to Contractor",
    "contractor": "Richards Disposal",
    "rowid": "1091916",
    "final_x": "3687244.2685",
    "final_y": "529343.038273",
    "longitude": "-90.05000902287688",
    "latitude": "29.94933412430116",
    "geocoded_column": {
      "latitude": "29.94933412430116",
      "longitude": "-90.05000902287688"
    }
  },
  {
    "service_request": "2024-1091915",
    "request_type": "Trash/Recycling",
    "request_reason": "Request a Large Item Pick Up",
    "date_created": "2024-05-09T14:07:11.000",
    "date_modified": "2024-05-09T14:07:12.000",
    "request_status": "Pending",
    "responsible_agency": "Department of Sanitation",
    "final_address": "4965 Camelia St",
    "address_councildis": "E",
    "status": "Assigned to Contractor",
    "contractor": "Waste Pro",
    "rowid": "1091915",
    "final_x": "3701471.6474",
    "final_y": "555508.503129",
    "longitude": "-90.00412880647332",
    "latitude": "30.0208337113944",
    "geocoded_column": {
      "latitude": "30.0208337113944",
      "longitude": "-90.00412880647332"
    }
  },
  {
    "service_request": "2024-1091914",
    "request_type": "Trash/Recycling",
    "request_reason": "Illegal Dumping",
    "date_created": "2024-05-09T14:06:57.000",
    "date_modified": "2024-05-09T14:06:57.000",
    "request_status": "Pending",
    "responsible_agency": "Department of Sanitation",
    "final_address": "3310 Mansfield Ave",
    "address_councildis": "C",
    "status": "Pending",
    "rowid": "1091914",
    "final_x": "3709155.10072",
    "final_y": "518466.976566",
    "longitude": "-89.98123263966595",
    "latitude": "29.9187358655457",
    "geocoded_column": {
      "latitude": "29.9187358655457",
      "longitude": "-89.98123263966595"
    }
  },
  {
    "service_request": "2024-1091913",
    "request_type": "Trash/Recycling",
    "request_reason": "Repair Trash Cart",
    "date_created": "2024-05-09T14:06:51.000",
    "date_modified": "2024-05-09T14:06:51.000",
    "request_status": "Closed",
    "responsible_agency": "Department of Sanitation",
    "final_address": "617 Olivier St",
    "address_councildis": "C",
    "status": "Resolved",
    "rowid": "1091913",
    "final_x": "3687244.2685",
    "final_y": "529343.038273",
    "longitude": "-90.05000902287688",
    "latitude": "29.94933412430116",
    "geocoded_column": {
      "latitude": "29.94933412430116",
      "longitude": "-90.05000902287688"
    }
  },
  {
    "service_request": "2024-1091912",
    "request_type": "Trash/Recycling",
    "request_reason": "Illegal Dumping",
    "date_created": "2024-05-09T14:05:15.000",
    "date_modified": "2024-05-09T14:05:15.000",
    "request_status": "Pending",
    "responsible_agency": "Department of Sanitation",
    "final_address": "3310 Mansfield Ave",
    "address_councildis": "C",
    "status": "Pending",
    "rowid": "1091912",
    "final_x": "3709155.10072",
    "final_y": "518466.976566",
    "longitude": "-89.98123263966595",
    "latitude": "29.9187358655457",
    "geocoded_column": {
      "latitude": "29.9187358655457",
      "longitude": "-89.98123263966595"
    }
  },
  {
    "service_request": "2024-1091911",
    "request_type": "Property Maintenance",
    "request_reason": "Property Maintenance",
    "date_created": "2024-05-09T14:02:30.000",
    "date_modified": "2024-05-09T14:09:20.000",
    "case_close_date": "2024-05-09T09:09:20.000",
    "request_status": "Closed",
    "responsible_agency": "Department of Code Enforcement",
    "final_address": "2335 Independence St",
    "address_councildis": "D",
    "status": "Referred to Code Enforcement",
    "rowid": "1091911",
    "final_x": "3692173.98057",
    "final_y": "540307.251531",
    "longitude": "-90.03405124370889",
    "latitude": "29.979329121101692",
    "geocoded_column": {
      "latitude": "29.979329121101692",
      "longitude": "-90.03405124370889"
    }
  },
  {
    "service_request": "2024-1091910",
    "request_type": "Trash/Recycling",
    "request_reason": "Request a Large Item Pick Up",
    "date_created": "2024-05-09T14:01:48.000",
    "date_modified": "2024-05-09T14:01:49.000",
    "request_status": "Pending",
    "responsible_agency": "Department of Sanitation",
    "final_address": "8601 Zimple St",
    "address_councildis": "A",
    "status": "Assigned to Contractor",
    "contractor": "IV Waste",
    "rowid": "1091910",
    "final_x": "3660392.59981",
    "final_y": "529379.898881",
    "longitude": "-90.13479095012634",
    "latitude": "29.950235084027565",
    "geocoded_column": {
      "latitude": "29.950235084027565",
      "longitude": "-90.13479095012634"
    }
  },
  {
    "service_request": "2024-1091909",
    "request_type": "Trash/Recycling",
    "request_reason": "Missed Trash Pick-Up",
    "date_created": "2024-05-09T14:01:02.000",
    "date_modified": "2024-05-09T14:29:58.000",
    "case_close_date": "2024-05-09T09:29:58.000",
    "request_status": "Closed",
    "responsible_agency": "Department of Sanitation",
    "final_address": "7720 Spruce St",
    "address_councildis": "A",
    "status": "Invalid Request",
    "contractor": "IV Waste",
    "contractor_action": "Invalid",
    "rowid": "1091909",
    "final_x": "3664775.48429",
    "final_y": "529563.764545",
    "longitude": "-90.12094590667361",
    "latitude": "29.950613869573143",
    "geocoded_column": {
      "latitude": "29.950613869573143",
      "longitude": "-90.12094590667361"
    }
  },
  {
    "service_request": "2024-1091908",
    "request_type": "Trash/Recycling",
    "request_reason": "Illegal Dumping",
    "date_created": "2024-05-09T14:00:23.000",
    "date_modified": "2024-05-09T14:00:24.000",
    "request_status": "Pending",
    "responsible_agency": "Department of Sanitation",
    "final_address": "1200 BLK Tricou St",
    "address_councildis": "E",
    "status": "Pending",
    "rowid": "1091908",
    "final_x": "3700342.23511",
    "final_y": "533554.992061",
    "longitude": "-90.00849942110784",
    "latitude": "29.96050564068879",
    "geocoded_column": {
      "latitude": "29.96050564068879",
      "longitude": "-90.00849942110784"
    }
  },
  {
    "service_request": "2024-1091907",
    "request_type": "Trash/Recycling",
    "request_reason": "Illegal Dumping",
    "date_created": "2024-05-09T13:59:47.000",
    "date_modified": "2024-05-09T13:59:47.000",
    "request_status": "Pending",
    "responsible_agency": "Department of Sanitation",
    "final_address": "5116 Pauline Dr",
    "address_councildis": "D",
    "status": "Pending",
    "rowid": "1091907",
    "final_x": "3692424.63056",
    "final_y": "552911.691095",
    "longitude": "-90.03280775616466",
    "latitude": "30.013978913472105",
    "geocoded_column": {
      "latitude": "30.013978913472105",
      "longitude": "-90.03280775616466"
    }
  },
  {
    "service_request": "2024-1091906",
    "request_type": "Trash/Recycling",
    "request_reason": "Illegal Dumping",
    "date_created": "2024-05-09T13:59:02.000",
    "date_modified": "2024-05-09T13:59:02.000",
    "request_status": "Pending",
    "responsible_agency": "Department of Sanitation",
    "final_address": "3310 Mansfield Ave",
    "address_councildis": "C",
    "status": "Pending",
    "rowid": "1091906",
    "final_x": "3709155.10072",
    "final_y": "518466.976566",
    "longitude": "-89.98123263966595",
    "latitude": "29.9187358655457",
    "geocoded_column": {
      "latitude": "29.9187358655457",
      "longitude": "-89.98123263966595"
    }
  },
  {
    "service_request": "2024-1091905",
    "request_type": "Property Maintenance",
    "request_reason": "Property Maintenance",
    "date_created": "2024-05-09T13:58:02.000",
    "date_modified": "2024-05-09T13:58:03.000",
    "request_status": "Pending",
    "responsible_agency": "Department of Code Enforcement",
    "final_address": "ELYSIAN FIELDS AVE & N ROMAN ST",
    "address_councildis": "D",
    "status": "Pending",
    "rowid": "1091905",
    "final_x": "3684752.7",
    "final_y": "538877.68",
    "longitude": "-90.05754080604741",
    "latitude": "29.97562759859168",
    "geocoded_column": {
      "latitude": "29.97562759859168",
      "longitude": "-90.05754080604741"
    }
  },
  {
    "service_request": "2024-1091904",
    "request_type": "Trash/Recycling",
    "request_reason": "Request a Large Item Pick Up",
    "date_created": "2024-05-09T13:57:21.000",
    "date_modified": "2024-05-09T13:57:21.000",
    "request_status": "Pending",
    "responsible_agency": "Department of Sanitation",
    "final_address": "3626 Lang St",
    "address_councildis": "C",
    "status": "Assigned to Contractor",
    "contractor": "Richards Disposal",
    "rowid": "1091904",
    "final_x": "3702013.25476",
    "final_y": "517698.524214",
    "longitude": "-90.00380369840268",
    "latitude": "29.916852679832257",
    "geocoded_column": {
      "latitude": "29.916852679832257",
      "longitude": "-90.00380369840268"
    }
  },
  {
    "service_request": "2024-1091903",
    "request_type": "Trash/Recycling",
    "request_reason": "Request a Large Item Pick Up",
    "date_created": "2024-05-09T13:50:58.000",
    "date_modified": "2024-05-09T16:26:59.000",
    "case_close_date": "2024-05-09T11:26:59.000",
    "request_status": "Closed",
    "responsible_agency": "Department of Sanitation",
    "final_address": "2307 Soniat St",
    "address_councildis": "B",
    "status": "Assigned to Contractor",
    "contractor": "IV Waste",
    "contractor_action": "Completed",
    "rowid": "1091903",
    "final_x": "3668553.51233",
    "final_y": "524004.708412",
    "longitude": "-90.10920431924826",
    "latitude": "29.935217807233926",
    "geocoded_column": {
      "latitude": "29.935217807233926",
      "longitude": "-90.10920431924826"
    }
  },
  {
    "service_request": "2024-1091902",
    "request_type": "Abandoned Vehicles",
    "request_reason": "Abandoned/Junk Vehicles",
    "date_created": "2024-05-09T13:49:47.000",
    "date_modified": "2024-05-09T13:49:47.000",
    "request_status": "Pending",
    "responsible_agency": "Department of Public Works",
    "final_address": "3600 Gentilly Blvd",
    "address_councildis": "D",
    "status": "Pending",
    "rowid": "1091902",
    "final_x": "3686255.32982",
    "final_y": "548704.833555",
    "longitude": "-90.05244814773313",
    "latitude": "30.00260267932587",
    "geocoded_column": {
      "latitude": "30.00260267932587",
      "longitude": "-90.05244814773313"
    }
  },
  {
    "service_request": "2024-1091901",
    "request_type": "Healthy Homes",
    "request_reason": "Healthy Homes",
    "date_created": "2024-05-09T13:49:08.000",
    "date_modified": "2024-05-09T15:20:32.000",
    "case_close_date": "2024-05-09T10:20:32.000",
    "request_status": "Closed",
    "responsible_agency": "Department of Code Enforcement",
    "final_address": "10501 Curran Rd Apt 4H",
    "address_councildis": "E",
    "status": "Referred to Code Enforcement",
    "rowid": "1091901",
    "final_x": "3708980.225",
    "final_y": "565518.758562",
    "longitude": "-89.98003055062796",
    "latitude": "30.048116318116147",
    "geocoded_column": {
      "latitude": "30.048116318116147",
      "longitude": "-89.98003055062796"
    }
  },
  {
    "service_request": "2024-1091900",
    "request_type": "Roads/Drainage",
    "request_reason": "Ditch Issue",
    "date_created": "2024-05-09T13:46:14.000",
    "date_modified": "2024-05-09T13:46:15.000",
    "request_status": "Pending",
    "responsible_agency": "Department of Public Works",
    "final_address": "7800 Shubrick Ave",
    "address_councildis": "E",
    "status": "Pending",
    "rowid": "1091900",
    "final_x": "3706491.23012",
    "final_y": "564091.852897",
    "longitude": "-89.98795008597854",
    "latitude": "30.044273490770745",
    "geocoded_column": {
      "latitude": "30.044273490770745",
      "longitude": "-89.98795008597854"
    }
  },
  {
    "service_request": "2024-1091899",
    "request_type": "Trash/Recycling",
    "request_reason": "Illegal Dumping",
    "date_created": "2024-05-09T13:45:03.000",
    "date_modified": "2024-05-09T13:45:03.000",
    "request_status": "Pending",
    "responsible_agency": "Department of Sanitation",
    "final_address": "1000 BLK Pacific Ave",
    "address_councildis": "C",
    "status": "Pending",
    "rowid": "1091899",
    "final_x": "3688412.72747",
    "final_y": "527739.982037",
    "longitude": "-90.04637653751799",
    "latitude": "29.94489023208784",
    "geocoded_column": {
      "latitude": "29.94489023208784",
      "longitude": "-90.04637653751799"
    }
  },
  {
    "service_request": "2024-1091898",
    "request_type": "Abandoned Vehicles",
    "request_reason": "Abandoned/Junk Vehicles",
    "date_created": "2024-05-09T13:40:49.000",
    "date_modified": "2024-05-09T13:40:49.000",
    "request_status": "Pending",
    "responsible_agency": "Department of Public Works",
    "final_address": "5728 Wickfield Dr",
    "address_councildis": "D",
    "status": "Pending",
    "rowid": "1091898",
    "final_x": "3681002.69371",
    "final_y": "554018.98428",
    "longitude": "-90.06885664191739",
    "latitude": "30.017375081053846",
    "geocoded_column": {
      "latitude": "30.017375081053846",
      "longitude": "-90.06885664191739"
    }
  },
  {
    "service_request": "2024-1091897",
    "request_type": "Trash/Recycling",
    "request_reason": "Missed Trash Pick-Up",
    "date_created": "2024-05-09T13:40:44.000",
    "date_modified": "2024-05-09T13:40:44.000",
    "request_status": "Pending",
    "responsible_agency": "Department of Sanitation",
    "final_address": "5800 BLK Shirley Taylor St",
    "address_councildis": "E",
    "status": "Assigned to Contractor",
    "contractor": "Waste Pro",
    "rowid": "1091897",
    "final_x": "3700079.00925",
    "final_y": "538448.375319",
    "longitude": "-90.00915205683515",
    "latitude": "29.97396905099924",
    "geocoded_column": {
      "latitude": "29.97396905099924",
      "longitude": "-90.00915205683515"
    }
  },
  {
    "service_request": "2024-1091896",
    "request_type": "Trash/Recycling",
    "request_reason": "Order Recycling Cart",
    "date_created": "2024-05-09T13:39:49.000",
    "date_modified": "2024-05-09T13:39:49.000",
    "request_status": "Pending",
    "responsible_agency": "Department of Sanitation",
    "final_address": "8919 Green St",
    "address_councildis": "A",
    "status": "Pending",
    "rowid": "1091896",
    "final_x": "3660963.38029",
    "final_y": "531708.695491",
    "longitude": "-90.13291168233508",
    "latitude": "29.956622097110778",
    "geocoded_column": {
      "latitude": "29.956622097110778",
      "longitude": "-90.13291168233508"
    }
  },
  {
    "service_request": "2024-1091895",
    "request_type": "Trash/Recycling",
    "request_reason": "Order Recycling Cart",
    "date_created": "2024-05-09T13:39:31.000",
    "date_modified": "2024-05-09T13:39:32.000",
    "request_status": "Pending",
    "responsible_agency": "Department of Sanitation",
    "final_address": "8921 Green St",
    "address_councildis": "A",
    "status": "Pending",
    "rowid": "1091895",
    "final_x": "3660954.62829",
    "final_y": "531716.988163",
    "longitude": "-90.13293904413734",
    "latitude": "29.95664515139337",
    "geocoded_column": {
      "latitude": "29.95664515139337",
      "longitude": "-90.13293904413734"
    }
  },
  {
    "service_request": "2024-1091894",
    "request_type": "Abandoned Vehicles",
    "request_reason": "Abandoned/Junk Vehicles",
    "date_created": "2024-05-09T13:35:08.000",
    "date_modified": "2024-05-09T13:35:09.000",
    "request_status": "Pending",
    "responsible_agency": "Department of Public Works",
    "final_address": "1619 N Galvez St",
    "address_councildis": "D",
    "status": "Pending",
    "rowid": "1091894",
    "final_x": "3680838.13627",
    "final_y": "539015.219786",
    "longitude": "-90.06989928695502",
    "latitude": "29.97612504893492",
    "geocoded_column": {
      "latitude": "29.97612504893492",
      "longitude": "-90.06989928695502"
    }
  },
  {
    "service_request": "2024-1091893",
    "request_type": "Roads/Drainage",
    "request_reason": "Pothole",
    "date_created": "2024-05-09T13:34:50.000",
    "date_modified": "2024-05-09T13:35:17.000",
    "case_close_date": "2024-05-09T08:35:17.000",
    "request_status": "Closed",
    "responsible_agency": "Department of Public Works",
    "final_address": "BREVARD AVE & FULTON ST",
    "address_councildis": "E",
    "status": "Resolved",
    "rowid": "1091893",
    "final_x": "3706286.6",
    "final_y": "563576.48",
    "longitude": "-89.98861591914107",
    "latitude": "30.0428630249707",
    "geocoded_column": {
      "latitude": "30.0428630249707",
      "longitude": "-89.98861591914107"
    }
  },
  {
    "service_request": "2024-1091892",
    "request_type": "Trash/Recycling",
    "request_reason": "Missed Trash Pick-Up",
    "date_created": "2024-05-09T13:33:46.000",
    "date_modified": "2024-05-09T13:33:46.000",
    "request_status": "Pending",
    "responsible_agency": "Department of Sanitation",
    "final_address": "5650 Clements Dr",
    "address_councildis": "E",
    "status": "Assigned to Contractor",
    "contractor": "Waste Pro",
    "rowid": "1091892",
    "final_x": "3702469.66884",
    "final_y": "556458.751578",
    "longitude": "-90.00094045906576",
    "latitude": "30.023414658185505",
    "geocoded_column": {
      "latitude": "30.023414658185505",
      "longitude": "-90.00094045906576"
    }
  },
  {
    "service_request": "2024-1091891",
    "request_type": "Property Maintenance",
    "request_reason": "Property Maintenance",
    "date_created": "2024-05-09T13:30:44.000",
    "date_modified": "2024-05-09T15:47:04.000",
    "case_close_date": "2024-05-09T10:47:04.000",
    "request_status": "Closed",
    "responsible_agency": "Department of Code Enforcement",
    "final_address": "5100 Sandhurst Dr",
    "address_councildis": "E",
    "status": "Referred to Code Enforcement",
    "rowid": "1091891",
    "final_x": "3705123.15499",
    "final_y": "556663.463066",
    "longitude": "-89.99254849803799",
    "latitude": "30.0238924288536",
    "geocoded_column": {
      "latitude": "30.0238924288536",
      "longitude": "-89.99254849803799"
    }
  },
  {
    "service_request": "2024-1091890",
    "request_type": "Roads/Drainage",
    "request_reason": "Street Subsidence (Sinking)",
    "date_created": "2024-05-09T13:26:37.000",
    "date_modified": "2024-05-09T13:26:37.000",
    "request_status": "Pending",
    "responsible_agency": "Department of Public Works",
    "final_address": "3817 Annunciation St",
    "address_councildis": "B",
    "status": "Pending",
    "rowid": "1091890",
    "final_x": "3673473.28948",
    "final_y": "518041.491446",
    "longitude": "-90.09387620324793",
    "latitude": "29.91867544232452",
    "geocoded_column": {
      "latitude": "29.91867544232452",
      "longitude": "-90.09387620324793"
    }
  },
  {
    "service_request": "2024-1091889",
    "request_type": "Property Maintenance",
    "request_reason": "Property Maintenance",
    "date_created": "2024-05-09T13:26:00.000",
    "date_modified": "2024-05-09T15:21:09.000",
    "case_close_date": "2024-05-09T10:21:09.000",
    "request_status": "Closed",
    "responsible_agency": "Department of Code Enforcement",
    "final_address": "2931 Copernicus St",
    "address_councildis": "C",
    "status": "Referred to Code Enforcement",
    "rowid": "1091889",
    "final_x": "3694993.66333",
    "final_y": "524147.313788",
    "longitude": "-90.02572806582229",
    "latitude": "29.934806752927003",
    "geocoded_column": {
      "latitude": "29.934806752927003",
      "longitude": "-90.02572806582229"
    }
  },
  {
    "service_request": "2024-1091888",
    "request_type": "Abandoned Vehicles",
    "request_reason": "Abandoned/Junk Vehicles",
    "date_created": "2024-05-09T13:23:40.000",
    "date_modified": "2024-05-09T13:23:40.000",
    "request_status": "Pending",
    "responsible_agency": "Department of Public Works",
    "final_address": "1526 Poland Ave",
    "address_councildis": "D",
    "status": "Pending",
    "rowid": "1091888",
    "final_x": "3693397.53033",
    "final_y": "536722.103495",
    "longitude": "-90.03031557343351",
    "latitude": "29.969433037060792",
    "geocoded_column": {
      "latitude": "29.969433037060792",
      "longitude": "-90.03031557343351"
    }
  },
  {
    "service_request": "2024-1091887",
    "request_type": "Property Maintenance",
    "request_reason": "Property Maintenance",
    "date_created": "2024-05-09T13:23:27.000",
    "date_modified": "2024-05-09T13:23:27.000",
    "request_status": "Pending",
    "responsible_agency": "Department of Code Enforcement",
    "final_address": "2407 Independence St",
    "address_councildis": "D",
    "status": "Pending",
    "rowid": "1091887",
    "final_x": "3692219.252",
    "final_y": "540480.733387",
    "longitude": "-90.03390204557815",
    "latitude": "29.97980472258323",
    "geocoded_column": {
      "latitude": "29.97980472258323",
      "longitude": "-90.03390204557815"
    }
  },
  {
    "service_request": "2024-1091886",
    "request_type": "Trash/Recycling",
    "request_reason": "Request a Large Item Pick Up",
    "date_created": "2024-05-09T13:19:04.000",
    "date_modified": "2024-05-09T13:19:04.000",
    "request_status": "Pending",
    "responsible_agency": "Department of Sanitation",
    "final_address": "5857 Louisville St",
    "address_councildis": "A",
    "status": "Assigned to Contractor",
    "contractor": "IV Waste",
    "rowid": "1091886",
    "final_x": "3667709.73921",
    "final_y": "546386.92712",
    "longitude": "-90.11111441111679",
    "latitude": "29.99678623815592",
    "geocoded_column": {
      "latitude": "29.99678623815592",
      "longitude": "-90.11111441111679"
    }
  },
  {
    "service_request": "2024-1091885",
    "request_type": "Trash/Recycling",
    "request_reason": "Order Trash Cart",
    "date_created": "2024-05-09T13:16:17.000",
    "date_modified": "2024-05-09T13:16:18.000",
    "request_status": "Pending",
    "responsible_agency": "Department of Sanitation",
    "final_address": "308 Magazine St",
    "address_councildis": "B",
    "status": "Assigned to Contractor",
    "contractor": "Empire Services",
    "rowid": "1091885",
    "final_x": "3681661.71452",
    "final_y": "529621.792257",
    "longitude": "-90.06762589445401",
    "latitude": "29.95027134248378",
    "geocoded_column": {
      "latitude": "29.95027134248378",
      "longitude": "-90.06762589445401"
    }
  },
  {
    "service_request": "2024-1091884",
    "request_type": "Trash/Recycling",
    "request_reason": "Repair Trash Cart",
    "date_created": "2024-05-09T13:13:41.000",
    "date_modified": "2024-05-09T13:13:42.000",
    "request_status": "Pending",
    "responsible_agency": "Department of Sanitation",
    "final_address": "2332 Jackson Ave",
    "address_councildis": "B",
    "status": "Assigned to Contractor",
    "contractor": "IV Waste",
    "rowid": "1091884",
    "final_x": "3675610.4171",
    "final_y": "526249.801342",
    "longitude": "-90.08684855488887",
    "latitude": "29.941181891304748",
    "geocoded_column": {
      "latitude": "29.941181891304748",
      "longitude": "-90.08684855488887"
    }
  },
  {
    "service_request": "2024-1091883",
    "request_type": "Trash/Recycling",
    "request_reason": "Request a Large Item Pick Up",
    "date_created": "2024-05-09T13:06:17.000",
    "date_modified": "2024-05-09T13:06:17.000",
    "request_status": "Pending",
    "responsible_agency": "Department of Sanitation",
    "final_address": "1106 Treme St",
    "address_councildis": "C",
    "status": "Assigned to Contractor",
    "contractor": "IV Waste",
    "rowid": "1091883",
    "final_x": "3681772.68744",
    "final_y": "535012.286726",
    "longitude": "-90.06708741205091",
    "latitude": "29.96508999760856",
    "geocoded_column": {
      "latitude": "29.96508999760856",
      "longitude": "-90.06708741205091"
    }
  },
  {
    "service_request": "2024-1091882",
    "request_type": "Abandoned Vehicles",
    "request_reason": "Abandoned/Junk Vehicles",
    "date_created": "2024-05-09T12:54:29.000",
    "date_modified": "2024-05-09T12:54:29.000",
    "request_status": "Pending",
    "responsible_agency": "Department of Public Works",
    "final_address": "2332 Iberville St",
    "address_councildis": "B",
    "status": "Pending",
    "rowid": "1091882",
    "final_x": "3676731.4491",
    "final_y": "534558.061829",
    "longitude": "-90.083023021852",
    "latitude": "29.963993252806713",
    "geocoded_column": {
      "latitude": "29.963993252806713",
      "longitude": "-90.083023021852"
    }
  },
  {
    "service_request": "2024-1091881",
    "request_type": "Trash/Recycling",
    "request_reason": "Repair Trash Cart",
    "date_created": "2024-05-09T12:53:32.000",
    "date_modified": "2024-05-09T12:53:33.000",
    "request_status": "Pending",
    "responsible_agency": "Department of Sanitation",
    "final_address": "2257 Pressburg St",
    "address_councildis": "D",
    "status": "Assigned to Contractor",
    "contractor": "IV Waste",
    "rowid": "1091881",
    "final_x": "3684095.3677",
    "final_y": "554682.327256",
    "longitude": "-90.05906173851847",
    "latitude": "30.019104826475235",
    "geocoded_column": {
      "latitude": "30.019104826475235",
      "longitude": "-90.05906173851847"
    }
  },
  {
    "service_request": "2024-1091880",
    "request_type": "Trash/Recycling",
    "request_reason": "Order Trash Cart",
    "date_created": "2024-05-09T12:47:16.000",
    "date_modified": "2024-05-09T12:47:17.000",
    "request_status": "Pending",
    "responsible_agency": "Department of Sanitation",
    "final_address": "1017 Elmira Ave",
    "address_councildis": "C",
    "status": "Assigned to Contractor",
    "contractor": "Richards Disposal",
    "rowid": "1091880",
    "final_x": "3688072.82044",
    "final_y": "527744.572031",
    "longitude": "-90.04744956192596",
    "latitude": "29.944913345979955",
    "geocoded_column": {
      "latitude": "29.944913345979955",
      "longitude": "-90.04744956192596"
    }
  },
  {
    "service_request": "2024-1091879",
    "request_type": "Trash/Recycling",
    "request_reason": "Order Trash Cart",
    "date_created": "2024-05-09T12:46:50.000",
    "date_modified": "2024-05-09T12:46:51.000",
    "request_status": "Pending",
    "responsible_agency": "Department of Sanitation",
    "final_address": "7828 Colapissa St",
    "address_councildis": "B",
    "status": "Assigned to Contractor",
    "contractor": "IV Waste",
    "rowid": "1091879",
    "final_x": "3667142.28282",
    "final_y": "532797.665156",
    "longitude": "-90.11336403202166",
    "latitude": "29.959436967540626",
    "geocoded_column": {
      "latitude": "29.959436967540626",
      "longitude": "-90.11336403202166"
    }
  },
  {
    "service_request": "2024-1091878",
    "request_type": "Trash/Recycling",
    "request_reason": "Replace Recycling Cart",
    "date_created": "2024-05-09T12:46:38.000",
    "date_modified": "2024-05-09T12:46:38.000",
    "request_status": "Pending",
    "responsible_agency": "Department of Sanitation",
    "final_address": "5907 Annunciation St",
    "address_councildis": "A",
    "status": "Pending",
    "rowid": "1091878",
    "final_x": "3664859.08205",
    "final_y": "517828.07199",
    "longitude": "-90.12107397934275",
    "latitude": "29.918342010095085",
    "geocoded_column": {
      "latitude": "29.918342010095085",
      "longitude": "-90.12107397934275"
    }
  },
  {
    "service_request": "2024-1091877",
    "request_type": "Trash/Recycling",
    "request_reason": "Request a Large Item Pick Up",
    "date_created": "2024-05-09T12:36:02.000",
    "date_modified": "2024-05-09T12:36:02.000",
    "request_status": "Pending",
    "responsible_agency": "Department of Sanitation",
    "final_address": "9402 Palmetto St",
    "address_councildis": "A",
    "status": "Assigned to Contractor",
    "contractor": "IV Waste",
    "rowid": "1091877",
    "final_x": "3664656.10874",
    "final_y": "538226.224329",
    "longitude": "-90.12103345445368",
    "latitude": "29.97443626507603",
    "geocoded_column": {
      "latitude": "29.97443626507603",
      "longitude": "-90.12103345445368"
    }
  },
  {
    "service_request": "2024-1091876",
    "request_type": "Trash/Recycling",
    "request_reason": "Repair Trash Cart",
    "date_created": "2024-05-09T12:33:55.000",
    "date_modified": "2024-05-09T12:33:56.000",
    "request_status": "Pending",
    "responsible_agency": "Department of Sanitation",
    "final_address": "2972 Sabine St",
    "address_councildis": "C",
    "status": "Assigned to Contractor",
    "contractor": "Richards Disposal",
    "rowid": "1091876",
    "final_x": "3693573.60259",
    "final_y": "519241.682167",
    "longitude": "-90.0303872610855",
    "latitude": "29.921362412767706",
    "geocoded_column": {
      "latitude": "29.921362412767706",
      "longitude": "-90.0303872610855"
    }
  },
  {
    "service_request": "2024-1091875",
    "request_type": "Property Maintenance",
    "request_reason": "Property Maintenance",
    "date_created": "2024-05-09T12:27:50.000",
    "date_modified": "2024-05-09T13:22:20.000",
    "case_close_date": "2024-05-09T08:22:20.000",
    "request_status": "Closed",
    "responsible_agency": "Department of Code Enforcement",
    "final_address": "5428 Urquhart St",
    "address_councildis": "E",
    "status": "Referred to Code Enforcement",
    "rowid": "1091875",
    "final_x": "3697647.1272",
    "final_y": "534601.798341",
    "longitude": "-90.016972004746",
    "latitude": "29.96346939314125",
    "geocoded_column": {
      "latitude": "29.96346939314125",
      "longitude": "-90.016972004746"
    }
  },
  {
    "service_request": "2024-1091874",
    "request_type": "Trash/Recycling",
    "request_reason": "Order Trash Cart",
    "date_created": "2024-05-09T12:27:37.000",
    "date_modified": "2024-05-09T12:27:38.000",
    "request_status": "Pending",
    "responsible_agency": "Department of Sanitation",
    "final_address": "6111 Duplessis St",
    "address_councildis": "D",
    "status": "Assigned to Contractor",
    "contractor": "IV Waste",
    "rowid": "1091874",
    "final_x": "3678058.13576",
    "final_y": "554981.397848",
    "longitude": "-90.07812695687345",
    "latitude": "30.02011038859337",
    "geocoded_column": {
      "latitude": "30.02011038859337",
      "longitude": "-90.07812695687345"
    }
  },
  {
    "service_request": "2024-1091873",
    "request_type": "Trash/Recycling",
    "request_reason": "Request a Large Item Pick Up",
    "date_created": "2024-05-09T12:25:53.000",
    "date_modified": "2024-05-09T12:25:53.000",
    "request_status": "Pending",
    "responsible_agency": "Department of Sanitation",
    "final_address": "3121 State Street Dr",
    "address_councildis": "A",
    "status": "Assigned to Contractor",
    "contractor": "IV Waste",
    "rowid": "1091873",
    "final_x": "3667463.58913",
    "final_y": "527549.290559",
    "longitude": "-90.11252599328932",
    "latitude": "29.94499623960419",
    "geocoded_column": {
      "latitude": "29.94499623960419",
      "longitude": "-90.11252599328932"
    }
  },
  {
    "service_request": "2024-1091872",
    "request_type": "Roads/Drainage",
    "request_reason": "Catch Basin - Clogged",
    "date_created": "2024-05-09T12:25:25.000",
    "date_modified": "2024-05-09T12:25:26.000",
    "request_status": "Pending",
    "responsible_agency": "Department of Public Works",
    "final_address": "1919 Tennessee St",
    "address_councildis": "E",
    "status": "Pending",
    "rowid": "1091872",
    "final_x": "3696616.47914",
    "final_y": "537482.627016",
    "longitude": "-90.02012240110054",
    "latitude": "29.971423161020997",
    "geocoded_column": {
      "latitude": "29.971423161020997",
      "longitude": "-90.02012240110054"
    }
  },
  {
    "service_request": "2024-1091871",
    "request_type": "Trash/Recycling",
    "request_reason": "Missed Trash Pick-Up",
    "date_created": "2024-05-09T12:24:05.000",
    "date_modified": "2024-05-09T13:45:41.000",
    "case_close_date": "2024-05-09T08:45:41.000",
    "request_status": "Closed",
    "responsible_agency": "Department of Sanitation",
    "final_address": "2831 Octavia St",
    "address_councildis": "A",
    "status": "Invalid Request",
    "contractor": "IV Waste",
    "contractor_action": "Invalid",
    "rowid": "1091871",
    "final_x": "3668043.33524",
    "final_y": "525943.196093",
    "longitude": "-90.11074965600237",
    "latitude": "29.940563002133423",
    "geocoded_column": {
      "latitude": "29.940563002133423",
      "longitude": "-90.11074965600237"
    }
  },
  {
    "service_request": "2024-1091870",
    "request_type": "Trash/Recycling",
    "request_reason": "Order Recycling Cart",
    "date_created": "2024-05-09T12:22:42.000",
    "date_modified": "2024-05-09T12:22:42.000",
    "request_status": "Pending",
    "responsible_agency": "Department of Sanitation",
    "final_address": "717 Soraparu St, New Orleans, Louisiana, 70130",
    "address_councildis": "B",
    "status": "Pending",
    "rowid": "1091870",
    "final_x": "3679070.61775",
    "final_y": "520598.305528",
    "longitude": "-90.07611982460998",
    "latitude": "29.925538181307875",
    "geocoded_column": {
      "latitude": "29.925538181307875",
      "longitude": "-90.07611982460998"
    }
  },
  {
    "service_request": "2024-1091869",
    "request_type": "Parks & Parkways",
    "request_reason": "Request Tree Service (Right of Way/Public Property)",
    "date_created": "2024-05-09T12:21:53.000",
    "date_modified": "2024-05-09T12:21:53.000",
    "request_status": "Pending",
    "responsible_agency": "Department of Parks & Parkway",
    "final_address": "1613 Tennessee St",
    "address_councildis": "E",
    "status": "Pending",
    "rowid": "1091869",
    "final_x": "3696293.70621",
    "final_y": "536301.083399",
    "longitude": "-90.02118448978008",
    "latitude": "29.96818450575312",
    "geocoded_column": {
      "latitude": "29.96818450575312",
      "longitude": "-90.02118448978008"
    }
  },
  {
    "service_request": "2024-1091868",
    "request_type": "Trash/Recycling",
    "request_reason": "Repair Trash Cart",
    "date_created": "2024-05-09T12:21:35.000",
    "date_modified": "2024-05-09T12:21:36.000",
    "request_status": "Pending",
    "responsible_agency": "Department of Sanitation",
    "final_address": "2820 Cadiz St",
    "address_councildis": "B",
    "status": "Assigned to Contractor",
    "contractor": "IV Waste",
    "rowid": "1091868",
    "final_x": "3669618.11322",
    "final_y": "525185.312829",
    "longitude": "-90.1058034374295",
    "latitude": "29.93843277286876",
    "geocoded_column": {
      "latitude": "29.93843277286876",
      "longitude": "-90.1058034374295"
    }
  },
  {
    "service_request": "2024-1091867",
    "request_type": "Roads/Drainage",
    "request_reason": "Accessibility Ramps, Curbs and Sidewalk Repair",
    "date_created": "2024-05-09T12:21:12.000",
    "date_modified": "2024-05-09T16:16:29.000",
    "case_close_date": "2024-05-09T11:16:29.000",
    "request_status": "Closed",
    "responsible_agency": "Department of Public Works",
    "final_address": "6315 General Pershing St",
    "address_councildis": "B",
    "status": "Referred to Property Owner",
    "rowid": "1091867",
    "final_x": "3668003.445",
    "final_y": "530479.019074",
    "longitude": "-90.11072279841359",
    "latitude": "29.95303621287137",
    "geocoded_column": {
      "latitude": "29.95303621287137",
      "longitude": "-90.11072279841359"
    }
  },