[
  {
    "service_request": "2023-967514",
    "request_type": "Trash/Recycling",
    "request_reason": "Order Recycling Cart",
    "date_created": "2023-01-16T23:50:25.000",
    "date_modified": "2023-01-16T23:50:25.000",
    "request_status": "Pending",
    "responsible_agency": "Department of Sanitation",
    "final_address": "7703 Green St",
    "address_councildis": "A",
    "status": "Pending",
    "rowid": "967514",
    "final_x": "3664228.15066",
    "final_y": "528740.32704",
    "longitude": "-90.12270158245016",
    "latitude": "29.948365594686024",
    "geocoded_column": {
      "latitude": "29.948365594686024",
      "longitude": "-90.12270158245016"
    }
  },
  {
    "service_request": "2023-967513",
    "request_type": "Roads/Drainage",
    "request_reason": "Catch Basin - Clogged",
    "date_created": "2023-01-16T22:39:31.000",
    "date_modified": "2023-01-16T22:39:31.000",
    "request_status": "Pending",
    "responsible_agency": "Department of Public Works",
    "final_address": "1111 Poland Ave",
    "address_councildis": "D",
    "status": "Pending",
    "rowid": "967513",
    "final_x": "3693198.2847",
    "final_y": "535193.421126",
    "longitude": "-90.03099967493971",
    "latitude": "29.965235929674588",
    "geocoded_column": {
      "latitude": "29.965235929674588",
      "longitude": "-90.03099967493971"
    }
  },
  {
    "service_request": "2023-967512",
    "request_type": "Roads/Drainage",
    "request_reason": "Pothole",
    "date_created": "2023-01-16T22:36:56.000",
    "date_modified": "2023-01-16T22:36:56.000",
    "request_status": "Pending",
    "responsible_agency": "Department of Public Works",
    "final_address": "1400 Kentucky St",
    "address_councildis": "D",
    "status": "Pending",
    "rowid": "967512",
    "final_x": "3693566.00016",
    "final_y": "536083.572615",
    "longitude": "-90.02980647479123",
    "latitude": "29.96767203460184",
    "geocoded_column": {
      "latitude": "29.96767203460184",
      "longitude": "-90.02980647479123"
    }
  },
  {
    "service_request": "2023-967511",
    "request_type": "Trash/Recycling",
    "request_reason": "Replace Trash Cart",
    "date_created": "2023-01-16T22:26:49.000",
    "date_modified": "2023-01-16T22:26:50.000",
    "request_status": "Pending",
    "responsible_agency": "Department of Sanitation",
    "final_address": "2216 Joseph St",
    "address_councildis": "A",
    "status": "Assigned to Contractor",
    "contractor": "Richards Disposal",
    "rowid": "967511",
    "final_x": "3667228.23981",
    "final_y": "524283.951868",
    "longitude": "-90.11337883149152",
    "latitude": "29.93602450131843",
    "geocoded_column": {
      "latitude": "29.93602450131843",
      "longitude": "-90.11337883149152"
    }
  },
  {
    "service_request": "2023-967510",
    "request_type": "Roads/Drainage",
    "request_reason": "Road Shoulder Repair",
    "date_created": "2023-01-16T22:21:34.000",
    "date_modified": "2023-01-16T22:21:34.000",
    "request_status": "Pending",
    "responsible_agency": "Department of Public Works",
    "final_address": "5620 New England Dr",
    "address_councildis": "E",
    "status": "Pending",
    "rowid": "967510",
    "final_x": "3723578.98175",
    "final_y": "564220.931169",
    "longitude": "-89.93394085926474",
    "latitude": "30.044065661332613",
    "geocoded_column": {
      "latitude": "30.044065661332613",
      "longitude": "-89.93394085926474"
    }
  },
  {
    "service_request": "2023-967509",
    "request_type": "Traffic Signals/Signs/Striping/Streetlights",
    "request_reason": "Street Light Outage/Malfunction",
    "date_created": "2023-01-16T22:18:05.000",
    "date_modified": "2023-01-16T22:18:06.000",
    "request_status": "Pending",
    "responsible_agency": "Department of Public Works",
    "final_address": "I 510 S EXIT & I 10 W EXIT",
    "address_councildis": "A",
    "status": "Assigned to Contractor",
    "contractor": "Legacy Professional Services",
    "rowid": "967509",
    "final_x": "3665721.2",
    "final_y": "545502.88",
    "longitude": "-90.11742576048074",
    "latitude": "29.99441358374193",
    "geocoded_column": {
      "latitude": "29.99441358374193",
      "longitude": "-90.11742576048074"
    }
  },
  {
    "service_request": "2023-967508",
    "request_type": "Trash/Recycling",
    "request_reason": "MIssed Recycling Pick-Up",
    "date_created": "2023-01-16T21:59:40.000",
    "date_modified": "2023-01-16T21:59:41.000",
    "request_status": "Pending",
    "responsible_agency": "Department of Sanitation",
    "final_address": "1405 Jefferson Ave",
    "address_councildis": "B",
    "status": "Assigned to Contractor",
    "contractor": "Richards Disposal",
    "rowid": "967508",
    "final_x": "3667196.76641",
    "final_y": "520383.967032",
    "longitude": "-90.11360925671477",
    "latitude": "29.925301704876553",
    "geocoded_column": {
      "latitude": "29.925301704876553",
      "longitude": "-90.11360925671477"
    }
  },
  {
    "service_request": "2023-967507",
    "request_type": "Trash/Recycling",
    "request_reason": "Order Recycling Cart",
    "date_created": "2023-01-16T21:38:04.000",
    "date_modified": "2023-01-16T21:38:04.000",
    "request_status": "Pending",
    "responsible_agency": "Department of Sanitation",
    "final_address": "7441 Scottsdale Dr",
    "address_councildis": "E",
    "status": "Pending",
    "rowid": "967507",
    "final_x": "3704242.54244",
    "final_y": "561849.205663",
    "longitude": "-89.9951396745282",
    "latitude": "30.038179501986388",
    "geocoded_column": {
      "latitude": "30.038179501986388",
      "longitude": "-89.9951396745282"
    }
  },
  {
    "service_request": "2023-967506",
    "request_type": "Trash/Recycling",
    "request_reason": "MIssed Recycling Pick-Up",
    "date_created": "2023-01-16T21:22:03.000",
    "date_modified": "2023-01-16T21:22:03.000",
    "request_status": "Pending",
    "responsible_agency": "Department of Sanitation",
    "final_address": "2407 Pine St",
    "address_councildis": "A",
    "status": "Assigned to Contractor",
    "contractor": "Richards Disposal",
    "rowid": "967506",
    "final_x": "3666466.93844",
    "final_y": "530309.306434",
    "longitude": "-90.1155801267763",
    "latitude": "29.952614548386784",
    "geocoded_column": {
      "latitude": "29.952614548386784",
      "longitude": "-90.1155801267763"
    }
  },
  {
    "service_request": "2023-967505",
    "request_type": "Traffic Signals/Signs/Striping/Streetlights",
    "request_reason": "Street Light Outage/Malfunction",
    "date_created": "2023-01-16T21:01:37.000",
    "date_modified": "2023-01-16T21:01:43.000",
    "request_status": "Pending",
    "responsible_agency": "Department of Public Works",
    "final_address": "ALVAR ST OVERPASS & FLORIDA AVE",
    "address_councildis": "D",
    "status": "Assigned to Contractor",
    "contractor": "Legacy Professional Services",
    "rowid": "967505",
    "final_x": "3693607.4",
    "final_y": "541387.38",
    "longitude": "-90.02948514123939",
    "latitude": "29.982254316394023",
    "geocoded_column": {
      "latitude": "29.982254316394023",
      "longitude": "-90.02948514123939"
    }
  },
  {
    "service_request": "2023-967504",
    "request_type": "Trash/Recycling",
    "request_reason": "Illegal Dumping",
    "date_created": "2023-01-16T20:52:04.000",
    "date_modified": "2023-01-16T20:52:04.000",
    "request_status": "Pending",
    "responsible_agency": "Department of Sanitation",
    "final_address": "1351 Columbus St",
    "address_councildis": "C",
    "status": "Pending",
    "rowid": "967504",
    "final_x": "3682413.81013",
    "final_y": "536699.971655",
    "longitude": "-90.06500379138558",
    "latitude": "29.96971105312508",
    "geocoded_column": {
      "latitude": "29.96971105312508",
      "longitude": "-90.06500379138558"
    }
  },
  {
    "service_request": "2023-967503",
    "request_type": "Trash/Recycling",
    "request_reason": "Replace Trash Cart",
    "date_created": "2023-01-16T20:30:26.000",
    "date_modified": "2023-01-16T20:30:27.000",
    "request_status": "Pending",
    "responsible_agency": "Department of Sanitation",
    "final_address": "3115 Nashville Ave",
    "address_councildis": "A",
    "status": "Assigned to Contractor",
    "contractor": "Richards Disposal",
    "rowid": "967503",
    "final_x": "3667854.37741",
    "final_y": "527247.868607",
    "longitude": "-90.11130229989087",
    "latitude": "29.944155972620834",
    "geocoded_column": {
      "latitude": "29.944155972620834",
      "longitude": "-90.11130229989087"
    }
  },
  {
    "service_request": "2023-967502",
    "request_type": "Traffic Signals/Signs/Striping/Streetlights",
    "request_reason": "Street Light Outage/Malfunction",
    "date_created": "2023-01-16T20:22:44.000",
    "date_modified": "2023-01-16T20:22:45.000",
    "request_status": "Pending",
    "responsible_agency": "Department of Public Works",
    "final_address": "7040 Pinebrook Dr",
    "address_councildis": "E",
    "status": "Assigned to Contractor",
    "contractor": "Legacy Professional Services",
    "rowid": "967502",
    "final_x": "3719515.24729",
    "final_y": "569711.089126",
    "longitude": "-89.94657390819788",
    "latitude": "30.05929716283975",
    "geocoded_column": {
      "latitude": "30.05929716283975",
      "longitude": "-89.94657390819788"
    }
  },
  {
    "service_request": "2023-967501",
    "request_type": "Roads/Drainage",
    "request_reason": "Street Subsidence (Sinking)",
    "date_created": "2023-01-16T20:06:45.000",
    "date_modified": "2023-01-16T20:06:45.000",
    "request_status": "Pending",
    "responsible_agency": "Department of Public Works",
    "final_address": "1411 S Roman St",
    "address_councildis": "B",
    "status": "Pending",
    "rowid": "967501",
    "final_x": "3674554.11201",
    "final_y": "528717.5216",
    "longitude": "-90.09009897948575",
    "latitude": "29.947998863416508",
    "geocoded_column": {
      "latitude": "29.947998863416508",
      "longitude": "-90.09009897948575"
    }
  },
  {
    "service_request": "2023-967500",
    "request_type": "Trash/Recycling",
    "request_reason": "Request a Large Item Pick Up",
    "date_created": "2023-01-16T20:05:36.000",
    "date_modified": "2023-01-16T20:05:37.000",
    "request_status": "Pending",
    "responsible_agency": "Department of Sanitation",
    "final_address": "4312 Coliseum St, New Orleans, Louisiana, 70115",
    "address_councildis": "B",
    "status": "Assigned to Contractor",
    "contractor": "Richards Disposal",
    "rowid": "967500",
    "final_x": "3671244.94766",
    "final_y": "519766.51916",
    "longitude": "-90.10085135858562",
    "latitude": "29.92348481027771",
    "geocoded_column": {
      "latitude": "29.92348481027771",
      "longitude": "-90.10085135858562"
    }
  },
  {
    "service_request": "2023-967499",
    "request_type": "Traffic Signals/Signs/Striping/Streetlights",
    "request_reason": "Street Light Outage/Malfunction",
    "date_created": "2023-01-16T19:58:11.000",
    "date_modified": "2023-01-16T19:58:12.000",
    "request_status": "Pending",
    "responsible_agency": "Department of Public Works",
    "final_address": "305 Maumus Ave",
    "address_councildis": "C",
    "status": "Assigned to Contractor",
    "contractor": "Legacy Professional Services",
    "rowid": "967499",
    "final_x": "3707094.61758",
    "final_y": "516678.851445",
    "longitude": "-89.98780272891959",
    "latitude": "29.913885835851453",
    "geocoded_column": {
      "latitude": "29.913885835851453",
      "longitude": "-89.98780272891959"
    }
  },
  {
    "service_request": "2023-967498",
    "request_type": "Trash/Recycling",
    "request_reason": "Request a Large Item Pick Up",
    "date_created": "2023-01-16T19:54:25.000",
    "date_modified": "2023-01-16T19:54:26.000",
    "request_status": "Pending",
    "responsible_agency": "Department of Sanitation",
    "final_address": "51 W Park Pl",
    "address_councildis": "A",
    "status": "Assigned to Contractor",
    "contractor": "IV Waste",
    "rowid": "967498",
    "final_x": "3669864.3554",
    "final_y": "544594.947151",
    "longitude": "-90.1043687881729",
    "latitude": "29.99179554201003",
    "geocoded_column": {
      "latitude": "29.99179554201003",
      "longitude": "-90.1043687881729"
    }
  },
  {
    "service_request": "2023-967497",
    "request_type": "Trash/Recycling",
    "request_reason": "Order Trash Cart",
    "date_created": "2023-01-16T19:11:50.000",
    "date_modified": "2023-01-16T19:11:51.000",
    "request_status": "Pending",
    "responsible_agency": "Department of Sanitation",
    "final_address": "4610 San Marco Rd",
    "address_councildis": "E",
    "status": "Assigned to Contractor",
    "contractor": "Waste Pro",
    "rowid": "967497",
    "final_x": "3763018.29635",
    "final_y": "573033.260649",
    "longitude": "-89.80892804051123",
    "latitude": "30.0669121742041",
    "geocoded_column": {
      "latitude": "30.0669121742041",
      "longitude": "-89.80892804051123"
    }
  },
  {
    "service_request": "2023-967496",
    "request_type": "Abandoned Vehicles",
    "request_reason": "Abandoned/Junk Vehicles",
    "date_created": "2023-01-16T18:58:33.000",
    "date_modified": "2023-01-16T18:58:33.000",
    "request_status": "Pending",
    "responsible_agency": "Department of Public Works",
    "final_address": "2223 Fern St",
    "address_councildis": "A",
    "status": "Pending",
    "rowid": "967496",
    "final_x": "3665046.95444",
    "final_y": "530551.281026",
    "longitude": "-90.1200557241837",
    "latitude": "29.953321318855615",
    "geocoded_column": {
      "latitude": "29.953321318855615",
      "longitude": "-90.1200557241837"
    }
  },
  {
    "service_request": "2023-967495",
    "request_type": "Traffic Signals/Signs/Striping/Streetlights",
    "request_reason": "Street Light Outage/Malfunction",
    "date_created": "2023-01-16T18:55:31.000",
    "date_modified": "2023-01-16T18:55:31.000",
    "request_status": "Pending",
    "responsible_agency": "Department of Public Works",
    "final_address": "4490 Baccich St",
    "address_councildis": "D",
    "status": "Assigned to Contractor",
    "contractor": "Legacy Professional Services",
    "rowid": "967495",
    "final_x": "3687758.75619",
    "final_y": "549582.855315",
    "longitude": "-90.04766751649184",
    "latitude": "30.00497062313949",
    "geocoded_column": {
      "latitude": "30.00497062313949",
      "longitude": "-90.04766751649184"
    }
  },
  {
    "service_request": "2023-967494",
    "request_type": "Health Related Request",
    "request_reason": "Noise Ordinance Complaint",
    "date_created": "2023-01-16T18:54:38.000",
    "date_modified": "2023-01-16T18:54:38.000",
    "request_status": "Pending",
    "responsible_agency": "Health Department",
    "final_address": "5723 Eads St. 70122",
    "status": "Pending",
    "rowid": "967494",
    "longitude": "0.0",
    "latitude": "0.0",
    "geocoded_column": {
      "latitude": "0.0",
      "longitude": "0.0"
    }
  },
  {
    "service_request": "2023-967493",
    "request_type": "Traffic Signals/Signs/Striping/Streetlights",
    "request_reason": "Street Light Outage/Malfunction",
    "date_created": "2023-01-16T18:38:22.000",
    "date_modified": "2023-01-16T18:38:23.000",
    "request_status": "Pending",
    "responsible_agency": "Department of Public Works",
    "final_address": "511 Marigny St",
    "address_councildis": "C",
    "status": "Assigned to Contractor",
    "contractor": "Legacy Professional Services",
    "rowid": "967493",
    "final_x": "3685685.18006",
    "final_y": "534303.235909",
    "longitude": "-90.05475699102634",
    "latitude": "29.963020888370004",
    "geocoded_column": {
      "latitude": "29.963020888370004",
      "longitude": "-90.05475699102634"
    }
  },
  {
    "service_request": "2023-967492",
    "request_type": "Property Maintenance",
    "request_reason": "Property Maintenance",
    "date_created": "2023-01-16T18:34:30.000",
    "date_modified": "2023-01-16T18:34:30.000",
    "request_status": "Pending",
    "responsible_agency": "Department of Code Enforcement",
    "final_address": "4520 Wilson Ave",
    "address_councildis": "E",
    "status": "Pending",
    "rowid": "967492",
    "final_x": "3703033.50532",
    "final_y": "553720.472727",
    "longitude": "-89.9992596045554",
    "latitude": "30.015867403083128",
    "geocoded_column": {
      "latitude": "30.015867403083128",
      "longitude": "-89.9992596045554"
    }
  },
  {
    "service_request": "2023-967491",
    "request_type": "Property Maintenance",
    "request_reason": "Property Maintenance",
    "date_created": "2023-01-16T18:32:28.000",
    "date_modified": "2023-01-16T18:32:28.000",
    "request_status": "Pending",
    "responsible_agency": "Department of Code Enforcement",
    "final_address": "4411 Wilson Ave",
    "address_councildis": "E",
    "status": "Pending",
    "rowid": "967491",
    "final_x": "3703268.9411",
    "final_y": "552895.865687",
    "longitude": "-89.9985460887566",
    "latitude": "30.0135925095423",
    "geocoded_column": {
      "latitude": "30.0135925095423",
      "longitude": "-89.9985460887566"
    }
  },
  {
    "service_request": "2023-967490",
    "request_type": "Trash/Recycling",
    "request_reason": "Request a Large Item Pick Up",
    "date_created": "2023-01-16T18:19:57.000",
    "date_modified": "2023-01-16T18:19:58.000",
    "request_status": "Pending",
    "responsible_agency": "Department of Sanitation",
    "final_address": "6432 Milne Blvd",
    "address_councildis": "A",
    "status": "Assigned to Contractor",
    "contractor": "IV Waste",
    "rowid": "967490",
    "final_x": "3667267.17485",
    "final_y": "550591.603348",
    "longitude": "-90.11237092175635",
    "latitude": "30.00836061416873",
    "geocoded_column": {
      "latitude": "30.00836061416873",
      "longitude": "-90.11237092175635"
    }
  },
  {
    "service_request": "2023-967489",
    "request_type": "Trash/Recycling",
    "request_reason": "Order Recycling Cart",
    "date_created": "2023-01-16T17:53:54.000",
    "date_modified": "2023-01-16T17:53:54.000",
    "request_status": "Pending",
    "responsible_agency": "Department of Sanitation",
    "final_address": "1346 Crescent St",
    "address_councildis": "D",
    "status": "Pending",
    "rowid": "967489",
    "final_x": "3677420.34171",
    "final_y": "552296.413078",
    "longitude": "-90.08023496511679",
    "latitude": "30.01274684412268",
    "geocoded_column": {
      "latitude": "30.01274684412268",
      "longitude": "-90.08023496511679"
    }
  },
  {
    "service_request": "2023-967488",
    "request_type": "Trash/Recycling",
    "request_reason": "Repair Trash Cart",
    "date_created": "2023-01-16T17:49:57.000",
    "date_modified": "2023-01-16T17:49:58.000",
    "request_status": "Pending",
    "responsible_agency": "Department of Sanitation",
    "final_address": "4524 Baudin St",
    "address_councildis": "A",
    "status": "Assigned to Contractor",
    "contractor": "Richards Disposal",
    "rowid": "967488",
    "final_x": "3668485.79886",
    "final_y": "538264.270473",
    "longitude": "-90.10893705383815",
    "latitude": "29.974428912348138",
    "geocoded_column": {
      "latitude": "29.974428912348138",
      "longitude": "-90.10893705383815"
    }
  },
  {
    "service_request": "2023-967487",
    "request_type": "Trash/Recycling",
    "request_reason": "Damaged Caused By Contractor",
    "date_created": "2023-01-16T17:41:38.000",
    "date_modified": "2023-01-16T17:46:24.000",
    "request_status": "Pending",
    "responsible_agency": "Department of Sanitation",
    "final_address": "1500 Holiday Place",
    "rowid": "967487",
    "longitude": "0.0",
    "latitude": "0.0",
    "geocoded_column": {
      "latitude": "0.0",
      "longitude": "0.0"
    }
  },
  {
    "service_request": "2023-967486",
    "request_type": "Trash/Recycling",
    "request_reason": "Request a Large Item Pick Up",
    "date_created": "2023-01-16T17:15:55.000",
    "date_modified": "2023-01-16T17:15:56.000",
    "request_status": "Pending",
    "responsible_agency": "Department of Sanitation",
    "final_address": "23 Marywood Ct",
    "address_councildis": "E",
    "status": "Assigned to Contractor",
    "contractor": "Waste Pro",
    "rowid": "967486",
    "final_x": "3712573.18898",
    "final_y": "566767.833379",
    "longitude": "-89.96862782607204",
    "latitude": "30.051433597452853",
    "geocoded_column": {
      "latitude": "30.051433597452853",
      "longitude": "-89.96862782607204"
    }
  },
  {
    "service_request": "2023-967485",
    "request_type": "Trash/Recycling",
    "request_reason": "Replace Trash Cart",
    "date_created": "2023-01-16T17:06:07.000",
    "date_modified": "2023-01-16T17:06:08.000",
    "request_status": "Pending",
    "responsible_agency": "Department of Sanitation",
    "final_address": "4131 N Rampart St",
    "address_councildis": "C",
    "status": "Assigned to Contractor",
    "contractor": "IV Waste",
    "rowid": "967485",
    "final_x": "3692241.80368",
    "final_y": "534772.538566",
    "longitude": "-90.03403525154978",
    "latitude": "29.96410850786029",
    "geocoded_column": {
      "latitude": "29.96410850786029",
      "longitude": "-90.03403525154978"
    }
  },
  {
    "service_request": "2023-967484",
    "request_type": "Trash/Recycling",
    "request_reason": "Request a Large Item Pick Up",
    "date_created": "2023-01-16T17:05:30.000",
    "date_modified": "2023-01-16T17:05:31.000",
    "request_status": "Pending",
    "responsible_agency": "Department of Sanitation",
    "final_address": "1463 Senate St",
    "address_councildis": "D",
    "status": "Assigned to Contractor",
    "contractor": "IV Waste",
    "rowid": "967484",
    "final_x": "3678584.51304",
    "final_y": "547355.717585",
    "longitude": "-90.07672800896047",
    "latitude": "29.99912663730322",
    "geocoded_column": {
      "latitude": "29.99912663730322",
      "longitude": "-90.07672800896047"
    }
  },
  {
    "service_request": "2023-967483",
    "request_type": "Trash/Recycling",
    "request_reason": "Illegal Dumping",
    "date_created": "2023-01-16T17:01:56.000",
    "date_modified": "2023-01-16T17:01:56.000",
    "request_status": "Pending",
    "responsible_agency": "Department of Sanitation",
    "final_address": "2553 N Rocheblave St",
    "address_councildis": "D",
    "status": "Pending",
    "rowid": "967483",
    "final_x": "3686303.8415",
    "final_y": "541263.991628",
    "longitude": "-90.05255764066068",
    "latitude": "29.98214153551677",
    "geocoded_column": {
      "latitude": "29.98214153551677",
      "longitude": "-90.05255764066068"
    }
  },
  {
    "service_request": "2023-967482",
    "request_type": "Trash/Recycling",
    "request_reason": "Request a Large Item Pick Up",
    "date_created": "2023-01-16T17:01:27.000",
    "date_modified": "2023-01-16T17:01:28.000",
    "request_status": "Pending",
    "responsible_agency": "Department of Sanitation",
    "final_address": "6101 Louis Xiv St",
    "address_councildis": "A",
    "status": "Assigned to Contractor",
    "contractor": "IV Waste",
    "rowid": "967482",
    "final_x": "3668197.3385",
    "final_y": "548019.754578",
    "longitude": "-90.10951901556574",
    "latitude": "30.001261639383678",
    "geocoded_column": {
      "latitude": "30.001261639383678",
      "longitude": "-90.10951901556574"
    }
  },
  {
    "service_request": "2023-967481",
    "request_type": "Traffic Signals/Signs/Striping/Streetlights",
    "request_reason": "Street Light Outage/Malfunction",
    "date_created": "2023-01-16T16:54:46.000",
    "date_modified": "2023-01-16T16:54:47.000",
    "request_status": "Pending",
    "responsible_agency": "Department of Public Works",
    "final_address": "AUDUBON BLVD & FONTAINEBLEAU DR",
    "address_councildis": "A",
    "status": "Assigned to Contractor",
    "contractor": "Legacy Professional Services",
    "rowid": "967481",
    "final_x": "3667348.6",
    "final_y": "530285.98",
    "longitude": "-90.11279701214708",
    "latitude": "29.952524614624952",
    "geocoded_column": {
      "latitude": "29.952524614624952",
      "longitude": "-90.11279701214708"
    }
  },
  {
    "service_request": "2023-967480",
    "request_type": "Trash/Recycling",
    "request_reason": "Request a Large Item Pick Up",
    "date_created": "2023-01-16T16:52:13.000",
    "date_modified": "2023-01-16T16:52:14.000",
    "request_status": "Pending",
    "responsible_agency": "Department of Sanitation",
    "final_address": "919 Hagan St",
    "address_councildis": "A",
    "status": "Assigned to Contractor",
    "contractor": "Richards Disposal",
    "rowid": "967480",
    "final_x": "3675197.55541",
    "final_y": "539225.452362",
    "longitude": "-90.08770669629075",
    "latitude": "29.976872924464825",
    "geocoded_column": {
      "latitude": "29.976872924464825",
      "longitude": "-90.08770669629075"
    }
  },
  {
    "service_request": "2023-967479",
    "request_type": "Trash/Recycling",
    "request_reason": "Missed Trash Pick-Up",
    "date_created": "2023-01-16T16:49:59.000",
    "date_modified": "2023-01-16T16:50:00.000",
    "request_status": "Pending",
    "responsible_agency": "Department of Sanitation",
    "final_address": "7541 Morel St",
    "address_councildis": "E",
    "status": "Assigned to Contractor",
    "contractor": "Waste Pro",
    "rowid": "967479",
    "final_x": "3719149.11903",
    "final_y": "571603.356904",
    "longitude": "-89.94765886612052",
    "latitude": "30.064512287519054",
    "geocoded_column": {
      "latitude": "30.064512287519054",
      "longitude": "-89.94765886612052"
    }
  },
  {
    "service_request": "2023-967478",
    "request_type": "Trash/Recycling",
    "request_reason": "Order Trash Cart",
    "date_created": "2023-01-16T16:46:04.000",
    "date_modified": "2023-01-16T16:46:05.000",
    "request_status": "Pending",
    "responsible_agency": "Department of Sanitation",
    "final_address": "2006 St Ferdinand St",
    "address_councildis": "D",
    "status": "Assigned to Contractor",
    "contractor": "IV Waste",
    "rowid": "967478",
    "final_x": "3688562.57167",
    "final_y": "539774.262282",
    "longitude": "-90.04547638427117",
    "latitude": "29.977975693904884",
    "geocoded_column": {
      "latitude": "29.977975693904884",
      "longitude": "-90.04547638427117"
    }
  },
  {
    "service_request": "2023-967477",
    "request_type": "Trash/Recycling",
    "request_reason": "Missed Trash Pick-Up",
    "date_created": "2023-01-16T16:39:23.000",
    "date_modified": "2023-01-16T16:39:23.000",
    "request_status": "Pending",
    "responsible_agency": "Department of Sanitation",
    "final_address": "706 Lowerline St",
    "address_councildis": "A",
    "status": "Assigned to Contractor",
    "contractor": "Richards Disposal",
    "rowid": "967477",
    "final_x": "3662732.63245",
    "final_y": "525479.167229",
    "longitude": "-90.12753193290035",
    "latitude": "29.93944180903833",
    "geocoded_column": {
      "latitude": "29.93944180903833",
      "longitude": "-90.12753193290035"
    }
  },
  {
    "service_request": "2023-967476",
    "request_type": "Trash/Recycling",
    "request_reason": "Repair Recycling Cart",
    "date_created": "2023-01-16T16:36:15.000",
    "date_modified": "2023-01-16T16:36:15.000",
    "request_status": "Pending",
    "responsible_agency": "Department of Sanitation",
    "final_address": "745 Jewel St",
    "address_councildis": "D",
    "status": "Pending",
    "rowid": "967476",
    "final_x": "3669780.80852",
    "final_y": "555976.179737",
    "longitude": "-90.10424706789549",
    "latitude": "30.02309240627486",
    "geocoded_column": {
      "latitude": "30.02309240627486",
      "longitude": "-90.10424706789549"
    }
  },
  {
    "service_request": "2023-967475",
    "request_type": "Property Maintenance",
    "request_reason": "Property Maintenance",
    "date_created": "2023-01-16T16:31:28.000",
    "date_modified": "2023-01-16T16:31:28.000",
    "request_status": "Pending",
    "responsible_agency": "Department of Code Enforcement",
    "final_address": "1025 N Rocheblave St",
    "address_councildis": "D",
    "status": "Pending",
    "rowid": "967475",
    "final_x": "3678282.66242",
    "final_y": "537386.350408",
    "longitude": "-90.07802658299444",
    "latitude": "29.97172344832138",
    "geocoded_column": {
      "latitude": "29.97172344832138",
      "longitude": "-90.07802658299444"
    }
  },
  {
    "service_request": "2023-967474",
    "request_type": "Trash/Recycling",
    "request_reason": "Repair Trash Cart",
    "date_created": "2023-01-16T16:17:24.000",
    "date_modified": "2023-01-16T16:17:25.000",
    "request_status": "Pending",
    "responsible_agency": "Department of Sanitation",
    "final_address": "1220 Harmony St",
    "address_councildis": "B",
    "status": "Assigned to Contractor",
    "contractor": "Richards Disposal",
    "rowid": "967474",
    "final_x": "3675514.80136",
    "final_y": "520468.350072",
    "longitude": "-90.08734891614091",
    "latitude": "29.92528764360197",
    "geocoded_column": {
      "latitude": "29.92528764360197",
      "longitude": "-90.08734891614091"
    }
  },
  {
    "service_request": "2023-967473",
    "request_type": "Trash/Recycling",
    "request_reason": "Repair Recycling Cart",
    "date_created": "2023-01-16T16:16:39.000",
    "date_modified": "2023-01-16T16:16:40.000",
    "request_status": "Pending",
    "responsible_agency": "Department of Sanitation",
    "final_address": "1220 Harmony St",
    "address_councildis": "B",
    "status": "Pending",
    "rowid": "967473",
    "final_x": "3675514.80136",
    "final_y": "520468.350072",
    "longitude": "-90.08734891614091",
    "latitude": "29.92528764360197",
    "geocoded_column": {
      "latitude": "29.92528764360197",
      "longitude": "-90.08734891614091"
    }
  },
  {
    "service_request": "2023-967472",
    "request_type": "Trash/Recycling",
    "request_reason": "Repair Recycling Cart",
    "date_created": "2023-01-16T16:15:15.000",
    "date_modified": "2023-01-16T16:15:15.000",
    "request_status": "Pending",
    "responsible_agency": "Department of Sanitation",
    "final_address": "1218 Harmony St",
    "address_councildis": "B",
    "status": "Pending",
    "rowid": "967472",
    "final_x": "3675523.86625",
    "final_y": "520449.520568",
    "longitude": "-90.08732094746351",
    "latitude": "29.925235597503896",
    "geocoded_column": {
      "latitude": "29.925235597503896",
      "longitude": "-90.08732094746351"
    }
  },
  {
    "service_request": "2023-967471",
    "request_type": "Abandoned Vehicles",
    "request_reason": "Abandoned/Junk Vehicles",
    "date_created": "2023-01-16T16:15:07.000",
    "date_modified": "2023-01-16T16:15:07.000",
    "request_status": "Pending",
    "responsible_agency": "Department of Public Works",
    "final_address": "1001 Eleonore St",
    "address_councildis": "A",
    "status": "Pending",
    "rowid": "967471",
    "final_x": "3665432.97908",
    "final_y": "519779.02188",
    "longitude": "-90.11919723463792",
    "latitude": "29.923689803738526",
    "geocoded_column": {
      "latitude": "29.923689803738526",
      "longitude": "-90.11919723463792"
    }
  },
  {
    "service_request": "2023-967470",
    "request_type": "Trash/Recycling",
    "request_reason": "Repair Trash Cart",
    "date_created": "2023-01-16T16:14:12.000",
    "date_modified": "2023-01-16T16:14:13.000",
    "request_status": "Pending",
    "responsible_agency": "Department of Sanitation",
    "final_address": "1218 Harmony St",
    "address_councildis": "B",
    "status": "Assigned to Contractor",
    "contractor": "Richards Disposal",
    "rowid": "967470",
    "final_x": "3675523.86625",
    "final_y": "520449.520568",
    "longitude": "-90.08732094746351",
    "latitude": "29.925235597503896",
    "geocoded_column": {
      "latitude": "29.925235597503896",
      "longitude": "-90.08732094746351"
    }
  },
  {
    "service_request": "2023-967469",
    "request_type": "Trash/Recycling",
    "request_reason": "Missed Trash Pick-Up",
    "date_created": "2023-01-16T16:10:16.000",
    "date_modified": "2023-01-16T16:10:17.000",
    "request_status": "Pending",
    "responsible_agency": "Department of Sanitation",
    "final_address": "7645 Stonewood St",
    "address_councildis": "E",
    "status": "Assigned to Contractor",
    "contractor": "Waste Pro",
    "rowid": "967469",
    "final_x": "3719416.835",
    "final_y": "572504.283561",
    "longitude": "-89.94677814005945",
    "latitude": "30.066980553066124",
    "geocoded_column": {
      "latitude": "30.066980553066124",
      "longitude": "-89.94677814005945"
    }
  },
  {
    "service_request": "2023-967468",
    "request_type": "Trash/Recycling",
    "request_reason": "Missed Trash Pick-Up",
    "date_created": "2023-01-16T16:08:44.000",
    "date_modified": "2023-01-16T16:08:45.000",
    "request_status": "Pending",
    "responsible_agency": "Department of Sanitation",
    "final_address": "7639 Stonewood St",
    "address_councildis": "E",
    "status": "Assigned to Contractor",
    "contractor": "Waste Pro",
    "rowid": "967468",
    "final_x": "3719447.20364",
    "final_y": "572483.255913",
    "longitude": "-89.94668294522873",
    "latitude": "30.066921725403166",
    "geocoded_column": {
      "latitude": "30.066921725403166",
      "longitude": "-89.94668294522873"
    }
  },
  {
    "service_request": "2023-967467",
    "request_type": "Trash/Recycling",
    "request_reason": "Replace Trash Cart",
    "date_created": "2023-01-16T16:06:36.000",
    "date_modified": "2023-01-16T16:06:37.000",
    "request_status": "Pending",
    "responsible_agency": "Department of Sanitation",
    "final_address": "416 S Gayoso St",
    "address_councildis": "B",
    "status": "Assigned to Contractor",
    "contractor": "Richards Disposal",
    "rowid": "967467",
    "final_x": "3673533.81665",
    "final_y": "534734.080838",
    "longitude": "-90.09311485435438",
    "latitude": "29.964572798886934",
    "geocoded_column": {
      "latitude": "29.964572798886934",
      "longitude": "-90.09311485435438"
    }
  },
  {
    "service_request": "2023-967466",
    "request_type": "Trash/Recycling",
    "request_reason": "Request a Large Item Pick Up",
    "date_created": "2023-01-16T16:03:28.000",
    "date_modified": "2023-01-16T16:03:28.000",
    "request_status": "Pending",
    "responsible_agency": "Department of Sanitation",
    "final_address": "416 S Gayoso St",
    "address_councildis": "B",
    "status": "Assigned to Contractor",
    "contractor": "Richards Disposal",
    "rowid": "967466",
    "final_x": "3673533.81665",
    "final_y": "534734.080838",
    "longitude": "-90.09311485435438",
    "latitude": "29.964572798886934",
    "geocoded_column": {
      "latitude": "29.964572798886934",
      "longitude": "-90.09311485435438"
    }
  },
  {
    "service_request": "2023-967465",
    "request_type": "Trash/Recycling",
    "request_reason": "Request a Large Item Pick Up",
    "date_created": "2023-01-16T16:02:51.000",
    "date_modified": "2023-01-16T16:02:52.000",
    "request_status": "Pending",
    "responsible_agency": "Department of Sanitation",
    "final_address": "514 Vallette St, New Orleans, Louisiana, 70114",
    "address_councildis": "C",
    "status": "Assigned to Contractor",
    "contractor": "Richards Disposal",
    "rowid": "967465",
    "final_x": "3687566.61327",
    "final_y": "529782.729409",
    "longitude": "-90.04897567834557",
    "latitude": "29.950533193711152",
    "geocoded_column": {
      "latitude": "29.950533193711152",
      "longitude": "-90.04897567834557"
    }
  },
  {
    "service_request": "2023-967464",
    "request_type": "Trash/Recycling",
    "request_reason": "Replace Trash Cart",
    "date_created": "2023-01-16T16:00:17.000",
    "date_modified": "2023-01-16T16:00:18.000",
    "request_status": "Pending",
    "responsible_agency": "Department of Sanitation",
    "final_address": "1718 Short St",
    "address_councildis": "A",
    "status": "Assigned to Contractor",
    "contractor": "Richards Disposal",
    "rowid": "967464",
    "final_x": "3663557.86823",
    "final_y": "529508.914753",
    "longitude": "-90.12479235614776",
    "latitude": "29.950498419017233",
    "geocoded_column": {
      "latitude": "29.950498419017233",
      "longitude": "-90.12479235614776"
    }
  },
  {
    "service_request": "2023-967463",
    "request_type": "Property Maintenance",
    "request_reason": "Property Maintenance",
    "date_created": "2023-01-16T15:50:48.000",
    "date_modified": "2023-01-16T15:50:48.000",
    "request_status": "Pending",
    "responsible_agency": "Department of Code Enforcement",
    "final_address": "4437 Wilson Ave",
    "address_councildis": "E",
    "status": "Pending",
    "rowid": "967463",
    "final_x": "3703246.02442",
    "final_y": "553045.865687",
    "longitude": "-89.99861297257154",
    "latitude": "30.014005686317823",
    "geocoded_column": {
      "latitude": "30.014005686317823",
      "longitude": "-89.99861297257154"
    }
  },
  {
    "service_request": "2023-967462",
    "request_type": "Abandoned Vehicles",
    "request_reason": "Abandoned/Junk Vehicles",
    "date_created": "2023-01-16T15:50:45.000",
    "date_modified": "2023-01-16T15:50:45.000",
    "request_status": "Pending",
    "responsible_agency": "Department of Public Works",
    "final_address": "3605 Iberville St, New Orleans, Louisiana, 70119",
    "address_councildis": "B",
    "status": "Pending",
    "rowid": "967462",
    "final_x": "3672830.83028",
    "final_y": "537614.691912",
    "longitude": "-90.09523654648098",
    "latitude": "29.972514411751387",
    "geocoded_column": {
      "latitude": "29.972514411751387",
      "longitude": "-90.09523654648098"
    }
  },
  {
    "service_request": "2023-967461",
    "request_type": "Property Maintenance",
    "request_reason": "Property Maintenance",
    "date_created": "2023-01-16T15:49:25.000",
    "date_modified": "2023-01-16T15:49:25.000",
    "request_status": "Pending",
    "responsible_agency": "Department of Code Enforcement",
    "final_address": "4441 Wilson Ave",
    "address_councildis": "E",
    "status": "Pending",
    "rowid": "967461",
    "final_x": "3703241.85777",
    "final_y": "553094.476759",
    "longitude": "-89.99862434795693",
    "latitude": "30.01413948166396",
    "geocoded_column": {
      "latitude": "30.01413948166396",
      "longitude": "-89.99862434795693"
    }
  },
  {
    "service_request": "2023-967460",
    "request_type": "Roads/Drainage",
    "request_reason": "Pothole",
    "date_created": "2023-01-16T15:48:15.000",
    "date_modified": "2023-01-16T15:48:15.000",
    "request_status": "Pending",
    "responsible_agency": "Department of Public Works",
    "final_address": "1522 Monroe St",
    "address_councildis": "A",
    "status": "Pending",
    "rowid": "967460",
    "final_x": "3661192.1897",
    "final_y": "530747.21037",
    "longitude": "-90.13222099774542",
    "latitude": "29.953971729879513",
    "geocoded_column": {
      "latitude": "29.953971729879513",
      "longitude": "-90.13222099774542"
    }
  },
  {
    "service_request": "2023-967459",
    "request_type": "Property Maintenance",
    "request_reason": "Property Maintenance",
    "date_created": "2023-01-16T15:47:52.000",
    "date_modified": "2023-01-16T15:47:52.000",
    "request_status": "Pending",
    "responsible_agency": "Department of Code Enforcement",
    "final_address": "4711 Wilson Ave",
    "address_councildis": "E",
    "status": "Pending",
    "rowid": "967459",
    "final_x": "3703120.19889",
    "final_y": "554748.963928",
    "longitude": "-89.99894785112201",
    "latitude": "30.018692584376183",
    "geocoded_column": {
      "latitude": "30.018692584376183",
      "longitude": "-89.99894785112201"
    }
  },
  {
    "service_request": "2023-967458",
    "request_type": "Property Maintenance",
    "request_reason": "Property Maintenance",
    "date_created": "2023-01-16T15:45:27.000",
    "date_modified": "2023-01-16T15:45:27.000",
    "request_status": "Pending",
    "responsible_agency": "Department of Code Enforcement",
    "final_address": "4879 Wilson Ave",
    "address_councildis": "E",
    "status": "Pending",
    "rowid": "967458",
    "final_x": "3703025.75274",
    "final_y": "555788.646873",
    "longitude": "-89.99920801669576",
    "latitude": "30.021554337001604",
    "geocoded_column": {
      "latitude": "30.021554337001604",
      "longitude": "-89.99920801669576"
    }
  },
  {
    "service_request": "2023-967457",
    "request_type": "Property Maintenance",
    "request_reason": "Property Maintenance",
    "date_created": "2023-01-16T15:44:17.000",
    "date_modified": "2023-01-16T15:44:17.000",
    "request_status": "Pending",
    "responsible_agency": "Department of Code Enforcement",
    "final_address": "4883 Wilson Ave",
    "address_councildis": "E",
    "status": "Pending",
    "rowid": "967457",
    "final_x": "3703022.9747",
    "final_y": "555812.258265",
    "longitude": "-89.99921592584936",
    "latitude": "30.021619348181943",
    "geocoded_column": {
      "latitude": "30.021619348181943",
      "longitude": "-89.99921592584936"
    }
  },
  {
    "service_request": "2023-967456",
    "request_type": "Trash/Recycling",
    "request_reason": "Request a Large Item Pick Up",
    "date_created": "2023-01-16T15:43:41.000",
    "date_modified": "2023-01-16T15:43:42.000",
    "request_status": "Pending",
    "responsible_agency": "Department of Sanitation",
    "final_address": "25 Heron St",
    "address_councildis": "D",
    "status": "Assigned to Contractor",
    "contractor": "IV Waste",
    "rowid": "967456",
    "final_x": "3675116.78497",
    "final_y": "555477.507865",
    "longitude": "-90.08740366761765",
    "latitude": "30.02156278004902",
    "geocoded_column": {
      "latitude": "30.02156278004902",
      "longitude": "-90.08740366761765"
    }
  },
  {
    "service_request": "2023-967455",
    "request_type": "Trash/Recycling",
    "request_reason": "Replace Recycling Cart",
    "date_created": "2023-01-16T15:43:31.000",
    "date_modified": "2023-01-16T15:43:31.000",
    "request_status": "Pending",
    "responsible_agency": "Department of Sanitation",
    "final_address": "6731 Avenue A",
    "address_councildis": "A",
    "status": "Pending",
    "rowid": "967455",
    "final_x": "3666136.16436",
    "final_y": "552936.320023",
    "longitude": "-90.11586544468672",
    "latitude": "30.014840855168273",
    "geocoded_column": {
      "latitude": "30.014840855168273",
      "longitude": "-90.11586544468672"
    }
  },
  {
    "service_request": "2023-967454",
    "request_type": "Trash/Recycling",
    "request_reason": "Order Recycling Cart",
    "date_created": "2023-01-16T15:42:59.000",
    "date_modified": "2023-01-16T15:42:59.000",
    "request_status": "Pending",
    "responsible_agency": "Department of Sanitation",
    "final_address": "6139 Louis Xiv St",
    "address_councildis": "A",
    "status": "Pending",
    "rowid": "967454",
    "final_x": "3668231.43994",
    "final_y": "548265.132562",
    "longitude": "-90.10940300573853",
    "latitude": "30.001935342242056",
    "geocoded_column": {
      "latitude": "30.001935342242056",
      "longitude": "-90.10940300573853"
    }
  },
  {
    "service_request": "2023-967453",
    "request_type": "Trash/Recycling",
    "request_reason": "Repair Trash Cart",
    "date_created": "2023-01-16T15:41:48.000",
    "date_modified": "2023-01-16T15:41:49.000",
    "request_status": "Pending",
    "responsible_agency": "Department of Sanitation",
    "final_address": "6139 Louis Xiv St",
    "address_councildis": "A",
    "status": "Assigned to Contractor",
    "contractor": "IV Waste",
    "rowid": "967453",
    "final_x": "3668231.43994",
    "final_y": "548265.132562",
    "longitude": "-90.10940300573853",
    "latitude": "30.001935342242056",
    "geocoded_column": {
      "latitude": "30.001935342242056",
      "longitude": "-90.10940300573853"
    }
  },
  {
    "service_request": "2023-967452",
    "request_type": "Property Maintenance",
    "request_reason": "Property Maintenance",
    "date_created": "2023-01-16T15:39:57.000",
    "date_modified": "2023-01-16T15:39:57.000",
    "request_status": "Pending",
    "responsible_agency": "Department of Code Enforcement",
    "final_address": "5998 Bullard Ave",
    "address_councildis": "E",
    "status": "Pending",
    "rowid": "967452",
    "final_x": "3715583.42021",
    "final_y": "563755.698913",
    "longitude": "-89.95922773196618",
    "latitude": "30.043052532258418",
    "geocoded_column": {
      "latitude": "30.043052532258418",
      "longitude": "-89.95922773196618"
    }
  },
  {
    "service_request": "2023-967451",
    "request_type": "Trash/Recycling",
    "request_reason": "Illegal Dumping",
    "date_created": "2023-01-16T15:35:44.000",
    "date_modified": "2023-01-16T15:35:44.000",
    "request_status": "Pending",
    "responsible_agency": "Department of Sanitation",
    "final_address": "13000 N Lake Carmel Dr",
    "address_councildis": "E",
    "status": "Pending",
    "rowid": "967451",
    "final_x": "3716608.4597",
    "final_y": "568675.093413",
    "longitude": "-89.9558013131371",
    "latitude": "30.0565450125185",
    "geocoded_column": {
      "latitude": "30.0565450125185",
      "longitude": "-89.9558013131371"
    }
  },
  {
    "service_request": "2023-967450",
    "request_type": "Trash/Recycling",
    "request_reason": "Request a Large Item Pick Up",
    "date_created": "2023-01-16T15:34:11.000",
    "date_modified": "2023-01-16T15:34:11.000",
    "request_status": "Pending",
    "responsible_agency": "Department of Sanitation",
    "final_address": "12530 Carmel Pl",
    "address_councildis": "E",
    "status": "Assigned to Contractor",
    "contractor": "Waste Pro",
    "rowid": "967450",
    "final_x": "3716479.53324",
    "final_y": "566868.36842",
    "longitude": "-89.95627745529814",
    "latitude": "30.05158152350039",
    "geocoded_column": {
      "latitude": "30.05158152350039",
      "longitude": "-89.95627745529814"
    }
  },
  {
    "service_request": "2023-967449",
    "request_type": "Roads/Drainage",
    "request_reason": "Pothole",
    "date_created": "2023-01-16T15:29:18.000",
    "date_modified": "2023-01-16T15:29:18.000",
    "request_status": "Pending",
    "responsible_agency": "Department of Public Works",
    "final_address": "6341 Laurel St",
    "address_councildis": "A",
    "status": "Pending",
    "rowid": "967449",
    "final_x": "3662831.68839",
    "final_y": "518925.524151",
    "longitude": "-90.12743695065204",
    "latitude": "29.92141848508317",
    "geocoded_column": {
      "latitude": "29.92141848508317",
      "longitude": "-90.12743695065204"
    }
  },
  {
    "service_request": "2023-967448",
    "request_type": "Trash/Recycling",
    "request_reason": "Request a Large Item Pick Up",
    "date_created": "2023-01-16T15:29:11.000",
    "date_modified": "2023-01-16T15:29:12.000",
    "request_status": "Pending",
    "responsible_agency": "Department of Sanitation",
    "final_address": "3327 Live Oak St, New Orleans, Louisiana, 70118",
    "address_councildis": "A",
    "status": "Assigned to Contractor",
    "contractor": "Richards Disposal",
    "rowid": "967448",
    "final_x": "3663784.89779",
    "final_y": "537117.982984",
    "longitude": "-90.12382190560106",
    "latitude": "29.971414284637405",
    "geocoded_column": {
      "latitude": "29.971414284637405",
      "longitude": "-90.12382190560106"
    }
  },
  {
    "service_request": "2023-967447",
    "request_type": "Trash/Recycling",
    "request_reason": "Request a Large Item Pick Up",
    "date_created": "2023-01-16T15:26:39.000",
    "date_modified": "2023-01-16T15:26:39.000",
    "request_status": "Pending",
    "responsible_agency": "Department of Sanitation",
    "final_address": "2216 Camp St",
    "address_councildis": "B",
    "status": "Assigned to Contractor",
    "contractor": "Richards Disposal",
    "rowid": "967447",
    "final_x": "3678502.41262",
    "final_y": "522245.417978",
    "longitude": "-90.07785650454653",
    "latitude": "29.93008433324849",
    "geocoded_column": {
      "latitude": "29.93008433324849",
      "longitude": "-90.07785650454653"
    }
  },
  {
    "service_request": "2023-967446",
    "request_type": "Traffic Signals/Signs/Striping/Streetlights",
    "request_reason": "Striping/Road Surface Markings",
    "date_created": "2023-01-16T15:24:53.000",
    "date_modified": "2023-01-16T15:24:53.000",
    "request_status": "Pending",
    "responsible_agency": "Department of Public Works",
    "final_address": "6500 Magazine St",
    "address_councildis": "A",
    "status": "Pending",
    "rowid": "967446",
    "final_x": "3662586.74362",
    "final_y": "520120.866808",
    "longitude": "-90.12817045257185",
    "latitude": "29.924712390786677",
    "geocoded_column": {
      "latitude": "29.924712390786677",
      "longitude": "-90.12817045257185"
    }
  },
  {
    "service_request": "2023-967444",
    "request_type": "Trash/Recycling",
    "request_reason": "Request a Large Item Pick Up",
    "date_created": "2023-01-16T15:03:18.000",
    "date_modified": "2023-01-16T15:03:20.000",
    "request_status": "Pending",
    "responsible_agency": "Department of Sanitation",
    "final_address": "3800 Octavia St, New Orleans, LA 70125",
    "address_councildis": "A",
    "status": "Assigned to Contractor",
    "contractor": "Richards Disposal",
    "rowid": "967444",
    "final_x": "3668717.86222",
    "final_y": "529399.291713",
    "longitude": "-90.10850341794956",
    "latitude": "29.950046336185164",
    "geocoded_column": {
      "latitude": "29.950046336185164",
      "longitude": "-90.10850341794956"
    }
  },
  {
    "service_request": "2023-967443",
    "request_type": "Abandoned Vehicles",
    "request_reason": "Abandoned/Junk Vehicles",
    "date_created": "2023-01-16T15:00:34.000",
    "date_modified": "2023-01-16T15:01:37.000",
    "request_status": "Pending",
    "responsible_agency": "Department of Public Works",
    "final_address": "6000 BLK Warrington Dr",
    "address_councildis": "D",
    "status": "Pending",
    "rowid": "967443",
    "final_x": "3680710.92463",
    "final_y": "555005.634527",
    "longitude": "-90.06974413709632",
    "latitude": "30.020096859748776",
    "geocoded_column": {
      "latitude": "30.020096859748776",
      "longitude": "-90.06974413709632"
    }
  },
  {
    "service_request": "2023-967442",
    "request_type": "Abandoned Vehicles",
    "request_reason": "Abandoned/Junk Vehicles",
    "date_created": "2023-01-16T14:59:38.000",
    "date_modified": "2023-01-16T15:00:16.000",
    "request_status": "Pending",
    "responsible_agency": "Department of Public Works",
    "final_address": "6040 Warrington Dr",
    "address_councildis": "D",
    "status": "Pending",
    "rowid": "967442",
    "final_x": "3680614.88053",
    "final_y": "554980.55836",
    "longitude": "-90.07004847963483",
    "latitude": "30.02003082133192",
    "geocoded_column": {
      "latitude": "30.02003082133192",
      "longitude": "-90.07004847963483"
    }
  },
  {
    "service_request": "2023-967441",
    "request_type": "Abandoned Vehicles",
    "request_reason": "Abandoned/Junk Vehicles",
    "date_created": "2023-01-16T14:48:50.000",
    "date_modified": "2023-01-16T14:49:47.000",
    "request_status": "Pending",
    "responsible_agency": "Department of Public Works",
    "final_address": "400 BLK Basin St",
    "address_councildis": "C",
    "status": "Pending",
    "rowid": "967441",
    "final_x": "3680562.95872",
    "final_y": "532810.527671",
    "longitude": "-90.07098426557292",
    "latitude": "29.95907261396757",
    "geocoded_column": {
      "latitude": "29.95907261396757",
      "longitude": "-90.07098426557292"
    }
  },
  {
    "service_request": "2023-967440",
    "request_type": "Traffic Signals/Signs/Striping/Streetlights",
    "request_reason": "Street Light Outage/Malfunction",
    "date_created": "2023-01-16T14:48:40.000",
    "date_modified": "2023-01-16T14:49:38.000",
    "request_status": "Pending",
    "responsible_agency": "Department of Public Works",
    "final_address": "7941 Devine Ave",
    "address_councildis": "E",
    "status": "Assigned to Contractor",
    "contractor": "Legacy Professional Services",
    "rowid": "967440",
    "final_x": "3705165.00081",
    "final_y": "564101.731873",
    "longitude": "-89.99214116981864",
    "latitude": "30.044343404004003",
    "geocoded_column": {
      "latitude": "30.044343404004003",
      "longitude": "-89.99214116981864"
    }
  },
  {
    "service_request": "2023-967439",
    "request_type": "Trash/Recycling",
    "request_reason": "Request a Large Item Pick Up",
    "date_created": "2023-01-16T14:41:00.000",
    "date_modified": "2023-01-16T14:42:13.000",
    "request_status": "Pending",
    "responsible_agency": "Department of Sanitation",
    "final_address": "2929 Joliet St",
    "address_councildis": "A",
    "status": "Assigned to Contractor",
    "contractor": "Richards Disposal",
    "rowid": "967439",
    "final_x": "3665200.16602",
    "final_y": "533997.498309",
    "longitude": "-90.11945666761953",
    "latitude": "29.962792828847437",
    "geocoded_column": {
      "latitude": "29.962792828847437",
      "longitude": "-90.11945666761953"
    }
  },
  {
    "service_request": "2023-967438",
    "request_type": "Roads/Drainage",
    "request_reason": "Accessibility Ramps, Curbs and Sidewalk Repair",
    "date_created": "2023-01-16T14:36:55.000",
    "date_modified": "2023-01-16T14:36:55.000",
    "request_status": "Pending",
    "responsible_agency": "Department of Public Works",
    "final_address": "732 City Park Ave",
    "address_councildis": "A",
    "status": "Pending",
    "rowid": "967438",
    "final_x": "3670348.97671",
    "final_y": "541694.462092",
    "longitude": "-90.10293634902916",
    "latitude": "29.983805901099217",
    "geocoded_column": {
      "latitude": "29.983805901099217",
      "longitude": "-90.10293634902916"
    }
  },
  {
    "service_request": "2023-967437",
    "request_type": "Trash/Recycling",
    "request_reason": "Order Recycling Cart",
    "date_created": "2023-01-16T14:30:56.000",
    "date_modified": "2023-01-16T14:49:24.000",
    "request_status": "Pending",
    "responsible_agency": "Department of Sanitation",
    "final_address": "New Orleans,LA",
    "address_councildis": "E",
    "rowid": "967437",
    "final_x": "3708586.82507",
    "final_y": "563004.311584",
    "longitude": "-89.98136767513898",
    "latitude": "30.04121536451164",
    "geocoded_column": {
      "latitude": "30.04121536451164",
      "longitude": "-89.98136767513898"
    }
  },
  {
    "service_request": "2023-967436",
    "request_type": "Trash/Recycling",
    "request_reason": "Repair Trash Cart",
    "date_created": "2023-01-16T14:28:56.000",
    "date_modified": "2023-01-16T14:28:56.000",
    "request_status": "Pending",
    "responsible_agency": "Department of Sanitation",
    "final_address": "2042 Egania St",
    "address_councildis": "E",
    "status": "Assigned to Contractor",
    "contractor": "Waste Pro",
    "rowid": "967436",
    "final_x": "3697786.18032",
    "final_y": "537760.441928",
    "longitude": "-90.01641825395578",
    "latitude": "29.972150139710504",
    "geocoded_column": {
      "latitude": "29.972150139710504",
      "longitude": "-90.01641825395578"
    }
  },
  {
    "service_request": "2023-967435",
    "request_type": "Trash/Recycling",
    "request_reason": "Repair Trash Cart",
    "date_created": "2023-01-16T14:28:44.000",
    "date_modified": "2023-01-16T14:28:45.000",
    "request_status": "Pending",
    "responsible_agency": "Department of Sanitation",
    "final_address": "2038 Egania St",
    "address_councildis": "E",
    "status": "Assigned to Contractor",
    "contractor": "Waste Pro",
    "rowid": "967435",
    "final_x": "3697780.89738",
    "final_y": "537741.449992",
    "longitude": "-90.01643562760299",
    "latitude": "29.972098085662765",
    "geocoded_column": {
      "latitude": "29.972098085662765",
      "longitude": "-90.01643562760299"
    }
  },
  {
    "service_request": "2023-967434",
    "request_type": "Trash/Recycling",
    "request_reason": "Request a Large Item Pick Up",
    "date_created": "2023-01-16T14:28:18.000",
    "date_modified": "2023-01-16T14:28:19.000",
    "request_status": "Pending",
    "responsible_agency": "Department of Sanitation",
    "final_address": "2038 Egania St",
    "address_councildis": "E",
    "status": "Assigned to Contractor",
    "contractor": "Waste Pro",
    "rowid": "967434",
    "final_x": "3697780.89738",
    "final_y": "537741.449992",
    "longitude": "-90.01643562760299",
    "latitude": "29.972098085662765",
    "geocoded_column": {
      "latitude": "29.972098085662765",
      "longitude": "-90.01643562760299"
    }
  },
  {
    "service_request": "2023-967433",
    "request_type": "Roads/Drainage",
    "request_reason": "Debris in Roadway",
    "date_created": "2023-01-16T14:26:49.000",
    "date_modified": "2023-01-16T14:26:49.000",
    "request_status": "Pending",
    "responsible_agency": "Department of Public Works",
    "final_address": "1413 N Claiborne Ave",
    "address_councildis": "D",
    "status": "Pending",
    "rowid": "967433",
    "final_x": "3681257.33045",
    "final_y": "536751.222728",
    "longitude": "-90.06865426932183",
    "latitude": "29.969887123764625",
    "geocoded_column": {
      "latitude": "29.969887123764625",
      "longitude": "-90.06865426932183"
    }
  },
  {
    "service_request": "2023-967432",
    "request_type": "Property Maintenance",
    "request_reason": "Property Maintenance",
    "date_created": "2023-01-16T14:25:23.000",
    "date_modified": "2023-01-16T14:25:23.000",
    "request_status": "Pending",
    "responsible_agency": "Department of Code Enforcement",
    "final_address": "526 Bouny St",
    "address_councildis": "C",
    "status": "Pending",
    "rowid": "967432",
    "final_x": "3686287.13628",
    "final_y": "529566.727169",
    "longitude": "-90.05302321693497",
    "latitude": "29.9499786334747",
    "geocoded_column": {
      "latitude": "29.9499786334747",
      "longitude": "-90.05302321693497"
    }
  },
  {
    "service_request": "2023-967431",
    "request_type": "Trash/Recycling",
    "request_reason": "Repair Trash Cart",
    "date_created": "2023-01-16T14:24:55.000",
    "date_modified": "2023-01-16T14:25:52.000",
    "request_status": "Pending",
    "responsible_agency": "Department of Sanitation",
    "final_address": "221 S Telemachus St",
    "address_councildis": "A",
    "status": "Assigned to Contractor",
    "contractor": "Richards Disposal",
    "rowid": "967431",
    "final_x": "3671924.78926",
    "final_y": "536984.524424",
    "longitude": "-90.0981194461254",
    "latitude": "29.970808551597447",
    "geocoded_column": {
      "latitude": "29.970808551597447",
      "longitude": "-90.0981194461254"
    }
  },
  {
    "service_request": "2023-967430",
    "request_type": "Trash/Recycling",
    "request_reason": "Request a Large Item Pick Up",
    "date_created": "2023-01-16T14:23:28.000",
    "date_modified": "2023-01-16T14:23:29.000",
    "request_status": "Pending",
    "responsible_agency": "Department of Sanitation",
    "final_address": "2815 Bell St",
    "address_councildis": "A",
    "status": "Assigned to Contractor",
    "contractor": "Richards Disposal",
    "rowid": "967430",
    "final_x": "3677268.00034",
    "final_y": "539220.625738",
    "longitude": "-90.08116773877164",
    "latitude": "29.976797602574035",
    "geocoded_column": {
      "latitude": "29.976797602574035",
      "longitude": "-90.08116773877164"
    }
  },
  {
    "service_request": "2023-967429",
    "request_type": "Trash/Recycling",
    "request_reason": "Missed Trash Pick-Up",
    "date_created": "2023-01-16T14:21:53.000",
    "date_modified": "2023-01-16T15:10:28.000",
    "request_status": "Pending",
    "responsible_agency": "Department of Sanitation",
    "final_address": "1600 BLK Paul Morphy St",
    "address_councildis": "D",
    "status": "Assigned to Contractor",
    "contractor": "IV Waste",
    "rowid": "967429",
    "final_x": "3679130.06395",
    "final_y": "540830.141553",
    "longitude": "-90.0752309430769",
    "latitude": "29.98116713094153",
    "geocoded_column": {
      "latitude": "29.98116713094153",
      "longitude": "-90.0752309430769"
    }
  },
  {
    "service_request": "2023-967427",
    "request_type": "Trash/Recycling",
    "request_reason": "Request a Large Item Pick Up",
    "date_created": "2023-01-16T14:18:55.000",
    "date_modified": "2023-01-16T14:18:56.000",
    "request_status": "Pending",
    "responsible_agency": "Department of Sanitation",
    "final_address": "3111 Constance St",
    "address_councildis": "B",
    "status": "Assigned to Contractor",
    "contractor": "Richards Disposal",
    "rowid": "967427",
    "final_x": "3676209.84341",
    "final_y": "519874.911288",
    "longitude": "-90.08517529152964",
    "latitude": "29.923635078754216",
    "geocoded_column": {
      "latitude": "29.923635078754216",
      "longitude": "-90.08517529152964"
    }
  },
  {
    "service_request": "2023-967424",
    "request_type": "Traffic Signals/Signs/Striping/Streetlights",
    "request_reason": "Disabled Parking Sign ",
    "date_created": "2023-01-16T14:10:07.000",
    "date_modified": "2023-01-16T14:10:08.000",
    "request_status": "Pending",
    "responsible_agency": "Department of Public Works",
    "final_address": "2311 Bienville Ave",
    "address_councildis": "B",
    "status": "Pending",
    "rowid": "967424",
    "final_x": "3677129.64386",
    "final_y": "534815.585542",
    "longitude": "-90.08175667552327",
    "latitude": "29.964689402486623",
    "geocoded_column": {
      "latitude": "29.964689402486623",
      "longitude": "-90.08175667552327"
    }
  },
  {
    "service_request": "2023-967422",
    "request_type": "Trash/Recycling",
    "request_reason": "Request a Large Item Pick Up",
    "date_created": "2023-01-16T14:09:41.000",
    "date_modified": "2023-01-16T14:09:42.000",
    "request_status": "Pending",
    "responsible_agency": "Department of Sanitation",
    "final_address": "3879 Mimosa Dr",
    "address_councildis": "C",
    "status": "Assigned to Contractor",
    "contractor": "Richards Disposal",
    "rowid": "967422",
    "final_x": "3704330.01764",
    "final_y": "512935.929137",
    "longitude": "-89.99666644648696",
    "latitude": "29.90368305442151",
    "geocoded_column": {
      "latitude": "29.90368305442151",
      "longitude": "-89.99666644648696"
    }
  },
  {
    "service_request": "2023-967421",
    "request_type": "Trash/Recycling",
    "request_reason": "Repair Trash Cart",
    "date_created": "2023-01-16T14:09:14.000",
    "date_modified": "2023-01-16T14:09:15.000",
    "request_status": "Pending",
    "responsible_agency": "Department of Sanitation",
    "final_address": "2311 Bienville Ave",
    "address_councildis": "B",
    "status": "Assigned to Contractor",
    "contractor": "Richards Disposal",
    "rowid": "967421",
    "final_x": "3677129.64386",
    "final_y": "534815.585542",
    "longitude": "-90.08175667552327",
    "latitude": "29.964689402486623",
    "geocoded_column": {
      "latitude": "29.964689402486623",
      "longitude": "-90.08175667552327"
    }
  },
  {
    "service_request": "2023-967420",
    "request_type": "Trash/Recycling",
    "request_reason": "Request a Large Item Pick Up",
    "date_created": "2023-01-16T14:08:46.000",
    "date_modified": "2023-01-16T14:08:47.000",
    "request_status": "Pending",
    "responsible_agency": "Department of Sanitation",
    "final_address": "2416 Broadway St",
    "address_councildis": "A",
    "status": "Assigned to Contractor",
    "contractor": "Richards Disposal",
    "rowid": "967420",
    "final_x": "3666634.66746",
    "final_y": "530275.214657",
    "longitude": "-90.11505165675878",
    "latitude": "29.952515904601903",
    "geocoded_column": {
      "latitude": "29.952515904601903",
      "longitude": "-90.11505165675878"
    }
  },
  {
    "service_request": "2023-967419",
    "request_type": "Abandoned Vehicles",
    "request_reason": "Abandoned/Junk Vehicles",
    "date_created": "2023-01-16T14:08:06.000",
    "date_modified": "2023-01-16T14:08:06.000",
    "request_status": "Pending",
    "responsible_agency": "Department of Public Works",
    "final_address": "2011 Camp St",
    "address_councildis": "B",
    "status": "Pending",
    "rowid": "967419",
    "final_x": "3679182.50933",
    "final_y": "522834.092603",
    "longitude": "-90.07568915396513",
    "latitude": "29.931682488155037",
    "geocoded_column": {
      "latitude": "29.931682488155037",
      "longitude": "-90.07568915396513"
    }
  },
  {
    "service_request": "2023-967417",
    "request_type": "Traffic Signals/Signs/Striping/Streetlights",
    "request_reason": "Street Light Outage/Malfunction",
    "date_created": "2023-01-16T14:07:32.000",
    "date_modified": "2023-01-16T14:09:14.000",
    "request_status": "Pending",
    "responsible_agency": "Department of Public Works",
    "final_address": "ST ANTHONY AVE & BURBANK DR",
    "address_councildis": "D",
    "status": "Assigned to Contractor",
    "contractor": "Legacy Professional Services",
    "rowid": "967417",
    "final_x": "3681999.5",
    "final_y": "554648.58",
    "longitude": "-90.06568512900988",
    "latitude": "30.019075955355113",
    "geocoded_column": {
      "latitude": "30.019075955355113",
      "longitude": "-90.06568512900988"
    }
  },
  {
    "service_request": "2023-967416",
    "request_type": "Traffic Signals/Signs/Striping/Streetlights",
    "request_reason": "Street Name Sign Damaged or Missing",
    "date_created": "2023-01-16T14:03:10.000",
    "date_modified": "2023-01-16T14:03:10.000",
    "request_status": "Pending",
    "responsible_agency": "Department of Public Works",
    "final_address": "5800 BLK Willow St",
    "address_councildis": "A",
    "status": "Pending",
    "rowid": "967416",
    "final_x": "3667029.60882",
    "final_y": "525597.640193",
    "longitude": "-90.11396178160267",
    "latitude": "29.93964253657379",
    "geocoded_column": {
      "latitude": "29.93964253657379",
      "longitude": "-90.11396178160267"
    }
  },
  {
    "service_request": "2023-967415",
    "request_type": "Mosquito, Termite & Rodent Control",
    "request_reason": "Mosquito Complaint",
    "date_created": "2023-01-16T14:02:31.000",
    "date_modified": "2023-01-16T14:02:32.000",
    "request_status": "Pending",
    "responsible_agency": "Mosquito, Termite & Rodent Control Board",
    "final_address": "2118 Robert St",
    "address_councildis": "B",
    "status": "Pending",
    "rowid": "967415",
    "final_x": "3668750.5193",
    "final_y": "523393.269435",
    "longitude": "-90.1086029987522",
    "latitude": "29.933530757489702",
    "geocoded_column": {
      "latitude": "29.933530757489702",
      "longitude": "-90.1086029987522"
    }
  },
  {
    "service_request": "2023-967414",
    "request_type": "Trash/Recycling",
    "request_reason": "Repair Trash Cart",
    "date_created": "2023-01-16T14:02:24.000",
    "date_modified": "2023-01-16T14:02:25.000",
    "request_status": "Pending",
    "responsible_agency": "Department of Sanitation",
    "final_address": "3435 Upperline St",
    "address_councildis": "B",
    "status": "Assigned to Contractor",
    "contractor": "Richards Disposal",
    "rowid": "967414",
    "final_x": "3669327.65684",
    "final_y": "527686.614655",
    "longitude": "-90.10663589884156",
    "latitude": "29.945319095464626",
    "geocoded_column": {
      "latitude": "29.945319095464626",
      "longitude": "-90.10663589884156"
    }
  },
  {
    "service_request": "2023-967413",
    "request_type": "Abandoned Vehicles",
    "request_reason": "Abandoned/Junk Vehicles",
    "date_created": "2023-01-16T14:01:18.000",
    "date_modified": "2023-01-16T14:01:18.000",
    "request_status": "Pending",
    "responsible_agency": "Department of Public Works",
    "final_address": "3605 Iberville St",
    "address_councildis": "B",
    "status": "Pending",
    "rowid": "967413",
    "final_x": "3672830.83028",
    "final_y": "537614.691912",
    "longitude": "-90.09523654648098",
    "latitude": "29.972514411751387",
    "geocoded_column": {
      "latitude": "29.972514411751387",
      "longitude": "-90.09523654648098"
    }
  },
  {
    "service_request": "2023-967412",
    "request_type": "Abandoned Vehicles",
    "request_reason": "Abandoned/Junk Vehicles",
    "date_created": "2023-01-16T13:56:14.000",
    "date_modified": "2023-01-16T13:56:14.000",
    "request_status": "Pending",
    "responsible_agency": "Department of Public Works",
    "final_address": "8900 Chef Menteur Hwy",
    "address_councildis": "E",
    "status": "Pending",
    "rowid": "967412",
    "final_x": "3708738.17854",
    "final_y": "553466.788823",
    "longitude": "-89.98124502200871",
    "latitude": "30.014986011624902",
    "geocoded_column": {
      "latitude": "30.014986011624902",
      "longitude": "-89.98124502200871"
    }
  },
  {
    "service_request": "2023-967411",
    "request_type": "Roads/Drainage",
    "request_reason": "Pothole",
    "date_created": "2023-01-16T13:55:04.000",
    "date_modified": "2023-01-16T13:55:04.000",
    "request_status": "Pending",
    "responsible_agency": "Department of Public Works",
    "final_address": "5421 Atlanta St",
    "address_councildis": "A",
    "status": "Pending",
    "rowid": "967411",
    "final_x": "3667057.83297",
    "final_y": "520942.398905",
    "longitude": "-90.11402906923749",
    "latitude": "29.92684128170721",
    "geocoded_column": {
      "latitude": "29.92684128170721",
      "longitude": "-90.11402906923749"
    }
  },
  {
    "service_request": "2023-967410",
    "request_type": "Property Maintenance",
    "request_reason": "Property Maintenance",
    "date_created": "2023-01-16T13:54:01.000",
    "date_modified": "2023-01-16T13:54:01.000",
    "request_status": "Pending",
    "responsible_agency": "Department of Code Enforcement",
    "final_address": "8542 Chef Menteur Hwy",
    "address_councildis": "E",
    "status": "Pending",
    "rowid": "967410",
    "final_x": "3707060.68638",
    "final_y": "553179.547799",
    "longitude": "-89.98655571832181",
    "latitude": "30.014250529980522",
    "geocoded_column": {
      "latitude": "30.014250529980522",
      "longitude": "-89.98655571832181"
    }
  },
  {
    "service_request": "2023-967409",
    "request_type": "Traffic Signals/Signs/Striping/Streetlights",
    "request_reason": "Traffic Sign Missing/Damaged",
    "date_created": "2023-01-16T13:48:08.000",
    "date_modified": "2023-01-16T13:48:08.000",
    "request_status": "Pending",
    "responsible_agency": "Department of Public Works",
    "final_address": "4543 Bundy Rd",
    "address_councildis": "E",
    "status": "Pending",
    "rowid": "967409",
    "final_x": "3709545.67109",
    "final_y": "554742.143896",
    "longitude": "-89.97864611538776",
    "latitude": "30.018466518418382",
    "geocoded_column": {
      "latitude": "30.018466518418382",
      "longitude": "-89.97864611538776"
    }
  },
  {
    "service_request": "2023-967408",
    "request_type": "Abandoned Vehicles",
    "request_reason": "Abandoned/Junk Vehicles",
    "date_created": "2023-01-16T13:46:11.000",
    "date_modified": "2023-01-16T13:46:11.000",
    "request_status": "Pending",
    "responsible_agency": "Department of Public Works",
    "final_address": "4759 Bundy Rd",
    "address_councildis": "E",
    "status": "Pending",
    "rowid": "967408",
    "final_x": "3709449.06993",
    "final_y": "555956.057561",
    "longitude": "-89.97890599955467",
    "latitude": "30.02180744770196",
    "geocoded_column": {
      "latitude": "30.02180744770196",
      "longitude": "-89.97890599955467"
    }
  },
  {
    "service_request": "2023-967407",
    "request_type": "Trash/Recycling",
    "request_reason": "Dead Animal Pick Up",
    "date_created": "2023-01-16T13:45:59.000",
    "date_modified": "2023-01-16T16:34:02.000",
    "request_status": "Pending",
    "responsible_agency": "Department of Sanitation",
    "final_address": "2110 Hope St",
    "address_councildis": "D",
    "status": "Assigned to Contractor",
    "contractor": "IV Waste",
    "rowid": "967407",
    "final_x": "3683534.32559",
    "final_y": "542064.65902",
    "longitude": "-90.06127702413762",
    "latitude": "29.984427918255683",
    "geocoded_column": {
      "latitude": "29.984427918255683",
      "longitude": "-90.06127702413762"
    }
  },
  {
    "service_request": "2023-967406",
    "request_type": "Traffic Signals/Signs/Striping/Streetlights",
    "request_reason": "Street Name Sign Damaged or Missing",
    "date_created": "2023-01-16T13:43:37.000",
    "date_modified": "2023-01-16T13:43:37.000",
    "request_status": "Pending",
    "responsible_agency": "Department of Public Works",
    "final_address": "5701 Crowder Blvd",
    "address_councildis": "E",
    "status": "Pending",
    "rowid": "967406",
    "final_x": "3705377.62999",
    "final_y": "558023.320475",
    "longitude": "-89.99169410197185",
    "latitude": "30.02762331816234",
    "geocoded_column": {
      "latitude": "30.02762331816234",
      "longitude": "-89.99169410197185"
    }
  },
  {
    "service_request": "2023-967405",
    "request_type": "Trash/Recycling",
    "request_reason": "Order Recycling Cart",
    "date_created": "2023-01-16T13:43:33.000",
    "date_modified": "2023-01-16T13:43:34.000",
    "request_status": "Pending",
    "responsible_agency": "Department of Sanitation",
    "final_address": "3447 Derby Pl",
    "address_councildis": "A",
    "status": "Pending",
    "rowid": "967405",
    "final_x": "3676921.38811",
    "final_y": "542987.678413",
    "longitude": "-90.08213253459247",
    "latitude": "29.987166105536755",
    "geocoded_column": {
      "latitude": "29.987166105536755",
      "longitude": "-90.08213253459247"
    }
  },
  {
    "service_request": "2023-967404",
    "request_type": "Traffic Signals/Signs/Striping/Streetlights",
    "request_reason": "Traffic Signal Malfunctioning/Damaged",
    "date_created": "2023-01-16T13:43:22.000",
    "date_modified": "2023-01-16T13:43:22.000",
    "request_status": "Pending",
    "responsible_agency": "Department of Public Works",
    "final_address": "2502 Napoleon Ave",
    "address_councildis": "B",
    "status": "Pending",
    "rowid": "967404",
    "final_x": "3670433.4635",
    "final_y": "524073.618044",
    "longitude": "-90.10326696541658",
    "latitude": "29.935351928277665",
    "geocoded_column": {
      "latitude": "29.935351928277665",
      "longitude": "-90.10326696541658"
    }
  },
  {
    "service_request": "2023-967402",
    "request_type": "Trash/Recycling",
    "request_reason": "Order Recycling Cart",
    "date_created": "2023-01-16T13:41:42.000",
    "date_modified": "2023-01-16T13:41:42.000",
    "request_status": "Pending",
    "responsible_agency": "Department of Sanitation",
    "final_address": "925 Tricou St",
    "address_councildis": "E",
    "status": "Pending",
    "rowid": "967402",
    "final_x": "3699934.96477",
    "final_y": "532473.944964",
    "longitude": "-90.00982492082633",
    "latitude": "29.957546087850684",
    "geocoded_column": {
      "latitude": "29.957546087850684",
      "longitude": "-90.00982492082633"
    }
  },
  {
    "service_request": "2023-967401",
    "request_type": "Trash/Recycling",
    "request_reason": "Replace Recycling Cart",
    "date_created": "2023-01-16T13:41:12.000",
    "date_modified": "2023-01-16T13:41:12.000",
    "request_status": "Pending",
    "responsible_agency": "Department of Sanitation",
    "final_address": "7111 St Charles Ave",
    "address_councildis": "A",
    "status": "Pending",
    "rowid": "967401",
    "final_x": "3663163.73927",
    "final_y": "524687.319292",
    "longitude": "-90.12619720234076",
    "latitude": "29.937251997355833",
    "geocoded_column": {
      "latitude": "29.937251997355833",
      "longitude": "-90.12619720234076"
    }
  },
  {
    "service_request": "2023-967400",
    "request_type": "Roads/Drainage",
    "request_reason": "Pothole",
    "date_created": "2023-01-16T13:40:50.000",
    "date_modified": "2023-01-16T13:40:50.000",
    "request_status": "Pending",
    "responsible_agency": "Department of Public Works",
    "final_address": "4338 St Charles Ave",
    "address_councildis": "B",
    "status": "Pending",
    "rowid": "967400",
    "final_x": "3670963.56865",
    "final_y": "520781.133241",
    "longitude": "-90.10170514397672",
    "latitude": "29.9262829943283",
    "geocoded_column": {
      "latitude": "29.9262829943283",
      "longitude": "-90.10170514397672"
    }
  },
  {
    "service_request": "2023-967399",
    "request_type": "Trash/Recycling",
    "request_reason": "Repair Trash Cart",
    "date_created": "2023-01-16T13:39:42.000",
    "date_modified": "2023-01-16T13:39:43.000",
    "request_status": "Pending",
    "responsible_agency": "Department of Sanitation",
    "final_address": "3119 Copernicus St",
    "address_councildis": "C",
    "status": "Assigned to Contractor",
    "contractor": "Richards Disposal",
    "rowid": "967399",
    "final_x": "3695586.26461",
    "final_y": "524132.2695",
    "longitude": "-90.02385778445365",
    "latitude": "29.93474677804699",
    "geocoded_column": {
      "latitude": "29.93474677804699",
      "longitude": "-90.02385778445365"
    }
  },
  {
    "service_request": "2023-967398",
    "request_type": "Trash/Recycling",
    "request_reason": "Replace Trash Cart",
    "date_created": "2023-01-16T13:39:10.000",
    "date_modified": "2023-01-16T13:39:11.000",
    "request_status": "Pending",
    "responsible_agency": "Department of Sanitation",
    "final_address": "2425 Broadway St",
    "address_councildis": "A",
    "status": "Assigned to Contractor",
    "contractor": "Richards Disposal",
    "rowid": "967398",
    "final_x": "3666781.75994",
    "final_y": "530275.902593",
    "longitude": "-90.11458718072015",
    "latitude": "29.95251349512726",
    "geocoded_column": {
      "latitude": "29.95251349512726",
      "longitude": "-90.11458718072015"
    }
  },
  {
    "service_request": "2023-967397",
    "request_type": "Trash/Recycling",
    "request_reason": "Request a Large Item Pick Up",
    "date_created": "2023-01-16T13:38:53.000",
    "date_modified": "2023-01-16T13:38:53.000",
    "request_status": "Pending",
    "responsible_agency": "Department of Sanitation",
    "final_address": "209 Morgan St",
    "address_councildis": "C",
    "status": "Assigned to Contractor",
    "contractor": "Richards Disposal",
    "rowid": "967397",
    "final_x": "3685834.12124",
    "final_y": "530865.192386",
    "longitude": "-90.05440783293689",
    "latitude": "29.953562880070354",
    "geocoded_column": {
      "latitude": "29.953562880070354",
      "longitude": "-90.05440783293689"
    }
  },
  {
    "service_request": "2023-967396",
    "request_type": "Trash/Recycling",
    "request_reason": "Replace Trash Cart",
    "date_created": "2023-01-16T13:38:34.000",
    "date_modified": "2023-01-16T13:38:35.000",
    "request_status": "Pending",
    "responsible_agency": "Department of Sanitation",
    "final_address": "2427 Broadway St",
    "address_councildis": "A",
    "status": "Assigned to Contractor",
    "contractor": "Richards Disposal",
    "rowid": "967396",
    "final_x": "3666789.24289",
    "final_y": "530296.809218",
    "longitude": "-90.11456285072418",
    "latitude": "29.952570762683276",
    "geocoded_column": {
      "latitude": "29.952570762683276",
      "longitude": "-90.11456285072418"
    }
  },
  {
    "service_request": "2023-967395",
    "request_type": "Trash/Recycling",
    "request_reason": "Request a Large Item Pick Up",
    "date_created": "2023-01-16T13:38:07.000",
    "date_modified": "2023-01-16T13:38:08.000",
    "request_status": "Pending",
    "responsible_agency": "Department of Sanitation",
    "final_address": "3650 Rue Nichole",
    "address_councildis": "C",
    "status": "Assigned to Contractor",
    "contractor": "Richards Disposal",
    "rowid": "967395",
    "final_x": "3704046.73495",
    "final_y": "517057.877941",
    "longitude": "-89.99740881125133",
    "latitude": "29.915026088785257",
    "geocoded_column": {
      "latitude": "29.915026088785257",
      "longitude": "-89.99740881125133"
    }
  },
  {
    "service_request": "2023-967394",
    "request_type": "Property Maintenance",
    "request_reason": "Property Maintenance",
    "date_created": "2023-01-16T13:37:33.000",
    "date_modified": "2023-01-16T13:37:33.000",
    "request_status": "Pending",
    "responsible_agency": "Department of Code Enforcement",
    "final_address": "4758 Bundy Rd",
    "address_councildis": "E",
    "status": "Pending",
    "rowid": "967394",
    "final_x": "3709251.28817",
    "final_y": "555931.779801",
    "longitude": "-89.97953183882387",
    "latitude": "30.021747120089312",
    "geocoded_column": {
      "latitude": "30.021747120089312",
      "longitude": "-89.97953183882387"
    }
  },
  {
    "service_request": "2023-967393",
    "request_type": "Trash/Recycling",
    "request_reason": "Order Trash Cart",
    "date_created": "2023-01-16T13:34:41.000",
    "date_modified": "2023-01-16T13:34:42.000",
    "request_status": "Pending",
    "responsible_agency": "Department of Sanitation",
    "final_address": "1565 N Tonti St",
    "address_councildis": "D",
    "status": "Assigned to Contractor",
    "contractor": "IV Waste",
    "rowid": "967393",
    "final_x": "3680087.24379",
    "final_y": "539186.80385",
    "longitude": "-90.07226486052815",
    "latitude": "29.97661959023316",
    "geocoded_column": {
      "latitude": "29.97661959023316",
      "longitude": "-90.07226486052815"
    }
  },
  {
    "service_request": "2023-967392",
    "request_type": "Trash/Recycling",
    "request_reason": "Request a Large Item Pick Up",
    "date_created": "2023-01-16T13:32:01.000",
    "date_modified": "2023-01-16T16:06:33.000",
    "case_close_date": "2023-01-16T10:06:33.000",
    "request_status": "Closed",
    "responsible_agency": "Department of Sanitation",
    "final_address": "15 Christopher Ct",
    "address_councildis": "E",
    "status": "Assigned to Contractor",
    "contractor": "Waste Pro",
    "contractor_action": "Completed",
    "rowid": "967392",
    "final_x": "3716824.24056",
    "final_y": "570601.843559",
    "longitude": "-89.9550460166337",
    "latitude": "30.061835642633227",
    "geocoded_column": {
      "latitude": "30.061835642633227",
      "longitude": "-89.9550460166337"
    }
  },
  {
    "service_request": "2023-967391",
    "request_type": "Property Maintenance",
    "request_reason": "Property Maintenance",
    "date_created": "2023-01-16T13:31:10.000",
    "date_modified": "2023-01-16T13:31:10.000",
    "request_status": "Pending",
    "responsible_agency": "Department of Code Enforcement",
    "final_address": "3122 Desaix Blvd",
    "address_councildis": "A",
    "status": "Pending",
    "rowid": "967391",
    "final_x": "3678918.73115",
    "final_y": "543441.432398",
    "longitude": "-90.0758079123691",
    "latitude": "29.988353649256137",
    "geocoded_column": {
      "latitude": "29.988353649256137",
      "longitude": "-90.0758079123691"
    }
  },
  {
    "service_request": "2023-967390",
    "request_type": "Roads/Drainage",
    "request_reason": "Street Subsidence (Sinking)",
    "date_created": "2023-01-16T13:20:15.000",
    "date_modified": "2023-01-16T13:20:15.000",
    "request_status": "Pending",
    "responsible_agency": "Department of Public Works",
    "final_address": "5232 St Bernard Ave",
    "address_councildis": "D",
    "status": "Pending",
    "rowid": "967390",
    "final_x": "3676625.16533",
    "final_y": "551366.516629",
    "longitude": "-90.08277935356156",
    "latitude": "30.010213848781504",
    "geocoded_column": {
      "latitude": "30.010213848781504",
      "longitude": "-90.08277935356156"
    }
  },
  {
    "service_request": "2023-967389",
    "request_type": "Traffic Signals/Signs/Striping/Streetlights",
    "request_reason": "Street Light Outage/Malfunction",
    "date_created": "2023-01-16T13:14:26.000",
    "date_modified": "2023-01-16T13:14:27.000",
    "request_status": "Pending",
    "responsible_agency": "Department of Public Works",
    "final_address": "1640 Poland Ave",
    "address_councildis": "D",
    "status": "Assigned to Contractor",
    "contractor": "Legacy Professional Services",
    "rowid": "967389",
    "final_x": "3693523.33366",
    "final_y": "537223.57908",
    "longitude": "-90.02990026297283",
    "latitude": "29.970807982645884",
    "geocoded_column": {
      "latitude": "29.970807982645884",
      "longitude": "-90.02990026297283"
    }
  },
  {
    "service_request": "2023-967388",
    "request_type": "Trash/Recycling",
    "request_reason": "Missed Trash Pick-Up",
    "date_created": "2023-01-16T13:11:26.000",
    "date_modified": "2023-01-16T15:15:18.000",
    "request_status": "Pending",
    "responsible_agency": "Department of Sanitation",
    "final_address": "5542 Marcia Ave",
    "address_councildis": "A",
    "status": "Assigned to Contractor",
    "contractor": "IV Waste",
    "rowid": "967388",
    "final_x": "3664751.3993",
    "final_y": "544647.403983",
    "longitude": "-90.12051785269273",
    "latitude": "29.992089577019623",
    "geocoded_column": {
      "latitude": "29.992089577019623",
      "longitude": "-90.12051785269273"
    }
  },
  {
    "service_request": "2023-967387",
    "request_type": "Taxi Issues",
    "request_reason": "Taxi Complaint",
    "date_created": "2023-01-16T13:11:25.000",
    "date_modified": "2023-01-16T13:11:26.000",
    "request_status": "Pending",
    "responsible_agency": "Ground Transportation Bureau",
    "status": "Pending",
    "rowid": "967387",
    "longitude": "0.0",
    "latitude": "0.0",
    "geocoded_column": {
      "latitude": "0.0",
      "longitude": "0.0"
    }
  },
  {
    "service_request": "2023-967386",
    "request_type": "Abandoned Vehicles",
    "request_reason": "Abandoned/Junk Vehicles",
    "date_created": "2023-01-16T13:05:34.000",
    "date_modified": "2023-01-16T13:05:35.000",
    "request_status": "Pending",
    "responsible_agency": "Department of Public Works",
    "final_address": "5128 Venus St",
    "address_councildis": "D",
    "status": "Pending",
    "rowid": "967386",
    "final_x": "3686311.06089",
    "final_y": "551799.906518",
    "longitude": "-90.0521627609675",
    "latitude": "30.011111290453147",
    "geocoded_column": {
      "latitude": "30.011111290453147",
      "longitude": "-90.0521627609675"
    }
  },
  {
    "service_request": "2023-967385",
    "request_type": "Abandoned Vehicles",
    "request_reason": "Abandoned/Junk Vehicles",
    "date_created": "2023-01-16T13:05:11.000",
    "date_modified": "2023-01-16T13:05:11.000",
    "request_status": "Pending",
    "responsible_agency": "Department of Public Works",
    "final_address": "3117 Floral Ln",
    "address_councildis": "C",
    "status": "Pending",
    "rowid": "967385",
    "final_x": "3695353.31274",
    "final_y": "523065.444347",
    "longitude": "-90.0246316723875",
    "latitude": "29.931820692417762",
    "geocoded_column": {
      "latitude": "29.931820692417762",
      "longitude": "-90.0246316723875"
    }
  },
  {
    "service_request": "2023-967384",
    "request_type": "Abandoned Vehicles",
    "request_reason": "Abandoned/Junk Vehicles",
    "date_created": "2023-01-16T13:02:12.000",
    "date_modified": "2023-01-16T13:02:12.000",
    "request_status": "Pending",
    "responsible_agency": "Department of Public Works",
    "final_address": "311 Diana St",
    "address_councildis": "C",
    "status": "Pending",
    "rowid": "967384",
    "final_x": "3686332.20713",
    "final_y": "527476.340095",
    "longitude": "-90.05295466052385",
    "latitude": "29.94422939486491",
    "geocoded_column": {
      "latitude": "29.94422939486491",
      "longitude": "-90.05295466052385"
    }
  },
  {
    "service_request": "2023-967381",
    "request_type": "Trash/Recycling",
    "request_reason": "Return Recycling Cart",
    "date_created": "2023-01-16T13:02:06.000",
    "date_modified": "2023-01-16T13:02:07.000",
    "case_close_date": "2022-08-28T19:00:00.000",
    "request_status": "Pending",
    "responsible_agency": "Department of Sanitation",
    "final_address": "98 E Park Pl",
    "address_councildis": "A",
    "status": "Pending",
    "rowid": "967381",
    "final_x": "3670221.81326",
    "final_y": "544545.277391",
    "longitude": "-90.10324133554637",
    "latitude": "29.991648420554714",
    "geocoded_column": {
      "latitude": "29.991648420554714",
      "longitude": "-90.10324133554637"
    }
  },
  {
    "service_request": "2023-967380",
    "request_type": "Traffic Signals/Signs/Striping/Streetlights",
    "request_reason": "Street Light Outage/Malfunction",
    "date_created": "2023-01-16T13:01:18.000",
    "date_modified": "2023-01-16T13:01:19.000",
    "request_status": "Pending",
    "responsible_agency": "Department of Public Works",
    "final_address": "8315 Nelson St",
    "address_councildis": "A",
    "status": "Assigned to Contractor",
    "contractor": "Legacy Professional Services",
    "rowid": "967380",
    "final_x": "3664507.14458",
    "final_y": "532454.888196",
    "longitude": "-90.12169666029291",
    "latitude": "29.95857132475643",
    "geocoded_column": {
      "latitude": "29.95857132475643",
      "longitude": "-90.12169666029291"
    }
  },
  {
    "service_request": "2023-967379",
    "request_type": "Roads/Drainage",
    "request_reason": "Street Subsidence (Sinking)",
    "date_created": "2023-01-16T13:00:06.000",
    "date_modified": "2023-01-16T13:00:06.000",
    "request_status": "Pending",
    "responsible_agency": "Department of Public Works",
    "final_address": "1640 Poland Ave",
    "address_councildis": "D",
    "status": "Pending",
    "rowid": "967379",
    "final_x": "3693523.33366",
    "final_y": "537223.57908",
    "longitude": "-90.02990026297283",
    "latitude": "29.970807982645884",
    "geocoded_column": {
      "latitude": "29.970807982645884",
      "longitude": "-90.02990026297283"
    }
  },
  {
    "service_request": "2023-967377",
    "request_type": "Abandoned Vehicles",
    "request_reason": "Abandoned/Junk Vehicles",
    "date_created": "2023-01-16T12:53:12.000",
    "date_modified": "2023-01-16T12:53:12.000",
    "request_status": "Pending",
    "responsible_agency": "Department of Public Works",
    "final_address": "1436 Josephine St",
    "address_councildis": "B",
    "status": "Pending",
    "rowid": "967377",
    "final_x": "3678328.17704",
    "final_y": "523342.823931",
    "longitude": "-90.07836859528354",
    "latitude": "29.93310708835733",
    "geocoded_column": {
      "latitude": "29.93310708835733",
      "longitude": "-90.07836859528354"
    }
  },
  {
    "service_request": "2023-967376",
    "request_type": "Trash/Recycling",
    "request_reason": "Repair Recycling Cart",
    "date_created": "2023-01-16T12:47:41.000",
    "date_modified": "2023-01-16T12:47:42.000",
    "request_status": "Pending",
    "responsible_agency": "Department of Sanitation",
    "final_address": "4544 Paris Ave",
    "address_councildis": "D",
    "status": "Pending",
    "rowid": "967376",
    "final_x": "3679243.9741",
    "final_y": "549473.980627",
    "longitude": "-90.07457124670493",
    "latitude": "30.004931204526166",
    "geocoded_column": {
      "latitude": "30.004931204526166",
      "longitude": "-90.07457124670493"
    }
  },
  {
    "service_request": "2023-967375",
    "request_type": "Trash/Recycling",
    "request_reason": "Replace Trash Cart",
    "date_created": "2023-01-16T12:44:27.000",
    "date_modified": "2023-01-16T12:44:29.000",
    "request_status": "Pending",
    "responsible_agency": "Department of Sanitation",
    "final_address": "1524 Governor Nicholls St",
    "address_councildis": "C",
    "status": "Assigned to Contractor",
    "contractor": "Richards Disposal",
    "rowid": "967375",
    "final_x": "3681290.06376",
    "final_y": "535800.592135",
    "longitude": "-90.06858403178167",
    "latitude": "29.967272223201693",
    "geocoded_column": {
      "latitude": "29.967272223201693",
      "longitude": "-90.06858403178167"
    }
  },
  {
    "service_request": "2023-967374",
    "request_type": "Trash/Recycling",
    "request_reason": "Replace Recycling Cart",
    "date_created": "2023-01-16T12:43:43.000",
    "date_modified": "2023-01-16T12:43:43.000",
    "request_status": "Pending",
    "responsible_agency": "Department of Sanitation",
    "final_address": "7535 Garfield St",
    "address_councildis": "A",
    "status": "Pending",
    "rowid": "967374",
    "final_x": "3660813.56678",
    "final_y": "524378.530492",
    "longitude": "-90.13362709167163",
    "latitude": "29.936470795261613",
    "geocoded_column": {
      "latitude": "29.936470795261613",
      "longitude": "-90.13362709167163"
    }
  },
  {
    "service_request": "2023-967373",
    "request_type": "Trash/Recycling",
    "request_reason": "Request a Large Item Pick Up",
    "date_created": "2023-01-16T12:41:06.000",
    "date_modified": "2023-01-16T15:16:31.000",
    "case_close_date": "2023-01-16T09:16:31.000",
    "request_status": "Closed",
    "responsible_agency": "Department of Sanitation",
    "final_address": "59 Winners Cir",
    "address_councildis": "E",
    "status": "Assigned to Contractor",
    "contractor": "Waste Pro",
    "contractor_action": "Completed",
    "rowid": "967373",
    "final_x": "3715991.0318",
    "final_y": "570330.147047",
    "longitude": "-89.95769007638843",
    "latitude": "30.061116121053015",
    "geocoded_column": {
      "latitude": "30.061116121053015",
      "longitude": "-89.95769007638843"
    }
  },
  {
    "service_request": "2023-967372",
    "request_type": "Trash/Recycling",
    "request_reason": "Replace Trash Cart",
    "date_created": "2023-01-16T12:38:22.000",
    "date_modified": "2023-01-16T12:38:23.000",
    "request_status": "Pending",
    "responsible_agency": "Department of Sanitation",
    "final_address": "1524 Governor Nicholls St",
    "address_councildis": "C",
    "status": "Assigned to Contractor",
    "contractor": "Richards Disposal",
    "rowid": "967372",
    "final_x": "3681290.06376",
    "final_y": "535800.592135",
    "longitude": "-90.06858403178167",
    "latitude": "29.967272223201693",
    "geocoded_column": {
      "latitude": "29.967272223201693",
      "longitude": "-90.06858403178167"
    }
  },
  {
    "service_request": "2023-967371",
    "request_type": "Roads/Drainage",
    "request_reason": "Accessibility Ramps, Curbs and Sidewalk Repair",
    "date_created": "2023-01-16T12:32:22.000",
    "date_modified": "2023-01-16T12:32:22.000",
    "request_status": "Pending",
    "responsible_agency": "Department of Public Works",
    "final_address": "3500 Bruxelles St",
    "address_councildis": "D",
    "status": "Pending",
    "rowid": "967371",
    "final_x": "3680083.04943",
    "final_y": "545218.471055",
    "longitude": "-90.0720684193865",
    "latitude": "29.9932046936387",
    "geocoded_column": {
      "latitude": "29.9932046936387",
      "longitude": "-90.0720684193865"
    }
  },
  {
    "service_request": "2023-967370",
    "request_type": "Trash/Recycling",
    "request_reason": "Request a Large Item Pick Up",
    "date_created": "2023-01-16T12:31:09.000",
    "date_modified": "2023-01-16T12:31:10.000",
    "request_status": "Pending",
    "responsible_agency": "Department of Sanitation",
    "final_address": "1223 St Roch Ave",
    "address_councildis": "C",
    "status": "Assigned to Contractor",
    "contractor": "IV Waste",
    "rowid": "967370",
    "final_x": "3686535.92214",
    "final_y": "536977.887304",
    "longitude": "-90.05197600596466",
    "latitude": "29.970349120093367",
    "geocoded_column": {
      "latitude": "29.970349120093367",
      "longitude": "-90.05197600596466"
    }
  },
  {
    "service_request": "2023-967369",
    "request_type": "Traffic Signals/Signs/Striping/Streetlights",
    "request_reason": "Street Light Outage/Malfunction",
    "date_created": "2023-01-16T12:30:43.000",
    "date_modified": "2023-01-16T12:30:44.000",
    "request_status": "Pending",
    "responsible_agency": "Department of Public Works",
    "final_address": "9231 Dwyer Rd",
    "address_councildis": "E",
    "status": "Assigned to Contractor",
    "contractor": "Legacy Professional Services",
    "rowid": "967369",
    "final_x": "3708816.47192",
    "final_y": "557154.104283",
    "longitude": "-89.98086014430784",
    "latitude": "30.025122153357977",
    "geocoded_column": {
      "latitude": "30.025122153357977",
      "longitude": "-89.98086014430784"
    }
  },
  {
    "service_request": "2023-967368",
    "request_type": "Trash/Recycling",
    "request_reason": "Order Recycling Cart",
    "date_created": "2023-01-16T12:26:15.000",
    "date_modified": "2023-01-16T12:26:15.000",
    "request_status": "Pending",
    "responsible_agency": "Department of Sanitation",
    "final_address": "11141 Lake Forest Blvd",
    "address_councildis": "E",
    "status": "Pending",
    "rowid": "967368",
    "final_x": "3715403.40427",
    "final_y": "561225.05379",
    "longitude": "-89.95989251492799",
    "latitude": "30.0361002148705",
    "geocoded_column": {
      "latitude": "30.0361002148705",
      "longitude": "-89.95989251492799"
    }
  },
  {
    "service_request": "2023-967367",
    "request_type": "Abandoned Vehicles",
    "request_reason": "Abandoned/Junk Vehicles",
    "date_created": "2023-01-16T12:24:49.000",
    "date_modified": "2023-01-16T12:29:49.000",
    "request_status": "Pending",
    "responsible_agency": "Department of Public Works",
    "final_address": "2400 BLK Gravier St",
    "address_councildis": "B",
    "status": "Pending",
    "rowid": "967367",
    "final_x": "3675063.42247",
    "final_y": "532801.581822",
    "longitude": "-90.0883507717693",
    "latitude": "29.95921346445692",
    "geocoded_column": {
      "latitude": "29.95921346445692",
      "longitude": "-90.0883507717693"
    }
  },
  {
    "service_request": "2023-967366",
    "request_type": "Trash/Recycling",
    "request_reason": "MIssed Recycling Pick-Up",
    "date_created": "2023-01-16T12:23:54.000",
    "date_modified": "2023-01-16T12:23:55.000",
    "request_status": "Pending",
    "responsible_agency": "Department of Sanitation",
    "final_address": "9020 Heaton St",
    "address_councildis": "A",
    "status": "Assigned to Contractor",
    "contractor": "Richards Disposal",
    "rowid": "967366",
    "final_x": "3666815.11156",
    "final_y": "538694.379081",
    "longitude": "-90.1141990504728",
    "latitude": "29.97566054890245",
    "geocoded_column": {
      "latitude": "29.97566054890245",
      "longitude": "-90.1141990504728"
    }
  },