[
  {
    "service_request": "2022-856375",
    "request_type": "Property Maintenance",
    "request_reason": "Property Maintenance",
    "date_created": "2022-01-24T23:49:46.000",
    "date_modified": "2022-01-24T23:49:46.000",
    "request_status": "Pending",
    "responsible_agency": "Department of Code Enforcement",
    "final_address": "6901 Bundy Rd",
    "address_councildis": "E",
    "status": "Pending",
    "rowid": "856375",
    "final_x": "3707837.15224",
    "final_y": "560896.339294",
    "longitude": "-89.98381534679261",
    "latitude": "30.035443576501855",
    "geocoded_column": {
      "latitude": "30.035443576501855",
      "longitude": "-89.98381534679261"
    }
  },
  {
    "service_request": "2022-856373",
    "request_type": "Trash/Recycling",
    "request_reason": "Request a Large Item Pick Up",
    "date_created": "2022-01-24T22:58:03.000",
    "date_modified": "2022-01-24T22:58:04.000",
    "request_status": "Pending",
    "responsible_agency": "Department of Sanitation",
    "final_address": "4011 Annunciation St",
    "address_councildis": "B",
    "status": "Assigned to Contractor",
    "contractor": "Richards Disposal",
    "rowid": "856373",
    "final_x": "3672516.46983",
    "final_y": "517919.600438",
    "longitude": "-90.09690053854774",
    "latitude": "29.918368705125175",
    "geocoded_column": {
      "latitude": "29.918368705125175",
      "longitude": "-90.09690053854774"
    }
  },
  {
    "service_request": "2022-856372",
    "request_type": "Traffic Signals/Signs/Striping/Streetlights",
    "request_reason": "Street Light Outage/Malfunction",
    "date_created": "2022-01-24T22:56:34.000",
    "date_modified": "2022-01-24T22:56:35.000",
    "request_status": "Pending",
    "responsible_agency": "Department of Public Works",
    "final_address": "4601 Donna Dr",
    "address_councildis": "E",
    "status": "Pending",
    "contractor": "Royal Engineering",
    "rowid": "856372",
    "final_x": "3711132.68734",
    "final_y": "555090.691865",
    "longitude": "-89.97361870754378",
    "latitude": "30.01937320307701",
    "geocoded_column": {
      "latitude": "30.01937320307701",
      "longitude": "-89.97361870754378"
    }
  },
  {
    "service_request": "2022-856371",
    "request_type": "Traffic Signals/Signs/Striping/Streetlights",
    "request_reason": "Street Light Outage/Malfunction",
    "date_created": "2022-01-24T22:44:12.000",
    "date_modified": "2022-01-24T22:44:13.000",
    "request_status": "Pending",
    "responsible_agency": "Department of Public Works",
    "final_address": "I 10 E ONRAMP & TURNAROUND",
    "address_councildis": "A",
    "status": "Pending",
    "contractor": "Royal Engineering",
    "rowid": "856371",
    "final_x": "3666835.37",
    "final_y": "541137.17",
    "longitude": "-90.11405297346674",
    "latitude": "29.982376809787134",
    "geocoded_column": {
      "latitude": "29.982376809787134",
      "longitude": "-90.11405297346674"
    }
  },
  {
    "service_request": "2022-856370",
    "request_type": "Trash/Recycling",
    "request_reason": "Missed Trash Pick-Up",
    "date_created": "2022-01-24T22:43:25.000",
    "date_modified": "2022-01-24T22:43:26.000",
    "request_status": "Pending",
    "responsible_agency": "Department of Sanitation",
    "final_address": "527 Sixth St",
    "address_councildis": "B",
    "status": "Assigned to Contractor",
    "contractor": "Richards Disposal",
    "rowid": "856370",
    "final_x": "3677681.4891",
    "final_y": "519002.452855",
    "longitude": "-90.080559955766",
    "latitude": "29.921191939599666",
    "geocoded_column": {
      "latitude": "29.921191939599666",
      "longitude": "-90.080559955766"
    }
  },
  {
    "service_request": "2022-856369",
    "request_type": "Trash/Recycling",
    "request_reason": "Replace Trash Cart",
    "date_created": "2022-01-24T22:40:57.000",
    "date_modified": "2022-01-24T22:40:58.000",
    "request_status": "Pending",
    "responsible_agency": "Department of Sanitation",
    "final_address": "527 Sixth St",
    "address_councildis": "B",
    "status": "Assigned to Contractor",
    "contractor": "Richards Disposal",
    "rowid": "856369",
    "final_x": "3677681.4891",
    "final_y": "519002.452855",
    "longitude": "-90.080559955766",
    "latitude": "29.921191939599666",
    "geocoded_column": {
      "latitude": "29.921191939599666",
      "longitude": "-90.080559955766"
    }
  },
  {
    "service_request": "2022-856368",
    "request_type": "Trash/Recycling",
    "request_reason": "Return Recycling Cart",
    "date_created": "2022-01-24T22:37:15.000",
    "date_modified": "2022-01-24T22:37:15.000",
    "request_status": "Pending",
    "responsible_agency": "Department of Sanitation",
    "final_address": "202 Maumus Ave",
    "address_councildis": "C",
    "status": "Pending",
    "rowid": "856368",
    "final_x": "3706092.49483",
    "final_y": "516839.690997",
    "longitude": "-89.99095977896191",
    "latitude": "29.914360408275105",
    "geocoded_column": {
      "latitude": "29.914360408275105",
      "longitude": "-89.99095977896191"
    }
  },
  {
    "service_request": "2022-856367",
    "request_type": "Trash/Recycling",
    "request_reason": "Replace Trash Cart",
    "date_created": "2022-01-24T22:35:15.000",
    "date_modified": "2022-01-24T22:35:16.000",
    "request_status": "Pending",
    "responsible_agency": "Department of Sanitation",
    "final_address": "418 River Oaks Dr",
    "address_councildis": "C",
    "status": "Assigned to Contractor",
    "contractor": "Richards Disposal",
    "rowid": "856367",
    "final_x": "3701596.04631",
    "final_y": "521860.471226",
    "longitude": "-90.00496827917213",
    "latitude": "29.928309906068748",
    "geocoded_column": {
      "latitude": "29.928309906068748",
      "longitude": "-90.00496827917213"
    }
  },
  {
    "service_request": "2022-856366",
    "request_type": "Trash/Recycling",
    "request_reason": "Replace Trash Cart",
    "date_created": "2022-01-24T22:35:13.000",
    "date_modified": "2022-01-24T22:35:13.000",
    "request_status": "Pending",
    "responsible_agency": "Department of Sanitation",
    "final_address": "418 River Oaks Dr",
    "address_councildis": "C",
    "status": "Assigned to Contractor",
    "contractor": "Richards Disposal",
    "rowid": "856366",
    "final_x": "3701596.04631",
    "final_y": "521860.471226",
    "longitude": "-90.00496827917213",
    "latitude": "29.928309906068748",
    "geocoded_column": {
      "latitude": "29.928309906068748",
      "longitude": "-90.00496827917213"
    }
  },
  {
    "service_request": "2022-856363",
    "request_type": "Property Maintenance",
    "request_reason": "Property Maintenance",
    "date_created": "2022-01-24T21:58:18.000",
    "date_modified": "2022-01-24T21:58:18.000",
    "request_status": "Pending",
    "responsible_agency": "Department of Code Enforcement",
    "final_address": "6500 Hayne Blvd",
    "address_councildis": "E",
    "status": "Pending",
    "rowid": "856363",
    "final_x": "3696612.29853",
    "final_y": "560577.78883",
    "longitude": "-90.01929916428138",
    "latitude": "30.034926411399354",
    "geocoded_column": {
      "latitude": "30.034926411399354",
      "longitude": "-90.01929916428138"
    }
  },
  {
    "service_request": "2022-856362",
    "request_type": "Trash/Recycling",
    "request_reason": "Replace Trash Cart",
    "date_created": "2022-01-24T21:52:09.000",
    "date_modified": "2022-01-24T21:52:10.000",
    "request_status": "Pending",
    "responsible_agency": "Department of Sanitation",
    "final_address": "5639 Milne St",
    "address_councildis": "A",
    "status": "Assigned to Contractor",
    "contractor": "Metro Disposal",
    "rowid": "856362",
    "final_x": "3666868.64513",
    "final_y": "545020.193359",
    "longitude": "-90.11381734294781",
    "latitude": "29.993052830773657",
    "geocoded_column": {
      "latitude": "29.993052830773657",
      "longitude": "-90.11381734294781"
    }
  },
  {
    "service_request": "2022-856361",
    "request_type": "Traffic Signals/Signs/Striping/Streetlights",
    "request_reason": "Street Name Sign Damaged or Missing",
    "date_created": "2022-01-24T21:33:22.000",
    "date_modified": "2022-01-24T21:33:22.000",
    "request_status": "Pending",
    "responsible_agency": "Department of Public Works",
    "final_address": "6900 Mayo Rd",
    "address_councildis": "E",
    "status": "Pending",
    "rowid": "856361",
    "final_x": "3701723.91517",
    "final_y": "558115.380699",
    "longitude": "-90.00323610444852",
    "latitude": "30.027993572562416",
    "geocoded_column": {
      "latitude": "30.027993572562416",
      "longitude": "-90.00323610444852"
    }
  },
  {
    "service_request": "2022-856360",
    "request_type": "Trash/Recycling",
    "request_reason": "Repair Trash Cart",
    "date_created": "2022-01-24T20:54:05.000",
    "date_modified": "2022-01-24T20:54:06.000",
    "request_status": "Pending",
    "responsible_agency": "Department of Sanitation",
    "final_address": "4711 Gabriel Dr",
    "address_councildis": "E",
    "status": "Assigned to Contractor",
    "contractor": "Metro Disposal",
    "rowid": "856360",
    "final_x": "3708969.75537",
    "final_y": "555536.927001",
    "longitude": "-89.98043613104295",
    "latitude": "30.020670571884907",
    "geocoded_column": {
      "latitude": "30.020670571884907",
      "longitude": "-89.98043613104295"
    }
  },
  {
    "service_request": "2022-856359",
    "request_type": "Property Maintenance",
    "request_reason": "Property Maintenance",
    "date_created": "2022-01-24T20:40:43.000",
    "date_modified": "2022-01-24T20:40:43.000",
    "request_status": "Pending",
    "responsible_agency": "Department of Code Enforcement",
    "final_address": "3442 S Liberty St",
    "address_councildis": "B",
    "status": "Pending",
    "rowid": "856359",
    "final_x": "3672926.46088",
    "final_y": "523592.880507",
    "longitude": "-90.095412947734",
    "latitude": "29.933956232441236",
    "geocoded_column": {
      "latitude": "29.933956232441236",
      "longitude": "-90.095412947734"
    }
  },
  {
    "service_request": "2022-856358",
    "request_type": "Abandoned Vehicles",
    "request_reason": "Vehicle Blocking Your Driveway",
    "date_created": "2022-01-24T20:31:00.000",
    "date_modified": "2022-01-24T20:31:00.000",
    "request_status": "Pending",
    "responsible_agency": "Department of Public Works",
    "final_address": "7318 Hampson St, New Orleans, Louisiana, 70118",
    "status": "Pending",
    "rowid": "856358",
    "longitude": "0.0",
    "latitude": "0.0",
    "geocoded_column": {
      "latitude": "0.0",
      "longitude": "0.0"
    }
  },
  {
    "service_request": "2022-856357",
    "request_type": "Trash/Recycling",
    "request_reason": "Order Trash Cart",
    "date_created": "2022-01-24T20:14:18.000",
    "date_modified": "2022-01-24T20:14:19.000",
    "request_status": "Pending",
    "responsible_agency": "Department of Sanitation",
    "final_address": "19 Rosa Park",
    "address_councildis": "A",
    "status": "Assigned to Contractor",
    "contractor": "Richards Disposal",
    "rowid": "856357",
    "final_x": "3666345.73869",
    "final_y": "522909.755963",
    "longitude": "-90.11621100193938",
    "latitude": "29.93227170642204",
    "geocoded_column": {
      "latitude": "29.93227170642204",
      "longitude": "-90.11621100193938"
    }
  },
  {
    "service_request": "2022-856356",
    "request_type": "Trash/Recycling",
    "request_reason": "Request a Large Item Pick Up",
    "date_created": "2022-01-24T19:55:47.000",
    "date_modified": "2022-01-24T19:55:49.000",
    "request_status": "Pending",
    "responsible_agency": "Department of Sanitation",
    "final_address": "6318 Barrett St, New Orleans, Louisiana, 70118",
    "address_councildis": "A",
    "status": "Assigned to Contractor",
    "contractor": "Richards Disposal",
    "rowid": "856356",
    "final_x": "3666421.29927",
    "final_y": "526964.480958",
    "longitude": "-90.11583645458713",
    "latitude": "29.943418695200247",
    "geocoded_column": {
      "latitude": "29.943418695200247",
      "longitude": "-90.11583645458713"
    }
  },
  {
    "service_request": "2022-856355",
    "request_type": "Abandoned Vehicles",
    "request_reason": "Abandoned/Junk Vehicles",
    "date_created": "2022-01-24T19:34:15.000",
    "date_modified": "2022-01-24T19:34:15.000",
    "request_status": "Pending",
    "responsible_agency": "Department of Public Works",
    "final_address": "2830 Magazine St",
    "address_councildis": "B",
    "status": "Pending",
    "rowid": "856355",
    "final_x": "3676927.87227",
    "final_y": "520662.437625",
    "longitude": "-90.08288160813291",
    "latitude": "29.92577899514352",
    "geocoded_column": {
      "latitude": "29.92577899514352",
      "longitude": "-90.08288160813291"
    }
  },
  {
    "service_request": "2022-856354",
    "request_type": "Trash/Recycling",
    "request_reason": "Order Trash Cart",
    "date_created": "2022-01-24T19:31:05.000",
    "date_modified": "2022-01-24T19:31:06.000",
    "request_status": "Pending",
    "responsible_agency": "Department of Sanitation",
    "final_address": "1913 N Robertson St",
    "address_councildis": "C",
    "status": "Assigned to Contractor",
    "contractor": "Metro Disposal",
    "rowid": "856354",
    "final_x": "3683888.19189",
    "final_y": "537722.809736",
    "longitude": "-90.0603116806403",
    "latitude": "29.97247854623437",
    "geocoded_column": {
      "latitude": "29.97247854623437",
      "longitude": "-90.0603116806403"
    }
  },
  {
    "service_request": "2022-856353",
    "request_type": "Abandoned Vehicles",
    "request_reason": "Abandoned/Junk Vehicles",
    "date_created": "2022-01-24T19:30:17.000",
    "date_modified": "2022-01-24T19:30:17.000",
    "request_status": "Pending",
    "responsible_agency": "Department of Public Works",
    "final_address": "2830 Magazine St",
    "address_councildis": "B",
    "status": "Pending",
    "rowid": "856353",
    "final_x": "3676927.87227",
    "final_y": "520662.437625",
    "longitude": "-90.08288160813291",
    "latitude": "29.92577899514352",
    "geocoded_column": {
      "latitude": "29.92577899514352",
      "longitude": "-90.08288160813291"
    }
  },
  {
    "service_request": "2022-856352",
    "request_type": "Abandoned Vehicles",
    "request_reason": "Abandoned/Junk Vehicles",
    "date_created": "2022-01-24T19:18:12.000",
    "date_modified": "2022-01-24T19:18:12.000",
    "request_status": "Pending",
    "responsible_agency": "Department of Public Works",
    "final_address": "532 Webster St",
    "address_councildis": "A",
    "status": "Pending",
    "rowid": "856352",
    "final_x": "3663823.4857",
    "final_y": "518726.607799",
    "longitude": "-90.12431289177701",
    "latitude": "29.920842789318897",
    "geocoded_column": {
      "latitude": "29.920842789318897",
      "longitude": "-90.12431289177701"
    }
  },
  {
    "service_request": "2022-856351",
    "request_type": "Traffic Signals/Signs/Striping/Streetlights",
    "request_reason": "Additional signage",
    "date_created": "2022-01-24T19:05:38.000",
    "date_modified": "2022-01-24T19:05:38.000",
    "request_status": "Pending",
    "responsible_agency": "Department of Public Works",
    "final_address": "4386 Lincoln St",
    "address_councildis": "C",
    "status": "Pending",
    "rowid": "856351",
    "final_x": "3710748.19013",
    "final_y": "513623.034034",
    "longitude": "-89.97638520600009",
    "latitude": "29.905364926068252",
    "geocoded_column": {
      "latitude": "29.905364926068252",
      "longitude": "-89.97638520600009"
    }
  },
  {
    "service_request": "2022-856350",
    "request_type": "Trash/Recycling",
    "request_reason": "Missed Trash Pick-Up",
    "date_created": "2022-01-24T18:53:25.000",
    "date_modified": "2022-01-24T18:53:25.000",
    "request_status": "Pending",
    "responsible_agency": "Department of Sanitation",
    "final_address": "700 BLK N Lopez St",
    "address_councildis": "A",
    "status": "Assigned to Contractor",
    "contractor": "Richards Disposal",
    "rowid": "856350",
    "final_x": "3675241.20001",
    "final_y": "538031.474578",
    "longitude": "-90.08760984943025",
    "latitude": "29.973588588776185",
    "geocoded_column": {
      "latitude": "29.973588588776185",
      "longitude": "-90.08760984943025"
    }
  },
  {
    "service_request": "2022-856349",
    "request_type": "Trash/Recycling",
    "request_reason": "Request a Large Item Pick Up",
    "date_created": "2022-01-24T18:51:31.000",
    "date_modified": "2022-01-24T18:51:32.000",
    "request_status": "Pending",
    "responsible_agency": "Department of Sanitation",
    "final_address": "3510 Post Oak Ave",
    "address_councildis": "C",
    "status": "Assigned to Contractor",
    "contractor": "Richards Disposal",
    "rowid": "856349",
    "final_x": "3703256.47978",
    "final_y": "514794.800115",
    "longitude": "-89.9999862420343",
    "latitude": "29.908828708913113",
    "geocoded_column": {
      "latitude": "29.908828708913113",
      "longitude": "-89.9999862420343"
    }
  },
  {
    "service_request": "2022-856348",
    "request_type": "Abandoned Vehicles",
    "request_reason": "Abandoned/Junk Vehicles",
    "date_created": "2022-01-24T18:46:12.000",
    "date_modified": "2022-01-24T18:46:12.000",
    "request_status": "Pending",
    "responsible_agency": "Department of Public Works",
    "final_address": "201 S Cortez St",
    "address_councildis": "A",
    "status": "Pending",
    "rowid": "856348",
    "final_x": "3671766.13755",
    "final_y": "537254.50676",
    "longitude": "-90.09861130132687",
    "latitude": "29.971555613681915",
    "geocoded_column": {
      "latitude": "29.971555613681915",
      "longitude": "-90.09861130132687"
    }
  },
  {
    "service_request": "2022-856347",
    "request_type": "Trash/Recycling",
    "request_reason": "Replace Trash Cart",
    "date_created": "2022-01-24T18:45:04.000",
    "date_modified": "2022-01-24T18:45:05.000",
    "request_status": "Pending",
    "responsible_agency": "Department of Sanitation",
    "final_address": "2015 Calhoun St",
    "address_councildis": "A",
    "status": "Assigned to Contractor",
    "contractor": "Richards Disposal",
    "rowid": "856347",
    "final_x": "3665612.03284",
    "final_y": "524546.792892",
    "longitude": "-90.11847245839458",
    "latitude": "29.936794446230707",
    "geocoded_column": {
      "latitude": "29.936794446230707",
      "longitude": "-90.11847245839458"
    }
  },
  {
    "service_request": "2022-856346",
    "request_type": "Trash/Recycling",
    "request_reason": "Illegal Dumping",
    "date_created": "2022-01-24T18:44:30.000",
    "date_modified": "2022-01-24T18:44:30.000",
    "request_status": "Pending",
    "responsible_agency": "Department of Sanitation",
    "final_address": "1914 Frenchmen St",
    "address_councildis": "D",
    "status": "Pending",
    "rowid": "856346",
    "final_x": "3684311.18236",
    "final_y": "539353.553098",
    "longitude": "-90.05891852307083",
    "latitude": "29.976949592910888",
    "geocoded_column": {
      "latitude": "29.976949592910888",
      "longitude": "-90.05891852307083"
    }
  },
  {
    "service_request": "2022-856345",
    "request_type": "Trash/Recycling",
    "request_reason": "Missed Trash Pick-Up",
    "date_created": "2022-01-24T18:43:35.000",
    "date_modified": "2022-01-24T18:43:36.000",
    "request_status": "Pending",
    "responsible_agency": "Department of Sanitation",
    "final_address": "2015 Calhoun St",
    "address_councildis": "A",
    "status": "Assigned to Contractor",
    "contractor": "Richards Disposal",
    "rowid": "856345",
    "final_x": "3665612.03284",
    "final_y": "524546.792892",
    "longitude": "-90.11847245839458",
    "latitude": "29.936794446230707",
    "geocoded_column": {
      "latitude": "29.936794446230707",
      "longitude": "-90.11847245839458"
    }
  },
  {
    "service_request": "2022-856344",
    "request_type": "COVID-19",
    "request_reason": "COVID-19 Business Non-Compliance",
    "date_created": "2022-01-24T18:43:18.000",
    "date_modified": "2022-01-24T18:43:19.000",
    "request_status": "Pending",
    "responsible_agency": "Safety and Permits",
    "final_address": "1901 Tchoupitoulas St",
    "address_councildis": "B",
    "status": "Pending",
    "rowid": "856344",
    "final_x": "3681231.14696",
    "final_y": "520379.060984",
    "longitude": "-90.06930733758496",
    "latitude": "29.924869972069214",
    "geocoded_column": {
      "latitude": "29.924869972069214",
      "longitude": "-90.06930733758496"
    }
  },
  {
    "service_request": "2022-856343",
    "request_type": "Abandoned Vehicles",
    "request_reason": "Vehicle Blocking Your Driveway",
    "date_created": "2022-01-24T18:42:22.000",
    "date_modified": "2022-01-24T18:42:22.000",
    "request_status": "Pending",
    "responsible_agency": "Department of Public Works",
    "final_address": "201 S Cortez St",
    "address_councildis": "A",
    "status": "Pending",
    "rowid": "856343",
    "final_x": "3671766.13755",
    "final_y": "537254.50676",
    "longitude": "-90.09861130132687",
    "latitude": "29.971555613681915",
    "geocoded_column": {
      "latitude": "29.971555613681915",
      "longitude": "-90.09861130132687"
    }
  },
  {
    "service_request": "2022-856342",
    "request_type": "Abandoned Vehicles",
    "request_reason": "Abandoned/Junk Vehicles",
    "date_created": "2022-01-24T18:40:09.000",
    "date_modified": "2022-01-24T18:40:09.000",
    "request_status": "Pending",
    "responsible_agency": "Department of Public Works",
    "final_address": "1639 Feliciana St",
    "address_councildis": "D",
    "status": "Pending",
    "rowid": "856342",
    "final_x": "3689320.42915",
    "final_y": "538265.967369",
    "longitude": "-90.04313645016357",
    "latitude": "29.9738049734085",
    "geocoded_column": {
      "latitude": "29.9738049734085",
      "longitude": "-90.04313645016357"
    }
  },
  {
    "service_request": "2022-856341",
    "request_type": "Abandoned Vehicles",
    "request_reason": "Abandoned/Junk Vehicles",
    "date_created": "2022-01-24T18:37:29.000",
    "date_modified": "2022-01-24T18:37:29.000",
    "request_status": "Pending",
    "responsible_agency": "Department of Public Works",
    "final_address": "1719 St Ann St",
    "address_councildis": "D",
    "status": "Pending",
    "rowid": "856341",
    "final_x": "3679835.70639",
    "final_y": "535060.856198",
    "longitude": "-90.0732026008287",
    "latitude": "29.965282261903386",
    "geocoded_column": {
      "latitude": "29.965282261903386",
      "longitude": "-90.0732026008287"
    }
  },
  {
    "service_request": "2022-856340",
    "request_type": "Trash/Recycling",
    "request_reason": "MIssed Recycling Pick-Up",
    "date_created": "2022-01-24T18:27:31.000",
    "date_modified": "2022-01-24T18:27:32.000",
    "request_status": "Pending",
    "responsible_agency": "Department of Sanitation",
    "final_address": "616 Delaronde St",
    "address_councildis": "C",
    "status": "Assigned to Contractor",
    "contractor": "Richards Disposal",
    "rowid": "856340",
    "final_x": "3687372.21244",
    "final_y": "531236.979714",
    "longitude": "-90.04953804812723",
    "latitude": "29.954537873504975",
    "geocoded_column": {
      "latitude": "29.954537873504975",
      "longitude": "-90.04953804812723"
    }
  },
  {
    "service_request": "2022-856339",
    "request_type": "Traffic Signals/Signs/Striping/Streetlights",
    "request_reason": "Street Light Outage/Malfunction",
    "date_created": "2022-01-24T18:21:06.000",
    "date_modified": "2022-01-24T18:21:07.000",
    "request_status": "Pending",
    "responsible_agency": "Department of Public Works",
    "final_address": "650 Poydras St",
    "address_councildis": "B",
    "status": "Pending",
    "contractor": "Royal Engineering",
    "rowid": "856339",
    "final_x": "3680812.92642",
    "final_y": "529260.434689",
    "longitude": "-90.07031849656484",
    "latitude": "29.949303483725547",
    "geocoded_column": {
      "latitude": "29.949303483725547",
      "longitude": "-90.07031849656484"
    }
  },
  {
    "service_request": "2022-856338",
    "request_type": "Traffic Signals/Signs/Striping/Streetlights",
    "request_reason": "Street Light Outage/Malfunction",
    "date_created": "2022-01-24T18:21:04.000",
    "date_modified": "2022-01-24T18:21:05.000",
    "request_status": "Pending",
    "responsible_agency": "Department of Public Works",
    "final_address": "650 Poydras St",
    "address_councildis": "B",
    "status": "Pending",
    "contractor": "Royal Engineering",
    "rowid": "856338",
    "final_x": "3680812.92642",
    "final_y": "529260.434689",
    "longitude": "-90.07031849656484",
    "latitude": "29.949303483725547",
    "geocoded_column": {
      "latitude": "29.949303483725547",
      "longitude": "-90.07031849656484"
    }
  },
  {
    "service_request": "2022-856335",
    "request_type": "Traffic Signals/Signs/Striping/Streetlights",
    "request_reason": "Street Light Outage/Malfunction",
    "date_created": "2022-01-24T18:04:36.000",
    "date_modified": "2022-01-24T18:04:37.000",
    "request_status": "Pending",
    "responsible_agency": "Department of Public Works",
    "final_address": "8620 Pritchard Pl",
    "address_councildis": "A",
    "status": "Pending",
    "contractor": "Royal Engineering",
    "rowid": "856335",
    "final_x": "3664580.89114",
    "final_y": "534184.945413",
    "longitude": "-90.12140600543316",
    "latitude": "29.963326271385117",
    "geocoded_column": {
      "latitude": "29.963326271385117",
      "longitude": "-90.12140600543316"
    }
  },
  {
    "service_request": "2022-856334",
    "request_type": "Trash/Recycling",
    "request_reason": "Order Recycling Cart",
    "date_created": "2022-01-24T17:41:34.000",
    "date_modified": "2022-01-24T17:41:34.000",
    "request_status": "Pending",
    "responsible_agency": "Department of Sanitation",
    "final_address": "6875 West End Blvd",
    "address_councildis": "A",
    "status": "Pending",
    "rowid": "856334",
    "final_x": "3666872.39405",
    "final_y": "553398.758295",
    "longitude": "-90.11352375056856",
    "latitude": "30.0160908681702",
    "geocoded_column": {
      "latitude": "30.0160908681702",
      "longitude": "-90.11352375056856"
    }
  },
  {
    "service_request": "2022-856333",
    "request_type": "Trash/Recycling",
    "request_reason": "Request a Large Item Pick Up",
    "date_created": "2022-01-24T17:36:04.000",
    "date_modified": "2022-01-24T17:36:05.000",
    "request_status": "Pending",
    "responsible_agency": "Department of Sanitation",
    "final_address": "304 River Oaks Dr",
    "address_councildis": "C",
    "status": "Assigned to Contractor",
    "contractor": "Richards Disposal",
    "rowid": "856333",
    "final_x": "3701628.88829",
    "final_y": "522687.721082",
    "longitude": "-90.00483432769673",
    "latitude": "29.93058350947907",
    "geocoded_column": {
      "latitude": "29.93058350947907",
      "longitude": "-90.00483432769673"
    }
  },
  {
    "service_request": "2022-856332",
    "request_type": "Mosquito, Termite & Rodent Control",
    "request_reason": "Non-Rodent Complaint (Mice, Possums, Snakes)",
    "date_created": "2022-01-24T17:31:56.000",
    "date_modified": "2022-01-24T17:31:57.000",
    "request_status": "Pending",
    "responsible_agency": "Mosquito, Termite & Rodent Control Board",
    "final_address": "2928 Dublin St",
    "address_councildis": "A",
    "status": "Pending",
    "rowid": "856332",
    "final_x": "3665957.37255",
    "final_y": "533339.25978",
    "longitude": "-90.117087561342",
    "latitude": "29.96096081069353",
    "geocoded_column": {
      "latitude": "29.96096081069353",
      "longitude": "-90.117087561342"
    }
  },
  {
    "service_request": "2022-856331",
    "request_type": "COVID-19",
    "request_reason": "COVID-19 Business Non-Compliance",
    "date_created": "2022-01-24T17:23:56.000",
    "date_modified": "2022-01-24T17:23:57.000",
    "request_status": "Pending",
    "responsible_agency": "Safety and Permits",
    "final_address": "6221 S Claiborne Ave",
    "address_councildis": "A",
    "status": "Pending",
    "rowid": "856331",
    "final_x": "3667289.30106",
    "final_y": "528026.216383",
    "longitude": "-90.11306024012379",
    "latitude": "29.94631273598836",
    "geocoded_column": {
      "latitude": "29.94631273598836",
      "longitude": "-90.11306024012379"
    }
  },
  {
    "service_request": "2022-856330",
    "request_type": "Property Maintenance",
    "request_reason": "Property Maintenance",
    "date_created": "2022-01-24T17:20:43.000",
    "date_modified": "2022-01-24T17:20:43.000",
    "request_status": "Pending",
    "responsible_agency": "Department of Code Enforcement",
    "final_address": "4860 Gilbert St",
    "address_councildis": "E",
    "status": "Pending",
    "rowid": "856330",
    "final_x": "3729448.49082",
    "final_y": "562336.711519",
    "longitude": "-89.91546458631157",
    "latitude": "30.03868643700531",
    "geocoded_column": {
      "latitude": "30.03868643700531",
      "longitude": "-89.91546458631157"
    }
  },
  {
    "service_request": "2022-856328",
    "request_type": "Trash/Recycling",
    "request_reason": "MIssed Recycling Pick-Up",
    "date_created": "2022-01-24T17:13:16.000",
    "date_modified": "2022-01-24T17:13:17.000",
    "request_status": "Pending",
    "responsible_agency": "Department of Sanitation",
    "final_address": "1028 Eliza St",
    "address_councildis": "C",
    "status": "Assigned to Contractor",
    "contractor": "Richards Disposal",
    "rowid": "856328",
    "final_x": "3688665.68547",
    "final_y": "529935.045377",
    "longitude": "-90.04549998140911",
    "latitude": "29.95091809049814",
    "geocoded_column": {
      "latitude": "29.95091809049814",
      "longitude": "-90.04549998140911"
    }
  },
  {
    "service_request": "2022-856325",
    "request_type": "Traffic Signals/Signs/Striping/Streetlights",
    "request_reason": "Street Light Outage/Malfunction",
    "date_created": "2022-01-24T16:56:00.000",
    "date_modified": "2022-01-24T16:56:01.000",
    "case_close_date": "2021-08-15T19:00:00.000",
    "request_status": "Pending",
    "responsible_agency": "Department of Public Works",
    "final_address": "2231 Marengo St",
    "address_councildis": "B",
    "status": "Pending",
    "contractor": "Royal Engineering",
    "rowid": "856325",
    "final_x": "3671776.10043",
    "final_y": "523363.401723",
    "longitude": "-90.09905239975981",
    "latitude": "29.933359362785552",
    "geocoded_column": {
      "latitude": "29.933359362785552",
      "longitude": "-90.09905239975981"
    }
  },
  {
    "service_request": "2022-856324",
    "request_type": "Law Enforcement Services",
    "request_reason": "Off Duty Officer for Hire",
    "date_created": "2022-01-24T16:53:58.000",
    "date_modified": "2022-01-24T16:53:58.000",
    "request_status": "Pending",
    "responsible_agency": "Office of Police Secondary Employment",
    "final_address": "921 St Louis St",
    "address_councildis": "C",
    "status": "Pending",
    "rowid": "856324",
    "final_x": "3681393.12124",
    "final_y": "532435.578435",
    "longitude": "-90.06837588985634",
    "latitude": "29.95801645733983",
    "geocoded_column": {
      "latitude": "29.95801645733983",
      "longitude": "-90.06837588985634"
    }
  },
  {
    "service_request": "2022-856323",
    "request_type": "Trash/Recycling",
    "request_reason": "Replace Trash Cart",
    "date_created": "2022-01-24T16:53:08.000",
    "date_modified": "2022-01-24T16:53:09.000",
    "request_status": "Pending",
    "responsible_agency": "Department of Sanitation",
    "final_address": "436 S Murat St",
    "address_councildis": "A",
    "status": "Assigned to Contractor",
    "contractor": "Richards Disposal",
    "rowid": "856323",
    "final_x": "3668801.84846",
    "final_y": "538131.468873",
    "longitude": "-90.10794337591298",
    "latitude": "29.974054462710484",
    "geocoded_column": {
      "latitude": "29.974054462710484",
      "longitude": "-90.10794337591298"
    }
  },
  {
    "service_request": "2022-856322",
    "request_type": "Trash/Recycling",
    "request_reason": "Request a Large Item Pick Up",
    "date_created": "2022-01-24T16:45:44.000",
    "date_modified": "2022-01-24T16:45:45.000",
    "request_status": "Pending",
    "responsible_agency": "Department of Sanitation",
    "final_address": "643 Dauphine St",
    "address_councildis": "C",
    "status": "Assigned to Contractor",
    "contractor": "Empire Services",
    "rowid": "856322",
    "final_x": "3681919.52482",
    "final_y": "532871.774276",
    "longitude": "-90.06669843041787",
    "latitude": "29.959199857817435",
    "geocoded_column": {
      "latitude": "29.959199857817435",
      "longitude": "-90.06669843041787"
    }
  },
  {
    "service_request": "2022-856321",
    "request_type": "Trash/Recycling",
    "request_reason": "Start Trash Service",
    "date_created": "2022-01-24T16:41:29.000",
    "date_modified": "2022-01-24T16:41:30.000",
    "request_status": "Pending",
    "responsible_agency": "Department of Sanitation",
    "final_address": "1602 Louisa St",
    "address_councildis": "D",
    "status": "Assigned to Contractor",
    "contractor": "Metro Disposal",
    "rowid": "856321",
    "final_x": "3689981.62524",
    "final_y": "537793.443784",
    "longitude": "-90.04106508516423",
    "latitude": "29.97248521281114",
    "geocoded_column": {
      "latitude": "29.97248521281114",
      "longitude": "-90.04106508516423"
    }
  },
  {
    "service_request": "2022-856320",
    "request_type": "Trash/Recycling",
    "request_reason": "Order Trash Cart",
    "date_created": "2022-01-24T16:41:13.000",
    "date_modified": "2022-01-24T16:41:14.000",
    "request_status": "Pending",
    "responsible_agency": "Department of Sanitation",
    "final_address": "1602 Louisa St",
    "address_councildis": "D",
    "status": "Assigned to Contractor",
    "contractor": "Metro Disposal",
    "rowid": "856320",
    "final_x": "3689981.62524",
    "final_y": "537793.443784",
    "longitude": "-90.04106508516423",
    "latitude": "29.97248521281114",
    "geocoded_column": {
      "latitude": "29.97248521281114",
      "longitude": "-90.04106508516423"
    }
  },
  {
    "service_request": "2022-856319",
    "request_type": "Traffic Signals/Signs/Striping/Streetlights",
    "request_reason": "Traffic Signal Malfunctioning/Damaged",
    "date_created": "2022-01-24T16:34:26.000",
    "date_modified": "2022-01-24T16:34:26.000",
    "request_status": "Pending",
    "responsible_agency": "Department of Public Works",
    "final_address": "2730 S Broad St",
    "address_councildis": "B",
    "status": "Pending",
    "rowid": "856319",
    "final_x": "3671325.76385",
    "final_y": "529719.776321",
    "longitude": "-90.10025814431067",
    "latitude": "29.95085065392682",
    "geocoded_column": {
      "latitude": "29.95085065392682",
      "longitude": "-90.10025814431067"
    }
  },
  {
    "service_request": "2022-856318",
    "request_type": "Trash/Recycling",
    "request_reason": "Order Recycling Cart",
    "date_created": "2022-01-24T16:18:10.000",
    "date_modified": "2022-01-24T16:18:11.000",
    "request_status": "Pending",
    "responsible_agency": "Department of Sanitation",
    "final_address": "2219 Vienna St",
    "address_councildis": "D",
    "status": "Pending",
    "rowid": "856318",
    "final_x": "3683730.24994",
    "final_y": "555065.636121",
    "longitude": "-90.06020192600596",
    "latitude": "30.020169944693258",
    "geocoded_column": {
      "latitude": "30.020169944693258",
      "longitude": "-90.06020192600596"
    }
  },
  {
    "service_request": "2022-856317",
    "request_type": "Abandoned Vehicles",
    "request_reason": "Abandoned/Junk Vehicles",
    "date_created": "2022-01-24T16:17:16.000",
    "date_modified": "2022-01-24T16:17:16.000",
    "request_status": "Pending",
    "responsible_agency": "Department of Public Works",
    "final_address": "2700 BLK Saint Philip St",
    "address_councildis": "A",
    "status": "Pending",
    "rowid": "856317",
    "final_x": "3677158.45405",
    "final_y": "538036.602192",
    "longitude": "-90.08155457312513",
    "latitude": "29.973545235339383",
    "geocoded_column": {
      "latitude": "29.973545235339383",
      "longitude": "-90.08155457312513"
    }
  },
  {
    "service_request": "2022-856316",
    "request_type": "Trash/Recycling",
    "request_reason": "Request a Large Item Pick Up",
    "date_created": "2022-01-24T16:17:04.000",
    "date_modified": "2022-01-24T16:17:05.000",
    "request_status": "Pending",
    "responsible_agency": "Department of Sanitation",
    "final_address": "2322 State St",
    "address_councildis": "A",
    "status": "Assigned to Contractor",
    "contractor": "Richards Disposal",
    "rowid": "856316",
    "final_x": "3666574.43226",
    "final_y": "525254.130877",
    "longitude": "-90.11541036971003",
    "latitude": "29.938711307299418",
    "geocoded_column": {
      "latitude": "29.938711307299418",
      "longitude": "-90.11541036971003"
    }
  },
  {
    "service_request": "2022-856315",
    "request_type": "Traffic Signals/Signs/Striping/Streetlights",
    "request_reason": "Traffic Signal Malfunctioning/Damaged",
    "date_created": "2022-01-24T16:16:20.000",
    "date_modified": "2022-01-24T16:16:20.000",
    "request_status": "Pending",
    "responsible_agency": "Department of Public Works",
    "final_address": "JACKSON AVE & PRYTANIA ST",
    "address_councildis": "B",
    "status": "Pending",
    "rowid": "856315",
    "final_x": "3677946.4",
    "final_y": "523292.38",
    "longitude": "-90.07957558223018",
    "latitude": "29.93297987591418",
    "geocoded_column": {
      "latitude": "29.93297987591418",
      "longitude": "-90.07957558223018"
    }
  },
  {
    "service_request": "2022-856314",
    "request_type": "Trash/Recycling",
    "request_reason": "Order Recycling Cart",
    "date_created": "2022-01-24T16:14:22.000",
    "date_modified": "2022-01-24T16:14:23.000",
    "request_status": "Pending",
    "responsible_agency": "Department of Sanitation",
    "final_address": "2306 Columbus St",
    "address_councildis": "D",
    "status": "Pending",
    "contractor": "Metro Disposal",
    "rowid": "856314",
    "final_x": "3679646.28175",
    "final_y": "538675.240777",
    "longitude": "-90.07367531607699",
    "latitude": "29.975226305418918",
    "geocoded_column": {
      "latitude": "29.975226305418918",
      "longitude": "-90.07367531607699"
    }
  },
  {
    "service_request": "2022-856313",
    "request_type": "Roads/Drainage",
    "request_reason": "Damaged Sidewalk",
    "date_created": "2022-01-24T16:13:28.000",
    "date_modified": "2022-01-24T16:13:28.000",
    "request_status": "Pending",
    "responsible_agency": "Department of Public Works",
    "final_address": "938 Philip St",
    "address_councildis": "B",
    "status": "Pending",
    "rowid": "856313",
    "final_x": "3678767.15829",
    "final_y": "521495.524857",
    "longitude": "-90.07704670045364",
    "latitude": "29.92801439352753",
    "geocoded_column": {
      "latitude": "29.92801439352753",
      "longitude": "-90.07704670045364"
    }
  },
  {
    "service_request": "2022-856312",
    "request_type": "Trash/Recycling",
    "request_reason": "Request a Large Item Pick Up",
    "date_created": "2022-01-24T16:13:03.000",
    "date_modified": "2022-01-24T16:13:04.000",
    "request_status": "Pending",
    "responsible_agency": "Department of Sanitation",
    "final_address": "2306 Columbus St",
    "address_councildis": "D",
    "status": "Assigned to Contractor",
    "contractor": "Metro Disposal",
    "rowid": "856312",
    "final_x": "3679646.28175",
    "final_y": "538675.240777",
    "longitude": "-90.07367531607699",
    "latitude": "29.975226305418918",
    "geocoded_column": {
      "latitude": "29.975226305418918",
      "longitude": "-90.07367531607699"
    }
  },
  {
    "service_request": "2022-856311",
    "request_type": "Trash/Recycling",
    "request_reason": "Order Recycling Cart",
    "date_created": "2022-01-24T16:11:05.000",
    "date_modified": "2022-01-24T16:11:05.000",
    "request_status": "Pending",
    "responsible_agency": "Department of Sanitation",
    "final_address": "1534 Aline St",
    "address_councildis": "B",
    "status": "Pending",
    "rowid": "856311",
    "final_x": "3673789.67848",
    "final_y": "521131.467641",
    "longitude": "-90.09277193050247",
    "latitude": "29.927162471789774",
    "geocoded_column": {
      "latitude": "29.927162471789774",
      "longitude": "-90.09277193050247"
    }
  },
  {
    "service_request": "2022-856310",
    "request_type": "Trash/Recycling",
    "request_reason": "Start Trash Service",
    "date_created": "2022-01-24T16:10:09.000",
    "date_modified": "2022-01-24T16:10:10.000",
    "request_status": "Pending",
    "responsible_agency": "Department of Sanitation",
    "final_address": "740 Desire St",
    "address_councildis": "C",
    "status": "Assigned to Contractor",
    "contractor": "Metro Disposal",
    "rowid": "856310",
    "final_x": "3689863.42832",
    "final_y": "534536.963845",
    "longitude": "-90.04155431488205",
    "latitude": "29.96353470086461",
    "geocoded_column": {
      "latitude": "29.96353470086461",
      "longitude": "-90.04155431488205"
    }
  },
  {
    "service_request": "2022-856309",
    "request_type": "Trash/Recycling",
    "request_reason": "Order Trash Cart",
    "date_created": "2022-01-24T16:09:56.000",
    "date_modified": "2022-01-24T16:09:57.000",
    "request_status": "Pending",
    "responsible_agency": "Department of Sanitation",
    "final_address": "740 Desire St",
    "address_councildis": "C",
    "status": "Assigned to Contractor",
    "contractor": "Metro Disposal",
    "rowid": "856309",
    "final_x": "3689863.42832",
    "final_y": "534536.963845",
    "longitude": "-90.04155431488205",
    "latitude": "29.96353470086461",
    "geocoded_column": {
      "latitude": "29.96353470086461",
      "longitude": "-90.04155431488205"
    }
  },
  {
    "service_request": "2022-856308",
    "request_type": "Trash/Recycling",
    "request_reason": "Order Recycling Cart",
    "date_created": "2022-01-24T16:09:43.000",
    "date_modified": "2022-01-24T16:09:43.000",
    "request_status": "Pending",
    "responsible_agency": "Department of Sanitation",
    "final_address": "740 Desire St",
    "address_councildis": "C",
    "status": "Pending",
    "rowid": "856308",
    "final_x": "3689863.42832",
    "final_y": "534536.963845",
    "longitude": "-90.04155431488205",
    "latitude": "29.96353470086461",
    "geocoded_column": {
      "latitude": "29.96353470086461",
      "longitude": "-90.04155431488205"
    }
  },
  {
    "service_request": "2022-856307",
    "request_type": "Trash/Recycling",
    "request_reason": "Start Trash Service",
    "date_created": "2022-01-24T16:09:07.000",
    "date_modified": "2022-01-24T16:09:08.000",
    "request_status": "Pending",
    "responsible_agency": "Department of Sanitation",
    "final_address": "3350 Dauphine St",
    "address_councildis": "C",
    "status": "Assigned to Contractor",
    "contractor": "Metro Disposal",
    "rowid": "856307",
    "final_x": "3689830.05116",
    "final_y": "534543.457285",
    "longitude": "-90.04165948492785",
    "latitude": "29.963553590161016",
    "geocoded_column": {
      "latitude": "29.963553590161016",
      "longitude": "-90.04165948492785"
    }
  },
  {
    "service_request": "2022-856306",
    "request_type": "Trash/Recycling",
    "request_reason": "Order Trash Cart",
    "date_created": "2022-01-24T16:09:02.000",
    "date_modified": "2022-01-24T16:09:03.000",
    "request_status": "Pending",
    "responsible_agency": "Department of Sanitation",
    "final_address": "8422 Apple St",
    "address_councildis": "A",
    "status": "Assigned to Contractor",
    "contractor": "Richards Disposal",
    "rowid": "856306",
    "final_x": "3664337.44589",
    "final_y": "532979.247364",
    "longitude": "-90.12221502532459",
    "latitude": "29.960018074264593",
    "geocoded_column": {
      "latitude": "29.960018074264593",
      "longitude": "-90.12221502532459"
    }
  },
  {
    "service_request": "2022-856305",
    "request_type": "Trash/Recycling",
    "request_reason": "Order Trash Cart",
    "date_created": "2022-01-24T16:08:53.000",
    "date_modified": "2022-01-24T16:08:54.000",
    "request_status": "Pending",
    "responsible_agency": "Department of Sanitation",
    "final_address": "3350 Dauphine St",
    "address_councildis": "C",
    "status": "Assigned to Contractor",
    "contractor": "Metro Disposal",
    "rowid": "856305",
    "final_x": "3689830.05116",
    "final_y": "534543.457285",
    "longitude": "-90.04165948492785",
    "latitude": "29.963553590161016",
    "geocoded_column": {
      "latitude": "29.963553590161016",
      "longitude": "-90.04165948492785"
    }
  },
  {
    "service_request": "2022-856304",
    "request_type": "Trash/Recycling",
    "request_reason": "Order Recycling Cart",
    "date_created": "2022-01-24T16:08:26.000",
    "date_modified": "2022-01-24T16:08:26.000",
    "request_status": "Pending",
    "responsible_agency": "Department of Sanitation",
    "final_address": "3350 Dauphine St",
    "address_councildis": "C",
    "status": "Pending",
    "rowid": "856304",
    "final_x": "3689830.05116",
    "final_y": "534543.457285",
    "longitude": "-90.04165948492785",
    "latitude": "29.963553590161016",
    "geocoded_column": {
      "latitude": "29.963553590161016",
      "longitude": "-90.04165948492785"
    }
  },
  {
    "service_request": "2022-856303",
    "request_type": "Traffic Signals/Signs/Striping/Streetlights",
    "request_reason": "Street Light Outage/Malfunction",
    "date_created": "2022-01-24T16:06:42.000",
    "date_modified": "2022-01-24T16:06:43.000",
    "request_status": "Pending",
    "responsible_agency": "Department of Public Works",
    "final_address": "2940 Marigny St",
    "address_councildis": "D",
    "status": "Pending",
    "contractor": "Royal Engineering",
    "rowid": "856303",
    "final_x": "3684799.77801",
    "final_y": "543630.43643",
    "longitude": "-90.05722495067542",
    "latitude": "29.988694562624264",
    "geocoded_column": {
      "latitude": "29.988694562624264",
      "longitude": "-90.05722495067542"
    }
  },
  {
    "service_request": "2022-856302",
    "request_type": "Traffic Signals/Signs/Striping/Streetlights",
    "request_reason": "Request for Traffic Calming due to Speeding",
    "date_created": "2022-01-24T16:04:16.000",
    "date_modified": "2022-01-24T16:04:17.000",
    "request_status": "Pending",
    "responsible_agency": "Department of Public Works",
    "final_address": "6600 Peony St",
    "address_councildis": "C",
    "status": "Pending",
    "rowid": "856302",
    "final_x": "3708071.22411",
    "final_y": "516465.260981",
    "longitude": "-89.98472820484612",
    "latitude": "29.9132669666957",
    "geocoded_column": {
      "latitude": "29.9132669666957",
      "longitude": "-89.98472820484612"
    }
  },
  {
    "service_request": "2022-856301",
    "request_type": "COVID-19",
    "request_reason": "COVID-19 Business Non-Compliance",
    "date_created": "2022-01-24T15:58:55.000",
    "date_modified": "2022-01-24T15:58:57.000",
    "request_status": "Pending",
    "responsible_agency": "Safety and Permits",
    "final_address": "2501 Elysian Fields Ave",
    "address_councildis": "D",
    "status": "Pending",
    "rowid": "856301",
    "final_x": "3684712.22882",
    "final_y": "541736.654412",
    "longitude": "-90.05756809244224",
    "latitude": "29.98349001297375",
    "geocoded_column": {
      "latitude": "29.98349001297375",
      "longitude": "-90.05756809244224"
    }
  },
  {
    "service_request": "2022-856300",
    "request_type": "Trash/Recycling",
    "request_reason": "Request a Large Item Pick Up",
    "date_created": "2022-01-24T15:53:47.000",
    "date_modified": "2022-01-24T15:53:48.000",
    "request_status": "Pending",
    "responsible_agency": "Department of Sanitation",
    "final_address": "2757 Danbury Dr",
    "address_councildis": "C",
    "status": "Assigned to Contractor",
    "contractor": "Richards Disposal",
    "rowid": "856300",
    "final_x": "3703588.9955",
    "final_y": "520521.711608",
    "longitude": "-89.99872624869938",
    "latitude": "29.924565102963733",
    "geocoded_column": {
      "latitude": "29.924565102963733",
      "longitude": "-89.99872624869938"
    }
  },
  {
    "service_request": "2022-856299",
    "request_type": "Trash/Recycling",
    "request_reason": "Illegal Dumping",
    "date_created": "2022-01-24T15:53:00.000",
    "date_modified": "2022-01-24T15:53:00.000",
    "request_status": "Pending",
    "responsible_agency": "Department of Sanitation",
    "final_address": "2552 Peace Ct",
    "address_councildis": "D",
    "status": "Pending",
    "rowid": "856299",
    "final_x": "3686312.53436",
    "final_y": "541018.640715",
    "longitude": "-90.05253884652879",
    "latitude": "29.981466640065868",
    "geocoded_column": {
      "latitude": "29.981466640065868",
      "longitude": "-90.05253884652879"
    }
  },
  {
    "service_request": "2022-856298",
    "request_type": "Trash/Recycling",
    "request_reason": "Illegal Dumping",
    "date_created": "2022-01-24T15:49:06.000",
    "date_modified": "2022-01-24T15:49:06.000",
    "request_status": "Pending",
    "responsible_agency": "Department of Sanitation",
    "final_address": "2624 Caffin Ave",
    "address_councildis": "E",
    "status": "Pending",
    "rowid": "856298",
    "final_x": "3699522.39319",
    "final_y": "539622.697866",
    "longitude": "-90.01086715968717",
    "latitude": "29.977215687799223",
    "geocoded_column": {
      "latitude": "29.977215687799223",
      "longitude": "-90.01086715968717"
    }
  },
  {
    "service_request": "2022-856297",
    "request_type": "Traffic Signals/Signs/Striping/Streetlights",
    "request_reason": "Traffic Signal Malfunctioning/Damaged",
    "date_created": "2022-01-24T15:48:07.000",
    "date_modified": "2022-01-24T15:48:07.000",
    "request_status": "Pending",
    "responsible_agency": "Department of Public Works",
    "final_address": "7001 Bullard Ave",
    "address_councildis": "E",
    "status": "Pending",
    "rowid": "856297",
    "final_x": "3714772.26917",
    "final_y": "565501.191074",
    "longitude": "-89.96172524141116",
    "latitude": "30.047878648707098",
    "geocoded_column": {
      "latitude": "30.047878648707098",
      "longitude": "-89.96172524141116"
    }
  },
  {
    "service_request": "2022-856296",
    "request_type": "Trash/Recycling",
    "request_reason": "Request a Large Item Pick Up",
    "date_created": "2022-01-24T15:42:23.000",
    "date_modified": "2022-01-24T15:42:25.000",
    "request_status": "Pending",
    "responsible_agency": "Department of Sanitation",
    "final_address": "517 Arabella St",
    "address_councildis": "A",
    "status": "Assigned to Contractor",
    "contractor": "Richards Disposal",
    "rowid": "856296",
    "final_x": "3665684.31322",
    "final_y": "518075.590326",
    "longitude": "-90.11846087224177",
    "latitude": "29.918998575840817",
    "geocoded_column": {
      "latitude": "29.918998575840817",
      "longitude": "-90.11846087224177"
    }
  },
  {
    "service_request": "2022-856294",
    "request_type": "Trash/Recycling",
    "request_reason": "Request a Large Item Pick Up",
    "date_created": "2022-01-24T15:40:27.000",
    "date_modified": "2022-01-24T15:40:28.000",
    "request_status": "Pending",
    "responsible_agency": "Department of Sanitation",
    "final_address": "1312 Fourth St",
    "address_councildis": "B",
    "status": "Assigned to Contractor",
    "contractor": "Richards Disposal",
    "rowid": "856294",
    "final_x": "3676798.07061",
    "final_y": "521688.551033",
    "longitude": "-90.08325601535799",
    "latitude": "29.928604368207992",
    "geocoded_column": {
      "latitude": "29.928604368207992",
      "longitude": "-90.08325601535799"
    }
  },
  {
    "service_request": "2022-856293",
    "request_type": "Trash/Recycling",
    "request_reason": "Order Recycling Cart",
    "date_created": "2022-01-24T15:39:45.000",
    "date_modified": "2022-01-24T15:39:45.000",
    "request_status": "Pending",
    "responsible_agency": "Department of Sanitation",
    "final_address": "145 Cherokee St",
    "address_councildis": "A",
    "status": "Pending",
    "rowid": "856293",
    "final_x": "3660915.77376",
    "final_y": "523984.867004",
    "longitude": "-90.13331743433382",
    "latitude": "29.93538540179089",
    "geocoded_column": {
      "latitude": "29.93538540179089",
      "longitude": "-90.13331743433382"
    }
  },
  {
    "service_request": "2022-856292",
    "request_type": "Trash/Recycling",
    "request_reason": "Order Trash Cart",
    "date_created": "2022-01-24T15:39:34.000",
    "date_modified": "2022-01-24T15:39:35.000",
    "request_status": "Pending",
    "responsible_agency": "Department of Sanitation",
    "final_address": "1544 N Roman St",
    "address_councildis": "D",
    "status": "Assigned to Contractor",
    "contractor": "Metro Disposal",
    "rowid": "856292",
    "final_x": "3681423.80866",
    "final_y": "537927.928777",
    "longitude": "-90.06808748161691",
    "latitude": "29.973117605746847",
    "geocoded_column": {
      "latitude": "29.973117605746847",
      "longitude": "-90.06808748161691"
    }
  },
  {
    "service_request": "2022-856291",
    "request_type": "Trash/Recycling",
    "request_reason": "Request a Large Item Pick Up",
    "date_created": "2022-01-24T15:36:47.000",
    "date_modified": "2022-01-24T15:36:47.000",
    "request_status": "Pending",
    "responsible_agency": "Department of Sanitation",
    "final_address": "62 Lakewood Pl",
    "address_councildis": "C",
    "status": "Assigned to Contractor",
    "contractor": "Richards Disposal",
    "rowid": "856291",
    "final_x": "3700963.29911",
    "final_y": "512712.490865",
    "longitude": "-90.00729990357823",
    "latitude": "29.903176236147445",
    "geocoded_column": {
      "latitude": "29.903176236147445",
      "longitude": "-90.00729990357823"
    }
  },
  {
    "service_request": "2022-856290",
    "request_type": "Traffic Signals/Signs/Striping/Streetlights",
    "request_reason": "Traffic Signal Malfunctioning/Damaged",
    "date_created": "2022-01-24T15:31:08.000",
    "date_modified": "2022-01-24T15:31:08.000",
    "request_status": "Pending",
    "responsible_agency": "Department of Public Works",
    "final_address": "BULLARD AVE & I 10 W SERVICE RD",
    "address_councildis": "E",
    "status": "Pending",
    "rowid": "856290",
    "final_x": "3714692.5",
    "final_y": "565330.28",
    "longitude": "-89.96198381911823",
    "latitude": "30.047411338068276",
    "geocoded_column": {
      "latitude": "30.047411338068276",
      "longitude": "-89.96198381911823"
    }
  },
  {
    "service_request": "2022-856289",
    "request_type": "Roads/Drainage",
    "request_reason": "Accessibility Ramps, Curbs and Sidewalk Repair",
    "date_created": "2022-01-24T15:29:55.000",
    "date_modified": "2022-01-24T15:29:55.000",
    "request_status": "Pending",
    "responsible_agency": "Department of Public Works",
    "final_address": "1633 Calhoun St",
    "address_councildis": "A",
    "status": "Pending",
    "rowid": "856289",
    "final_x": "3665110.32455",
    "final_y": "523354.282619",
    "longitude": "-90.12009624491641",
    "latitude": "29.933530039018827",
    "geocoded_column": {
      "latitude": "29.933530039018827",
      "longitude": "-90.12009624491641"
    }
  },
  {
    "service_request": "2022-856288",
    "request_type": "Abandoned Vehicles",
    "request_reason": "Abandoned/Junk Vehicles",
    "date_created": "2022-01-24T15:28:44.000",
    "date_modified": "2022-01-24T15:28:44.000",
    "request_status": "Pending",
    "responsible_agency": "Department of Public Works",
    "final_address": "2705 Soniat St",
    "address_councildis": "B",
    "status": "Pending",
    "rowid": "856288",
    "final_x": "3668600.09607",
    "final_y": "525376.588285",
    "longitude": "-90.10901097727508",
    "latitude": "29.938988667245795",
    "geocoded_column": {
      "latitude": "29.938988667245795",
      "longitude": "-90.10901097727508"
    }
  },
  {
    "service_request": "2022-856287",
    "request_type": "Roads/Drainage",
    "request_reason": "Pothole",
    "date_created": "2022-01-24T15:28:26.000",
    "date_modified": "2022-01-24T15:28:26.000",
    "request_status": "Pending",
    "responsible_agency": "Department of Public Works",
    "final_address": "5125 Perlita St",
    "address_councildis": "D",
    "status": "Pending",
    "rowid": "856287",
    "final_x": "3678648.73826",
    "final_y": "551142.778581",
    "longitude": "-90.07639388650365",
    "latitude": "30.009537768406837",
    "geocoded_column": {
      "latitude": "30.009537768406837",
      "longitude": "-90.07639388650365"
    }
  },
  {
    "service_request": "2022-856286",
    "request_type": "Traffic Signals/Signs/Striping/Streetlights",
    "request_reason": "Street Light Outage/Malfunction",
    "date_created": "2022-01-24T15:25:35.000",
    "date_modified": "2022-01-24T15:38:32.000",
    "request_status": "Pending",
    "responsible_agency": "Department of Public Works",
    "final_address": "6132 Constance St, New Orleans, Louisiana, 70118",
    "address_councildis": "A",
    "status": "Pending",
    "contractor": "Royal Engineering",
    "rowid": "856286",
    "final_x": "3663813.7152",
    "final_y": "519142.300087",
    "longitude": "-90.12432988809304",
    "latitude": "29.92198609686308",
    "geocoded_column": {
      "latitude": "29.92198609686308",
      "longitude": "-90.12432988809304"
    }
  },
  {
    "service_request": "2022-856285",
    "request_type": "Tax and Revenue",
    "request_reason": "General Tax Question",
    "date_created": "2022-01-24T15:24:55.000",
    "date_modified": "2022-01-24T15:24:55.000",
    "request_status": "Pending",
    "responsible_agency": "Bureau of Revenue",
    "status": "Pending",
    "rowid": "856285",
    "longitude": "0.0",
    "latitude": "0.0",
    "geocoded_column": {
      "latitude": "0.0",
      "longitude": "0.0"
    }
  },
  {
    "service_request": "2022-856284",
    "request_type": "Parks & Parkways",
    "request_reason": "Request Tree Service (Right of Way/Public Property)",
    "date_created": "2022-01-24T15:22:06.000",
    "date_modified": "2022-01-24T15:22:58.000",
    "request_status": "Pending",
    "responsible_agency": "Department of Parks & Parkway",
    "final_address": "2211 Jay St",
    "address_councildis": "D",
    "status": "Pending",
    "rowid": "856284",
    "final_x": "3683809.25244",
    "final_y": "557323.099611",
    "longitude": "-90.05987303001766",
    "latitude": "30.026374722608274",
    "geocoded_column": {
      "latitude": "30.026374722608274",
      "longitude": "-90.05987303001766"
    }
  },
  {
    "service_request": "2022-856283",
    "request_type": "Property Maintenance",
    "request_reason": "Property Maintenance",
    "date_created": "2022-01-24T15:20:19.000",
    "date_modified": "2022-01-24T15:20:19.000",
    "request_status": "Pending",
    "responsible_agency": "Department of Code Enforcement",
    "final_address": "1920 Felicity St",
    "address_councildis": "B",
    "status": "Pending",
    "rowid": "856283",
    "final_x": "3677381.01237",
    "final_y": "525547.035773",
    "longitude": "-90.08128269555824",
    "latitude": "29.939196437281826",
    "geocoded_column": {
      "latitude": "29.939196437281826",
      "longitude": "-90.08128269555824"
    }
  },
  {
    "service_request": "2022-856282",
    "request_type": "Abandoned Vehicles",
    "request_reason": "Abandoned/Junk Vehicles",
    "date_created": "2022-01-24T15:20:07.000",
    "date_modified": "2022-01-24T15:20:07.000",
    "request_status": "Pending",
    "responsible_agency": "Department of Public Works",
    "final_address": "5114 Willow St",
    "address_councildis": "B",
    "status": "Pending",
    "rowid": "856282",
    "final_x": "3668500.42394",
    "final_y": "525248.668285",
    "longitude": "-90.10932996900442",
    "latitude": "29.938639856445498",
    "geocoded_column": {
      "latitude": "29.938639856445498",
      "longitude": "-90.10932996900442"
    }
  },
  {
    "service_request": "2022-856281",
    "request_type": "Trash/Recycling",
    "request_reason": "Request a Large Item Pick Up",
    "date_created": "2022-01-24T15:03:57.000",
    "date_modified": "2022-01-24T15:03:58.000",
    "request_status": "Pending",
    "responsible_agency": "Department of Sanitation",
    "final_address": "2120 Audubon St",
    "address_councildis": "A",
    "status": "Assigned to Contractor",
    "contractor": "Richards Disposal",
    "rowid": "856281",
    "final_x": "3666266.63655",
    "final_y": "529152.753856",
    "longitude": "-90.1162513814703",
    "latitude": "29.949440256306634",
    "geocoded_column": {
      "latitude": "29.949440256306634",
      "longitude": "-90.1162513814703"
    }
  },
  {
    "service_request": "2022-856280",
    "request_type": "Trash/Recycling",
    "request_reason": "Order Recycling Cart",
    "date_created": "2022-01-24T15:02:43.000",
    "date_modified": "2022-01-24T15:02:43.000",
    "request_status": "Pending",
    "responsible_agency": "Department of Sanitation",
    "final_address": "130 Huntlee Dr",
    "address_councildis": "C",
    "status": "Pending",
    "rowid": "856280",
    "final_x": "3702489.60836",
    "final_y": "523945.745916",
    "longitude": "-90.00207104120592",
    "latitude": "29.93401517171005",
    "geocoded_column": {
      "latitude": "29.93401517171005",
      "longitude": "-90.00207104120592"
    }
  },
  {
    "service_request": "2022-856279",
    "request_type": "Trash/Recycling",
    "request_reason": "Order Trash Cart",
    "date_created": "2022-01-24T15:02:11.000",
    "date_modified": "2022-01-24T15:02:12.000",
    "request_status": "Pending",
    "responsible_agency": "Department of Sanitation",
    "final_address": "1128 Tchoupitoulas St",
    "address_councildis": "B",
    "status": "Assigned to Contractor",
    "contractor": "Empire Services",
    "rowid": "856279",
    "final_x": "3681928.77717",
    "final_y": "525858.670269",
    "longitude": "-90.06691397479587",
    "latitude": "29.939915905332857",
    "geocoded_column": {
      "latitude": "29.939915905332857",
      "longitude": "-90.06691397479587"
    }
  },
  {
    "service_request": "2022-856278",
    "request_type": "Trash/Recycling",
    "request_reason": "Repair Trash Cart",
    "date_created": "2022-01-24T15:02:00.000",
    "date_modified": "2022-01-24T15:02:01.000",
    "request_status": "Pending",
    "responsible_agency": "Department of Sanitation",
    "final_address": "130 Huntlee Dr",
    "address_councildis": "C",
    "status": "Assigned to Contractor",
    "contractor": "Richards Disposal",
    "rowid": "856278",
    "final_x": "3702489.60836",
    "final_y": "523945.745916",
    "longitude": "-90.00207104120592",
    "latitude": "29.93401517171005",
    "geocoded_column": {
      "latitude": "29.93401517171005",
      "longitude": "-90.00207104120592"
    }
  },
  {
    "service_request": "2022-856277",
    "request_type": "Safety & Permits",
    "request_reason": "Licenses & Permits",
    "date_created": "2022-01-24T15:01:38.000",
    "date_modified": "2022-01-24T15:01:38.000",
    "request_status": "Pending",
    "responsible_agency": "Safety and Permits",
    "final_address": "2100 St Andrew St Apt A",
    "address_councildis": "B",
    "status": "Pending",
    "rowid": "856277",
    "final_x": "3676972.43733",
    "final_y": "525668.049853",
    "longitude": "-90.08256844818295",
    "latitude": "29.939541455642104",
    "geocoded_column": {
      "latitude": "29.939541455642104",
      "longitude": "-90.08256844818295"
    }
  },
  {
    "service_request": "2022-856276",
    "request_type": "Property Maintenance",
    "request_reason": "Property Maintenance",
    "date_created": "2022-01-24T14:57:24.000",
    "date_modified": "2022-01-24T14:57:24.000",
    "request_status": "Pending",
    "responsible_agency": "Department of Code Enforcement",
    "final_address": "2722 Pauger St",
    "address_councildis": "D",
    "status": "Pending",
    "rowid": "856276",
    "final_x": "3683560.59119",
    "final_y": "539720.444938",
    "longitude": "-90.06127626217686",
    "latitude": "29.9779813504249",
    "geocoded_column": {
      "latitude": "29.9779813504249",
      "longitude": "-90.06127626217686"
    }
  },
  {
    "service_request": "2022-856275",
    "request_type": "Traffic Signals/Signs/Striping/Streetlights",
    "request_reason": "Street Light Outage/Malfunction",
    "date_created": "2022-01-24T14:54:35.000",
    "date_modified": "2022-01-24T14:54:36.000",
    "request_status": "Pending",
    "responsible_agency": "Department of Public Works",
    "final_address": "13955 Dwyer Blvd",
    "address_councildis": "E",
    "status": "Pending",
    "contractor": "Royal Engineering",
    "rowid": "856275",
    "final_x": "3728117.91219",
    "final_y": "562886.102752",
    "longitude": "-89.91964809300944",
    "latitude": "30.04024223886261",
    "geocoded_column": {
      "latitude": "30.04024223886261",
      "longitude": "-89.91964809300944"
    }
  },
  {
    "service_request": "2022-856274",
    "request_type": "Traffic Signals/Signs/Striping/Streetlights",
    "request_reason": "Additional signage",
    "date_created": "2022-01-24T14:54:23.000",
    "date_modified": "2022-01-24T14:54:23.000",
    "request_status": "Pending",
    "responsible_agency": "Department of Public Works",
    "final_address": "1541 Spain St",
    "address_councildis": "C",
    "status": "Pending",
    "rowid": "856274",
    "final_x": "3686024.48578",
    "final_y": "538204.294409",
    "longitude": "-90.05354791603968",
    "latitude": "29.973737027189962",
    "geocoded_column": {
      "latitude": "29.973737027189962",
      "longitude": "-90.05354791603968"
    }
  },
  {
    "service_request": "2022-856273",
    "request_type": "Property Maintenance",
    "request_reason": "Property Maintenance",
    "date_created": "2022-01-24T14:51:21.000",
    "date_modified": "2022-01-24T14:56:41.000",
    "request_status": "Pending",
    "responsible_agency": "Department of Code Enforcement",
    "final_address": "2408 S Galvez St",
    "address_councildis": "B",
    "status": "Pending",
    "rowid": "856273",
    "final_x": "3673209.52174",
    "final_y": "528708.888896",
    "longitude": "-90.09434469482095",
    "latitude": "29.94801517210585",
    "geocoded_column": {
      "latitude": "29.94801517210585",
      "longitude": "-90.09434469482095"
    }
  },
  {
    "service_request": "2022-856270",
    "request_type": "Trash/Recycling",
    "request_reason": "Replace Trash Cart",
    "date_created": "2022-01-24T14:47:48.000",
    "date_modified": "2022-01-24T14:47:49.000",
    "request_status": "Pending",
    "responsible_agency": "Department of Sanitation",
    "final_address": "3317 Fourth St",
    "address_councildis": "B",
    "status": "Assigned to Contractor",
    "contractor": "Richards Disposal",
    "rowid": "856270",
    "final_x": "3672779.9122",
    "final_y": "527909.090239",
    "longitude": "-90.09572842324575",
    "latitude": "29.945828754758562",
    "geocoded_column": {
      "latitude": "29.945828754758562",
      "longitude": "-90.09572842324575"
    }
  },
  {
    "service_request": "2022-856269",
    "request_type": "Trash/Recycling",
    "request_reason": "Order Trash Cart",
    "date_created": "2022-01-24T14:41:51.000",
    "date_modified": "2022-01-24T14:41:53.000",
    "request_status": "Pending",
    "responsible_agency": "Department of Sanitation",
    "final_address": "7430 Maple St",
    "address_councildis": "A",
    "status": "Assigned to Contractor",
    "contractor": "Richards Disposal",
    "rowid": "856269",
    "final_x": "3662661.58803",
    "final_y": "525788.465789",
    "longitude": "-90.12774595646306",
    "latitude": "29.940294337303854",
    "geocoded_column": {
      "latitude": "29.940294337303854",
      "longitude": "-90.12774595646306"
    }
  },
  {
    "service_request": "2022-856267",
    "request_type": "Trash/Recycling",
    "request_reason": "Order Recycling Cart",
    "date_created": "2022-01-24T14:32:13.000",
    "date_modified": "2022-01-24T14:32:13.000",
    "request_status": "Pending",
    "responsible_agency": "Department of Sanitation",
    "final_address": "2418 St Philip St",
    "address_councildis": "D",
    "status": "Pending",
    "rowid": "856267",
    "final_x": "3678328.9252",
    "final_y": "537087.49972",
    "longitude": "-90.07789081894178",
    "latitude": "29.970900317642826",
    "geocoded_column": {
      "latitude": "29.970900317642826",
      "longitude": "-90.07789081894178"
    }
  },
  {
    "service_request": "2022-856266",
    "request_type": "Abandoned Vehicles",
    "request_reason": "Abandoned/Junk Vehicles",
    "date_created": "2022-01-24T14:31:57.000",
    "date_modified": "2022-01-24T14:33:39.000",
    "request_status": "Pending",
    "responsible_agency": "Department of Public Works",
    "final_address": "5815 Canal Blvd",
    "address_councildis": "A",
    "status": "Pending",
    "rowid": "856266",
    "final_x": "3668534.40558",
    "final_y": "546106.50504",
    "longitude": "-90.1085187944512",
    "latitude": "29.99599096142668",
    "geocoded_column": {
      "latitude": "29.99599096142668",
      "longitude": "-90.1085187944512"
    }
  },
  {
    "service_request": "2022-856265",
    "request_type": "Trash/Recycling",
    "request_reason": "Order Recycling Cart",
    "date_created": "2022-01-24T14:31:03.000",
    "date_modified": "2022-01-24T14:31:03.000",
    "request_status": "Pending",
    "responsible_agency": "Department of Sanitation",
    "final_address": "2416 St Philip St",
    "address_councildis": "D",
    "status": "Pending",
    "rowid": "856265",
    "final_x": "3678339.45774",
    "final_y": "537077.389064",
    "longitude": "-90.07785790568899",
    "latitude": "29.970872199486546",
    "geocoded_column": {
      "latitude": "29.970872199486546",
      "longitude": "-90.07785790568899"
    }
  },
  {
    "service_request": "2022-856264",
    "request_type": "Trash/Recycling",
    "request_reason": "Repair Trash Cart",
    "date_created": "2022-01-24T14:30:13.000",
    "date_modified": "2022-01-24T14:30:14.000",
    "request_status": "Pending",
    "responsible_agency": "Department of Sanitation",
    "final_address": "923 N Galvez St",
    "address_councildis": "D",
    "status": "Assigned to Contractor",
    "contractor": "Richards Disposal",
    "rowid": "856264",
    "final_x": "3678841.73896",
    "final_y": "536486.132615",
    "longitude": "-90.07629212263245",
    "latitude": "29.969231304754306",
    "geocoded_column": {
      "latitude": "29.969231304754306",
      "longitude": "-90.07629212263245"
    }
  },
  {
    "service_request": "2022-856263",
    "request_type": "Trash/Recycling",
    "request_reason": "Order Recycling Cart",
    "date_created": "2022-01-24T14:29:38.000",
    "date_modified": "2022-01-24T14:29:38.000",
    "request_status": "Pending",
    "responsible_agency": "Department of Sanitation",
    "final_address": "923 N Galvez St",
    "address_councildis": "D",
    "status": "Pending",
    "rowid": "856263",
    "final_x": "3678841.73896",
    "final_y": "536486.132615",
    "longitude": "-90.07629212263245",
    "latitude": "29.969231304754306",
    "geocoded_column": {
      "latitude": "29.969231304754306",
      "longitude": "-90.07629212263245"
    }
  },
  {
    "service_request": "2022-856262",
    "request_type": "Trash/Recycling",
    "request_reason": "Order Recycling Cart",
    "date_created": "2022-01-24T14:29:02.000",
    "date_modified": "2022-01-24T14:29:02.000",
    "request_status": "Pending",
    "responsible_agency": "Department of Sanitation",
    "final_address": "927 N Galvez St",
    "address_councildis": "D",
    "status": "Pending",
    "rowid": "856262",
    "final_x": "3678862.4948",
    "final_y": "536513.505031",
    "longitude": "-90.07622562575192",
    "latitude": "29.96930594341322",
    "geocoded_column": {
      "latitude": "29.96930594341322",
      "longitude": "-90.07622562575192"
    }
  },
  {
    "service_request": "2022-856261",
    "request_type": "Trash/Recycling",
    "request_reason": "Start Trash Service",
    "date_created": "2022-01-24T14:28:21.000",
    "date_modified": "2022-01-24T14:28:22.000",
    "request_status": "Pending",
    "responsible_agency": "Department of Sanitation",
    "final_address": "927 N Galvez St",
    "address_councildis": "D",
    "status": "Assigned to Contractor",
    "contractor": "Richards Disposal",
    "rowid": "856261",
    "final_x": "3678862.4948",
    "final_y": "536513.505031",
    "longitude": "-90.07622562575192",
    "latitude": "29.96930594341322",
    "geocoded_column": {
      "latitude": "29.96930594341322",
      "longitude": "-90.07622562575192"
    }
  },
  {
    "service_request": "2022-856260",
    "request_type": "Trash/Recycling",
    "request_reason": "Return Trash Cart",
    "date_created": "2022-01-24T14:28:13.000",
    "date_modified": "2022-01-24T14:28:14.000",
    "request_status": "Pending",
    "responsible_agency": "Department of Sanitation",
    "final_address": "4801 Danneel St",
    "address_councildis": "B",
    "status": "Assigned to Contractor",
    "contractor": "Richards Disposal",
    "rowid": "856260",
    "final_x": "3669185.04903",
    "final_y": "522178.666874",
    "longitude": "-90.1072722370311",
    "latitude": "29.930178211337147",
    "geocoded_column": {
      "latitude": "29.930178211337147",
      "longitude": "-90.1072722370311"
    }
  },
  {
    "service_request": "2022-856259",
    "request_type": "Trash/Recycling",
    "request_reason": "Order Trash Cart",
    "date_created": "2022-01-24T14:27:25.000",
    "date_modified": "2022-01-24T14:27:26.000",
    "request_status": "Pending",
    "responsible_agency": "Department of Sanitation",
    "final_address": "927 N Galvez St",
    "address_councildis": "D",
    "status": "Assigned to Contractor",
    "contractor": "Richards Disposal",
    "rowid": "856259",
    "final_x": "3678862.4948",
    "final_y": "536513.505031",
    "longitude": "-90.07622562575192",
    "latitude": "29.96930594341322",
    "geocoded_column": {
      "latitude": "29.96930594341322",
      "longitude": "-90.07622562575192"
    }
  },
  {
    "service_request": "2022-856258",
    "request_type": "Trash/Recycling",
    "request_reason": "Request a Large Item Pick Up",
    "date_created": "2022-01-24T14:26:49.000",
    "date_modified": "2022-01-24T14:26:50.000",
    "request_status": "Pending",
    "responsible_agency": "Department of Sanitation",
    "final_address": "418 Evelina St",
    "address_councildis": "C",
    "status": "Assigned to Contractor",
    "contractor": "Richards Disposal",
    "rowid": "856258",
    "final_x": "3686968.48662",
    "final_y": "529488.894273",
    "longitude": "-90.05087463250685",
    "latitude": "29.94974366854969",
    "geocoded_column": {
      "latitude": "29.94974366854969",
      "longitude": "-90.05087463250685"
    }
  },
  {
    "service_request": "2022-856257",
    "request_type": "Trash/Recycling",
    "request_reason": "Illegal Dumping",
    "date_created": "2022-01-24T14:26:25.000",
    "date_modified": "2022-01-24T14:26:26.000",
    "request_status": "Pending",
    "responsible_agency": "Department of Sanitation",
    "final_address": "6939 Argonne Blvd",
    "address_councildis": "A",
    "status": "Pending",
    "rowid": "856257",
    "final_x": "3670804.5739",
    "final_y": "553530.302871",
    "longitude": "-90.10109529787508",
    "latitude": "30.016336882377157",
    "geocoded_column": {
      "latitude": "30.016336882377157",
      "longitude": "-90.10109529787508"
    }
  },
  {
    "service_request": "2022-856256",
    "request_type": "Property Maintenance",
    "request_reason": "Property Maintenance",
    "date_created": "2022-01-24T14:23:41.000",
    "date_modified": "2022-01-24T14:23:41.000",
    "request_status": "Pending",
    "responsible_agency": "Department of Code Enforcement",
    "final_address": "2257 Halsey Ave",
    "address_councildis": "C",
    "status": "Pending",
    "rowid": "856256",
    "final_x": "3697611.85482",
    "final_y": "522466.984122",
    "longitude": "-90.01752343703001",
    "latitude": "29.930104010107105",
    "geocoded_column": {
      "latitude": "29.930104010107105",
      "longitude": "-90.01752343703001"
    }
  },
  {
    "service_request": "2022-856255",
    "request_type": "Roads/Drainage",
    "request_reason": "Catch Basin - Clogged",
    "date_created": "2022-01-24T14:20:15.000",
    "date_modified": "2022-01-24T14:20:15.000",
    "request_status": "Pending",
    "responsible_agency": "Department of Public Works",
    "final_address": "5531 Marshal Foch St",
    "address_councildis": "A",
    "status": "Pending",
    "rowid": "856255",
    "final_x": "3669613.90145",
    "final_y": "543992.320846",
    "longitude": "-90.1051803247591",
    "latitude": "29.990145910430527",
    "geocoded_column": {
      "latitude": "29.990145910430527",
      "longitude": "-90.1051803247591"
    }
  },
  {
    "service_request": "2022-856254",
    "request_type": "Trash/Recycling",
    "request_reason": "Repair Recycling Cart",
    "date_created": "2022-01-24T14:18:05.000",
    "date_modified": "2022-01-24T14:18:05.000",
    "request_status": "Pending",
    "responsible_agency": "Department of Sanitation",
    "final_address": "1354 Terry St",
    "address_councildis": "C",
    "status": "Pending",
    "contractor": "Richards Disposal",
    "rowid": "856254",
    "final_x": "3697050.94672",
    "final_y": "526203.984126",
    "longitude": "-90.01915882079297",
    "latitude": "29.94039717073401",
    "geocoded_column": {
      "latitude": "29.94039717073401",
      "longitude": "-90.01915882079297"
    }
  },
  {
    "service_request": "2022-856253",
    "request_type": "Trash/Recycling",
    "request_reason": "Damaged Caused By Contractor",
    "date_created": "2022-01-24T14:16:53.000",
    "date_modified": "2022-01-24T14:16:54.000",
    "request_status": "Pending",
    "responsible_agency": "Department of Sanitation",
    "final_address": "1354 Terry St",
    "address_councildis": "C",
    "status": "Assigned to Contractor",
    "contractor": "Richards Disposal",
    "rowid": "856253",
    "final_x": "3697050.94672",
    "final_y": "526203.984126",
    "longitude": "-90.01915882079297",
    "latitude": "29.94039717073401",
    "geocoded_column": {
      "latitude": "29.94039717073401",
      "longitude": "-90.01915882079297"
    }
  },
  {
    "service_request": "2022-856251",
    "request_type": "Traffic Signals/Signs/Striping/Streetlights",
    "request_reason": "Street Light Outage/Malfunction",
    "date_created": "2022-01-24T14:15:47.000",
    "date_modified": "2022-01-24T14:15:48.000",
    "request_status": "Pending",
    "responsible_agency": "Department of Public Works",
    "final_address": "819 Homedale St",
    "address_councildis": "A",
    "status": "Pending",
    "contractor": "Royal Engineering",
    "rowid": "856251",
    "final_x": "3668962.5851",
    "final_y": "544736.032847",
    "longitude": "-90.10721253005357",
    "latitude": "29.992210042727905",
    "geocoded_column": {
      "latitude": "29.992210042727905",
      "longitude": "-90.10721253005357"
    }
  },
  {
    "service_request": "2022-856250",
    "request_type": "Trash/Recycling",
    "request_reason": "Request a Large Item Pick Up",
    "date_created": "2022-01-24T14:13:15.000",
    "date_modified": "2022-01-24T14:13:15.000",
    "request_status": "Pending",
    "responsible_agency": "Department of Sanitation",
    "final_address": "839 Louque Pl",
    "address_councildis": "A",
    "status": "Assigned to Contractor",
    "contractor": "Metro Disposal",
    "rowid": "856250",
    "final_x": "3669016.63086",
    "final_y": "543529.872718",
    "longitude": "-90.10708258364346",
    "latitude": "29.988891925477798",
    "geocoded_column": {
      "latitude": "29.988891925477798",
      "longitude": "-90.10708258364346"
    }
  },
  {
    "service_request": "2022-856249",
    "request_type": "Trash/Recycling",
    "request_reason": "Replace Trash Cart",
    "date_created": "2022-01-24T14:09:23.000",
    "date_modified": "2022-01-24T14:09:24.000",
    "request_status": "Pending",
    "responsible_agency": "Department of Sanitation",
    "final_address": "2604 St Peter St",
    "address_councildis": "D",
    "status": "Assigned to Contractor",
    "contractor": "Richards Disposal",
    "rowid": "856249",
    "final_x": "3677015.98274",
    "final_y": "536536.484807",
    "longitude": "-90.08205626425483",
    "latitude": "29.969424703840218",
    "geocoded_column": {
      "latitude": "29.969424703840218",
      "longitude": "-90.08205626425483"
    }
  },
  {
    "service_request": "2022-856248",
    "request_type": "Trash/Recycling",
    "request_reason": "Request a Large Item Pick Up",
    "date_created": "2022-01-24T14:08:22.000",
    "date_modified": "2022-01-24T14:08:22.000",
    "request_status": "Pending",
    "responsible_agency": "Department of Sanitation",
    "final_address": "5810 Memphis St",
    "address_councildis": "A",
    "status": "Assigned to Contractor",
    "contractor": "Metro Disposal",
    "rowid": "856248",
    "final_x": "3668985.8786",
    "final_y": "546016.028624",
    "longitude": "-90.10709568077327",
    "latitude": "29.99572890524056",
    "geocoded_column": {
      "latitude": "29.99572890524056",
      "longitude": "-90.10709568077327"
    }
  },
  {
    "service_request": "2022-856247",
    "request_type": "Trash/Recycling",
    "request_reason": "Order Recycling Cart",
    "date_created": "2022-01-24T14:05:52.000",
    "date_modified": "2022-01-24T14:05:53.000",
    "request_status": "Pending",
    "responsible_agency": "Department of Sanitation",
    "final_address": "3912 Patterson St",
    "address_councildis": "C",
    "status": "Pending",
    "rowid": "856247",
    "final_x": "3698695.50359",
    "final_y": "526616.236094",
    "longitude": "-90.01395173264007",
    "latitude": "29.94147875465989",
    "geocoded_column": {
      "latitude": "29.94147875465989",
      "longitude": "-90.01395173264007"
    }
  },
  {
    "service_request": "2022-856246",
    "request_type": "Trash/Recycling",
    "request_reason": "Order Recycling Cart",
    "date_created": "2022-01-24T14:00:37.000",
    "date_modified": "2022-01-24T14:00:37.000",
    "request_status": "Pending",
    "responsible_agency": "Department of Sanitation",
    "final_address": "1040 Henriette Delille St",
    "address_councildis": "C",
    "status": "Pending",
    "rowid": "856246",
    "final_x": "3681955.61896",
    "final_y": "534735.958086",
    "longitude": "-90.06651937271697",
    "latitude": "29.96432462882321",
    "geocoded_column": {
      "latitude": "29.96432462882321",
      "longitude": "-90.06651937271697"
    }
  },
  {
    "service_request": "2022-856244",
    "request_type": "Traffic Signals/Signs/Striping/Streetlights",
    "request_reason": "Street Light Outage/Malfunction",
    "date_created": "2022-01-24T13:59:16.000",
    "date_modified": "2022-01-24T14:00:43.000",
    "request_status": "Pending",
    "responsible_agency": "Department of Public Works",
    "final_address": "CARTIER AVE & ROBERT E LEE BLVD",
    "address_councildis": "D",
    "status": "Pending",
    "contractor": "Royal Engineering",
    "rowid": "856244",
    "final_x": "3677645.4",
    "final_y": "555222.58",
    "longitude": "-90.07942273343552",
    "latitude": "30.020785977541475",
    "geocoded_column": {
      "latitude": "30.020785977541475",
      "longitude": "-90.07942273343552"
    }
  },
  {
    "service_request": "2022-856243",
    "request_type": "Trash/Recycling",
    "request_reason": "Order Trash Cart",
    "date_created": "2022-01-24T13:58:48.000",
    "date_modified": "2022-01-24T13:58:49.000",
    "request_status": "Pending",
    "responsible_agency": "Department of Sanitation",
    "final_address": "1040 Henriette Delille St",
    "address_councildis": "C",
    "status": "Assigned to Contractor",
    "contractor": "Richards Disposal",
    "rowid": "856243",
    "final_x": "3681955.61896",
    "final_y": "534735.958086",
    "longitude": "-90.06651937271697",
    "latitude": "29.96432462882321",
    "geocoded_column": {
      "latitude": "29.96432462882321",
      "longitude": "-90.06651937271697"
    }
  },
  {
    "service_request": "2022-856242",
    "request_type": "Trash/Recycling",
    "request_reason": "Request a Large Item Pick Up",
    "date_created": "2022-01-24T13:52:45.000",
    "date_modified": "2022-01-24T13:52:45.000",
    "request_status": "Pending",
    "responsible_agency": "Department of Sanitation",
    "final_address": "7807 Birch St",
    "address_councildis": "A",
    "status": "Assigned to Contractor",
    "contractor": "Richards Disposal",
    "rowid": "856242",
    "final_x": "3663712.52218",
    "final_y": "528732.34848",
    "longitude": "-90.12432990847901",
    "latitude": "29.948358625917376",
    "geocoded_column": {
      "latitude": "29.948358625917376",
      "longitude": "-90.12432990847901"
    }
  },
  {
    "service_request": "2022-856241",
    "request_type": "Trash/Recycling",
    "request_reason": "Illegal Dumping",
    "date_created": "2022-01-24T13:48:37.000",
    "date_modified": "2022-01-24T13:48:37.000",
    "request_status": "Pending",
    "responsible_agency": "Department of Sanitation",
    "final_address": "1315 Gravier St",
    "address_councildis": "B",
    "status": "Pending",
    "rowid": "856241",
    "final_x": "3678869.52597",
    "final_y": "530966.027778",
    "longitude": "-90.07639560062978",
    "latitude": "29.95405205101275",
    "geocoded_column": {
      "latitude": "29.95405205101275",
      "longitude": "-90.07639560062978"
    }
  },
  {
    "service_request": "2022-856240",
    "request_type": "Trash/Recycling",
    "request_reason": "Replace Trash Cart",
    "date_created": "2022-01-24T13:46:04.000",
    "date_modified": "2022-01-24T13:46:05.000",
    "request_status": "Pending",
    "responsible_agency": "Department of Sanitation",
    "final_address": "2027 Short St",
    "address_councildis": "A",
    "status": "Assigned to Contractor",
    "contractor": "Richards Disposal",
    "rowid": "856240",
    "final_x": "3664376.53127",
    "final_y": "530292.699713",
    "longitude": "-90.1221812726259",
    "latitude": "29.952629806367412",
    "geocoded_column": {
      "latitude": "29.952629806367412",
      "longitude": "-90.1221812726259"
    }
  },
  {
    "service_request": "2022-856239",
    "request_type": "Trash/Recycling",
    "request_reason": "Replace Trash Cart",
    "date_created": "2022-01-24T13:45:05.000",
    "date_modified": "2022-01-24T13:55:46.000",
    "request_status": "Pending",
    "responsible_agency": "Department of Sanitation",
    "final_address": "6935 Fleur de Lis Dr, New Orleans, Louisiana, 70124",
    "address_councildis": "A",
    "status": "Assigned to Contractor",
    "contractor": "Metro Disposal",
    "rowid": "856239",
    "final_x": "3665582.45575",
    "final_y": "553992.44764",
    "longitude": "-90.11757949994671",
    "latitude": "30.01776100065922",
    "geocoded_column": {
      "latitude": "30.01776100065922",
      "longitude": "-90.11757949994671"
    }
  },
  {
    "service_request": "2022-856238",
    "request_type": "Trash/Recycling",
    "request_reason": "Illegal Dumping",
    "date_created": "2022-01-24T13:38:08.000",
    "date_modified": "2022-01-24T13:38:09.000",
    "request_status": "Pending",
    "responsible_agency": "Department of Sanitation",
    "final_address": "BULLARD AVE & I 10 W ONRAMP",
    "address_councildis": "E",
    "status": "Pending",
    "rowid": "856238",
    "final_x": "3714798.9",
    "final_y": "565038.28",
    "longitude": "-89.96165858796941",
    "latitude": "30.04660495504562",
    "geocoded_column": {
      "latitude": "30.04660495504562",
      "longitude": "-89.96165858796941"
    }
  },
  {
    "service_request": "2022-856237",
    "request_type": "COVID-19",
    "request_reason": "COVID-19 Business Non-Compliance",
    "date_created": "2022-01-24T13:36:32.000",
    "date_modified": "2022-01-24T13:36:34.000",
    "request_status": "Pending",
    "responsible_agency": "Safety and Permits",
    "final_address": "139 Robert E Lee Blvd",
    "address_councildis": "D",
    "status": "Pending",
    "rowid": "856237",
    "final_x": "3667511.80468",
    "final_y": "555027.581977",
    "longitude": "-90.11144860920642",
    "latitude": "30.020550825866966",
    "geocoded_column": {
      "latitude": "30.020550825866966",
      "longitude": "-90.11144860920642"
    }
  },
  {
    "service_request": "2022-856236",
    "request_type": "Trash/Recycling",
    "request_reason": "Request a Large Item Pick Up",
    "date_created": "2022-01-24T13:35:29.000",
    "date_modified": "2022-01-24T13:35:30.000",
    "request_status": "Pending",
    "responsible_agency": "Department of Sanitation",
    "final_address": "3201 Eagle St",
    "address_councildis": "A",
    "status": "Assigned to Contractor",
    "contractor": "Richards Disposal",
    "rowid": "856236",
    "final_x": "3665003.47354",
    "final_y": "535335.172806",
    "longitude": "-90.12003307064208",
    "latitude": "29.966476721535614",
    "geocoded_column": {
      "latitude": "29.966476721535614",
      "longitude": "-90.12003307064208"
    }
  },
  {
    "service_request": "2022-856235",
    "request_type": "Trash/Recycling",
    "request_reason": "Replace Trash Cart",
    "date_created": "2022-01-24T13:30:36.000",
    "date_modified": "2022-01-24T13:30:36.000",
    "request_status": "Pending",
    "responsible_agency": "Department of Sanitation",
    "final_address": "3201 Eagle St",
    "address_councildis": "A",
    "status": "Assigned to Contractor",
    "contractor": "Richards Disposal",
    "rowid": "856235",
    "final_x": "3665003.47354",
    "final_y": "535335.172806",
    "longitude": "-90.12003307064208",
    "latitude": "29.966476721535614",
    "geocoded_column": {
      "latitude": "29.966476721535614",
      "longitude": "-90.12003307064208"
    }
  },
  {
    "service_request": "2022-856234",
    "request_type": "Trash/Recycling",
    "request_reason": "MIssed Recycling Pick-Up",
    "date_created": "2022-01-24T13:29:20.000",
    "date_modified": "2022-01-24T13:29:25.000",
    "request_status": "Pending",
    "responsible_agency": "Department of Sanitation",
    "final_address": "1216 Shirley Dr",
    "address_councildis": "C",
    "status": "Assigned to Contractor",
    "contractor": "Richards Disposal",
    "rowid": "856234",
    "final_x": "3693204.82499",
    "final_y": "526704.765182",
    "longitude": "-90.03128363292335",
    "latitude": "29.941894878022655",
    "geocoded_column": {
      "latitude": "29.941894878022655",
      "longitude": "-90.03128363292335"
    }
  },
  {
    "service_request": "2022-856233",
    "request_type": "Abandoned Vehicles",
    "request_reason": "Abandoned/Junk Vehicles",
    "date_created": "2022-01-24T13:28:03.000",
    "date_modified": "2022-01-24T13:28:03.000",
    "request_status": "Pending",
    "responsible_agency": "Department of Public Works",
    "final_address": "3100 Saint Philip St, New Orleans, Louisiana, 70119",
    "status": "Pending",
    "rowid": "856233",
    "longitude": "0.0",
    "latitude": "0.0",
    "geocoded_column": {
      "latitude": "0.0",
      "longitude": "0.0"
    }
  },
  {
    "service_request": "2022-856232",
    "request_type": "Trash/Recycling",
    "request_reason": "Request a Large Item Pick Up",
    "date_created": "2022-01-24T13:24:43.000",
    "date_modified": "2022-01-24T13:24:44.000",
    "request_status": "Pending",
    "responsible_agency": "Department of Sanitation",
    "final_address": "1938 Shalett St",
    "address_councildis": "C",
    "status": "Assigned to Contractor",
    "contractor": "Richards Disposal",
    "rowid": "856232",
    "final_x": "3694297.44157",
    "final_y": "523202.372859",
    "longitude": "-90.02796000253919",
    "latitude": "29.93223031634593",
    "geocoded_column": {
      "latitude": "29.93223031634593",
      "longitude": "-90.02796000253919"
    }
  },
  {
    "service_request": "2022-856231",
    "request_type": "Trash/Recycling",
    "request_reason": "Request a Large Item Pick Up",
    "date_created": "2022-01-24T13:23:54.000",
    "date_modified": "2022-01-24T13:24:31.000",
    "request_status": "Pending",
    "responsible_agency": "Department of Sanitation",
    "final_address": "511 Hendee St",
    "address_councildis": "C",
    "status": "Assigned to Contractor",
    "contractor": "Richards Disposal",
    "rowid": "856231",
    "final_x": "3690847.85136",
    "final_y": "529651.380417",
    "longitude": "-90.0386199483797",
    "latitude": "29.950070491676545",
    "geocoded_column": {
      "latitude": "29.950070491676545",
      "longitude": "-90.0386199483797"
    }
  },
  {
    "service_request": "2022-856230",
    "request_type": "Trash/Recycling",
    "request_reason": "Request a Large Item Pick Up",
    "date_created": "2022-01-24T13:21:03.000",
    "date_modified": "2022-01-24T13:21:04.000",
    "request_status": "Pending",
    "responsible_agency": "Department of Sanitation",
    "final_address": "4324 Cartier Ave",
    "address_councildis": "D",
    "status": "Assigned to Contractor",
    "contractor": "Metro Disposal",
    "rowid": "856230",
    "final_x": "3677917.10459",
    "final_y": "548275.671826",
    "longitude": "-90.07880454893542",
    "latitude": "30.001676294112077",
    "geocoded_column": {
      "latitude": "30.001676294112077",
      "longitude": "-90.07880454893542"
    }
  },
  {
    "service_request": "2022-856229",
    "request_type": "Trash/Recycling",
    "request_reason": "Illegal Dumping",
    "date_created": "2022-01-24T13:21:00.000",
    "date_modified": "2022-01-24T13:21:00.000",
    "request_status": "Pending",
    "responsible_agency": "Department of Sanitation",
    "final_address": "131 Carondelet St",
    "address_councildis": "B",
    "status": "Pending",
    "rowid": "856229",
    "final_x": "3680681.33877",
    "final_y": "530654.194882",
    "longitude": "-90.07068548371211",
    "latitude": "29.953139842447058",
    "geocoded_column": {
      "latitude": "29.953139842447058",
      "longitude": "-90.07068548371211"
    }
  },
  {
    "service_request": "2022-856228",
    "request_type": "Trash/Recycling",
    "request_reason": "Illegal Dumping",
    "date_created": "2022-01-24T13:20:44.000",
    "date_modified": "2022-01-24T13:20:44.000",
    "request_status": "Pending",
    "responsible_agency": "Department of Sanitation",
    "final_address": "311 N Peters St",
    "address_councildis": "C",
    "status": "Pending",
    "rowid": "856228",
    "final_x": "3682432.44789",
    "final_y": "530806.05325",
    "longitude": "-90.0651509406387",
    "latitude": "29.953504227315",
    "geocoded_column": {
      "latitude": "29.953504227315",
      "longitude": "-90.0651509406387"
    }
  },
  {
    "service_request": "2022-856226",
    "request_type": "Trash/Recycling",
    "request_reason": "Order Recycling Cart",
    "date_created": "2022-01-24T13:15:24.000",
    "date_modified": "2022-01-24T13:15:24.000",
    "request_status": "Pending",
    "responsible_agency": "Department of Sanitation",
    "final_address": "2 Marlborough Gate Pl",
    "address_councildis": "B",
    "status": "Pending",
    "rowid": "856226",
    "final_x": "3669112.53313",
    "final_y": "523677.840891",
    "longitude": "-90.10745052620429",
    "latitude": "29.934302593202528",
    "geocoded_column": {
      "latitude": "29.934302593202528",
      "longitude": "-90.10745052620429"
    }
  },
  {
    "service_request": "2022-856225",
    "request_type": "Trash/Recycling",
    "request_reason": "Repair Trash Cart",
    "date_created": "2022-01-24T13:14:49.000",
    "date_modified": "2022-01-24T13:14:50.000",
    "request_status": "Pending",
    "responsible_agency": "Department of Sanitation",
    "final_address": "509 Olivier St",
    "address_councildis": "C",
    "status": "Assigned to Contractor",
    "contractor": "Richards Disposal",
    "rowid": "856225",
    "final_x": "3687226.60534",
    "final_y": "529834.844673",
    "longitude": "-90.05004740202222",
    "latitude": "29.950686967732675",
    "geocoded_column": {
      "latitude": "29.950686967732675",
      "longitude": "-90.05004740202222"
    }
  },
  {
    "service_request": "2022-856223",
    "request_type": "Trash/Recycling",
    "request_reason": "Missed Trash Pick-Up",
    "date_created": "2022-01-24T13:08:08.000",
    "date_modified": "2022-01-24T13:08:09.000",
    "request_status": "Pending",
    "responsible_agency": "Department of Sanitation",
    "final_address": "926 N Gayoso St",
    "address_councildis": "A",
    "status": "Assigned to Contractor",
    "contractor": "Richards Disposal",
    "rowid": "856223",
    "final_x": "3676325.06414",
    "final_y": "538407.826633",
    "longitude": "-90.08417381548487",
    "latitude": "29.974590983249538",
    "geocoded_column": {
      "latitude": "29.974590983249538",
      "longitude": "-90.08417381548487"
    }
  },
  {
    "service_request": "2022-856222",
    "request_type": "Trash/Recycling",
    "request_reason": "Request a Large Item Pick Up",
    "date_created": "2022-01-24T13:03:38.000",
    "date_modified": "2022-01-24T13:03:39.000",
    "request_status": "Pending",
    "responsible_agency": "Department of Sanitation",
    "final_address": "4820 Carondelet St",
    "address_councildis": "B",
    "status": "Assigned to Contractor",
    "contractor": "Richards Disposal",
    "rowid": "856222",
    "final_x": "3669162.42068",
    "final_y": "520989.668793",
    "longitude": "-90.10738383026269",
    "latitude": "29.926909511532198",
    "geocoded_column": {
      "latitude": "29.926909511532198",
      "longitude": "-90.10738383026269"
    }
  },
  {
    "service_request": "2022-856220",
    "request_type": "Traffic Signals/Signs/Striping/Streetlights",
    "request_reason": "Street Light Outage/Malfunction",
    "date_created": "2022-01-24T13:00:15.000",
    "date_modified": "2022-01-24T13:00:16.000",
    "request_status": "Pending",
    "responsible_agency": "Department of Public Works",
    "final_address": "1456 Jackson Ave",
    "address_councildis": "B",
    "status": "Pending",
    "contractor": "Royal Engineering",
    "rowid": "856220",
    "final_x": "3677909.41557",
    "final_y": "523215.455803",
    "longitude": "-90.07969499634846",
    "latitude": "29.932769472252428",
    "geocoded_column": {
      "latitude": "29.932769472252428",
      "longitude": "-90.07969499634846"
    }
  },