[
  {
    "service_request": "2025-1233098",
    "request_type": "Trash/Recycling",
    "request_reason": "Request a Large Item Pick Up",
    "date_created": "2025-10-13T23:53:34.000",
    "date_modified": "2025-10-13T23:53:36.000",
    "request_status": "Pending",
    "responsible_agency": "Department of Sanitation",
    "final_address": "10911 Yardley Rd",
    "address_councildis": "E",
    "status": "Assigned to Contractor",
    "contractor": "Waste Pro",
    "rowid": "1233098",
    "final_x": "3711721.99192",
    "final_y": "563587.731296",
    "longitude": "-89.97143762339216",
    "latitude": "30.04271744913748",
    "geocoded_column": {
      "latitude": "30.04271744913748",
      "longitude": "-89.97143762339216"
    }
  },
  {
    "service_request": "2025-1233097",
    "request_type": "Streetlights",
    "request_reason": "Streetlight Outage/Malfunction",
    "date_created": "2025-10-13T23:29:41.000",
    "date_modified": "2025-10-13T23:29:43.000",
    "request_status": "Pending",
    "responsible_agency": "Department of Public Works",
    "final_address": "6122 Argonne Blvd",
    "address_councildis": "A",
    "status": "Pending",
    "rowid": "1233097",
    "final_x": "3670171.64769",
    "final_y": "548013.923602",
    "longitude": "-90.1032821786694",
    "latitude": "30.001187477773907",
    "geocoded_column": {
      "latitude": "30.001187477773907",
      "longitude": "-90.1032821786694"
    }
  },
  {
    "service_request": "2025-1233095",
    "request_type": "Trash/Recycling",
    "request_reason": "Repair Trash Cart",
    "date_created": "2025-10-13T22:29:15.000",
    "date_modified": "2025-10-13T22:29:17.000",
    "request_status": "Pending",
    "responsible_agency": "Department of Sanitation",
    "final_address": "2009 Easter Ln",
    "address_councildis": "C",
    "status": "Assigned to Contractor",
    "contractor": "Richards Disposal",
    "rowid": "1233095",
    "final_x": "3699456.68426",
    "final_y": "524091.773372",
    "longitude": "-90.01164048477729",
    "latitude": "29.93451323858267",
    "geocoded_column": {
      "latitude": "29.93451323858267",
      "longitude": "-90.01164048477729"
    }
  },
  {
    "service_request": "2025-1233096",
    "request_type": "Trash/Recycling",
    "request_reason": "Request a Large Item Pick Up",
    "date_created": "2025-10-13T22:29:15.000",
    "date_modified": "2025-10-13T22:29:17.000",
    "request_status": "Pending",
    "responsible_agency": "Department of Sanitation",
    "final_address": "2623 Wisteria St",
    "address_councildis": "D",
    "status": "Assigned to Contractor",
    "contractor": "IV Waste",
    "rowid": "1233096",
    "final_x": "3687206.76655",
    "final_y": "548453.509394",
    "longitude": "-90.04945133785537",
    "latitude": "30.001882350374473",
    "geocoded_column": {
      "latitude": "30.001882350374473",
      "longitude": "-90.04945133785537"
    }
  },
  {
    "service_request": "2025-1233093",
    "request_type": "General Services",
    "request_reason": "General Service Request",
    "date_created": "2025-10-13T21:59:33.000",
    "date_modified": "2025-10-13T21:59:35.000",
    "request_status": "Pending",
    "responsible_agency": "Orleans Parish Communication District",
    "final_address": "5632 Stillwater Dr",
    "address_councildis": "E",
    "status": "Pending",
    "rowid": "1233093",
    "final_x": "3716157.67775",
    "final_y": "561179.699934",
    "longitude": "-89.95751061447936",
    "latitude": "30.03595062927299",
    "geocoded_column": {
      "latitude": "30.03595062927299",
      "longitude": "-89.95751061447936"
    }
  },
  {
    "service_request": "2025-1233092",
    "request_type": "Streetlights",
    "request_reason": "Streetlight Outage/Malfunction",
    "date_created": "2025-10-13T21:52:40.000",
    "date_modified": "2025-10-13T21:52:42.000",
    "request_status": "Pending",
    "responsible_agency": "Department of Public Works",
    "final_address": "3101 Jena St",
    "address_councildis": "B",
    "status": "Pending",
    "rowid": "1233092",
    "final_x": "3669952.55054",
    "final_y": "526250.123838",
    "longitude": "-90.10471153655884",
    "latitude": "29.941350802720606",
    "geocoded_column": {
      "latitude": "29.941350802720606",
      "longitude": "-90.10471153655884"
    }
  },
  {
    "service_request": "2025-1233091",
    "request_type": "Streetlights",
    "request_reason": "Streetlight Outage/Malfunction",
    "date_created": "2025-10-13T21:37:45.000",
    "date_modified": "2025-10-13T21:37:47.000",
    "request_status": "Pending",
    "responsible_agency": "Department of Public Works",
    "final_address": "5200 Timber Crest Dr",
    "address_councildis": "C",
    "status": "Pending",
    "rowid": "1233091",
    "final_x": "3703361.9393",
    "final_y": "511254.186672",
    "longitude": "-89.99978345050444",
    "latitude": "29.899089848267874",
    "geocoded_column": {
      "latitude": "29.899089848267874",
      "longitude": "-89.99978345050444"
    }
  },
  {
    "service_request": "2025-1233090",
    "request_type": "Streetlights",
    "request_reason": "Streetlight Outage/Malfunction",
    "date_created": "2025-10-13T21:13:33.000",
    "date_modified": "2025-10-13T21:13:35.000",
    "request_status": "Pending",
    "responsible_agency": "Department of Public Works",
    "final_address": "5200 Timber Crest Dr",
    "address_councildis": "C",
    "status": "Pending",
    "rowid": "1233090",
    "final_x": "3703361.9393",
    "final_y": "511254.186672",
    "longitude": "-89.99978345050444",
    "latitude": "29.899089848267874",
    "geocoded_column": {
      "latitude": "29.899089848267874",
      "longitude": "-89.99978345050444"
    }
  },
  {
    "service_request": "2025-1233089",
    "request_type": "Streetlights",
    "request_reason": "Streetlight Outage/Malfunction",
    "date_created": "2025-10-13T21:03:28.000",
    "date_modified": "2025-10-13T21:03:29.000",
    "request_status": "Pending",
    "responsible_agency": "Department of Public Works",
    "final_address": "5028 Stephen Girard Ave",
    "address_councildis": "D",
    "status": "Pending",
    "rowid": "1233089",
    "final_x": "3692806.55235",
    "final_y": "551091.128405",
    "longitude": "-90.0316664254073",
    "latitude": "30.008961117680084",
    "geocoded_column": {
      "latitude": "30.008961117680084",
      "longitude": "-90.0316664254073"
    }
  },
  {
    "service_request": "2025-1233086",
    "request_type": "Streetlights",
    "request_reason": "Streetlight Outage/Malfunction",
    "date_created": "2025-10-13T20:56:42.000",
    "date_modified": "2025-10-13T20:56:44.000",
    "request_status": "Pending",
    "responsible_agency": "Department of Public Works",
    "final_address": "600 BLK Jewel St",
    "address_councildis": "D",
    "status": "Pending",
    "rowid": "1233086",
    "final_x": "3669063.52273",
    "final_y": "555954.643128",
    "longitude": "-90.10651426880959",
    "latitude": "30.023054324403695",
    "geocoded_column": {
      "latitude": "30.023054324403695",
      "longitude": "-90.10651426880959"
    }
  },
  {
    "service_request": "2025-1233088",
    "request_type": "Streetlights",
    "request_reason": "Streetlight Outage/Malfunction",
    "date_created": "2025-10-13T20:56:42.000",
    "date_modified": "2025-10-13T20:56:44.000",
    "request_status": "Pending",
    "responsible_agency": "Department of Public Works",
    "final_address": "600 BLK Jewel St",
    "address_councildis": "D",
    "status": "Pending",
    "rowid": "1233088",
    "final_x": "3669063.52273",
    "final_y": "555954.643128",
    "longitude": "-90.10651426880959",
    "latitude": "30.023054324403695",
    "geocoded_column": {
      "latitude": "30.023054324403695",
      "longitude": "-90.10651426880959"
    }
  },
  {
    "service_request": "2025-1233087",
    "request_type": "Streetlights",
    "request_reason": "Streetlight Outage/Malfunction",
    "date_created": "2025-10-13T20:56:42.000",
    "date_modified": "2025-10-13T20:56:45.000",
    "request_status": "Pending",
    "responsible_agency": "Department of Public Works",
    "final_address": "600 BLK Jewel St",
    "address_councildis": "D",
    "status": "Pending",
    "rowid": "1233087",
    "final_x": "3669063.52273",
    "final_y": "555954.643128",
    "longitude": "-90.10651426880959",
    "latitude": "30.023054324403695",
    "geocoded_column": {
      "latitude": "30.023054324403695",
      "longitude": "-90.10651426880959"
    }
  },
  {
    "service_request": "2025-1233085",
    "request_type": "Abandoned Vehicles",
    "request_reason": "Abandoned/Junk Vehicles",
    "date_created": "2025-10-13T20:40:05.000",
    "date_modified": "2025-10-13T20:40:06.000",
    "request_status": "Pending",
    "responsible_agency": "Department of Public Works",
    "final_address": "1224 Lowerline St",
    "address_councildis": "A",
    "status": "Pending",
    "rowid": "1233085",
    "final_x": "3663789.0464",
    "final_y": "527062.176702",
    "longitude": "-90.12414393851027",
    "latitude": "29.943763969301408",
    "geocoded_column": {
      "latitude": "29.943763969301408",
      "longitude": "-90.12414393851027"
    }
  },
  {
    "service_request": "2025-1233084",
    "request_type": "Drainage",
    "request_reason": "Catch Basin Not Draining",
    "date_created": "2025-10-13T20:26:20.000",
    "date_modified": "2025-10-13T20:26:21.000",
    "request_status": "Pending",
    "responsible_agency": "Sewerage & Water Board",
    "final_address": "4123 Dreux Ave",
    "address_councildis": "D",
    "status": "Pending",
    "rowid": "1233084",
    "final_x": "3689210.17219",
    "final_y": "552735.276182",
    "longitude": "-90.04297005563537",
    "latitude": "30.013593763665096",
    "geocoded_column": {
      "latitude": "30.013593763665096",
      "longitude": "-90.04297005563537"
    }
  },
  {
    "service_request": "2025-1233083",
    "request_type": "Drainage",
    "request_reason": "Catch Basin Not Draining",
    "date_created": "2025-10-13T20:22:06.000",
    "date_modified": "2025-10-13T20:22:08.000",
    "request_status": "Pending",
    "responsible_agency": "Sewerage & Water Board",
    "final_address": "4123 Dreux Ave",
    "address_councildis": "D",
    "status": "Pending",
    "rowid": "1233083",
    "final_x": "3689210.17219",
    "final_y": "552735.276182",
    "longitude": "-90.04297005563537",
    "latitude": "30.013593763665096",
    "geocoded_column": {
      "latitude": "30.013593763665096",
      "longitude": "-90.04297005563537"
    }
  },
  {
    "service_request": "2025-1233082",
    "request_type": "Trash/Recycling",
    "request_reason": "Order Trash Cart",
    "date_created": "2025-10-13T19:46:43.000",
    "date_modified": "2025-10-13T19:46:45.000",
    "request_status": "Pending",
    "responsible_agency": "Department of Sanitation",
    "final_address": "11298 Winrock Dr",
    "address_councildis": "E",
    "status": "Assigned to Contractor",
    "contractor": "Waste Pro",
    "rowid": "1233082",
    "final_x": "3717116.02469",
    "final_y": "561816.525215",
    "longitude": "-89.95445787710148",
    "latitude": "30.0376699667831",
    "geocoded_column": {
      "latitude": "30.0376699667831",
      "longitude": "-89.95445787710148"
    }
  },
  {
    "service_request": "2025-1233081",
    "request_type": "Trash/Recycling",
    "request_reason": "Request a Large Item Pick Up",
    "date_created": "2025-10-13T19:41:32.000",
    "date_modified": "2025-10-13T19:41:33.000",
    "request_status": "Pending",
    "responsible_agency": "Department of Sanitation",
    "final_address": "11040 Roger Dr Apt D",
    "address_councildis": "E",
    "status": "Assigned to Contractor",
    "contractor": "Waste Pro",
    "rowid": "1233081",
    "final_x": "3712448.69573",
    "final_y": "563514.17232",
    "longitude": "-89.96914373898365",
    "latitude": "30.042491422324932",
    "geocoded_column": {
      "latitude": "30.042491422324932",
      "longitude": "-89.96914373898365"
    }
  },
  {
    "service_request": "2025-1233080",
    "request_type": "Trash/Recycling",
    "request_reason": "Request a Large Item Pick Up",
    "date_created": "2025-10-13T19:40:04.000",
    "date_modified": "2025-10-13T19:40:07.000",
    "request_status": "Pending",
    "responsible_agency": "Department of Sanitation",
    "final_address": "10727 Roger Dr",
    "address_councildis": "E",
    "status": "Assigned to Contractor",
    "contractor": "Waste Pro",
    "rowid": "1233080",
    "final_x": "3711545.81029",
    "final_y": "563059.454112",
    "longitude": "-89.97201425780051",
    "latitude": "30.041270655559796",
    "geocoded_column": {
      "latitude": "30.041270655559796",
      "longitude": "-89.97201425780051"
    }
  },
  {
    "service_request": "2025-1233079",
    "request_type": "General Services",
    "request_reason": "General Service Request",
    "date_created": "2025-10-13T19:34:05.000",
    "date_modified": "2025-10-13T19:34:07.000",
    "request_status": "Pending",
    "responsible_agency": "Orleans Parish Communication District",
    "final_address": "3519 Republic St",
    "address_councildis": "D",
    "status": "Pending",
    "rowid": "1233079",
    "final_x": "3680519.45103",
    "final_y": "545372.028944",
    "longitude": "-90.07068455482127",
    "latitude": "29.99361370809165",
    "geocoded_column": {
      "latitude": "29.99361370809165",
      "longitude": "-90.07068455482127"
    }
  },
  {
    "service_request": "2025-1233078",
    "request_type": "Streetlights",
    "request_reason": "Streetlight Outage/Malfunction",
    "date_created": "2025-10-13T19:24:50.000",
    "date_modified": "2025-10-13T19:24:52.000",
    "request_status": "Pending",
    "responsible_agency": "Department of Public Works",
    "final_address": "340 S Diamond St",
    "address_councildis": "B",
    "status": "Pending",
    "rowid": "1233078",
    "final_x": "3681947.21423",
    "final_y": "526776.795902",
    "longitude": "-90.06682372717539",
    "latitude": "29.94243988380038",
    "geocoded_column": {
      "latitude": "29.94243988380038",
      "longitude": "-90.06682372717539"
    }
  },
  {
    "service_request": "2025-1233077",
    "request_type": "Street and Traffic Signs",
    "request_reason": "Traffic or Parking Sign Damaged or Missing",
    "date_created": "2025-10-13T19:23:21.000",
    "date_modified": "2025-10-13T19:23:22.000",
    "request_status": "Pending",
    "responsible_agency": "Department of Public Works",
    "final_address": "2317 Laurel St",
    "address_councildis": "B",
    "status": "Pending",
    "rowid": "1233077",
    "final_x": "3678828.81006",
    "final_y": "521175.493113",
    "longitude": "-90.07686315800636",
    "latitude": "29.927132551949505",
    "geocoded_column": {
      "latitude": "29.927132551949505",
      "longitude": "-90.07686315800636"
    }
  },
  {
    "service_request": "2025-1233076",
    "request_type": "Trash/Recycling",
    "request_reason": "Order Recycling Cart",
    "date_created": "2025-10-13T19:21:13.000",
    "date_modified": "2025-10-13T19:21:15.000",
    "request_status": "Pending",
    "responsible_agency": "Department of Sanitation",
    "final_address": "8000 Windward Ct",
    "address_councildis": "E",
    "status": "Pending",
    "rowid": "1233076",
    "final_x": "3714962.94712",
    "final_y": "570508.440871",
    "longitude": "-89.96093305009403",
    "latitude": "30.061640252845887",
    "geocoded_column": {
      "latitude": "30.061640252845887",
      "longitude": "-89.96093305009403"
    }
  },
  {
    "service_request": "2025-1233075",
    "request_type": "Streetlights",
    "request_reason": "Streetlight Outage/Malfunction",
    "date_created": "2025-10-13T19:19:53.000",
    "date_modified": "2025-10-13T19:19:54.000",
    "request_status": "Pending",
    "responsible_agency": "Department of Public Works",
    "final_address": "333 N Diamond St",
    "address_councildis": "B",
    "status": "Pending",
    "rowid": "1233075",
    "final_x": "3681950.65077",
    "final_y": "526921.360062",
    "longitude": "-90.06680783230718",
    "latitude": "29.9428372824241",
    "geocoded_column": {
      "latitude": "29.9428372824241",
      "longitude": "-90.06680783230718"
    }
  },
  {
    "service_request": "2025-1233074",
    "request_type": "Trash/Recycling",
    "request_reason": "Repair Trash Cart",
    "date_created": "2025-10-13T19:19:49.000",
    "date_modified": "2025-10-13T19:19:51.000",
    "request_status": "Pending",
    "responsible_agency": "Department of Sanitation",
    "final_address": "8000 Windward Ct",
    "address_councildis": "E",
    "status": "Assigned to Contractor",
    "contractor": "Waste Pro",
    "rowid": "1233074",
    "final_x": "3714962.94712",
    "final_y": "570508.440871",
    "longitude": "-89.96093305009403",
    "latitude": "30.061640252845887",
    "geocoded_column": {
      "latitude": "30.061640252845887",
      "longitude": "-89.96093305009403"
    }
  },
  {
    "service_request": "2025-1233073",
    "request_type": "Streetlights",
    "request_reason": "Streetlight Outage/Malfunction",
    "date_created": "2025-10-13T19:19:41.000",
    "date_modified": "2025-10-13T19:19:42.000",
    "request_status": "Pending",
    "responsible_agency": "Department of Public Works",
    "final_address": "7471 Restgate Rd",
    "address_councildis": "E",
    "status": "Pending",
    "rowid": "1233073",
    "final_x": "3710163.25118",
    "final_y": "564186.242913",
    "longitude": "-89.97634142194904",
    "latitude": "30.044413964759823",
    "geocoded_column": {
      "latitude": "30.044413964759823",
      "longitude": "-89.97634142194904"
    }
  },
  {
    "service_request": "2025-1233072",
    "request_type": "Streetlights",
    "request_reason": "Streetlight Outage/Malfunction",
    "date_created": "2025-10-13T19:18:11.000",
    "date_modified": "2025-10-13T19:18:13.000",
    "request_status": "Pending",
    "responsible_agency": "Department of Public Works",
    "final_address": "333 N Diamond St",
    "address_councildis": "B",
    "status": "Pending",
    "rowid": "1233072",
    "final_x": "3681950.65077",
    "final_y": "526921.360062",
    "longitude": "-90.06680783230718",
    "latitude": "29.9428372824241",
    "geocoded_column": {
      "latitude": "29.9428372824241",
      "longitude": "-90.06680783230718"
    }
  },
  {
    "service_request": "2025-1233071",
    "request_type": "Trash/Recycling",
    "request_reason": "Replace Trash Cart",
    "date_created": "2025-10-13T19:18:01.000",
    "date_modified": "2025-10-13T19:18:03.000",
    "request_status": "Pending",
    "responsible_agency": "Department of Sanitation",
    "final_address": "8000 Windward Ct",
    "address_councildis": "E",
    "status": "Assigned to Contractor",
    "contractor": "Waste Pro",
    "rowid": "1233071",
    "final_x": "3714962.94712",
    "final_y": "570508.440871",
    "longitude": "-89.96093305009403",
    "latitude": "30.061640252845887",
    "geocoded_column": {
      "latitude": "30.061640252845887",
      "longitude": "-89.96093305009403"
    }
  },
  {
    "service_request": "2025-1233070",
    "request_type": "Streetlights",
    "request_reason": "Streetlight Outage/Malfunction",
    "date_created": "2025-10-13T19:16:14.000",
    "date_modified": "2025-10-13T19:16:17.000",
    "request_status": "Pending",
    "responsible_agency": "Department of Public Works",
    "final_address": "333 N Diamond St",
    "address_councildis": "B",
    "status": "Pending",
    "rowid": "1233070",
    "final_x": "3681950.65077",
    "final_y": "526921.360062",
    "longitude": "-90.06680783230718",
    "latitude": "29.9428372824241",
    "geocoded_column": {
      "latitude": "29.9428372824241",
      "longitude": "-90.06680783230718"
    }
  },
  {
    "service_request": "2025-1233069",
    "request_type": "Trash/Recycling",
    "request_reason": "Request a Large Item Pick Up",
    "date_created": "2025-10-13T19:06:31.000",
    "date_modified": "2025-10-13T19:06:33.000",
    "request_status": "Pending",
    "responsible_agency": "Department of Sanitation",
    "final_address": "1704 S Rampart St",
    "address_councildis": "B",
    "status": "Assigned to Contractor",
    "contractor": "IV Waste",
    "rowid": "1233069",
    "final_x": "3677425.31797",
    "final_y": "525851.048893",
    "longitude": "-90.08113232820156",
    "latitude": "29.940031041871293",
    "geocoded_column": {
      "latitude": "29.940031041871293",
      "longitude": "-90.08113232820156"
    }
  },
  {
    "service_request": "2025-1233068",
    "request_type": "Trash/Recycling",
    "request_reason": "Change Size of Trash Cart",
    "date_created": "2025-10-13T18:55:32.000",
    "date_modified": "2025-10-13T18:55:33.000",
    "request_status": "Pending",
    "responsible_agency": "Department of Sanitation",
    "final_address": "622 Dumaine St",
    "address_councildis": "C",
    "status": "Assigned to Contractor",
    "contractor": "IV Waste",
    "rowid": "1233068",
    "final_x": "3683119.80546",
    "final_y": "532919.60762",
    "longitude": "-90.06290656551317",
    "latitude": "29.9592948456913",
    "geocoded_column": {
      "latitude": "29.9592948456913",
      "longitude": "-90.06290656551317"
    }
  },
  {
    "service_request": "2025-1233067",
    "request_type": "Streetlights",
    "request_reason": "Streetlight Outage/Malfunction",
    "date_created": "2025-10-13T18:51:03.000",
    "date_modified": "2025-10-13T18:51:05.000",
    "request_status": "Pending",
    "responsible_agency": "Department of Public Works",
    "final_address": "4537 Allen St",
    "address_councildis": "D",
    "status": "Pending",
    "rowid": "1233067",
    "final_x": "3681761.32712",
    "final_y": "549351.001363",
    "longitude": "-90.06662271392975",
    "latitude": "30.004516775904126",
    "geocoded_column": {
      "latitude": "30.004516775904126",
      "longitude": "-90.06662271392975"
    }
  },
  {
    "service_request": "2025-1233066",
    "request_type": "Abandoned Vehicles",
    "request_reason": "Abandoned/Junk Vehicles",
    "date_created": "2025-10-13T18:39:04.000",
    "date_modified": "2025-10-13T18:39:06.000",
    "request_status": "Pending",
    "responsible_agency": "Department of Public Works",
    "final_address": "4501 Bonita Dr",
    "address_councildis": "E",
    "status": "Pending",
    "rowid": "1233066",
    "final_x": "3704689.61553",
    "final_y": "553691.708823",
    "longitude": "-89.99402814333605",
    "latitude": "30.015735191896255",
    "geocoded_column": {
      "latitude": "30.015735191896255",
      "longitude": "-89.99402814333605"
    }
  },
  {
    "service_request": "2025-1233065",
    "request_type": "Property Maintenance",
    "request_reason": "Property Maintenance",
    "date_created": "2025-10-13T18:34:59.000",
    "date_modified": "2025-10-13T18:35:03.000",
    "request_status": "Pending",
    "responsible_agency": "Department of Code Enforcement",
    "final_address": "1419 Jourdan Ave",
    "address_councildis": "E",
    "status": "Pending",
    "rowid": "1233065",
    "final_x": "3695429.0088",
    "final_y": "535742.146311",
    "longitude": "-90.02393539736362",
    "latitude": "29.96667482625467",
    "geocoded_column": {
      "latitude": "29.96667482625467",
      "longitude": "-90.02393539736362"
    }
  },
  {
    "service_request": "2025-1233064",
    "request_type": "Trash/Recycling",
    "request_reason": "Replace Trash Cart",
    "date_created": "2025-10-13T18:23:55.000",
    "date_modified": "2025-10-13T18:23:57.000",
    "request_status": "Pending",
    "responsible_agency": "Department of Sanitation",
    "final_address": "1536 St Mary St",
    "address_councildis": "B",
    "status": "Assigned to Contractor",
    "contractor": "IV Waste",
    "rowid": "1233064",
    "final_x": "3678476.76475",
    "final_y": "524095.140732",
    "longitude": "-90.07787349169797",
    "latitude": "29.93517123676265",
    "geocoded_column": {
      "latitude": "29.93517123676265",
      "longitude": "-90.07787349169797"
    }
  },
  {
    "service_request": "2025-1233063",
    "request_type": "Healthy Homes",
    "request_reason": "Healthy Homes",
    "date_created": "2025-10-13T18:15:48.000",
    "date_modified": "2025-10-13T18:15:49.000",
    "request_status": "Pending",
    "responsible_agency": "Department of Code Enforcement",
    "final_address": "8413 Apple St",
    "address_councildis": "A",
    "status": "Pending",
    "rowid": "1233063",
    "final_x": "3664495.69933",
    "final_y": "532937.055044",
    "longitude": "-90.12171670194458",
    "latitude": "29.95989745888859",
    "geocoded_column": {
      "latitude": "29.95989745888859",
      "longitude": "-90.12171670194458"
    }
  },
  {
    "service_request": "2025-1233062",
    "request_type": "Trash/Recycling",
    "request_reason": "Missed Trash Pick-Up",
    "date_created": "2025-10-13T18:10:28.000",
    "date_modified": "2025-10-13T18:10:30.000",
    "request_status": "Pending",
    "responsible_agency": "Department of Sanitation",
    "final_address": "4767 Eunice St, New Orleans, Louisiana, 70127",
    "status": "Assigned to Contractor",
    "rowid": "1233062",
    "longitude": "0.0",
    "latitude": "0.0",
    "geocoded_column": {
      "latitude": "0.0",
      "longitude": "0.0"
    }
  },
  {
    "service_request": "2025-1233061",
    "request_type": "General Services",
    "request_reason": "General Service Request",
    "date_created": "2025-10-13T18:08:13.000",
    "date_modified": "2025-10-13T18:08:15.000",
    "request_status": "Pending",
    "responsible_agency": "Orleans Parish Communication District",
    "final_address": "Cleveland south st Patrick.",
    "status": "Pending",
    "rowid": "1233061",
    "longitude": "0.0",
    "latitude": "0.0",
    "geocoded_column": {
      "latitude": "0.0",
      "longitude": "0.0"
    }
  },
  {
    "service_request": "2025-1233060",
    "request_type": "Trash/Recycling",
    "request_reason": "Repair Trash Cart",
    "date_created": "2025-10-13T17:57:28.000",
    "date_modified": "2025-10-13T17:57:29.000",
    "request_status": "Pending",
    "responsible_agency": "Department of Sanitation",
    "final_address": "2101 S Carrollton Ave, New Orleans, Louisiana, 70118",
    "address_councildis": "A",
    "status": "Assigned to Contractor",
    "contractor": "IV Waste",
    "rowid": "1233060",
    "final_x": "3664238.18842",
    "final_y": "530626.31085",
    "longitude": "-90.12260696846405",
    "latitude": "29.953551148959843",
    "geocoded_column": {
      "latitude": "29.953551148959843",
      "longitude": "-90.12260696846405"
    }
  },
  {
    "service_request": "2025-1233059",
    "request_type": "Parks & Parkways",
    "request_reason": "Park Maintenance/Clean Up",
    "date_created": "2025-10-13T17:56:58.000",
    "date_modified": "2025-10-13T17:57:01.000",
    "request_status": "Pending",
    "responsible_agency": "Department of Parks & Parkway",
    "final_address": "801 Napoleon Ave",
    "address_councildis": "B",
    "status": "Pending",
    "rowid": "1233059",
    "final_x": "3671221.87975",
    "final_y": "518475.804022",
    "longitude": "-90.10096799525334",
    "latitude": "29.919936436497363",
    "geocoded_column": {
      "latitude": "29.919936436497363",
      "longitude": "-90.10096799525334"
    }
  },
  {
    "service_request": "2025-1233058",
    "request_type": "Roads and Streets",
    "request_reason": "Debris in Driving Lanes",
    "date_created": "2025-10-13T17:41:33.000",
    "date_modified": "2025-10-13T17:41:34.000",
    "request_status": "Pending",
    "responsible_agency": "Department of Public Works",
    "final_address": "2301 Dauphine St",
    "address_councildis": "C",
    "status": "Pending",
    "rowid": "1233058",
    "final_x": "3685559.45929",
    "final_y": "535292.272582",
    "longitude": "-90.05511916040699",
    "latitude": "29.9657442538213",
    "geocoded_column": {
      "latitude": "29.9657442538213",
      "longitude": "-90.05511916040699"
    }
  },
  {
    "service_request": "2025-1233057",
    "request_type": "Trash/Recycling",
    "request_reason": "Replace Trash Cart",
    "date_created": "2025-10-13T17:38:06.000",
    "date_modified": "2025-10-13T17:38:17.000",
    "request_status": "Pending",
    "responsible_agency": "Department of Sanitation",
    "final_address": "1927 Burdette St",
    "address_councildis": "A",
    "status": "Assigned to Contractor",
    "contractor": "IV Waste",
    "rowid": "1233057",
    "final_x": "3664613.46266",
    "final_y": "529552.438081",
    "longitude": "-90.12145786807126",
    "latitude": "29.9505874382597",
    "geocoded_column": {
      "latitude": "29.9505874382597",
      "longitude": "-90.12145786807126"
    }
  },
  {
    "service_request": "2025-1233056",
    "request_type": "Abandoned Vehicles",
    "request_reason": "Abandoned/Junk Vehicles",
    "date_created": "2025-10-13T17:35:03.000",
    "date_modified": "2025-10-13T17:35:05.000",
    "request_status": "Pending",
    "responsible_agency": "Department of Public Works",
    "final_address": "1312 Joseph St",
    "address_councildis": "A",
    "status": "Pending",
    "rowid": "1233056",
    "final_x": "3666466.32212",
    "final_y": "520661.215929",
    "longitude": "-90.11590574919167",
    "latitude": "29.9260854115366",
    "geocoded_column": {
      "latitude": "29.9260854115366",
      "longitude": "-90.11590574919167"
    }
  },
  {
    "service_request": "2025-1233055",
    "request_type": "Roads and Streets",
    "request_reason": "Street Subsidence (Sinking)",
    "date_created": "2025-10-13T17:15:23.000",
    "date_modified": "2025-10-13T17:15:25.000",
    "request_status": "Pending",
    "responsible_agency": "Sewerage & Water Board",
    "final_address": "3003 St Claude Ave",
    "address_councildis": "C",
    "status": "Pending",
    "rowid": "1233055",
    "final_x": "3688498.95926",
    "final_y": "536233.469383",
    "longitude": "-90.04580295312822",
    "latitude": "29.968241725104164",
    "geocoded_column": {
      "latitude": "29.968241725104164",
      "longitude": "-90.04580295312822"
    }
  },
  {
    "service_request": "2025-1233054",
    "request_type": "Abandoned Vehicles",
    "request_reason": "Abandoned/Junk Vehicles",
    "date_created": "2025-10-13T17:03:14.000",
    "date_modified": "2025-10-13T17:03:15.000",
    "request_status": "Pending",
    "responsible_agency": "Department of Public Works",
    "final_address": "3301 Calhoun St",
    "address_councildis": "A",
    "status": "Pending",
    "rowid": "1233054",
    "final_x": "3667473.81537",
    "final_y": "528802.048896",
    "longitude": "-90.11245156194393",
    "latitude": "29.948440619271828",
    "geocoded_column": {
      "latitude": "29.948440619271828",
      "longitude": "-90.11245156194393"
    }
  },
  {
    "service_request": "2025-1233053",
    "request_type": "Trash/Recycling",
    "request_reason": "Request a Large Item Pick Up",
    "date_created": "2025-10-13T17:01:15.000",
    "date_modified": "2025-10-13T17:01:18.000",
    "request_status": "Pending",
    "responsible_agency": "Department of Sanitation",
    "final_address": "1516 Dublin St",
    "address_councildis": "A",
    "status": "Assigned to Contractor",
    "contractor": "IV Waste",
    "rowid": "1233053",
    "final_x": "3662477.62311",
    "final_y": "529522.417473",
    "longitude": "-90.12820277893546",
    "latitude": "29.9505668314714",
    "geocoded_column": {
      "latitude": "29.9505668314714",
      "longitude": "-90.12820277893546"
    }
  },
  {
    "service_request": "2025-1233052",
    "request_type": "Roads and Streets",
    "request_reason": "Street Subsidence (Sinking)",
    "date_created": "2025-10-13T16:53:51.000",
    "date_modified": "2025-10-13T16:53:52.000",
    "request_status": "Pending",
    "responsible_agency": "Sewerage & Water Board",
    "final_address": "7807 Leake Ave",
    "address_councildis": "A",
    "status": "Pending",
    "rowid": "1233052",
    "final_x": "3660653.37722",
    "final_y": "525384.996669",
    "longitude": "-90.13409956378409",
    "latitude": "29.93924287052325",
    "geocoded_column": {
      "latitude": "29.93924287052325",
      "longitude": "-90.13409956378409"
    }
  },
  {
    "service_request": "2025-1233051",
    "request_type": "Trash/Recycling",
    "request_reason": "Request a Large Item Pick Up",
    "date_created": "2025-10-13T16:53:40.000",
    "date_modified": "2025-10-13T16:53:41.000",
    "request_status": "Pending",
    "responsible_agency": "Department of Sanitation",
    "final_address": "1900 Wildair Dr",
    "address_councildis": "D",
    "status": "Assigned to Contractor",
    "contractor": "IV Waste",
    "rowid": "1233051",
    "final_x": "3681141.9389",
    "final_y": "551104.013909",
    "longitude": "-90.06851834760108",
    "latitude": "30.009355742945843",
    "geocoded_column": {
      "latitude": "30.009355742945843",
      "longitude": "-90.06851834760108"
    }
  },
  {
    "service_request": "2025-1233050",
    "request_type": "Trash/Recycling",
    "request_reason": "Request a Large Item Pick Up",
    "date_created": "2025-10-13T16:50:09.000",
    "date_modified": "2025-10-13T16:50:11.000",
    "request_status": "Pending",
    "responsible_agency": "Department of Sanitation",
    "final_address": "217 N Bernadotte St",
    "address_councildis": "A",
    "status": "Assigned to Contractor",
    "contractor": "IV Waste",
    "rowid": "1233050",
    "final_x": "3669103.52519",
    "final_y": "540608.608395",
    "longitude": "-90.10690687349053",
    "latitude": "29.98085688599285",
    "geocoded_column": {
      "latitude": "29.98085688599285",
      "longitude": "-90.10690687349053"
    }
  },
  {
    "service_request": "2025-1233049",
    "request_type": "Drainage",
    "request_reason": "Catch Basin Not Draining",
    "date_created": "2025-10-13T16:38:38.000",
    "date_modified": "2025-10-13T16:38:41.000",
    "request_status": "Pending",
    "responsible_agency": "Sewerage & Water Board",
    "final_address": "9820 Lake Forest Blvd",
    "address_councildis": "E",
    "status": "Pending",
    "rowid": "1233049",
    "final_x": "3709633.30789",
    "final_y": "558829.502748",
    "longitude": "-89.9782164856221",
    "latitude": "30.02970230485032",
    "geocoded_column": {
      "latitude": "30.02970230485032",
      "longitude": "-89.9782164856221"
    }
  },
  {
    "service_request": "2025-1233048",
    "request_type": "Trash/Recycling",
    "request_reason": "Order Recycling Cart",
    "date_created": "2025-10-13T16:34:55.000",
    "date_modified": "2025-10-13T16:34:56.000",
    "request_status": "Pending",
    "responsible_agency": "Department of Sanitation",
    "final_address": "5610 New England Dr",
    "address_councildis": "E",
    "status": "Pending",
    "rowid": "1233048",
    "final_x": "3723583.8366",
    "final_y": "564171.601761",
    "longitude": "-89.9339274200175",
    "latitude": "30.043929862825557",
    "geocoded_column": {
      "latitude": "30.043929862825557",
      "longitude": "-89.9339274200175"
    }
  },
  {
    "service_request": "2025-1233047",
    "request_type": "Trash/Recycling",
    "request_reason": "Illegal Dumping",
    "date_created": "2025-10-13T16:33:31.000",
    "date_modified": "2025-10-13T16:33:34.000",
    "request_status": "Pending",
    "responsible_agency": "Department of Sanitation",
    "final_address": "6138 Providence Pl",
    "address_councildis": "D",
    "status": "Pending",
    "rowid": "1233047",
    "final_x": "3688460.47836",
    "final_y": "556021.255961",
    "longitude": "-90.04522198068467",
    "latitude": "30.022652182734323",
    "geocoded_column": {
      "latitude": "30.022652182734323",
      "longitude": "-90.04522198068467"
    }
  },
  {
    "service_request": "2025-1233046",
    "request_type": "Streetlights",
    "request_reason": "Streetlight Outage/Malfunction",
    "date_created": "2025-10-13T16:21:29.000",
    "date_modified": "2025-10-13T16:21:31.000",
    "request_status": "Pending",
    "responsible_agency": "Department of Public Works",
    "final_address": "1404 Pressburg St",
    "address_councildis": "D",
    "status": "Pending",
    "rowid": "1233046",
    "final_x": "3677546.83221",
    "final_y": "553873.072471",
    "longitude": "-90.07978082775529",
    "latitude": "30.017078285583292",
    "geocoded_column": {
      "latitude": "30.017078285583292",
      "longitude": "-90.07978082775529"
    }
  },
  {
    "service_request": "2025-1233045",
    "request_type": "Trash/Recycling",
    "request_reason": "Repair Recycling Cart",
    "date_created": "2025-10-13T16:19:40.000",
    "date_modified": "2025-10-13T16:19:41.000",
    "request_status": "Pending",
    "responsible_agency": "Department of Sanitation",
    "final_address": "6200 Cartier Ave",
    "address_councildis": "D",
    "status": "Pending",
    "rowid": "1233045",
    "final_x": "3677535.62939",
    "final_y": "555649.817241",
    "longitude": "-90.07975480784933",
    "latitude": "30.021964027437583",
    "geocoded_column": {
      "latitude": "30.021964027437583",
      "longitude": "-90.07975480784933"
    }
  },
  {
    "service_request": "2025-1233044",
    "request_type": "Trash/Recycling",
    "request_reason": "Replace Trash Cart",
    "date_created": "2025-10-13T16:18:17.000",
    "date_modified": "2025-10-13T16:18:19.000",
    "request_status": "Pending",
    "responsible_agency": "Department of Sanitation",
    "final_address": "2814 George Nick Connor Dr",
    "address_councildis": "D",
    "status": "Assigned to Contractor",
    "contractor": "IV Waste",
    "rowid": "1233044",
    "final_x": "3680998.15688",
    "final_y": "542856.759501",
    "longitude": "-90.06926004919573",
    "latitude": "29.98668309038838",
    "geocoded_column": {
      "latitude": "29.98668309038838",
      "longitude": "-90.06926004919573"
    }
  },
  {
    "service_request": "2025-1233043",
    "request_type": "Trash/Recycling",
    "request_reason": "Request a Large Item Pick Up",
    "date_created": "2025-10-13T16:13:48.000",
    "date_modified": "2025-10-13T16:13:50.000",
    "request_status": "Pending",
    "responsible_agency": "Department of Sanitation",
    "final_address": "529 Henry Clay Ave",
    "address_councildis": "A",
    "status": "Assigned to Contractor",
    "contractor": "IV Waste",
    "rowid": "1233043",
    "final_x": "3663543.42919",
    "final_y": "518799.926391",
    "longitude": "-90.12519446636342",
    "latitude": "29.92105251488559",
    "geocoded_column": {
      "latitude": "29.92105251488559",
      "longitude": "-90.12519446636342"
    }
  },
  {
    "service_request": "2025-1233042",
    "request_type": "Property Maintenance",
    "request_reason": "Property Maintenance",
    "date_created": "2025-10-13T16:12:01.000",
    "date_modified": "2025-10-13T16:12:10.000",
    "request_status": "Pending",
    "responsible_agency": "Department of Code Enforcement",
    "final_address": "5101 Sandhurst Dr",
    "address_councildis": "E",
    "status": "Pending",
    "rowid": "1233042",
    "final_x": "3705272.05028",
    "final_y": "556679.877082",
    "longitude": "-89.99207741461058",
    "latitude": "30.023932769594037",
    "geocoded_column": {
      "latitude": "30.023932769594037",
      "longitude": "-89.99207741461058"
    }
  },
  {
    "service_request": "2025-1233041",
    "request_type": "Trash/Recycling",
    "request_reason": "Request a Large Item Pick Up",
    "date_created": "2025-10-13T16:11:00.000",
    "date_modified": "2025-10-13T16:47:44.000",
    "request_status": "Pending",
    "responsible_agency": "Department of Sanitation",
    "final_address": "5726 Cartier Ave",
    "address_councildis": "D",
    "status": "Assigned to Contractor",
    "contractor": "IV Waste",
    "rowid": "1233041",
    "final_x": "3677427.18517",
    "final_y": "553600.015703",
    "longitude": "-90.08016829907214",
    "latitude": "30.016331076542514",
    "geocoded_column": {
      "latitude": "30.016331076542514",
      "longitude": "-90.08016829907214"
    }
  },
  {
    "service_request": "2025-1233040",
    "request_type": "Trash/Recycling",
    "request_reason": "Request a Large Item Pick Up",
    "date_created": "2025-10-13T16:08:00.000",
    "date_modified": "2025-10-13T16:08:02.000",
    "request_status": "Pending",
    "responsible_agency": "Department of Sanitation",
    "final_address": "1529 Henry Clay Ave",
    "address_councildis": "A",
    "status": "Assigned to Contractor",
    "contractor": "IV Waste",
    "rowid": "1233040",
    "final_x": "3664916.16327",
    "final_y": "522252.813882",
    "longitude": "-90.12074600238704",
    "latitude": "29.93050700026077",
    "geocoded_column": {
      "latitude": "29.93050700026077",
      "longitude": "-90.12074600238704"
    }
  },
  {
    "service_request": "2025-1233039",
    "request_type": "Abandoned Vehicles",
    "request_reason": "Abandoned/Junk Vehicles",
    "date_created": "2025-10-13T16:06:07.000",
    "date_modified": "2025-10-13T16:06:09.000",
    "request_status": "Pending",
    "responsible_agency": "Department of Public Works",
    "final_address": "1638 Cambronne St",
    "address_councildis": "A",
    "status": "Pending",
    "rowid": "1233039",
    "final_x": "3662293.24109",
    "final_y": "530396.05005",
    "longitude": "-90.1287559662384",
    "latitude": "29.95297437071311",
    "geocoded_column": {
      "latitude": "29.95297437071311",
      "longitude": "-90.1287559662384"
    }
  },
  {
    "service_request": "2025-1233038",
    "request_type": "Trash/Recycling",
    "request_reason": "Replace Trash Cart",
    "date_created": "2025-10-13T15:52:16.000",
    "date_modified": "2025-10-13T15:52:18.000",
    "request_status": "Pending",
    "responsible_agency": "Department of Sanitation",
    "final_address": "10912 Chaucer St",
    "address_councildis": "E",
    "status": "Assigned to Contractor",
    "contractor": "Waste Pro",
    "rowid": "1233038",
    "final_x": "3712716.07947",
    "final_y": "561693.501791",
    "longitude": "-89.96836725361477",
    "latitude": "30.03747655391162",
    "geocoded_column": {
      "latitude": "30.03747655391162",
      "longitude": "-89.96836725361477"
    }
  },
  {
    "service_request": "2025-1233037",
    "request_type": "Trash/Recycling",
    "request_reason": "Request a Large Item Pick Up",
    "date_created": "2025-10-13T15:51:55.000",
    "date_modified": "2025-10-13T15:51:57.000",
    "request_status": "Pending",
    "responsible_agency": "Department of Sanitation",
    "final_address": "4746 Western St",
    "address_councildis": "D",
    "status": "Assigned to Contractor",
    "contractor": "IV Waste",
    "rowid": "1233037",
    "final_x": "3684025.66684",
    "final_y": "550470.55426",
    "longitude": "-90.05942991935143",
    "latitude": "30.007526118232914",
    "geocoded_column": {
      "latitude": "30.007526118232914",
      "longitude": "-90.05942991935143"
    }
  },
  {
    "service_request": "2025-1233036",
    "request_type": "Trash/Recycling",
    "request_reason": "Request a Large Item Pick Up",
    "date_created": "2025-10-13T15:44:06.000",
    "date_modified": "2025-10-13T15:44:08.000",
    "request_status": "Pending",
    "responsible_agency": "Department of Sanitation",
    "final_address": "8510 S Claiborne Ave",
    "address_councildis": "A",
    "status": "Assigned to Contractor",
    "contractor": "IV Waste",
    "rowid": "1233036",
    "final_x": "3663616.92941",
    "final_y": "532518.902212",
    "longitude": "-90.12450560635534",
    "latitude": "29.958773195935706",
    "geocoded_column": {
      "latitude": "29.958773195935706",
      "longitude": "-90.12450560635534"
    }
  },
  {
    "service_request": "2025-1233035",
    "request_type": "Trash/Recycling",
    "request_reason": "Request a Large Item Pick Up",
    "date_created": "2025-10-13T15:37:00.000",
    "date_modified": "2025-10-13T15:37:02.000",
    "request_status": "Pending",
    "responsible_agency": "Department of Sanitation",
    "final_address": "1185 Allen Toussaint Blvd",
    "address_councildis": "D",
    "status": "Assigned to Contractor",
    "contractor": "IV Waste",
    "rowid": "1233035",
    "final_x": "3676055.95841",
    "final_y": "555295.667225",
    "longitude": "-90.08444239108685",
    "latitude": "30.0210346710266",
    "geocoded_column": {
      "latitude": "30.0210346710266",
      "longitude": "-90.08444239108685"
    }
  },
  {
    "service_request": "2025-1233034",
    "request_type": "Trash/Recycling",
    "request_reason": "Repair Recycling Cart",
    "date_created": "2025-10-13T15:23:13.000",
    "date_modified": "2025-10-13T15:23:15.000",
    "request_status": "Pending",
    "responsible_agency": "Department of Sanitation",
    "final_address": "2734 St Philip St",
    "address_councildis": "A",
    "status": "Pending",
    "rowid": "1233034",
    "final_x": "3677108.09186",
    "final_y": "538027.376585",
    "longitude": "-90.08171394591565",
    "latitude": "29.973521380800786",
    "geocoded_column": {
      "latitude": "29.973521380800786",
      "longitude": "-90.08171394591565"
    }
  },
  {
    "service_request": "2025-1233033",
    "request_type": "Streetlights",
    "request_reason": "Streetlight Outage/Malfunction",
    "date_created": "2025-10-13T15:22:57.000",
    "date_modified": "2025-10-13T15:22:59.000",
    "request_status": "Pending",
    "responsible_agency": "Department of Public Works",
    "final_address": "7401 Onyx St",
    "address_councildis": "D",
    "status": "Pending",
    "rowid": "1233033",
    "final_x": "3669008.52826",
    "final_y": "556034.285337",
    "longitude": "-90.10668534571867",
    "latitude": "30.023274930975376",
    "geocoded_column": {
      "latitude": "30.023274930975376",
      "longitude": "-90.10668534571867"
    }
  },
  {
    "service_request": "2025-1233032",
    "request_type": "Trash/Recycling",
    "request_reason": "Repair Trash Cart",
    "date_created": "2025-10-13T15:21:27.000",
    "date_modified": "2025-10-13T15:21:30.000",
    "request_status": "Pending",
    "responsible_agency": "Department of Sanitation",
    "final_address": "2736 St Philip St",
    "address_councildis": "A",
    "status": "Assigned to Contractor",
    "contractor": "IV Waste",
    "rowid": "1233032",
    "final_x": "3677097.84987",
    "final_y": "538032.314569",
    "longitude": "-90.08174612195076",
    "latitude": "29.973535266179095",
    "geocoded_column": {
      "latitude": "29.973535266179095",
      "longitude": "-90.08174612195076"
    }
  },
  {
    "service_request": "2025-1233031",
    "request_type": "Streetlights",
    "request_reason": "Streetlight Outage/Malfunction",
    "date_created": "2025-10-13T15:20:52.000",
    "date_modified": "2025-10-13T15:20:54.000",
    "request_status": "Pending",
    "responsible_agency": "Department of Public Works",
    "final_address": "7523 Onyx St",
    "address_councildis": "D",
    "status": "Pending",
    "rowid": "1233031",
    "final_x": "3669056.7963",
    "final_y": "556534.798618",
    "longitude": "-90.10651589575095",
    "latitude": "30.024649742918697",
    "geocoded_column": {
      "latitude": "30.024649742918697",
      "longitude": "-90.10651589575095"
    }
  },
  {
    "service_request": "2025-1233030",
    "request_type": "Trash/Recycling",
    "request_reason": "Request a Large Item Pick Up",
    "date_created": "2025-10-13T15:16:23.000",
    "date_modified": "2025-10-13T15:16:33.000",
    "request_status": "Pending",
    "responsible_agency": "Department of Sanitation",
    "final_address": "1302 Cambronne St",
    "address_councildis": "A",
    "status": "Assigned to Contractor",
    "contractor": "IV Waste",
    "rowid": "1233030",
    "final_x": "3661403.99379",
    "final_y": "529416.877121",
    "longitude": "-90.13159625912603",
    "latitude": "29.950307634484908",
    "geocoded_column": {
      "latitude": "29.950307634484908",
      "longitude": "-90.13159625912603"
    }
  },
  {
    "service_request": "2025-1233029",
    "request_type": "Roads and Streets",
    "request_reason": "Street Subsidence (Sinking)",
    "date_created": "2025-10-13T15:16:16.000",
    "date_modified": "2025-10-13T15:16:18.000",
    "request_status": "Pending",
    "responsible_agency": "Sewerage & Water Board",
    "final_address": "8517 Plum St",
    "address_councildis": "A",
    "status": "Pending",
    "rowid": "1233029",
    "final_x": "3661057.79898",
    "final_y": "529730.458753",
    "longitude": "-90.13267899177681",
    "latitude": "29.951179862478543",
    "geocoded_column": {
      "latitude": "29.951179862478543",
      "longitude": "-90.13267899177681"
    }
  },
  {
    "service_request": "2025-1233028",
    "request_type": "Trash/Recycling",
    "request_reason": "Illegal Dumping",
    "date_created": "2025-10-13T15:13:52.000",
    "date_modified": "2025-10-13T15:13:54.000",
    "request_status": "Pending",
    "responsible_agency": "Department of Sanitation",
    "final_address": "3417 Clara St",
    "address_councildis": "B",
    "status": "Pending",
    "rowid": "1233028",
    "final_x": "3672288.69889",
    "final_y": "525461.054589",
    "longitude": "-90.0973627234373",
    "latitude": "29.939112035402673",
    "geocoded_column": {
      "latitude": "29.939112035402673",
      "longitude": "-90.0973627234373"
    }
  },
  {
    "service_request": "2025-1233027",
    "request_type": "Trash/Recycling",
    "request_reason": "Request a Large Item Pick Up",
    "date_created": "2025-10-13T15:11:48.000",
    "date_modified": "2025-10-13T15:11:50.000",
    "request_status": "Pending",
    "responsible_agency": "Department of Sanitation",
    "final_address": "5329 Douglass St",
    "address_councildis": "E",
    "status": "Assigned to Contractor",
    "contractor": "Waste Pro",
    "rowid": "1233027",
    "final_x": "3696478.01936",
    "final_y": "531902.595587",
    "longitude": "-90.0207615423317",
    "latitude": "29.956084418340833",
    "geocoded_column": {
      "latitude": "29.956084418340833",
      "longitude": "-90.0207615423317"
    }
  },
  {
    "service_request": "2025-1233026",
    "request_type": "Drainage",
    "request_reason": "Catch Basin Frame and Cover Missing or Damaged",
    "date_created": "2025-10-13T15:08:23.000",
    "date_modified": "2025-10-13T15:08:24.000",
    "request_status": "Pending",
    "responsible_agency": "Sewerage & Water Board",
    "final_address": "1237 Charbonnet St",
    "address_councildis": "E",
    "status": "Pending",
    "rowid": "1233026",
    "final_x": "3698841.41687",
    "final_y": "534274.101765",
    "longitude": "-90.01321251188844",
    "latitude": "29.96253056461232",
    "geocoded_column": {
      "latitude": "29.96253056461232",
      "longitude": "-90.01321251188844"
    }
  },
  {
    "service_request": "2025-1233025",
    "request_type": "Roads and Streets",
    "request_reason": "Curb Damage",
    "date_created": "2025-10-13T15:07:04.000",
    "date_modified": "2025-10-13T15:07:07.000",
    "request_status": "Pending",
    "responsible_agency": "Department of Public Works",
    "final_address": "2506 St Bernard Ave",
    "address_councildis": "D",
    "status": "Pending",
    "rowid": "1233025",
    "final_x": "3680406.29755",
    "final_y": "541116.421132",
    "longitude": "-90.07119006172327",
    "latitude": "29.981915708238493",
    "geocoded_column": {
      "latitude": "29.981915708238493",
      "longitude": "-90.07119006172327"
    }
  },
  {
    "service_request": "2025-1233024",
    "request_type": "Trash/Recycling",
    "request_reason": "Illegal Dumping",
    "date_created": "2025-10-13T15:04:35.000",
    "date_modified": "2025-10-13T15:04:37.000",
    "request_status": "Pending",
    "responsible_agency": "Department of Sanitation",
    "final_address": "1237 Charbonnet St",
    "address_councildis": "E",
    "status": "Pending",
    "rowid": "1233024",
    "final_x": "3698841.41687",
    "final_y": "534274.101765",
    "longitude": "-90.01321251188844",
    "latitude": "29.96253056461232",
    "geocoded_column": {
      "latitude": "29.96253056461232",
      "longitude": "-90.01321251188844"
    }
  },
  {
    "service_request": "2025-1233023",
    "request_type": "Trash/Recycling",
    "request_reason": "Request a Large Item Pick Up",
    "date_created": "2025-10-13T15:02:50.000",
    "date_modified": "2025-10-13T15:02:52.000",
    "request_status": "Pending",
    "responsible_agency": "Department of Sanitation",
    "final_address": "923 Short St",
    "address_councildis": "A",
    "status": "Assigned to Contractor",
    "contractor": "IV Waste",
    "rowid": "1233023",
    "final_x": "3661740.73888",
    "final_y": "527410.011455",
    "longitude": "-90.13059950184716",
    "latitude": "29.94477968060557",
    "geocoded_column": {
      "latitude": "29.94477968060557",
      "longitude": "-90.13059950184716"
    }
  },
  {
    "service_request": "2025-1233022",
    "request_type": "Trash/Recycling",
    "request_reason": "Order Recycling Cart",
    "date_created": "2025-10-13T14:57:48.000",
    "date_modified": "2025-10-13T14:57:50.000",
    "request_status": "Pending",
    "responsible_agency": "Department of Sanitation",
    "final_address": "6331 Catina St",
    "address_councildis": "A",
    "status": "Pending",
    "rowid": "1233022",
    "final_x": "3666979.45498",
    "final_y": "549739.108052",
    "longitude": "-90.11330859908006",
    "latitude": "30.006024975643577",
    "geocoded_column": {
      "latitude": "30.006024975643577",
      "longitude": "-90.11330859908006"
    }
  },
  {
    "service_request": "2025-1233021",
    "request_type": "Trash/Recycling",
    "request_reason": "Request a Large Item Pick Up",
    "date_created": "2025-10-13T14:40:52.000",
    "date_modified": "2025-10-13T14:40:53.000",
    "request_status": "Pending",
    "responsible_agency": "Department of Sanitation",
    "final_address": "1306 Jefferson Ave",
    "address_councildis": "A",
    "status": "Assigned to Contractor",
    "contractor": "IV Waste",
    "rowid": "1233021",
    "final_x": "3667009.81249",
    "final_y": "520153.925176",
    "longitude": "-90.1142071396092",
    "latitude": "29.924674633211534",
    "geocoded_column": {
      "latitude": "29.924674633211534",
      "longitude": "-90.1142071396092"
    }
  },
  {
    "service_request": "2025-1233020",
    "request_type": "Trash/Recycling",
    "request_reason": "Replace Trash Cart",
    "date_created": "2025-10-13T14:40:46.000",
    "date_modified": "2025-10-13T14:40:48.000",
    "request_status": "Pending",
    "responsible_agency": "Department of Sanitation",
    "final_address": "9 Glen Abbey Way",
    "address_councildis": "C",
    "status": "Assigned to Contractor",
    "contractor": "Richards Disposal",
    "rowid": "1233020",
    "final_x": "3716814.38207",
    "final_y": "515364.901044",
    "longitude": "-89.9571741774657",
    "latitude": "29.909955521547126",
    "geocoded_column": {
      "latitude": "29.909955521547126",
      "longitude": "-89.9571741774657"
    }
  },
  {
    "service_request": "2025-1233019",
    "request_type": "Property Maintenance",
    "request_reason": "Property Maintenance",
    "date_created": "2025-10-13T14:32:52.000",
    "date_modified": "2025-10-13T14:32:54.000",
    "request_status": "Pending",
    "responsible_agency": "Department of Code Enforcement",
    "final_address": "1312 S Prieur St",
    "address_councildis": "B",
    "status": "Pending",
    "rowid": "1233019",
    "final_x": "3674453.30779",
    "final_y": "529094.684032",
    "longitude": "-90.09040434188935",
    "latitude": "29.949038942410866",
    "geocoded_column": {
      "latitude": "29.949038942410866",
      "longitude": "-90.09040434188935"
    }
  },
  {
    "service_request": "2025-1233018",
    "request_type": "Trash/Recycling",
    "request_reason": "Order Recycling Cart",
    "date_created": "2025-10-13T14:31:53.000",
    "date_modified": "2025-10-13T14:31:55.000",
    "request_status": "Pending",
    "responsible_agency": "Department of Sanitation",
    "final_address": "8531 Cohn St",
    "address_councildis": "A",
    "status": "Pending",
    "rowid": "1233018",
    "final_x": "3662390.47104",
    "final_y": "531358.952514",
    "longitude": "-90.12841698347513",
    "latitude": "29.955619230553",
    "geocoded_column": {
      "latitude": "29.955619230553",
      "longitude": "-90.12841698347513"
    }
  },
  {
    "service_request": "2025-1233017",
    "request_type": "Trash/Recycling",
    "request_reason": "Request a Large Item Pick Up",
    "date_created": "2025-10-13T14:27:12.000",
    "date_modified": "2025-10-13T14:27:14.000",
    "request_status": "Pending",
    "responsible_agency": "Department of Sanitation",
    "final_address": "3805 Magnolia St",
    "address_councildis": "B",
    "status": "Assigned to Contractor",
    "contractor": "IV Waste",
    "rowid": "1233017",
    "final_x": "3671807.02497",
    "final_y": "524916.366524",
    "longitude": "-90.09890195596995",
    "latitude": "29.937628597496246",
    "geocoded_column": {
      "latitude": "29.937628597496246",
      "longitude": "-90.09890195596995"
    }
  },
  {
    "service_request": "2025-1233016",
    "request_type": "General Services",
    "request_reason": "General Service Request",
    "date_created": "2025-10-13T14:20:25.000",
    "date_modified": "2025-10-13T14:20:28.000",
    "request_status": "Pending",
    "responsible_agency": "Orleans Parish Communication District",
    "final_address": "200 Lakeshore Parkway",
    "address_councildis": "D",
    "status": "Pending",
    "rowid": "1233016",
    "final_x": "3667199.01741",
    "final_y": "556472.106394",
    "longitude": "-90.11238829221853",
    "latitude": "30.02453192294092",
    "geocoded_column": {
      "latitude": "30.02453192294092",
      "longitude": "-90.11238829221853"
    }
  },
  {
    "service_request": "2025-1233015",
    "request_type": "Trash/Recycling",
    "request_reason": "Request a Large Item Pick Up",
    "date_created": "2025-10-13T14:18:14.000",
    "date_modified": "2025-10-13T14:18:16.000",
    "request_status": "Pending",
    "responsible_agency": "Department of Sanitation",
    "final_address": "9627 Irby St",
    "address_councildis": "E",
    "status": "Assigned to Contractor",
    "contractor": "Waste Pro",
    "rowid": "1233015",
    "final_x": "3706696.66462",
    "final_y": "564651.098337",
    "longitude": "-89.98728006289286",
    "latitude": "30.04580455888716",
    "geocoded_column": {
      "latitude": "30.04580455888716",
      "longitude": "-89.98728006289286"
    }
  },
  {
    "service_request": "2025-1233014",
    "request_type": "Drainage",
    "request_reason": "Catch Basin Frame and Cover Missing or Damaged",
    "date_created": "2025-10-13T14:17:02.000",
    "date_modified": "2025-10-13T14:17:04.000",
    "request_status": "Pending",
    "responsible_agency": "Sewerage & Water Board",
    "final_address": "3634 Franklin Ave",
    "address_councildis": "D",
    "status": "Pending",
    "rowid": "1233014",
    "final_x": "3687055.74946",
    "final_y": "546391.066064",
    "longitude": "-90.0500013888659",
    "latitude": "29.996216028107725",
    "geocoded_column": {
      "latitude": "29.996216028107725",
      "longitude": "-90.0500013888659"
    }
  },
  {
    "service_request": "2025-1233013",
    "request_type": "Safety & Permits",
    "request_reason": "Zoning Enforcement",
    "date_created": "2025-10-13T14:15:20.000",
    "date_modified": "2025-10-13T14:15:21.000",
    "request_status": "Pending",
    "responsible_agency": "Safety and Permits",
    "final_address": "1520 N Dorgenois St",
    "address_councildis": "D",
    "status": "Pending",
    "rowid": "1233013",
    "final_x": "3679254.22856",
    "final_y": "539347.315082",
    "longitude": "-90.07489021189157",
    "latitude": "29.97708612277162",
    "geocoded_column": {
      "latitude": "29.97708612277162",
      "longitude": "-90.07489021189157"
    }
  },
  {
    "service_request": "2025-1233012",
    "request_type": "Trash/Recycling",
    "request_reason": "Request a Large Item Pick Up",
    "date_created": "2025-10-13T14:14:42.000",
    "date_modified": "2025-10-13T14:14:43.000",
    "request_status": "Pending",
    "responsible_agency": "Department of Sanitation",
    "final_address": "7741 Hansbrough Ave",
    "address_councildis": "E",
    "status": "Assigned to Contractor",
    "contractor": "Waste Pro",
    "rowid": "1233012",
    "final_x": "3707460.65572",
    "final_y": "564904.577442",
    "longitude": "-89.98485606252517",
    "latitude": "30.046476825612757",
    "geocoded_column": {
      "latitude": "30.046476825612757",
      "longitude": "-89.98485606252517"
    }
  },
  {
    "service_request": "2025-1233011",
    "request_type": "Trash/Recycling",
    "request_reason": "Order Recycling Cart",
    "date_created": "2025-10-13T14:13:33.000",
    "date_modified": "2025-10-13T14:13:35.000",
    "request_status": "Pending",
    "responsible_agency": "Department of Sanitation",
    "final_address": "1843 Baronne St",
    "address_councildis": "B",
    "status": "Pending",
    "rowid": "1233011",
    "final_x": "3677594.64053",
    "final_y": "524951.337341",
    "longitude": "-90.0806288055093",
    "latitude": "29.93755204253592",
    "geocoded_column": {
      "latitude": "29.93755204253592",
      "longitude": "-90.0806288055093"
    }
  },
  {
    "service_request": "2025-1233010",
    "request_type": "Trash/Recycling",
    "request_reason": "Order Trash Cart",
    "date_created": "2025-10-13T14:10:24.000",
    "date_modified": "2025-10-13T14:20:35.000",
    "case_close_date": "2025-10-13T09:20:34.000",
    "request_status": "Closed",
    "responsible_agency": "Department of Sanitation",
    "final_address": "1843 Baronne St",
    "address_councildis": "B",
    "status": "Invalid Request",
    "contractor": "IV Waste",
    "contractor_action": "Invalid",
    "rowid": "1233010",
    "final_x": "3677594.64053",
    "final_y": "524951.337341",
    "longitude": "-90.0806288055093",
    "latitude": "29.93755204253592",
    "geocoded_column": {
      "latitude": "29.93755204253592",
      "longitude": "-90.0806288055093"
    }
  },
  {
    "service_request": "2025-1233009",
    "request_type": "Trash/Recycling",
    "request_reason": "Request a Large Item Pick Up",
    "date_created": "2025-10-13T14:10:13.000",
    "date_modified": "2025-10-13T14:10:15.000",
    "request_status": "Pending",
    "responsible_agency": "Department of Sanitation",
    "final_address": "10 S Oak Ridge Ct",
    "address_councildis": "E",
    "status": "Assigned to Contractor",
    "contractor": "Waste Pro",
    "rowid": "1233009",
    "final_x": "3713407.32498",
    "final_y": "567597.882276",
    "longitude": "-89.965960111648",
    "latitude": "30.053688550446058",
    "geocoded_column": {
      "latitude": "30.053688550446058",
      "longitude": "-89.965960111648"
    }
  },
  {
    "service_request": "2025-1233007",
    "request_type": "Trash/Recycling",
    "request_reason": "Order Trash Cart",
    "date_created": "2025-10-13T14:06:02.000",
    "date_modified": "2025-10-13T14:06:04.000",
    "request_status": "Pending",
    "responsible_agency": "Department of Sanitation",
    "final_address": "3931 Annunciation St",
    "address_councildis": "B",
    "status": "Assigned to Contractor",
    "contractor": "IV Waste",
    "rowid": "1233007",
    "final_x": "3673078.34414",
    "final_y": "517973.81759",
    "longitude": "-90.09512514905492",
    "latitude": "29.91850110184861",
    "geocoded_column": {
      "latitude": "29.91850110184861",
      "longitude": "-90.09512514905492"
    }
  },
  {
    "service_request": "2025-1233006",
    "request_type": "Trash/Recycling",
    "request_reason": "Order Recycling Cart",
    "date_created": "2025-10-13T14:03:52.000",
    "date_modified": "2025-10-13T14:03:54.000",
    "request_status": "Pending",
    "responsible_agency": "Department of Sanitation",
    "final_address": "3931 Annunciation St",
    "address_councildis": "B",
    "status": "Pending",
    "rowid": "1233006",
    "final_x": "3673078.34414",
    "final_y": "517973.81759",
    "longitude": "-90.09512514905492",
    "latitude": "29.91850110184861",
    "geocoded_column": {
      "latitude": "29.91850110184861",
      "longitude": "-90.09512514905492"
    }
  },
  {
    "service_request": "2025-1233005",
    "request_type": "Streetlights",
    "request_reason": "Streetlight Outage/Malfunction",
    "date_created": "2025-10-13T13:54:22.000",
    "date_modified": "2025-10-13T13:54:23.000",
    "request_status": "Pending",
    "responsible_agency": "Department of Public Works",
    "final_address": "1021 Wilson Dr",
    "address_councildis": "A",
    "status": "Pending",
    "rowid": "1233005",
    "final_x": "3674392.06894",
    "final_y": "540649.353867",
    "longitude": "-90.09020189136714",
    "latitude": "29.980812218406793",
    "geocoded_column": {
      "latitude": "29.980812218406793",
      "longitude": "-90.09020189136714"
    }
  },
  {
    "service_request": "2025-1233004",
    "request_type": "Parks & Parkways",
    "request_reason": "Request Tree Service (Right of Way/Public Property)",
    "date_created": "2025-10-13T13:54:07.000",
    "date_modified": "2025-10-13T13:54:09.000",
    "request_status": "Pending",
    "responsible_agency": "Department of Parks & Parkway",
    "final_address": "14 Lark St",
    "address_councildis": "D",
    "status": "Pending",
    "rowid": "1233004",
    "final_x": "3675970.64609",
    "final_y": "556494.697818",
    "longitude": "-90.08467066829878",
    "latitude": "30.024334127421113",
    "geocoded_column": {
      "latitude": "30.024334127421113",
      "longitude": "-90.08467066829878"
    }
  },
  {
    "service_request": "2025-1233003",
    "request_type": "Trash/Recycling",
    "request_reason": "Request a Large Item Pick Up",
    "date_created": "2025-10-13T13:54:03.000",
    "date_modified": "2025-10-13T13:54:05.000",
    "request_status": "Pending",
    "responsible_agency": "Department of Sanitation",
    "final_address": "4911 De Montluzin St",
    "address_councildis": "D",
    "status": "Assigned to Contractor",
    "contractor": "IV Waste",
    "rowid": "1233003",
    "final_x": "3687152.03887",
    "final_y": "551074.609429",
    "longitude": "-90.04953145509722",
    "latitude": "30.009091107218975",
    "geocoded_column": {
      "latitude": "30.009091107218975",
      "longitude": "-90.04953145509722"
    }
  },
  {
    "service_request": "2025-1233002",
    "request_type": "Trash/Recycling",
    "request_reason": "Replace Trash Cart",
    "date_created": "2025-10-13T13:48:11.000",
    "date_modified": "2025-10-13T13:48:13.000",
    "request_status": "Pending",
    "responsible_agency": "Department of Sanitation",
    "final_address": "224 S Clark St",
    "address_councildis": "B",
    "status": "Assigned to Contractor",
    "contractor": "IV Waste",
    "rowid": "1233002",
    "final_x": "3672509.19252",
    "final_y": "536467.934599",
    "longitude": "-90.09629143725785",
    "latitude": "29.96937076843791",
    "geocoded_column": {
      "latitude": "29.96937076843791",
      "longitude": "-90.09629143725785"
    }
  },
  {
    "service_request": "2025-1233001",
    "request_type": "Abandoned Vehicles",
    "request_reason": "Abandoned/Junk Vehicles",
    "date_created": "2025-10-13T13:47:55.000",
    "date_modified": "2025-10-13T13:47:57.000",
    "request_status": "Pending",
    "responsible_agency": "Department of Public Works",
    "final_address": "2193 Hope St",
    "address_councildis": "D",
    "status": "Pending",
    "rowid": "1233001",
    "final_x": "3684431.25084",
    "final_y": "542226.628045",
    "longitude": "-90.05843834829034",
    "latitude": "29.984845866509442",
    "geocoded_column": {
      "latitude": "29.984845866509442",
      "longitude": "-90.05843834829034"
    }
  },
  {
    "service_request": "2025-1233000",
    "request_type": "Trash/Recycling",
    "request_reason": "Request a Large Item Pick Up",
    "date_created": "2025-10-13T13:47:34.000",
    "date_modified": "2025-10-13T13:47:36.000",
    "request_status": "Pending",
    "responsible_agency": "Department of Sanitation",
    "final_address": "14 Lark St",
    "address_councildis": "D",
    "status": "Assigned to Contractor",
    "contractor": "IV Waste",
    "rowid": "1233000",
    "final_x": "3675970.64609",
    "final_y": "556494.697818",
    "longitude": "-90.08467066829878",
    "latitude": "30.024334127421113",
    "geocoded_column": {
      "latitude": "30.024334127421113",
      "longitude": "-90.08467066829878"
    }
  },
  {
    "service_request": "2025-1232999",
    "request_type": "General Services",
    "request_reason": "General Service Request",
    "date_created": "2025-10-13T13:46:22.000",
    "date_modified": "2025-10-13T13:46:24.000",
    "request_status": "Pending",
    "responsible_agency": "Orleans Parish Communication District",
    "final_address": "726 Alix St",
    "address_councildis": "C",
    "status": "Pending",
    "rowid": "1232999",
    "final_x": "3687752.99331",
    "final_y": "530396.186178",
    "longitude": "-90.04836546645329",
    "latitude": "29.952214243882917",
    "geocoded_column": {
      "latitude": "29.952214243882917",
      "longitude": "-90.04836546645329"
    }
  },
  {
    "service_request": "2025-1232998",
    "request_type": "Roads and Streets",
    "request_reason": "Push-up/Pavement Expansion",
    "date_created": "2025-10-13T13:44:45.000",
    "date_modified": "2025-10-13T13:44:47.000",
    "request_status": "Pending",
    "responsible_agency": "Department of Public Works",
    "final_address": "5900 BLK Bullard Ave",
    "address_councildis": "E",
    "status": "Pending",
    "rowid": "1232998",
    "final_x": "3716058.59672",
    "final_y": "563348.275978",
    "longitude": "-89.95774145360676",
    "latitude": "30.041916607627883",
    "geocoded_column": {
      "latitude": "30.041916607627883",
      "longitude": "-89.95774145360676"
    }
  },
  {
    "service_request": "2025-1232997",
    "request_type": "Streetlights",
    "request_reason": "Streetlight Outage/Malfunction",
    "date_created": "2025-10-13T13:42:40.000",
    "date_modified": "2025-10-13T13:42:42.000",
    "request_status": "Pending",
    "responsible_agency": "Department of Public Works",
    "final_address": "830 Bourbon St",
    "address_councildis": "C",
    "status": "Pending",
    "rowid": "1232997",
    "final_x": "3682676.51036",
    "final_y": "533169.516484",
    "longitude": "-90.06429764364378",
    "latitude": "29.95999551665766",
    "geocoded_column": {
      "latitude": "29.95999551665766",
      "longitude": "-90.06429764364378"
    }
  },
  {
    "service_request": "2025-1232996",
    "request_type": "Trash/Recycling",
    "request_reason": "Request a Large Item Pick Up",
    "date_created": "2025-10-13T13:34:19.000",
    "date_modified": "2025-10-13T13:34:22.000",
    "request_status": "Pending",
    "responsible_agency": "Department of Sanitation",
    "final_address": "7506 Briarheath Dr",
    "address_councildis": "E",
    "status": "Assigned to Contractor",
    "contractor": "Waste Pro",
    "rowid": "1232996",
    "final_x": "3714776.62034",
    "final_y": "567092.816036",
    "longitude": "-89.96165127044453",
    "latitude": "30.052254824523214",
    "geocoded_column": {
      "latitude": "30.052254824523214",
      "longitude": "-89.96165127044453"
    }
  },
  {
    "service_request": "2025-1232995",
    "request_type": "Trash/Recycling",
    "request_reason": "Request a Large Item Pick Up",
    "date_created": "2025-10-13T13:25:17.000",
    "date_modified": "2025-10-13T13:25:18.000",
    "request_status": "Pending",
    "responsible_agency": "Department of Sanitation",
    "final_address": "7831 Haney Dr",
    "address_councildis": "E",
    "status": "Assigned to Contractor",
    "contractor": "Waste Pro",
    "rowid": "1232995",
    "final_x": "3712200.29483",
    "final_y": "567942.333029",
    "longitude": "-89.96976223638922",
    "latitude": "30.054675199536945",
    "geocoded_column": {
      "latitude": "30.054675199536945",
      "longitude": "-89.96976223638922"
    }
  },
  {
    "service_request": "2025-1232994",
    "request_type": "Trash/Recycling",
    "request_reason": "Request a Large Item Pick Up",
    "date_created": "2025-10-13T13:14:24.000",
    "date_modified": "2025-10-13T13:14:26.000",
    "request_status": "Pending",
    "responsible_agency": "Department of Sanitation",
    "final_address": "13179 Sevres St",
    "address_councildis": "E",
    "status": "Assigned to Contractor",
    "contractor": "Waste Pro",
    "rowid": "1232994",
    "final_x": "3724714.54585",
    "final_y": "560727.251678",
    "longitude": "-89.93048720464364",
    "latitude": "30.034421301486713",
    "geocoded_column": {
      "latitude": "30.034421301486713",
      "longitude": "-89.93048720464364"
    }
  },
  {
    "service_request": "2025-1232993",
    "request_type": "Trash/Recycling",
    "request_reason": "Replace Recycling Cart",
    "date_created": "2025-10-13T13:06:14.000",
    "date_modified": "2025-10-13T13:06:16.000",
    "request_status": "Pending",
    "responsible_agency": "Department of Sanitation",
    "final_address": "37 Eugenie Ct",
    "address_councildis": "C",
    "status": "Pending",
    "rowid": "1232993",
    "final_x": "3700241.05482",
    "final_y": "511382.160944",
    "longitude": "-90.00962778320368",
    "latitude": "29.899541238000833",
    "geocoded_column": {
      "latitude": "29.899541238000833",
      "longitude": "-90.00962778320368"
    }
  },
  {
    "service_request": "2025-1232992",
    "request_type": "Trash/Recycling",
    "request_reason": "Request a Large Item Pick Up",
    "date_created": "2025-10-13T13:04:02.000",
    "date_modified": "2025-10-13T13:04:04.000",
    "request_status": "Pending",
    "responsible_agency": "Department of Sanitation",
    "final_address": "2216 Joseph St",
    "address_councildis": "A",
    "status": "Assigned to Contractor",
    "contractor": "IV Waste",
    "rowid": "1232992",
    "final_x": "3667228.23981",
    "final_y": "524283.951868",
    "longitude": "-90.11337883149152",
    "latitude": "29.93602450131843",
    "geocoded_column": {
      "latitude": "29.93602450131843",
      "longitude": "-90.11337883149152"
    }
  },
  {
    "service_request": "2025-1232991",
    "request_type": "Trash/Recycling",
    "request_reason": "Replace Trash Cart",
    "date_created": "2025-10-13T13:03:06.000",
    "date_modified": "2025-10-13T13:03:07.000",
    "request_status": "Pending",
    "responsible_agency": "Department of Sanitation",
    "final_address": "2239 Foucher St",
    "address_councildis": "B",
    "status": "Assigned to Contractor",
    "contractor": "IV Waste",
    "rowid": "1232991",
    "final_x": "3672728.72462",
    "final_y": "523604.189051",
    "longitude": "-90.09603680861598",
    "latitude": "29.93399319982071",
    "geocoded_column": {
      "latitude": "29.93399319982071",
      "longitude": "-90.09603680861598"
    }
  },
  {
    "service_request": "2025-1232990",
    "request_type": "Trash/Recycling",
    "request_reason": "Order Recycling Cart",
    "date_created": "2025-10-13T13:02:57.000",
    "date_modified": "2025-10-13T13:02:59.000",
    "request_status": "Pending",
    "responsible_agency": "Department of Sanitation",
    "final_address": "5724 Wickfield Dr",
    "address_councildis": "D",
    "status": "Pending",
    "rowid": "1232990",
    "final_x": "3681006.39285",
    "final_y": "553973.285144",
    "longitude": "-90.06884654754373",
    "latitude": "30.017249312818358",
    "geocoded_column": {
      "latitude": "30.017249312818358",
      "longitude": "-90.06884654754373"
    }
  },
  {
    "service_request": "2025-1232989",
    "request_type": "Trash/Recycling",
    "request_reason": "Request a Large Item Pick Up",
    "date_created": "2025-10-13T13:01:58.000",
    "date_modified": "2025-10-13T13:02:00.000",
    "request_status": "Pending",
    "responsible_agency": "Department of Sanitation",
    "final_address": "4931 Marseille St",
    "address_councildis": "E",
    "status": "Assigned to Contractor",
    "contractor": "Waste Pro",
    "rowid": "1232989",
    "final_x": "3729676.30253",
    "final_y": "562801.108064",
    "longitude": "-89.91472648075107",
    "latitude": "30.03995558086436",
    "geocoded_column": {
      "latitude": "30.03995558086436",
      "longitude": "-89.91472648075107"
    }
  },
  {
    "service_request": "2025-1232988",
    "request_type": "Trash/Recycling",
    "request_reason": "Request a Large Item Pick Up",
    "date_created": "2025-10-13T12:59:33.000",
    "date_modified": "2025-10-13T12:59:35.000",
    "request_status": "Pending",
    "responsible_agency": "Department of Sanitation",
    "final_address": "7815 Green St",
    "address_councildis": "A",
    "status": "Assigned to Contractor",
    "contractor": "IV Waste",
    "rowid": "1232988",
    "final_x": "3663914.36071",
    "final_y": "529029.31104",
    "longitude": "-90.12368271926206",
    "latitude": "29.949169319930217",
    "geocoded_column": {
      "latitude": "29.949169319930217",
      "longitude": "-90.12368271926206"
    }
  },
  {
    "service_request": "2025-1232987",
    "request_type": "Trash/Recycling",
    "request_reason": "Replace Trash Cart",
    "date_created": "2025-10-13T12:59:32.000",
    "date_modified": "2025-10-13T12:59:34.000",
    "request_status": "Pending",
    "responsible_agency": "Department of Sanitation",
    "final_address": "4701 San Marco Rd",
    "address_councildis": "E",
    "status": "Assigned to Contractor",
    "contractor": "Waste Pro",
    "rowid": "1232987",
    "final_x": "3763279.37008",
    "final_y": "572724.302121",
    "longitude": "-89.80811576577952",
    "latitude": "30.066053128437126",
    "geocoded_column": {
      "latitude": "30.066053128437126",
      "longitude": "-89.80811576577952"
    }
  },
  {
    "service_request": "2025-1232986",
    "request_type": "Trash/Recycling",
    "request_reason": "Request a Large Item Pick Up",
    "date_created": "2025-10-13T12:55:08.000",
    "date_modified": "2025-10-13T12:55:10.000",
    "request_status": "Pending",
    "responsible_agency": "Department of Sanitation",
    "final_address": "5919 West End Blvd",
    "address_councildis": "A",
    "status": "Assigned to Contractor",
    "contractor": "IV Waste",
    "rowid": "1232986",
    "final_x": "3666518.69415",
    "final_y": "547315.600017",
    "longitude": "-90.11484567719323",
    "latitude": "29.99937464808035",
    "geocoded_column": {
      "latitude": "29.99937464808035",
      "longitude": "-90.11484567719323"
    }
  },
  {
    "service_request": "2025-1232985",
    "request_type": "Trash/Recycling",
    "request_reason": "Order Recycling Cart",
    "date_created": "2025-10-13T12:54:02.000",
    "date_modified": "2025-10-13T12:54:03.000",
    "request_status": "Pending",
    "responsible_agency": "Department of Sanitation",
    "final_address": "3954 Magazine St",
    "address_councildis": "B",
    "status": "Pending",
    "rowid": "1232985",
    "final_x": "3672622.97787",
    "final_y": "518895.266423",
    "longitude": "-90.09653110757483",
    "latitude": "29.921048315170776",
    "geocoded_column": {
      "latitude": "29.921048315170776",
      "longitude": "-90.09653110757483"
    }
  },
  {
    "service_request": "2025-1232984",
    "request_type": "General Services",
    "request_reason": "General Service Request",
    "date_created": "2025-10-13T12:49:59.000",
    "date_modified": "2025-10-13T12:50:01.000",
    "request_status": "Pending",
    "responsible_agency": "Orleans Parish Communication District",
    "final_address": "0 BLK Agriculture Pl",
    "address_councildis": "D",
    "status": "Pending",
    "rowid": "1232984",
    "final_x": "3689891.40135",
    "final_y": "543419.290574",
    "longitude": "-90.04114966127275",
    "latitude": "29.987957086684915",
    "geocoded_column": {
      "latitude": "29.987957086684915",
      "longitude": "-90.04114966127275"
    }
  },
  {
    "service_request": "2025-1232983",
    "request_type": "Streetlights",
    "request_reason": "Streetlight Outage/Malfunction",
    "date_created": "2025-10-13T12:41:07.000",
    "date_modified": "2025-10-13T12:41:08.000",
    "request_status": "Pending",
    "responsible_agency": "Department of Public Works",
    "final_address": "0 BLK Green Parade Ln",
    "address_councildis": "D",
    "status": "Pending",
    "rowid": "1232983",
    "final_x": "3682244.59578",
    "final_y": "546846.074731",
    "longitude": "-90.0651835594502",
    "latitude": "29.99761442580809",
    "geocoded_column": {
      "latitude": "29.99761442580809",
      "longitude": "-90.0651835594502"
    }
  },
  {
    "service_request": "2025-1232982",
    "request_type": "Trash/Recycling",
    "request_reason": "Request a Large Item Pick Up",
    "date_created": "2025-10-13T12:39:17.000",
    "date_modified": "2025-10-13T12:39:25.000",
    "request_status": "Pending",
    "responsible_agency": "Department of Sanitation",
    "final_address": "1719 S Rendon St",
    "address_councildis": "B",
    "status": "Assigned to Contractor",
    "contractor": "IV Waste",
    "rowid": "1232982",
    "final_x": "3669536.59809",
    "final_y": "530687.777218",
    "longitude": "-90.10587469716206",
    "latitude": "29.9535651591184",
    "geocoded_column": {
      "latitude": "29.9535651591184",
      "longitude": "-90.10587469716206"
    }
  },
  {
    "service_request": "2025-1232981",
    "request_type": "Trash/Recycling",
    "request_reason": "Order Recycling Cart",
    "date_created": "2025-10-13T12:31:57.000",
    "date_modified": "2025-10-13T12:31:58.000",
    "request_status": "Pending",
    "responsible_agency": "Department of Sanitation",
    "final_address": "5707 Willow St",
    "address_councildis": "A",
    "status": "Pending",
    "rowid": "1232981",
    "final_x": "3667503.34887",
    "final_y": "525488.772221",
    "longitude": "-90.11246977565567",
    "latitude": "29.93932931393179",
    "geocoded_column": {
      "latitude": "29.93932931393179",
      "longitude": "-90.11246977565567"
    }
  },
  {
    "service_request": "2025-1232980",
    "request_type": "General Services",
    "request_reason": "General Service Request",
    "date_created": "2025-10-13T12:28:34.000",
    "date_modified": "2025-10-13T12:28:36.000",
    "request_status": "Pending",
    "responsible_agency": "Orleans Parish Communication District",
    "final_address": "2016 St Louis St",
    "address_councildis": "B",
    "status": "Pending",
    "rowid": "1232980",
    "final_x": "3678274.56411",
    "final_y": "534703.651782",
    "longitude": "-90.07814496766841",
    "latitude": "29.964347186560964",
    "geocoded_column": {
      "latitude": "29.964347186560964",
      "longitude": "-90.07814496766841"
    }
  },
  {
    "service_request": "2025-1232979",
    "request_type": "Trash/Recycling",
    "request_reason": "Request a Large Item Pick Up",
    "date_created": "2025-10-13T12:27:39.000",
    "date_modified": "2025-10-13T12:27:42.000",
    "request_status": "Pending",
    "responsible_agency": "Department of Sanitation",
    "final_address": "2324 Palmer Ave",
    "address_councildis": "A",
    "status": "Assigned to Contractor",
    "contractor": "IV Waste",
    "rowid": "1232979",
    "final_x": "3666226.39265",
    "final_y": "525480.699645",
    "longitude": "-90.11650157670546",
    "latitude": "29.939344466216667",
    "geocoded_column": {
      "latitude": "29.939344466216667",
      "longitude": "-90.11650157670546"
    }
  },
  {
    "service_request": "2025-1232978",
    "request_type": "Trash/Recycling",
    "request_reason": "Replace Trash Cart",
    "date_created": "2025-10-13T12:26:27.000",
    "date_modified": "2025-10-13T12:26:30.000",
    "request_status": "Pending",
    "responsible_agency": "Department of Sanitation",
    "final_address": "731 Weiblen Pl",
    "address_councildis": "A",
    "status": "Assigned to Contractor",
    "contractor": "IV Waste",
    "rowid": "1232978",
    "final_x": "3668333.3899",
    "final_y": "542633.537933",
    "longitude": "-90.10927098710705",
    "latitude": "29.98644739791221",
    "geocoded_column": {
      "latitude": "29.98644739791221",
      "longitude": "-90.10927098710705"
    }
  },
  {
    "service_request": "2025-1232977",
    "request_type": "Trash/Recycling",
    "request_reason": "Request a Large Item Pick Up",
    "date_created": "2025-10-13T12:24:31.000",
    "date_modified": "2025-10-13T12:24:33.000",
    "request_status": "Pending",
    "responsible_agency": "Department of Sanitation",
    "final_address": "5413 Burgundy St",
    "address_councildis": "E",
    "status": "Assigned to Contractor",
    "contractor": "Waste Pro",
    "rowid": "1232977",
    "final_x": "3697069.76682",
    "final_y": "533200.837316",
    "longitude": "-90.0188459887216",
    "latitude": "29.95963547257295",
    "geocoded_column": {
      "latitude": "29.95963547257295",
      "longitude": "-90.0188459887216"
    }
  },
  {
    "service_request": "2025-1232976",
    "request_type": "Trash/Recycling",
    "request_reason": "Request a Large Item Pick Up",
    "date_created": "2025-10-13T12:22:18.000",
    "date_modified": "2025-10-13T12:22:21.000",
    "request_status": "Pending",
    "responsible_agency": "Department of Sanitation",
    "final_address": "8601 Zimple St",
    "address_councildis": "A",
    "status": "Assigned to Contractor",
    "contractor": "IV Waste",
    "rowid": "1232976",
    "final_x": "3660392.59981",
    "final_y": "529379.898881",
    "longitude": "-90.13479095012634",
    "latitude": "29.950235084027565",
    "geocoded_column": {
      "latitude": "29.950235084027565",
      "longitude": "-90.13479095012634"
    }
  },
  {
    "service_request": "2025-1232975",
    "request_type": "Streetlights",
    "request_reason": "Streetlight Outage/Malfunction",
    "date_created": "2025-10-13T12:16:58.000",
    "date_modified": "2025-10-13T12:17:00.000",
    "request_status": "Pending",
    "responsible_agency": "Department of Public Works",
    "final_address": "228 Lakeshore Prkwy",
    "address_councildis": "D",
    "status": "Pending",
    "rowid": "1232975",
    "final_x": "3667250.47361",
    "final_y": "556635.589914",
    "longitude": "-90.11222019385656",
    "latitude": "30.024979936737584",
    "geocoded_column": {
      "latitude": "30.024979936737584",
      "longitude": "-90.11222019385656"
    }
  },
  {
    "service_request": "2025-1232974",
    "request_type": "Trash/Recycling",
    "request_reason": "Repair Trash Cart",
    "date_created": "2025-10-13T12:15:06.000",
    "date_modified": "2025-10-13T12:15:09.000",
    "request_status": "Pending",
    "responsible_agency": "Department of Sanitation",
    "final_address": "3426 Delachaise St",
    "address_councildis": "B",
    "status": "Assigned to Contractor",
    "contractor": "IV Waste",
    "rowid": "1232974",
    "final_x": "3671379.35604",
    "final_y": "527574.072447",
    "longitude": "-90.10016184110373",
    "latitude": "29.944949085806616",
    "geocoded_column": {
      "latitude": "29.944949085806616",
      "longitude": "-90.10016184110373"
    }
  },
  {
    "service_request": "2025-1232973",
    "request_type": "Streetlights",
    "request_reason": "Streetlight Outage/Malfunction",
    "date_created": "2025-10-13T12:13:33.000",
    "date_modified": "2025-10-13T12:13:39.000",
    "request_status": "Pending",
    "responsible_agency": "Department of Public Works",
    "final_address": "7222 Sardonyx St",
    "address_councildis": "D",
    "status": "Pending",
    "rowid": "1232973",
    "final_x": "3669508.68513",
    "final_y": "555266.233241",
    "longitude": "-90.10513096570928",
    "latitude": "30.021148329769133",
    "geocoded_column": {
      "latitude": "30.021148329769133",
      "longitude": "-90.10513096570928"
    }
  },
  {
    "service_request": "2025-1232972",
    "request_type": "Trash/Recycling",
    "request_reason": "Replace Trash Cart",
    "date_created": "2025-10-13T12:13:20.000",
    "date_modified": "2025-10-13T12:13:22.000",
    "request_status": "Pending",
    "responsible_agency": "Department of Sanitation",
    "final_address": "125 S Hennessey St",
    "address_councildis": "A",
    "status": "Assigned to Contractor",
    "contractor": "IV Waste",
    "rowid": "1232972",
    "final_x": "3670060.56513",
    "final_y": "538727.727241",
    "longitude": "-90.10394784755331",
    "latitude": "29.9756568988989",
    "geocoded_column": {
      "latitude": "29.9756568988989",
      "longitude": "-90.10394784755331"
    }
  },
  {
    "service_request": "2025-1232971",
    "request_type": "Streetlights",
    "request_reason": "Streetlight Outage/Malfunction",
    "date_created": "2025-10-13T12:10:42.000",
    "date_modified": "2025-10-13T12:10:44.000",
    "request_status": "Pending",
    "responsible_agency": "Department of Public Works",
    "final_address": "931 Emerald St",
    "address_councildis": "D",
    "status": "Pending",
    "rowid": "1232971",
    "final_x": "3670930.81812",
    "final_y": "554923.05564",
    "longitude": "-90.10064907977903",
    "latitude": "30.02016272299927",
    "geocoded_column": {
      "latitude": "30.02016272299927",
      "longitude": "-90.10064907977903"
    }
  },
  {
    "service_request": "2025-1232970",
    "request_type": "Streetlights",
    "request_reason": "Streetlight Outage/Malfunction",
    "date_created": "2025-10-13T12:07:17.000",
    "date_modified": "2025-10-13T12:07:19.000",
    "request_status": "Pending",
    "responsible_agency": "Department of Public Works",
    "final_address": "576 Lakeshore Prkwy",
    "address_councildis": "D",
    "status": "Pending",
    "rowid": "1232970",
    "final_x": "3668880.31822",
    "final_y": "556988.385754",
    "longitude": "-90.10705819942028",
    "latitude": "30.025902139655276",
    "geocoded_column": {
      "latitude": "30.025902139655276",
      "longitude": "-90.10705819942028"
    }
  },
  {
    "service_request": "2025-1232969",
    "request_type": "Streetlights",
    "request_reason": "New Streetlight Request",
    "date_created": "2025-10-13T12:04:42.000",
    "date_modified": "2025-10-13T12:04:44.000",
    "request_status": "Pending",
    "responsible_agency": "Department of Public Works",
    "final_address": "321 Crystal St",
    "address_councildis": "D",
    "status": "Pending",
    "rowid": "1232969",
    "final_x": "3667591.61716",
    "final_y": "556173.541978",
    "longitude": "-90.11115780371493",
    "latitude": "30.02369946857611",
    "geocoded_column": {
      "latitude": "30.02369946857611",
      "longitude": "-90.11115780371493"
    }
  },
  {
    "service_request": "2025-1232968",
    "request_type": "Parks & Parkways",
    "request_reason": "Request Tree Service (Right of Way/Public Property)",
    "date_created": "2025-10-13T12:01:40.000",
    "date_modified": "2025-10-13T12:01:42.000",
    "request_status": "Pending",
    "responsible_agency": "Department of Parks & Parkway",
    "final_address": "86 Oriole St",
    "address_councildis": "D",
    "status": "Pending",
    "rowid": "1232968",
    "final_x": "3675448.79182",
    "final_y": "556846.321562",
    "longitude": "-90.08630754365728",
    "latitude": "30.025316591586368",
    "geocoded_column": {
      "latitude": "30.025316591586368",
      "longitude": "-90.08630754365728"
    }
  },
  {
    "service_request": "2025-1232967",
    "request_type": "Trash/Recycling",
    "request_reason": "Damaged Caused By Contractor",
    "date_created": "2025-10-13T11:55:34.000",
    "date_modified": "2025-10-13T11:55:37.000",
    "request_status": "Pending",
    "responsible_agency": "Department of Sanitation",
    "final_address": "5238 Macarthur Blvd",
    "address_councildis": "C",
    "status": "Assigned to Contractor",
    "contractor": "Richards Disposal",
    "rowid": "1232967",
    "final_x": "3703533.4867",
    "final_y": "519891.075576",
    "longitude": "-89.99892465290522",
    "latitude": "29.92283284987122",
    "geocoded_column": {
      "latitude": "29.92283284987122",
      "longitude": "-89.99892465290522"
    }
  },
  {
    "service_request": "2025-1232966",
    "request_type": "Parks & Parkways",
    "request_reason": "Request Tree Service (Right of Way/Public Property)",
    "date_created": "2025-10-13T11:55:11.000",
    "date_modified": "2025-10-13T11:55:13.000",
    "request_status": "Pending",
    "responsible_agency": "Department of Parks & Parkway",
    "final_address": "839 Marigny St",
    "address_councildis": "C",
    "status": "Pending",
    "rowid": "1232966",
    "final_x": "3685516.64591",
    "final_y": "535576.06023",
    "longitude": "-90.0552443670129",
    "latitude": "29.966525884647336",
    "geocoded_column": {
      "latitude": "29.966525884647336",
      "longitude": "-90.0552443670129"
    }
  },
  {
    "service_request": "2025-1232965",
    "request_type": "Abandoned Vehicles",
    "request_reason": "Abandoned/Junk Vehicles",
    "date_created": "2025-10-13T11:54:12.000",
    "date_modified": "2025-10-13T11:54:15.000",
    "request_status": "Pending",
    "responsible_agency": "Department of Public Works",
    "final_address": "3132 General Taylor St",
    "address_councildis": "B",
    "status": "Pending",
    "rowid": "1232965",
    "final_x": "3671277.16315",
    "final_y": "526619.305726",
    "longitude": "-90.1005169292271",
    "latitude": "29.942326812458756",
    "geocoded_column": {
      "latitude": "29.942326812458756",
      "longitude": "-90.1005169292271"
    }
  },
  {
    "service_request": "2025-1232964",
    "request_type": "Property Maintenance",
    "request_reason": "Property Maintenance",
    "date_created": "2025-10-13T11:52:49.000",
    "date_modified": "2025-10-13T11:52:51.000",
    "request_status": "Pending",
    "responsible_agency": "Department of Code Enforcement",
    "final_address": "2016 S Saratoga St",
    "address_councildis": "B",
    "status": "Pending",
    "rowid": "1232964",
    "final_x": "3676938.31842",
    "final_y": "525535.735357",
    "longitude": "-90.08268072572561",
    "latitude": "29.939178658357786",
    "geocoded_column": {
      "latitude": "29.939178658357786",
      "longitude": "-90.08268072572561"
    }
  },
  {
    "service_request": "2025-1232963",
    "request_type": "Property Maintenance",
    "request_reason": "Property Maintenance",
    "date_created": "2025-10-13T11:51:33.000",
    "date_modified": "2025-10-13T11:51:35.000",
    "request_status": "Pending",
    "responsible_agency": "Department of Code Enforcement",
    "final_address": "2021 S Saratoga St",
    "address_councildis": "B",
    "status": "Pending",
    "rowid": "1232963",
    "final_x": "3676873.79157",
    "final_y": "525561.198269",
    "longitude": "-90.08288356782877",
    "latitude": "29.939250609399448",
    "geocoded_column": {
      "latitude": "29.939250609399448",
      "longitude": "-90.08288356782877"
    }
  },
  {
    "service_request": "2025-1232962",
    "request_type": "Utility Poles",
    "request_reason": "Wires Sagging/Hanging Low",
    "date_created": "2025-10-13T11:49:01.000",
    "date_modified": "2025-10-13T11:49:06.000",
    "request_status": "Pending",
    "responsible_agency": "Utility Company Collective",
    "final_address": "3132 General Taylor St",
    "address_councildis": "B",
    "status": "Pending",
    "rowid": "1232962",
    "final_x": "3671277.16315",
    "final_y": "526619.305726",
    "longitude": "-90.1005169292271",
    "latitude": "29.942326812458756",
    "geocoded_column": {
      "latitude": "29.942326812458756",
      "longitude": "-90.1005169292271"
    }
  },
  {
    "service_request": "2025-1232961",
    "request_type": "Property Maintenance",
    "request_reason": "Property Maintenance",
    "date_created": "2025-10-13T11:46:19.000",
    "date_modified": "2025-10-13T11:46:23.000",
    "request_status": "Pending",
    "responsible_agency": "Department of Code Enforcement",
    "final_address": "2505 Banks St",
    "address_councildis": "B",
    "status": "Pending",
    "rowid": "1232961",
    "final_x": "3675399.85352",
    "final_y": "533636.702981",
    "longitude": "-90.08725972492813",
    "latitude": "29.961499711727345",
    "geocoded_column": {
      "latitude": "29.961499711727345",
      "longitude": "-90.08725972492813"
    }
  },
  {
    "service_request": "2025-1232960",
    "request_type": "Trash/Recycling",
    "request_reason": "Return Recycling Cart",
    "date_created": "2025-10-13T11:43:32.000",
    "date_modified": "2025-10-13T11:43:34.000",
    "request_status": "Pending",
    "responsible_agency": "Department of Sanitation",
    "final_address": "3151 St Thomas St",
    "address_councildis": "B",
    "status": "Pending",
    "rowid": "1232960",
    "final_x": "3676707.45723",
    "final_y": "518472.775862",
    "longitude": "-90.08365277786007",
    "latitude": "29.91976474475319",
    "geocoded_column": {
      "latitude": "29.91976474475319",
      "longitude": "-90.08365277786007"
    }
  },
  {
    "service_request": "2025-1232959",
    "request_type": "General Services",
    "request_reason": "General Service Request",
    "date_created": "2025-10-13T11:39:06.000",
    "date_modified": "2025-10-13T11:39:08.000",
    "request_status": "Pending",
    "responsible_agency": "Orleans Parish Communication District",
    "final_address": "6368 Argonne Blvd",
    "address_councildis": "A",
    "status": "Pending",
    "rowid": "1232959",
    "final_x": "3670302.6411",
    "final_y": "549692.325012",
    "longitude": "-90.10281141736444",
    "latitude": "30.005798628341264",
    "geocoded_column": {
      "latitude": "30.005798628341264",
      "longitude": "-90.10281141736444"
    }
  },
  {
    "service_request": "2025-1232958",
    "request_type": "Trash/Recycling",
    "request_reason": "Replace Recycling Cart",
    "date_created": "2025-10-13T11:35:34.000",
    "date_modified": "2025-10-13T11:35:37.000",
    "request_status": "Pending",
    "responsible_agency": "Department of Sanitation",
    "final_address": "1416 Cadiz St",
    "address_councildis": "B",
    "status": "Pending",
    "rowid": "1232958",
    "final_x": "3670101.39521",
    "final_y": "520398.044024",
    "longitude": "-90.10443975753223",
    "latitude": "29.925255074794293",
    "geocoded_column": {
      "latitude": "29.925255074794293",
      "longitude": "-90.10443975753223"
    }
  },
  {
    "service_request": "2025-1232957",
    "request_type": "Safety & Permits",
    "request_reason": "Zoning Enforcement",
    "date_created": "2025-10-13T11:31:03.000",
    "date_modified": "2025-10-13T11:31:05.000",
    "request_status": "Pending",
    "responsible_agency": "Safety and Permits",
    "final_address": "5601 Burgundy St",
    "address_councildis": "E",
    "status": "Pending",
    "rowid": "1232957",
    "final_x": "3697866.80919",
    "final_y": "532997.011076",
    "longitude": "-90.01633652383119",
    "latitude": "29.959049857057465",
    "geocoded_column": {
      "latitude": "29.959049857057465",
      "longitude": "-90.01633652383119"
    }
  },