[
  {
    "service_request": "2023-994644",
    "request_type": "Abandoned Vehicles",
    "request_reason": "Abandoned/Junk Vehicles",
    "date_created": "2023-04-27T00:44:19.000",
    "date_modified": "2023-04-27T00:44:19.000",
    "request_status": "Pending",
    "responsible_agency": "Department of Public Works",
    "final_address": "4518 Elba St",
    "address_councildis": "B",
    "status": "Pending",
    "rowid": "994644",
    "final_x": "3669369.63892",
    "final_y": "530591.868226",
    "longitude": "-90.10640512816668",
    "latitude": "29.953306357644877",
    "geocoded_column": {
      "latitude": "29.953306357644877",
      "longitude": "-90.10640512816668"
    }
  },
  {
    "service_request": "2023-994643",
    "request_type": "Utility Poles",
    "request_reason": "Utility Pole Leaning",
    "date_created": "2023-04-26T23:40:15.000",
    "date_modified": "2023-04-26T23:53:00.000",
    "request_status": "Pending",
    "responsible_agency": "Utility Company Collective",
    "final_address": "1910 Stephen Girard St",
    "address_councildis": "D",
    "rowid": "994643",
    "final_x": "3681950.91669",
    "final_y": "548617.424019",
    "longitude": "-90.06604939597744",
    "latitude": "30.002493937135732",
    "geocoded_column": {
      "latitude": "30.002493937135732",
      "longitude": "-90.06604939597744"
    }
  },
  {
    "service_request": "2023-994642",
    "request_type": "Traffic Signals/Signs/Striping/Streetlights",
    "request_reason": "Street Light Knocked Down/Leaning",
    "date_created": "2023-04-26T23:16:56.000",
    "date_modified": "2023-04-26T23:16:57.000",
    "request_status": "Pending",
    "responsible_agency": "Department of Public Works",
    "final_address": "5535 Congress Dr",
    "address_councildis": "D",
    "status": "Pending",
    "contractor": "Legacy Professional Services",
    "rowid": "994642",
    "final_x": "3691625.78166",
    "final_y": "554319.79484",
    "longitude": "-90.03528130410173",
    "latitude": "30.01787558093929",
    "geocoded_column": {
      "latitude": "30.01787558093929",
      "longitude": "-90.03528130410173"
    }
  },
  {
    "service_request": "2023-994641",
    "request_type": "Traffic Signals/Signs/Striping/Streetlights",
    "request_reason": "Street Name Sign Damaged or Missing",
    "date_created": "2023-04-26T23:12:41.000",
    "date_modified": "2023-04-26T23:12:41.000",
    "request_status": "Pending",
    "responsible_agency": "Department of Public Works",
    "final_address": "5166 Press Dr",
    "address_councildis": "D",
    "status": "Pending",
    "rowid": "994641",
    "final_x": "3689205.01635",
    "final_y": "552604.755222",
    "longitude": "-90.04299098918311",
    "latitude": "30.01323503886098",
    "geocoded_column": {
      "latitude": "30.01323503886098",
      "longitude": "-90.04299098918311"
    }
  },
  {
    "service_request": "2023-994640",
    "request_type": "Property Maintenance",
    "request_reason": "Property Maintenance",
    "date_created": "2023-04-26T22:41:49.000",
    "date_modified": "2023-04-26T22:41:49.000",
    "request_status": "Pending",
    "responsible_agency": "Department of Code Enforcement",
    "final_address": "5401 Rhodes Ave",
    "address_councildis": "C",
    "status": "Pending",
    "rowid": "994640",
    "final_x": "3703999.89489",
    "final_y": "519887.571256",
    "longitude": "-89.99745252600799",
    "latitude": "29.922808270763984",
    "geocoded_column": {
      "latitude": "29.922808270763984",
      "longitude": "-89.99745252600799"
    }
  },
  {
    "service_request": "2023-994638",
    "request_type": "Parks & Parkways",
    "request_reason": "Request Tree Service (Right of Way/Public Property)",
    "date_created": "2023-04-26T22:30:42.000",
    "date_modified": "2023-04-26T22:30:42.000",
    "request_status": "Pending",
    "responsible_agency": "Department of Parks & Parkway",
    "final_address": "5400 Rhodes Ave",
    "address_councildis": "C",
    "status": "Pending",
    "rowid": "994638",
    "final_x": "3703990.50142",
    "final_y": "519997.940536",
    "longitude": "-89.99747811561058",
    "latitude": "29.923112049176567",
    "geocoded_column": {
      "latitude": "29.923112049176567",
      "longitude": "-89.99747811561058"
    }
  },
  {
    "service_request": "2023-994637",
    "request_type": "Roads/Drainage",
    "request_reason": "Street Flooding / Drainage",
    "date_created": "2023-04-26T22:23:08.000",
    "date_modified": "2023-04-26T22:23:08.000",
    "request_status": "Pending",
    "responsible_agency": "Department of Public Works",
    "final_address": "1702 Valence St",
    "address_councildis": "B",
    "status": "Pending",
    "rowid": "994637",
    "final_x": "3669649.93102",
    "final_y": "521184.703289",
    "longitude": "-90.10583828912499",
    "latitude": "29.927431443083407",
    "geocoded_column": {
      "latitude": "29.927431443083407",
      "longitude": "-90.10583828912499"
    }
  },
  {
    "service_request": "2023-994636",
    "request_type": "Mosquito, Termite & Rodent Control",
    "request_reason": "Mosquito Complaint",
    "date_created": "2023-04-26T22:22:59.000",
    "date_modified": "2023-04-26T22:22:59.000",
    "request_status": "Pending",
    "responsible_agency": "Mosquito, Termite & Rodent Control Board",
    "final_address": "5415 Rhodes Ave",
    "address_councildis": "C",
    "status": "Pending",
    "rowid": "994636",
    "final_x": "3704055.79985",
    "final_y": "519864.155512",
    "longitude": "-89.99727691928692",
    "latitude": "29.922742093311456",
    "geocoded_column": {
      "latitude": "29.922742093311456",
      "longitude": "-89.99727691928692"
    }
  },
  {
    "service_request": "2023-994635",
    "request_type": "Traffic Signals/Signs/Striping/Streetlights",
    "request_reason": "Street Light Outage/Malfunction",
    "date_created": "2023-04-26T22:18:43.000",
    "date_modified": "2023-04-26T22:18:44.000",
    "request_status": "Pending",
    "responsible_agency": "Department of Public Works",
    "final_address": "301 Delacroix Rd",
    "address_councildis": "C",
    "status": "Assigned to Contractor",
    "contractor": "Legacy Professional Services",
    "rowid": "994635",
    "final_x": "3726487.42496",
    "final_y": "516531.081461",
    "longitude": "-89.92659939796987",
    "latitude": "29.91283911260007",
    "geocoded_column": {
      "latitude": "29.91283911260007",
      "longitude": "-89.92659939796987"
    }
  },
  {
    "service_request": "2023-994634",
    "request_type": "Traffic Signals/Signs/Striping/Streetlights",
    "request_reason": "Street Light Outage/Malfunction",
    "date_created": "2023-04-26T22:18:36.000",
    "date_modified": "2023-04-26T22:18:37.000",
    "request_status": "Pending",
    "responsible_agency": "Department of Public Works",
    "final_address": "301 Delacroix Rd",
    "address_councildis": "C",
    "status": "Assigned to Contractor",
    "contractor": "Legacy Professional Services",
    "rowid": "994634",
    "final_x": "3726487.42496",
    "final_y": "516531.081461",
    "longitude": "-89.92659939796987",
    "latitude": "29.91283911260007",
    "geocoded_column": {
      "latitude": "29.91283911260007",
      "longitude": "-89.92659939796987"
    }
  },
  {
    "service_request": "2023-994632",
    "request_type": "Traffic Signals/Signs/Striping/Streetlights",
    "request_reason": "Street Light Outage/Malfunction",
    "date_created": "2023-04-26T22:15:56.000",
    "date_modified": "2023-04-26T22:15:57.000",
    "request_status": "Pending",
    "responsible_agency": "Department of Public Works",
    "final_address": "5415 Rhodes Ave",
    "address_councildis": "C",
    "status": "Assigned to Contractor",
    "contractor": "Legacy Professional Services",
    "rowid": "994632",
    "final_x": "3704055.79985",
    "final_y": "519864.155512",
    "longitude": "-89.99727691928692",
    "latitude": "29.922742093311456",
    "geocoded_column": {
      "latitude": "29.922742093311456",
      "longitude": "-89.99727691928692"
    }
  },
  {
    "service_request": "2023-994631",
    "request_type": "Trash/Recycling",
    "request_reason": "Start Trash Service",
    "date_created": "2023-04-26T22:09:07.000",
    "date_modified": "2023-04-26T22:09:08.000",
    "request_status": "Pending",
    "responsible_agency": "Department of Sanitation",
    "final_address": "5415 Rhodes Ave",
    "address_councildis": "C",
    "status": "Assigned to Contractor",
    "contractor": "Richards Disposal",
    "rowid": "994631",
    "final_x": "3704055.79985",
    "final_y": "519864.155512",
    "longitude": "-89.99727691928692",
    "latitude": "29.922742093311456",
    "geocoded_column": {
      "latitude": "29.922742093311456",
      "longitude": "-89.99727691928692"
    }
  },
  {
    "service_request": "2023-994630",
    "request_type": "Roads/Drainage",
    "request_reason": "Street Subsidence (Sinking)",
    "date_created": "2023-04-26T22:05:52.000",
    "date_modified": "2023-04-26T22:05:52.000",
    "request_status": "Pending",
    "responsible_agency": "Department of Public Works",
    "final_address": "5415 Rhodes Ave",
    "address_councildis": "C",
    "status": "Pending",
    "rowid": "994630",
    "final_x": "3704055.79985",
    "final_y": "519864.155512",
    "longitude": "-89.99727691928692",
    "latitude": "29.922742093311456",
    "geocoded_column": {
      "latitude": "29.922742093311456",
      "longitude": "-89.99727691928692"
    }
  },
  {
    "service_request": "2023-994629",
    "request_type": "Health Related Request",
    "request_reason": "Noise Ordinance Complaint",
    "date_created": "2023-04-26T22:05:29.000",
    "date_modified": "2023-04-26T22:05:29.000",
    "request_status": "Pending",
    "responsible_agency": "Health Department",
    "final_address": "711 Bourbon St, New Orleans, Louisiana, 70116",
    "address_councildis": "C",
    "status": "Pending",
    "rowid": "994629",
    "final_x": "3682299.38447",
    "final_y": "532765.705988",
    "longitude": "-90.06550263299877",
    "latitude": "29.95889665479323",
    "geocoded_column": {
      "latitude": "29.95889665479323",
      "longitude": "-90.06550263299877"
    }
  },
  {
    "service_request": "2023-994628",
    "request_type": "Traffic Signals/Signs/Striping/Streetlights",
    "request_reason": "Street Light Outage/Malfunction",
    "date_created": "2023-04-26T21:47:27.000",
    "date_modified": "2023-04-26T21:47:28.000",
    "request_status": "Pending",
    "responsible_agency": "Department of Public Works",
    "final_address": "7210 Briarheath Dr",
    "address_councildis": "E",
    "status": "Assigned to Contractor",
    "contractor": "Legacy Professional Services",
    "rowid": "994628",
    "final_x": "3714459.93253",
    "final_y": "566060.730019",
    "longitude": "-89.96269123682549",
    "latitude": "30.049427429433926",
    "geocoded_column": {
      "latitude": "30.049427429433926",
      "longitude": "-89.96269123682549"
    }
  },
  {
    "service_request": "2023-994627",
    "request_type": "Safety & Permits",
    "request_reason": "Licenses & Permits",
    "date_created": "2023-04-26T21:35:42.000",
    "date_modified": "2023-04-26T21:35:42.000",
    "request_status": "Pending",
    "responsible_agency": "Safety and Permits",
    "status": "Pending",
    "rowid": "994627",
    "longitude": "0.0",
    "latitude": "0.0",
    "geocoded_column": {
      "latitude": "0.0",
      "longitude": "0.0"
    }
  },
  {
    "service_request": "2023-994626",
    "request_type": "Health Related Request",
    "request_reason": "Noise Ordinance Complaint",
    "date_created": "2023-04-26T21:34:36.000",
    "date_modified": "2023-04-26T21:34:36.000",
    "request_status": "Pending",
    "responsible_agency": "Health Department",
    "final_address": "1143 St Bernard Ave",
    "address_councildis": "C",
    "status": "Pending",
    "rowid": "994626",
    "final_x": "3683179.03061",
    "final_y": "536078.892359",
    "longitude": "-90.06260891131107",
    "latitude": "29.96797998737953",
    "geocoded_column": {
      "latitude": "29.96797998737953",
      "longitude": "-90.06260891131107"
    }
  },
  {
    "service_request": "2023-994625",
    "request_type": "Property Maintenance",
    "request_reason": "Property Maintenance",
    "date_created": "2023-04-26T21:26:35.000",
    "date_modified": "2023-04-26T21:26:35.000",
    "request_status": "Pending",
    "responsible_agency": "Department of Code Enforcement",
    "final_address": "120 Mound Ave",
    "address_councildis": "A",
    "status": "Pending",
    "rowid": "994625",
    "final_x": "3666452.02093",
    "final_y": "543838.548622",
    "longitude": "-90.11517307446007",
    "latitude": "29.989815896447553",
    "geocoded_column": {
      "latitude": "29.989815896447553",
      "longitude": "-90.11517307446007"
    }
  },
  {
    "service_request": "2023-994623",
    "request_type": "Trash/Recycling",
    "request_reason": "Request a Large Item Pick Up",
    "date_created": "2023-04-26T20:33:35.000",
    "date_modified": "2023-04-26T20:33:35.000",
    "request_status": "Pending",
    "responsible_agency": "Department of Sanitation",
    "final_address": "1118 Brooklyn Ave",
    "address_councildis": "C",
    "status": "Assigned to Contractor",
    "contractor": "Richards Disposal",
    "rowid": "994623",
    "final_x": "3686262.99222",
    "final_y": "527337.423807",
    "longitude": "-90.0531780912437",
    "latitude": "29.943849548588773",
    "geocoded_column": {
      "latitude": "29.943849548588773",
      "longitude": "-90.0531780912437"
    }
  },
  {
    "service_request": "2023-994622",
    "request_type": "Trash/Recycling",
    "request_reason": "Request a Large Item Pick Up",
    "date_created": "2023-04-26T20:23:33.000",
    "date_modified": "2023-04-26T20:23:34.000",
    "request_status": "Pending",
    "responsible_agency": "Department of Sanitation",
    "final_address": "602 S Cortez St",
    "address_councildis": "B",
    "status": "Assigned to Contractor",
    "contractor": "Richards Disposal",
    "rowid": "994622",
    "final_x": "3670877.9602",
    "final_y": "535970.364231",
    "longitude": "-90.10145990413255",
    "latitude": "29.968050939378738",
    "geocoded_column": {
      "latitude": "29.968050939378738",
      "longitude": "-90.10145990413255"
    }
  },
  {
    "service_request": "2023-994621",
    "request_type": "Trash/Recycling",
    "request_reason": "Missed Trash Pick-Up",
    "date_created": "2023-04-26T19:37:04.000",
    "date_modified": "2023-04-26T19:37:05.000",
    "request_status": "Pending",
    "responsible_agency": "Department of Sanitation",
    "final_address": "926 Leontine St",
    "address_councildis": "B",
    "status": "Assigned to Contractor",
    "contractor": "Richards Disposal",
    "rowid": "994621",
    "final_x": "3667147.66183",
    "final_y": "518930.159287",
    "longitude": "-90.11381310809263",
    "latitude": "29.92130562928771",
    "geocoded_column": {
      "latitude": "29.92130562928771",
      "longitude": "-90.11381310809263"
    }
  },
  {
    "service_request": "2023-994620",
    "request_type": "Traffic Signals/Signs/Striping/Streetlights",
    "request_reason": "Street Light Outage/Malfunction",
    "date_created": "2023-04-26T19:33:58.000",
    "date_modified": "2023-04-26T19:33:59.000",
    "request_status": "Pending",
    "responsible_agency": "Department of Public Works",
    "final_address": "1930 Mazant St",
    "address_councildis": "D",
    "status": "Assigned to Contractor",
    "contractor": "Legacy Professional Services",
    "rowid": "994620",
    "final_x": "3692874.35395",
    "final_y": "538482.544585",
    "longitude": "-90.03190465462983",
    "latitude": "29.974289973339456",
    "geocoded_column": {
      "latitude": "29.974289973339456",
      "longitude": "-90.03190465462983"
    }
  },
  {
    "service_request": "2023-994619",
    "request_type": "Trash/Recycling",
    "request_reason": "Missed Trash Pick-Up",
    "date_created": "2023-04-26T19:29:06.000",
    "date_modified": "2023-04-26T19:29:06.000",
    "request_status": "Pending",
    "responsible_agency": "Department of Sanitation",
    "final_address": "5918 Chatham Dr",
    "address_councildis": "D",
    "status": "Assigned to Contractor",
    "contractor": "IV Waste",
    "rowid": "994619",
    "final_x": "3679545.42485",
    "final_y": "554295.191064",
    "longitude": "-90.07345143115965",
    "latitude": "30.018178687224",
    "geocoded_column": {
      "latitude": "30.018178687224",
      "longitude": "-90.07345143115965"
    }
  },
  {
    "service_request": "2023-994617",
    "request_type": "Trash/Recycling",
    "request_reason": "Missed Trash Pick-Up",
    "date_created": "2023-04-26T19:20:43.000",
    "date_modified": "2023-04-26T19:20:44.000",
    "request_status": "Pending",
    "responsible_agency": "Department of Sanitation",
    "final_address": "2306 Third St",
    "address_councildis": "B",
    "status": "Assigned to Contractor",
    "contractor": "Richards Disposal",
    "rowid": "994617",
    "final_x": "3674990.65909",
    "final_y": "524995.578173",
    "longitude": "-90.08884825651748",
    "latitude": "29.93775171209423",
    "geocoded_column": {
      "latitude": "29.93775171209423",
      "longitude": "-90.08884825651748"
    }
  },
  {
    "service_request": "2023-994616",
    "request_type": "Traffic Signals/Signs/Striping/Streetlights",
    "request_reason": "Street Light Outage/Malfunction",
    "date_created": "2023-04-26T19:11:13.000",
    "date_modified": "2023-04-26T19:11:14.000",
    "request_status": "Pending",
    "responsible_agency": "Department of Public Works",
    "final_address": "4133 Vincennes Pl",
    "address_councildis": "B",
    "status": "Assigned to Contractor",
    "contractor": "Legacy Professional Services",
    "rowid": "994616",
    "final_x": "3668690.06023",
    "final_y": "530771.10797",
    "longitude": "-90.10854490304123",
    "latitude": "29.953819199199952",
    "geocoded_column": {
      "latitude": "29.953819199199952",
      "longitude": "-90.10854490304123"
    }
  },
  {
    "service_request": "2023-994615",
    "request_type": "Traffic Signals/Signs/Striping/Streetlights",
    "request_reason": "Street Light Outage/Malfunction",
    "date_created": "2023-04-26T19:10:20.000",
    "date_modified": "2023-04-26T19:10:21.000",
    "request_status": "Pending",
    "responsible_agency": "Department of Public Works",
    "final_address": "4133 Vincennes Pl",
    "address_councildis": "B",
    "status": "Assigned to Contractor",
    "contractor": "Legacy Professional Services",
    "rowid": "994615",
    "final_x": "3668690.06023",
    "final_y": "530771.10797",
    "longitude": "-90.10854490304123",
    "latitude": "29.953819199199952",
    "geocoded_column": {
      "latitude": "29.953819199199952",
      "longitude": "-90.10854490304123"
    }
  },
  {
    "service_request": "2023-994614",
    "request_type": "Traffic Signals/Signs/Striping/Streetlights",
    "request_reason": "Street Light Outage/Malfunction",
    "date_created": "2023-04-26T19:09:16.000",
    "date_modified": "2023-04-26T19:09:16.000",
    "request_status": "Pending",
    "responsible_agency": "Department of Public Works",
    "final_address": "4133 Vincennes Pl",
    "address_councildis": "B",
    "status": "Assigned to Contractor",
    "contractor": "Legacy Professional Services",
    "rowid": "994614",
    "final_x": "3668690.06023",
    "final_y": "530771.10797",
    "longitude": "-90.10854490304123",
    "latitude": "29.953819199199952",
    "geocoded_column": {
      "latitude": "29.953819199199952",
      "longitude": "-90.10854490304123"
    }
  },
  {
    "service_request": "2023-994613",
    "request_type": "Trash/Recycling",
    "request_reason": "MIssed Recycling Pick-Up",
    "date_created": "2023-04-26T18:44:20.000",
    "date_modified": "2023-04-26T18:44:21.000",
    "request_status": "Pending",
    "responsible_agency": "Department of Sanitation",
    "final_address": "128 S Scott St",
    "address_councildis": "A",
    "status": "Assigned to Contractor",
    "contractor": "Richards Disposal",
    "rowid": "994613",
    "final_x": "3671627.00603",
    "final_y": "537557.52404",
    "longitude": "-90.09904039180304",
    "latitude": "29.972392930638364",
    "geocoded_column": {
      "latitude": "29.972392930638364",
      "longitude": "-90.09904039180304"
    }
  },
  {
    "service_request": "2023-994612",
    "request_type": "Trash/Recycling",
    "request_reason": "MIssed Recycling Pick-Up",
    "date_created": "2023-04-26T18:25:54.000",
    "date_modified": "2023-04-26T18:25:55.000",
    "request_status": "Pending",
    "responsible_agency": "Department of Sanitation",
    "final_address": "3660 Laurel St",
    "address_councildis": "B",
    "status": "Assigned to Contractor",
    "contractor": "Richards Disposal",
    "rowid": "994612",
    "final_x": "3673914.16091",
    "final_y": "518399.04415",
    "longitude": "-90.09247237927659",
    "latitude": "29.91964547771596",
    "geocoded_column": {
      "latitude": "29.91964547771596",
      "longitude": "-90.09247237927659"
    }
  },
  {
    "service_request": "2023-994611",
    "request_type": "Trash/Recycling",
    "request_reason": "Missed Trash Pick-Up",
    "date_created": "2023-04-26T18:19:31.000",
    "date_modified": "2023-04-26T18:19:32.000",
    "request_status": "Pending",
    "responsible_agency": "Department of Sanitation",
    "final_address": "3920 Annunciation St",
    "address_councildis": "B",
    "status": "Assigned to Contractor",
    "contractor": "Richards Disposal",
    "rowid": "994611",
    "final_x": "3673171.54939",
    "final_y": "517908.574326",
    "longitude": "-90.0948331748861",
    "latitude": "29.91831893388864",
    "geocoded_column": {
      "latitude": "29.91831893388864",
      "longitude": "-90.0948331748861"
    }
  },
  {
    "service_request": "2023-994610",
    "request_type": "Trash/Recycling",
    "request_reason": "Missed Trash Pick-Up",
    "date_created": "2023-04-26T18:17:02.000",
    "date_modified": "2023-04-26T18:17:02.000",
    "request_status": "Pending",
    "responsible_agency": "Department of Sanitation",
    "final_address": "4921 Freret St",
    "address_councildis": "B",
    "status": "Assigned to Contractor",
    "contractor": "Richards Disposal",
    "rowid": "994610",
    "final_x": "3668976.64756",
    "final_y": "523948.804924",
    "longitude": "-90.10787036542882",
    "latitude": "29.935051654036524",
    "geocoded_column": {
      "latitude": "29.935051654036524",
      "longitude": "-90.10787036542882"
    }
  },
  {
    "service_request": "2023-994608",
    "request_type": "Trash/Recycling",
    "request_reason": "Replace Recycling Cart",
    "date_created": "2023-04-26T18:08:57.000",
    "date_modified": "2023-04-26T18:08:57.000",
    "request_status": "Pending",
    "responsible_agency": "Department of Sanitation",
    "final_address": "1117 Robert St",
    "address_councildis": "B",
    "status": "Pending",
    "rowid": "994608",
    "final_x": "3668710.70138",
    "final_y": "519493.487799",
    "longitude": "-90.10886026485268",
    "latitude": "29.922808769872223",
    "geocoded_column": {
      "latitude": "29.922808769872223",
      "longitude": "-90.10886026485268"
    }
  },
  {
    "service_request": "2023-994606",
    "request_type": "Trash/Recycling",
    "request_reason": "Order Trash Cart",
    "date_created": "2023-04-26T17:43:38.000",
    "date_modified": "2023-04-26T17:43:38.000",
    "request_status": "Pending",
    "responsible_agency": "Department of Sanitation",
    "final_address": "2656 Odin St",
    "address_councildis": "D",
    "status": "Assigned to Contractor",
    "contractor": "IV Waste",
    "rowid": "994606",
    "final_x": "3687122.19734",
    "final_y": "553208.694743",
    "longitude": "-90.04955019467641",
    "latitude": "30.01495997826981",
    "geocoded_column": {
      "latitude": "30.01495997826981",
      "longitude": "-90.04955019467641"
    }
  },
  {
    "service_request": "2023-994605",
    "request_type": "Trash/Recycling",
    "request_reason": "Request a Large Item Pick Up",
    "date_created": "2023-04-26T17:43:19.000",
    "date_modified": "2023-04-26T17:43:19.000",
    "request_status": "Pending",
    "responsible_agency": "Department of Sanitation",
    "final_address": "2656 Odin St",
    "address_councildis": "D",
    "status": "Assigned to Contractor",
    "contractor": "IV Waste",
    "rowid": "994605",
    "final_x": "3687122.19734",
    "final_y": "553208.694743",
    "longitude": "-90.04955019467641",
    "latitude": "30.01495997826981",
    "geocoded_column": {
      "latitude": "30.01495997826981",
      "longitude": "-90.04955019467641"
    }
  },
  {
    "service_request": "2023-994604",
    "request_type": "Trash/Recycling",
    "request_reason": "Illegal Dumping",
    "date_created": "2023-04-26T17:41:56.000",
    "date_modified": "2023-04-26T17:41:57.000",
    "request_status": "Pending",
    "responsible_agency": "Department of Sanitation",
    "final_address": "2538 Poydras St",
    "address_councildis": "B",
    "status": "Pending",
    "rowid": "994604",
    "final_x": "3673973.22267",
    "final_y": "532103.594179",
    "longitude": "-90.09181724496466",
    "latitude": "29.957326756990938",
    "geocoded_column": {
      "latitude": "29.957326756990938",
      "longitude": "-90.09181724496466"
    }
  },
  {
    "service_request": "2023-994603",
    "request_type": "Trash/Recycling",
    "request_reason": "Missed Trash Pick-Up",
    "date_created": "2023-04-26T17:40:17.000",
    "date_modified": "2023-04-26T17:40:18.000",
    "request_status": "Pending",
    "responsible_agency": "Department of Sanitation",
    "final_address": "2717 S Rocheblave St, New Orleans, Louisiana, 70125",
    "address_councildis": "B",
    "status": "Assigned to Contractor",
    "contractor": "Richards Disposal",
    "rowid": "994603",
    "final_x": "3671791.92532",
    "final_y": "529058.413312",
    "longitude": "-90.09880873822918",
    "latitude": "29.949018321232273",
    "geocoded_column": {
      "latitude": "29.949018321232273",
      "longitude": "-90.09880873822918"
    }
  },
  {
    "service_request": "2023-994602",
    "request_type": "Trash/Recycling",
    "request_reason": "Illegal Dumping",
    "date_created": "2023-04-26T17:36:27.000",
    "date_modified": "2023-04-26T17:36:27.000",
    "request_status": "Pending",
    "responsible_agency": "Department of Sanitation",
    "final_address": "3400 BLK Peoples Ave",
    "address_councildis": "D",
    "status": "Pending",
    "rowid": "994602",
    "final_x": "3688587.401",
    "final_y": "545806.837964",
    "longitude": "-90.04518377191336",
    "latitude": "29.99456235441407",
    "geocoded_column": {
      "latitude": "29.99456235441407",
      "longitude": "-90.04518377191336"
    }
  },
  {
    "service_request": "2023-994601",
    "request_type": "Trash/Recycling",
    "request_reason": "Missed Trash Pick-Up",
    "date_created": "2023-04-26T17:35:01.000",
    "date_modified": "2023-04-26T17:35:02.000",
    "request_status": "Pending",
    "responsible_agency": "Department of Sanitation",
    "final_address": "2553 St Ann St",
    "address_councildis": "D",
    "status": "Assigned to Contractor",
    "contractor": "Richards Disposal",
    "rowid": "994601",
    "final_x": "3677452.58293",
    "final_y": "536924.316616",
    "longitude": "-90.08066405494478",
    "latitude": "29.970477992035942",
    "geocoded_column": {
      "latitude": "29.970477992035942",
      "longitude": "-90.08066405494478"
    }
  },
  {
    "service_request": "2023-994600",
    "request_type": "Trash/Recycling",
    "request_reason": "Dead Animal Pick Up",
    "date_created": "2023-04-26T17:34:13.000",
    "date_modified": "2023-04-26T17:34:13.000",
    "request_status": "Pending",
    "responsible_agency": "Department of Sanitation",
    "final_address": "6054 General Diaz St",
    "address_councildis": "A",
    "status": "Assigned to Contractor",
    "contractor": "IV Waste",
    "rowid": "994600",
    "final_x": "3669454.28442",
    "final_y": "547618.917074",
    "longitude": "-90.10556176863508",
    "latitude": "30.00012250210243",
    "geocoded_column": {
      "latitude": "30.00012250210243",
      "longitude": "-90.10556176863508"
    }
  },
  {
    "service_request": "2023-994599",
    "request_type": "Trash/Recycling",
    "request_reason": "Request a Large Item Pick Up",
    "date_created": "2023-04-26T17:32:58.000",
    "date_modified": "2023-04-26T17:32:59.000",
    "request_status": "Pending",
    "responsible_agency": "Department of Sanitation",
    "final_address": "2553 St Ann St",
    "address_councildis": "D",
    "status": "Assigned to Contractor",
    "contractor": "Richards Disposal",
    "rowid": "994599",
    "final_x": "3677452.58293",
    "final_y": "536924.316616",
    "longitude": "-90.08066405494478",
    "latitude": "29.970477992035942",
    "geocoded_column": {
      "latitude": "29.970477992035942",
      "longitude": "-90.08066405494478"
    }
  },
  {
    "service_request": "2023-994598",
    "request_type": "Trash/Recycling",
    "request_reason": "Illegal Dumping",
    "date_created": "2023-04-26T17:30:07.000",
    "date_modified": "2023-04-26T17:30:07.000",
    "request_status": "Pending",
    "responsible_agency": "Department of Sanitation",
    "final_address": "3131 Arts St",
    "address_councildis": "D",
    "status": "Pending",
    "rowid": "994598",
    "final_x": "3686618.99414",
    "final_y": "544478.786831",
    "longitude": "-90.05144864434185",
    "latitude": "29.990971388977208",
    "geocoded_column": {
      "latitude": "29.990971388977208",
      "longitude": "-90.05144864434185"
    }
  },
  {
    "service_request": "2023-994597",
    "request_type": "Abandoned Vehicles",
    "request_reason": "Abandoned/Junk Vehicles",
    "date_created": "2023-04-26T17:29:13.000",
    "date_modified": "2023-04-26T17:29:13.000",
    "request_status": "Pending",
    "responsible_agency": "Department of Public Works",
    "final_address": "2436 Ursulines Ave",
    "address_councildis": "D",
    "status": "Pending",
    "rowid": "994597",
    "final_x": "3678432.26242",
    "final_y": "537453.104584",
    "longitude": "-90.07755181265105",
    "latitude": "29.97190249210539",
    "geocoded_column": {
      "latitude": "29.97190249210539",
      "longitude": "-90.07755181265105"
    }
  },
  {
    "service_request": "2023-994596",
    "request_type": "Roads/Drainage",
    "request_reason": "Accessibility Ramps, Curbs and Sidewalk Repair",
    "date_created": "2023-04-26T17:19:40.000",
    "date_modified": "2023-04-26T17:19:40.000",
    "request_status": "Pending",
    "responsible_agency": "Department of Public Works",
    "final_address": "1 Drexel Dr",
    "address_councildis": "B",
    "status": "Pending",
    "rowid": "994596",
    "final_x": "3668992.00474",
    "final_y": "534580.605765",
    "longitude": "-90.10746279438854",
    "latitude": "29.964285182480765",
    "geocoded_column": {
      "latitude": "29.964285182480765",
      "longitude": "-90.10746279438854"
    }
  },
  {
    "service_request": "2023-994595",
    "request_type": "Abandoned Vehicles",
    "request_reason": "Abandoned/Junk Vehicles",
    "date_created": "2023-04-26T17:19:33.000",
    "date_modified": "2023-04-26T17:19:33.000",
    "request_status": "Pending",
    "responsible_agency": "Department of Public Works",
    "final_address": "729 Marigny St",
    "address_councildis": "C",
    "status": "Pending",
    "rowid": "994595",
    "final_x": "3685543.27004",
    "final_y": "535150.535686",
    "longitude": "-90.05517527825016",
    "latitude": "29.96535502301678",
    "geocoded_column": {
      "latitude": "29.96535502301678",
      "longitude": "-90.05517527825016"
    }
  },
  {
    "service_request": "2023-994594",
    "request_type": "Trash/Recycling",
    "request_reason": "Order Trash Cart",
    "date_created": "2023-04-26T17:18:59.000",
    "date_modified": "2023-04-26T17:19:01.000",
    "request_status": "Pending",
    "responsible_agency": "Department of Sanitation",
    "final_address": "2545 St Nick Dr",
    "address_councildis": "C",
    "status": "Assigned to Contractor",
    "contractor": "Richards Disposal",
    "rowid": "994594",
    "final_x": "3699307.6872",
    "final_y": "521791.740666",
    "longitude": "-90.01219458190678",
    "latitude": "29.928193667679874",
    "geocoded_column": {
      "latitude": "29.928193667679874",
      "longitude": "-90.01219458190678"
    }
  },
  {
    "service_request": "2023-994593",
    "request_type": "Traffic Signals/Signs/Striping/Streetlights",
    "request_reason": "Street Light Outage/Malfunction",
    "date_created": "2023-04-26T17:18:06.000",
    "date_modified": "2023-04-26T17:18:07.000",
    "request_status": "Pending",
    "responsible_agency": "Department of Public Works",
    "final_address": "2113 Harmony St",
    "address_councildis": "B",
    "status": "Assigned to Contractor",
    "contractor": "Legacy Professional Services",
    "rowid": "994593",
    "final_x": "3674012.20961",
    "final_y": "523561.381563",
    "longitude": "-90.0919863559777",
    "latitude": "29.933837322273995",
    "geocoded_column": {
      "latitude": "29.933837322273995",
      "longitude": "-90.0919863559777"
    }
  },
  {
    "service_request": "2023-994592",
    "request_type": "Health Related Request",
    "request_reason": "Noise Ordinance Complaint",
    "date_created": "2023-04-26T17:12:51.000",
    "date_modified": "2023-04-26T17:12:51.000",
    "request_status": "Pending",
    "responsible_agency": "Health Department",
    "final_address": "226 Decatur St, New Orleans, Louisiana, 70130",
    "address_councildis": "C",
    "status": "Pending",
    "rowid": "994592",
    "final_x": "3682216.75951",
    "final_y": "530715.955522",
    "longitude": "-90.06583513961745",
    "latitude": "29.95326305125929",
    "geocoded_column": {
      "latitude": "29.95326305125929",
      "longitude": "-90.06583513961745"
    }
  },
  {
    "service_request": "2023-994591",
    "request_type": "Trash/Recycling",
    "request_reason": "Request a Large Item Pick Up",
    "date_created": "2023-04-26T17:07:48.000",
    "date_modified": "2023-04-26T17:07:49.000",
    "request_status": "Pending",
    "responsible_agency": "Department of Sanitation",
    "final_address": "5141 Carlisle Ct",
    "address_councildis": "C",
    "status": "Assigned to Contractor",
    "contractor": "Richards Disposal",
    "rowid": "994591",
    "final_x": "3703174.63895",
    "final_y": "516472.027317",
    "longitude": "-90.0001829538753",
    "latitude": "29.91344312926251",
    "geocoded_column": {
      "latitude": "29.91344312926251",
      "longitude": "-90.0001829538753"
    }
  },
  {
    "service_request": "2023-994590",
    "request_type": "Safety & Permits",
    "request_reason": "Licenses & Permits",
    "date_created": "2023-04-26T17:04:55.000",
    "date_modified": "2023-04-26T17:04:55.000",
    "request_status": "Pending",
    "responsible_agency": "Safety and Permits",
    "status": "Pending",
    "rowid": "994590",
    "longitude": "0.0",
    "latitude": "0.0",
    "geocoded_column": {
      "latitude": "0.0",
      "longitude": "0.0"
    }
  },
  {
    "service_request": "2023-994589",
    "request_type": "Trash/Recycling",
    "request_reason": "Repair Trash Cart",
    "date_created": "2023-04-26T17:04:45.000",
    "date_modified": "2023-04-26T17:04:46.000",
    "request_status": "Pending",
    "responsible_agency": "Department of Sanitation",
    "final_address": "6001 Vermillion Blvd",
    "address_councildis": "D",
    "status": "Assigned to Contractor",
    "contractor": "IV Waste",
    "rowid": "994589",
    "final_x": "3683223.63599",
    "final_y": "554795.717848",
    "longitude": "-90.06181212988818",
    "latitude": "30.01944323626804",
    "geocoded_column": {
      "latitude": "30.01944323626804",
      "longitude": "-90.06181212988818"
    }
  },
  {
    "service_request": "2023-994588",
    "request_type": "Trash/Recycling",
    "request_reason": "Missed Trash Pick-Up",
    "date_created": "2023-04-26T17:02:51.000",
    "date_modified": "2023-04-26T17:02:51.000",
    "request_status": "Pending",
    "responsible_agency": "Department of Sanitation",
    "final_address": "5330 Camp St",
    "address_councildis": "B",
    "status": "Assigned to Contractor",
    "contractor": "Richards Disposal",
    "rowid": "994588",
    "final_x": "3667254.12948",
    "final_y": "519003.313463",
    "longitude": "-90.11347457721239",
    "latitude": "29.921503664049855",
    "geocoded_column": {
      "latitude": "29.921503664049855",
      "longitude": "-90.11347457721239"
    }
  },
  {
    "service_request": "2023-994587",
    "request_type": "Trash/Recycling",
    "request_reason": "Order Recycling Cart",
    "date_created": "2023-04-26T16:58:12.000",
    "date_modified": "2023-04-26T16:58:12.000",
    "request_status": "Pending",
    "responsible_agency": "Department of Sanitation",
    "final_address": "6560 Catina St",
    "address_councildis": "A",
    "status": "Pending",
    "rowid": "994587",
    "final_x": "3666908.17607",
    "final_y": "551386.235669",
    "longitude": "-90.11347838901612",
    "latitude": "30.010556089200083",
    "geocoded_column": {
      "latitude": "30.010556089200083",
      "longitude": "-90.11347838901612"
    }
  },
  {
    "service_request": "2023-994586",
    "request_type": "Abandoned Vehicles",
    "request_reason": "Abandoned/Junk Vehicles",
    "date_created": "2023-04-26T16:57:07.000",
    "date_modified": "2023-04-26T16:57:07.000",
    "request_status": "Pending",
    "responsible_agency": "Department of Public Works",
    "final_address": "732 S Genois St",
    "address_councildis": "B",
    "status": "Pending",
    "rowid": "994586",
    "final_x": "3671061.25051",
    "final_y": "535053.829062",
    "longitude": "-90.10091219671847",
    "latitude": "29.965525355014705",
    "geocoded_column": {
      "latitude": "29.965525355014705",
      "longitude": "-90.10091219671847"
    }
  },
  {
    "service_request": "2023-994585",
    "request_type": "Roads/Drainage",
    "request_reason": "Accessibility Ramps, Curbs and Sidewalk Repair",
    "date_created": "2023-04-26T16:57:07.000",
    "date_modified": "2023-04-26T16:57:07.000",
    "request_status": "Pending",
    "responsible_agency": "Department of Public Works",
    "final_address": "7766 Scottwood Dr",
    "address_councildis": "E",
    "status": "Pending",
    "rowid": "994585",
    "final_x": "3716673.27628",
    "final_y": "571425.706344",
    "longitude": "-89.95549189517958",
    "latitude": "30.064105914750094",
    "geocoded_column": {
      "latitude": "30.064105914750094",
      "longitude": "-89.95549189517958"
    }
  },
  {
    "service_request": "2023-994584",
    "request_type": "Trash/Recycling",
    "request_reason": "Repair Trash Cart",
    "date_created": "2023-04-26T16:56:32.000",
    "date_modified": "2023-04-26T16:56:32.000",
    "request_status": "Pending",
    "responsible_agency": "Department of Sanitation",
    "final_address": "5461 Royal St",
    "address_councildis": "E",
    "status": "Assigned to Contractor",
    "contractor": "Waste Pro",
    "rowid": "994584",
    "final_x": "3697146.47152",
    "final_y": "532427.669571",
    "longitude": "-90.01863178699895",
    "latitude": "29.957507114914314",
    "geocoded_column": {
      "latitude": "29.957507114914314",
      "longitude": "-90.01863178699895"
    }
  },
  {
    "service_request": "2023-994582",
    "request_type": "Property Maintenance",
    "request_reason": "Property Maintenance",
    "date_created": "2023-04-26T16:48:38.000",
    "date_modified": "2023-04-26T16:48:39.000",
    "request_status": "Pending",
    "responsible_agency": "Department of Code Enforcement",
    "final_address": "CHARTRES ST & LIZARDI ST",
    "address_councildis": "E",
    "status": "Pending",
    "rowid": "994582",
    "final_x": "3696008.4",
    "final_y": "532300.98",
    "longitude": "-90.02223003827503",
    "latitude": "29.95719461882189",
    "geocoded_column": {
      "latitude": "29.95719461882189",
      "longitude": "-90.02223003827503"
    }
  },
  {
    "service_request": "2023-994581",
    "request_type": "Property Maintenance",
    "request_reason": "Property Maintenance",
    "date_created": "2023-04-26T16:48:22.000",
    "date_modified": "2023-04-26T16:52:15.000",
    "request_status": "Pending",
    "responsible_agency": "Department of Code Enforcement",
    "final_address": "7001 Lawrence Rd Bldg 1",
    "address_councildis": "E",
    "status": "Pending",
    "rowid": "994581",
    "final_x": "3703805.54103",
    "final_y": "558778.550876",
    "longitude": "-89.99663390534475",
    "latitude": "30.02975042760136",
    "geocoded_column": {
      "latitude": "30.02975042760136",
      "longitude": "-89.99663390534475"
    }
  },
  {
    "service_request": "2023-994580",
    "request_type": "Trash/Recycling",
    "request_reason": "Request a Large Item Pick Up",
    "date_created": "2023-04-26T16:46:32.000",
    "date_modified": "2023-04-26T16:46:33.000",
    "request_status": "Pending",
    "responsible_agency": "Department of Sanitation",
    "final_address": "2632 Lapeyrouse St",
    "address_councildis": "D",
    "status": "Assigned to Contractor",
    "contractor": "IV Waste",
    "rowid": "994580",
    "final_x": "3678825.11912",
    "final_y": "540295.434379",
    "longitude": "-90.0762126255401",
    "latitude": "29.979706074480664",
    "geocoded_column": {
      "latitude": "29.979706074480664",
      "longitude": "-90.0762126255401"
    }
  },
  {
    "service_request": "2023-994579",
    "request_type": "Trash/Recycling",
    "request_reason": "Replace Recycling Cart",
    "date_created": "2023-04-26T16:38:51.000",
    "date_modified": "2023-04-26T16:38:51.000",
    "request_status": "Pending",
    "responsible_agency": "Department of Sanitation",
    "status": "Pending",
    "rowid": "994579",
    "longitude": "0.0",
    "latitude": "0.0",
    "geocoded_column": {
      "latitude": "0.0",
      "longitude": "0.0"
    }
  },
  {
    "service_request": "2023-994578",
    "request_type": "Trash/Recycling",
    "request_reason": "Missed Trash Pick-Up",
    "date_created": "2023-04-26T16:37:11.000",
    "date_modified": "2023-04-26T16:37:12.000",
    "request_status": "Pending",
    "responsible_agency": "Department of Sanitation",
    "final_address": "1831 Audubon St, New Orleans, Louisiana, 70118",
    "address_councildis": "A",
    "status": "Assigned to Contractor",
    "contractor": "Richards Disposal",
    "rowid": "994578",
    "final_x": "3665785.82298",
    "final_y": "528303.803392",
    "longitude": "-90.11779796714376",
    "latitude": "29.94711995113553",
    "geocoded_column": {
      "latitude": "29.94711995113553",
      "longitude": "-90.11779796714376"
    }
  },
  {
    "service_request": "2023-994577",
    "request_type": "Trash/Recycling",
    "request_reason": "Request a Large Item Pick Up",
    "date_created": "2023-04-26T16:32:16.000",
    "date_modified": "2023-04-26T16:32:17.000",
    "request_status": "Pending",
    "responsible_agency": "Department of Sanitation",
    "final_address": "2015 S Carrollton Ave",
    "address_councildis": "A",
    "status": "Assigned to Contractor",
    "contractor": "Richards Disposal",
    "rowid": "994577",
    "final_x": "3664034.33261",
    "final_y": "530399.092994",
    "longitude": "-90.12325823885307",
    "latitude": "29.952932294656723",
    "geocoded_column": {
      "latitude": "29.952932294656723",
      "longitude": "-90.12325823885307"
    }
  },
  {
    "service_request": "2023-994576",
    "request_type": "Trash/Recycling",
    "request_reason": "Repair Trash Cart",
    "date_created": "2023-04-26T16:30:56.000",
    "date_modified": "2023-04-26T16:30:56.000",
    "request_status": "Pending",
    "responsible_agency": "Department of Sanitation",
    "final_address": "2215 Wirth Pl",
    "address_councildis": "A",
    "status": "Assigned to Contractor",
    "contractor": "Richards Disposal",
    "rowid": "994576",
    "final_x": "3667107.85338",
    "final_y": "524321.196348",
    "longitude": "-90.11375764421877",
    "latitude": "29.936130435514674",
    "geocoded_column": {
      "latitude": "29.936130435514674",
      "longitude": "-90.11375764421877"
    }
  },
  {
    "service_request": "2023-994575",
    "request_type": "Trash/Recycling",
    "request_reason": "Repair Recycling Cart",
    "date_created": "2023-04-26T16:29:11.000",
    "date_modified": "2023-04-26T16:29:12.000",
    "request_status": "Pending",
    "responsible_agency": "Department of Sanitation",
    "final_address": "2215 Wirth Pl",
    "address_councildis": "A",
    "status": "Pending",
    "rowid": "994575",
    "final_x": "3667107.85338",
    "final_y": "524321.196348",
    "longitude": "-90.11375764421877",
    "latitude": "29.936130435514674",
    "geocoded_column": {
      "latitude": "29.936130435514674",
      "longitude": "-90.11375764421877"
    }
  },
  {
    "service_request": "2023-994574",
    "request_type": "Trash/Recycling",
    "request_reason": "Order Trash Cart",
    "date_created": "2023-04-26T16:28:08.000",
    "date_modified": "2023-04-26T16:28:09.000",
    "request_status": "Pending",
    "responsible_agency": "Department of Sanitation",
    "final_address": "705 Herald St",
    "address_councildis": "C",
    "status": "Assigned to Contractor",
    "contractor": "Richards Disposal",
    "rowid": "994574",
    "final_x": "3702225.15229",
    "final_y": "520023.148408",
    "longitude": "-90.00304968047473",
    "latitude": "29.923237834928894",
    "geocoded_column": {
      "latitude": "29.923237834928894",
      "longitude": "-90.00304968047473"
    }
  },
  {
    "service_request": "2023-994573",
    "request_type": "Traffic Signals/Signs/Striping/Streetlights",
    "request_reason": "Street Light Outage/Malfunction",
    "date_created": "2023-04-26T16:17:49.000",
    "date_modified": "2023-04-26T16:17:49.000",
    "request_status": "Pending",
    "responsible_agency": "Department of Public Works",
    "final_address": "7917 Hickman St",
    "address_councildis": "E",
    "status": "Assigned to Contractor",
    "contractor": "Legacy Professional Services",
    "rowid": "994573",
    "final_x": "3705724.10033",
    "final_y": "564174.600033",
    "longitude": "-89.99037147722703",
    "latitude": "30.04452575660561",
    "geocoded_column": {
      "latitude": "30.04452575660561",
      "longitude": "-89.99037147722703"
    }
  },
  {
    "service_request": "2023-994572",
    "request_type": "Trash/Recycling",
    "request_reason": "Missed Trash Pick-Up",
    "date_created": "2023-04-26T16:17:30.000",
    "date_modified": "2023-04-26T16:17:31.000",
    "request_status": "Pending",
    "responsible_agency": "Department of Sanitation",
    "final_address": "4727 Gawain Dr",
    "address_councildis": "E",
    "status": "Assigned to Contractor",
    "contractor": "Waste Pro",
    "rowid": "994572",
    "final_x": "3707056.06456",
    "final_y": "555333.747865",
    "longitude": "-89.98649031973076",
    "latitude": "30.0201738970784",
    "geocoded_column": {
      "latitude": "30.0201738970784",
      "longitude": "-89.98649031973076"
    }
  },
  {
    "service_request": "2023-994571",
    "request_type": "Property Maintenance",
    "request_reason": "Property Maintenance",
    "date_created": "2023-04-26T16:11:31.000",
    "date_modified": "2023-04-26T16:11:31.000",
    "request_status": "Pending",
    "responsible_agency": "Department of Code Enforcement",
    "final_address": "135 Country Club Dr",
    "address_councildis": "A",
    "status": "Pending",
    "rowid": "994571",
    "final_x": "3665533.65786",
    "final_y": "544418.907535",
    "longitude": "-90.11805450085537",
    "latitude": "29.991438499756107",
    "geocoded_column": {
      "latitude": "29.991438499756107",
      "longitude": "-90.11805450085537"
    }
  },
  {
    "service_request": "2023-994570",
    "request_type": "Abandoned Vehicles",
    "request_reason": "Abandoned/Junk Vehicles",
    "date_created": "2023-04-26T16:10:53.000",
    "date_modified": "2023-04-26T16:10:53.000",
    "request_status": "Pending",
    "responsible_agency": "Department of Public Works",
    "final_address": "725 Marigny St",
    "address_councildis": "C",
    "status": "Pending",
    "rowid": "994570",
    "final_x": "3685571.06479",
    "final_y": "535125.737094",
    "longitude": "-90.05508837755646",
    "latitude": "29.965285982933136",
    "geocoded_column": {
      "latitude": "29.965285982933136",
      "longitude": "-90.05508837755646"
    }
  },
  {
    "service_request": "2023-994569",
    "request_type": "Trash/Recycling",
    "request_reason": "Dead Animal Pick Up",
    "date_created": "2023-04-26T16:10:28.000",
    "date_modified": "2023-04-26T16:10:29.000",
    "request_status": "Pending",
    "responsible_agency": "Department of Sanitation",
    "final_address": "401 Florida Blvd",
    "address_councildis": "A",
    "status": "Assigned to Contractor",
    "contractor": "IV Waste",
    "rowid": "994569",
    "final_x": "3667344.41863",
    "final_y": "545603.341648",
    "longitude": "-90.11229482107467",
    "latitude": "29.994642356845908",
    "geocoded_column": {
      "latitude": "29.994642356845908",
      "longitude": "-90.11229482107467"
    }
  },
  {
    "service_request": "2023-994568",
    "request_type": "Property Maintenance",
    "request_reason": "Property Maintenance",
    "date_created": "2023-04-26T15:56:29.000",
    "date_modified": "2023-04-26T15:56:29.000",
    "request_status": "Pending",
    "responsible_agency": "Department of Code Enforcement",
    "final_address": "5201 Canal Blvd",
    "address_councildis": "A",
    "status": "Pending",
    "rowid": "994568",
    "final_x": "3668099.38842",
    "final_y": "542064.352268",
    "longitude": "-90.1100293050557",
    "latitude": "29.98488920224858",
    "geocoded_column": {
      "latitude": "29.98488920224858",
      "longitude": "-90.1100293050557"
    }
  },
  {
    "service_request": "2023-994567",
    "request_type": "Trash/Recycling",
    "request_reason": "Order Trash Cart",
    "date_created": "2023-04-26T15:56:20.000",
    "date_modified": "2023-04-26T15:56:20.000",
    "request_status": "Pending",
    "responsible_agency": "Department of Sanitation",
    "final_address": "1916 Onzaga St",
    "address_councildis": "D",
    "status": "Assigned to Contractor",
    "contractor": "IV Waste",
    "rowid": "994567",
    "final_x": "3681412.21244",
    "final_y": "538762.276745",
    "longitude": "-90.0680950086584",
    "latitude": "29.97541212576111",
    "geocoded_column": {
      "latitude": "29.97541212576111",
      "longitude": "-90.0680950086584"
    }
  },
  {
    "service_request": "2023-994566",
    "request_type": "Trash/Recycling",
    "request_reason": "Repair Trash Cart",
    "date_created": "2023-04-26T15:49:56.000",
    "date_modified": "2023-04-26T15:49:57.000",
    "request_status": "Pending",
    "responsible_agency": "Department of Sanitation",
    "final_address": "4764 Perelli Dr",
    "address_councildis": "E",
    "status": "Assigned to Contractor",
    "contractor": "Waste Pro",
    "rowid": "994566",
    "final_x": "3711609.73451",
    "final_y": "556222.159386",
    "longitude": "-89.97206894326324",
    "latitude": "30.02246872110414",
    "geocoded_column": {
      "latitude": "30.02246872110414",
      "longitude": "-89.97206894326324"
    }
  },
  {
    "service_request": "2023-994565",
    "request_type": "Trash/Recycling",
    "request_reason": "Request a Large Item Pick Up",
    "date_created": "2023-04-26T15:48:42.000",
    "date_modified": "2023-04-26T15:48:43.000",
    "request_status": "Pending",
    "responsible_agency": "Department of Sanitation",
    "final_address": "4118 N Roman St",
    "address_councildis": "D",
    "status": "Assigned to Contractor",
    "contractor": "IV Waste",
    "rowid": "994565",
    "final_x": "3692951.8223",
    "final_y": "537764.63604",
    "longitude": "-90.03168574865765",
    "latitude": "29.972313560670244",
    "geocoded_column": {
      "latitude": "29.972313560670244",
      "longitude": "-90.03168574865765"
    }
  },
  {
    "service_request": "2023-994564",
    "request_type": "Trash/Recycling",
    "request_reason": "Order Recycling Cart",
    "date_created": "2023-04-26T15:47:11.000",
    "date_modified": "2023-04-26T15:47:11.000",
    "request_status": "Pending",
    "responsible_agency": "Department of Sanitation",
    "final_address": "1820 Conti St",
    "address_councildis": "B",
    "status": "Pending",
    "rowid": "994564",
    "final_x": "3678635.4781",
    "final_y": "534016.915333",
    "longitude": "-90.07702900723065",
    "latitude": "29.962448018758433",
    "geocoded_column": {
      "latitude": "29.962448018758433",
      "longitude": "-90.07702900723065"
    }
  },
  {
    "service_request": "2023-994562",
    "request_type": "Trash/Recycling",
    "request_reason": "Request a Large Item Pick Up",
    "date_created": "2023-04-26T15:38:25.000",
    "date_modified": "2023-04-26T15:38:26.000",
    "request_status": "Pending",
    "responsible_agency": "Department of Sanitation",
    "final_address": "1717 Franklin Ave",
    "address_councildis": "D",
    "status": "Assigned to Contractor",
    "contractor": "IV Waste",
    "rowid": "994562",
    "final_x": "3687769.05046",
    "final_y": "538844.129097",
    "longitude": "-90.04801554924441",
    "latitude": "29.97544265518033",
    "geocoded_column": {
      "latitude": "29.97544265518033",
      "longitude": "-90.04801554924441"
    }
  },
  {
    "service_request": "2023-994560",
    "request_type": "Trash/Recycling",
    "request_reason": "Order Recycling Cart",
    "date_created": "2023-04-26T15:35:46.000",
    "date_modified": "2023-04-26T15:35:47.000",
    "request_status": "Pending",
    "responsible_agency": "Department of Sanitation",
    "final_address": "4935 Piety Dr",
    "address_councildis": "D",
    "status": "Pending",
    "rowid": "994560",
    "final_x": "3691436.98038",
    "final_y": "552091.552086",
    "longitude": "-90.03595755578239",
    "latitude": "30.01175462126504",
    "geocoded_column": {
      "latitude": "30.01175462126504",
      "longitude": "-90.03595755578239"
    }
  },
  {
    "service_request": "2023-994559",
    "request_type": "Traffic Signals/Signs/Striping/Streetlights",
    "request_reason": "Street Light Outage/Malfunction",
    "date_created": "2023-04-26T15:34:13.000",
    "date_modified": "2023-04-26T15:34:14.000",
    "request_status": "Pending",
    "responsible_agency": "Department of Public Works",
    "final_address": "6920 Edgefield Dr",
    "address_councildis": "E",
    "status": "Assigned to Contractor",
    "contractor": "Legacy Professional Services",
    "rowid": "994559",
    "final_x": "3719152.20997",
    "final_y": "568524.870629",
    "longitude": "-89.94776676825713",
    "latitude": "30.056047630963697",
    "geocoded_column": {
      "latitude": "30.056047630963697",
      "longitude": "-89.94776676825713"
    }
  },
  {
    "service_request": "2023-994558",
    "request_type": "Trash/Recycling",
    "request_reason": "Request a Large Item Pick Up",
    "date_created": "2023-04-26T15:24:21.000",
    "date_modified": "2023-04-26T15:24:21.000",
    "request_status": "Pending",
    "responsible_agency": "Department of Sanitation",
    "final_address": "5314 Memphis St",
    "address_councildis": "A",
    "status": "Assigned to Contractor",
    "contractor": "IV Waste",
    "rowid": "994558",
    "final_x": "3668620.41934",
    "final_y": "542329.164365",
    "longitude": "-90.10837464528124",
    "latitude": "29.985602040044157",
    "geocoded_column": {
      "latitude": "29.985602040044157",
      "longitude": "-90.10837464528124"
    }
  },
  {
    "service_request": "2023-994557",
    "request_type": "Trash/Recycling",
    "request_reason": "MIssed Recycling Pick-Up",
    "date_created": "2023-04-26T15:23:09.000",
    "date_modified": "2023-04-26T15:23:10.000",
    "request_status": "Pending",
    "responsible_agency": "Department of Sanitation",
    "final_address": "4477 Music St",
    "address_councildis": "D",
    "status": "Assigned to Contractor",
    "contractor": "IV Waste",
    "rowid": "994557",
    "final_x": "3685803.82441",
    "final_y": "549430.104851",
    "longitude": "-90.05384892504621",
    "latitude": "30.004610782972033",
    "geocoded_column": {
      "latitude": "30.004610782972033",
      "longitude": "-90.05384892504621"
    }
  },
  {
    "service_request": "2023-994556",
    "request_type": "Abandoned Vehicles",
    "request_reason": "Abandoned/Junk Vehicles",
    "date_created": "2023-04-26T15:21:48.000",
    "date_modified": "2023-04-26T15:21:48.000",
    "request_status": "Pending",
    "responsible_agency": "Department of Public Works",
    "final_address": "3416 Allen St",
    "address_councildis": "D",
    "status": "Pending",
    "rowid": "994556",
    "final_x": "3681977.3942",
    "final_y": "545100.023695",
    "longitude": "-90.06608864266076",
    "latitude": "29.992821534588128",
    "geocoded_column": {
      "latitude": "29.992821534588128",
      "longitude": "-90.06608864266076"
    }
  },
  {
    "service_request": "2023-994555",
    "request_type": "Abandoned Vehicles",
    "request_reason": "Abandoned/Junk Vehicles",
    "date_created": "2023-04-26T15:17:24.000",
    "date_modified": "2023-04-26T15:17:24.000",
    "request_status": "Pending",
    "responsible_agency": "Department of Public Works",
    "final_address": "1825 Carnot St",
    "address_councildis": "D",
    "status": "Pending",
    "rowid": "994555",
    "final_x": "3681526.07996",
    "final_y": "549782.560916",
    "longitude": "-90.06735084099023",
    "latitude": "30.005710558367227",
    "geocoded_column": {
      "latitude": "30.005710558367227",
      "longitude": "-90.06735084099023"
    }
  },
  {
    "service_request": "2023-994554",
    "request_type": "Trash/Recycling",
    "request_reason": "Missed Trash Pick-Up",
    "date_created": "2023-04-26T15:17:12.000",
    "date_modified": "2023-04-26T15:17:13.000",
    "request_status": "Pending",
    "responsible_agency": "Department of Sanitation",
    "status": "Assigned to Contractor",
    "rowid": "994554",
    "longitude": "0.0",
    "latitude": "0.0",
    "geocoded_column": {
      "latitude": "0.0",
      "longitude": "0.0"
    }
  },
  {
    "service_request": "2023-994553",
    "request_type": "Trash/Recycling",
    "request_reason": "Request a Large Item Pick Up",
    "date_created": "2023-04-26T15:14:47.000",
    "date_modified": "2023-04-26T15:14:47.000",
    "request_status": "Pending",
    "responsible_agency": "Department of Sanitation",
    "final_address": "732 Jackson Ave",
    "address_councildis": "B",
    "status": "Assigned to Contractor",
    "contractor": "Richards Disposal",
    "rowid": "994553",
    "final_x": "3679533.87304",
    "final_y": "521096.914937",
    "longitude": "-90.07464018061357",
    "latitude": "29.92689521010469",
    "geocoded_column": {
      "latitude": "29.92689521010469",
      "longitude": "-90.07464018061357"
    }
  },
  {
    "service_request": "2023-994552",
    "request_type": "Abandoned Vehicles",
    "request_reason": "Abandoned/Junk Vehicles",
    "date_created": "2023-04-26T15:07:54.000",
    "date_modified": "2023-04-26T15:07:54.000",
    "request_status": "Pending",
    "responsible_agency": "Department of Public Works",
    "final_address": "BRAGG ST & CANAL BLVD",
    "address_councildis": "A",
    "status": "Pending",
    "rowid": "994552",
    "final_x": "3668674.8",
    "final_y": "550053.08",
    "longitude": "-90.10794197345776",
    "latitude": "30.006838545937484",
    "geocoded_column": {
      "latitude": "30.006838545937484",
      "longitude": "-90.10794197345776"
    }
  },
  {
    "service_request": "2023-994551",
    "request_type": "Traffic Signals/Signs/Striping/Streetlights",
    "request_reason": "Street Light Outage/Malfunction",
    "date_created": "2023-04-26T15:07:49.000",
    "date_modified": "2023-04-26T15:07:50.000",
    "request_status": "Pending",
    "responsible_agency": "Department of Public Works",
    "final_address": "333 Canal St",
    "address_councildis": "C",
    "status": "Assigned to Contractor",
    "contractor": "Legacy Professional Services",
    "rowid": "994551",
    "final_x": "3682449.05404",
    "final_y": "529850.952257",
    "longitude": "-90.06513188402243",
    "latitude": "29.950877517618977",
    "geocoded_column": {
      "latitude": "29.950877517618977",
      "longitude": "-90.06513188402243"
    }
  },
  {
    "service_request": "2023-994549",
    "request_type": "Traffic Signals/Signs/Striping/Streetlights",
    "request_reason": "Street Light Outage/Malfunction",
    "date_created": "2023-04-26T15:07:43.000",
    "date_modified": "2023-04-26T15:07:44.000",
    "request_status": "Pending",
    "responsible_agency": "Department of Public Works",
    "final_address": "4543 Piety Dr",
    "address_councildis": "D",
    "status": "Assigned to Contractor",
    "contractor": "Legacy Professional Services",
    "rowid": "994549",
    "final_x": "3691776.6422",
    "final_y": "551085.716245",
    "longitude": "-90.03492043520761",
    "latitude": "30.008978365989986",
    "geocoded_column": {
      "latitude": "30.008978365989986",
      "longitude": "-90.03492043520761"
    }
  },
  {
    "service_request": "2023-994548",
    "request_type": "Property Maintenance",
    "request_reason": "Property Maintenance",
    "date_created": "2023-04-26T15:06:34.000",
    "date_modified": "2023-04-26T15:06:34.000",
    "request_status": "Pending",
    "responsible_agency": "Department of Code Enforcement",
    "final_address": "2551 Lafitte Ave",
    "address_councildis": "D",
    "status": "Pending",
    "rowid": "994548",
    "final_x": "3676885.27675",
    "final_y": "536152.866759",
    "longitude": "-90.08248226985522",
    "latitude": "29.96837380883855",
    "geocoded_column": {
      "latitude": "29.96837380883855",
      "longitude": "-90.08248226985522"
    }
  },
  {
    "service_request": "2023-994547",
    "request_type": "Trash/Recycling",
    "request_reason": "Repair Trash Cart",
    "date_created": "2023-04-26T15:03:41.000",
    "date_modified": "2023-04-26T15:03:43.000",
    "request_status": "Pending",
    "responsible_agency": "Department of Sanitation",
    "final_address": "4640 Dart St",
    "address_councildis": "B",
    "status": "Assigned to Contractor",
    "contractor": "Richards Disposal",
    "rowid": "994547",
    "final_x": "3669015.19854",
    "final_y": "531669.918403",
    "longitude": "-90.10748788511307",
    "latitude": "29.95628107231796",
    "geocoded_column": {
      "latitude": "29.95628107231796",
      "longitude": "-90.10748788511307"
    }
  },
  {
    "service_request": "2023-994544",
    "request_type": "Trash/Recycling",
    "request_reason": "Order Recycling Cart",
    "date_created": "2023-04-26T14:59:17.000",
    "date_modified": "2023-04-26T14:59:18.000",
    "request_status": "Pending",
    "responsible_agency": "Department of Sanitation",
    "final_address": "2535 S Carrollton Ave",
    "address_councildis": "A",
    "status": "Pending",
    "rowid": "994544",
    "final_x": "3665433.77735",
    "final_y": "531933.447299",
    "longitude": "-90.11878803856291",
    "latitude": "29.95711055779636",
    "geocoded_column": {
      "latitude": "29.95711055779636",
      "longitude": "-90.11878803856291"
    }
  },
  {
    "service_request": "2023-994543",
    "request_type": "Traffic Signals/Signs/Striping/Streetlights",
    "request_reason": "Street Light Outage/Malfunction",
    "date_created": "2023-04-26T14:59:03.000",
    "date_modified": "2023-04-26T14:59:04.000",
    "request_status": "Pending",
    "responsible_agency": "Department of Public Works",
    "final_address": "FIG ST & MISTLETOE ST",
    "address_councildis": "A",
    "status": "Assigned to Contractor",
    "contractor": "Legacy Professional Services",
    "rowid": "994543",
    "final_x": "3663438.3",
    "final_y": "535753.68",
    "longitude": "-90.12496195438875",
    "latitude": "29.967672956622746",
    "geocoded_column": {
      "latitude": "29.967672956622746",
      "longitude": "-90.12496195438875"
    }
  },
  {
    "service_request": "2023-994542",
    "request_type": "Abandoned Vehicles",
    "request_reason": "Abandoned/Junk Vehicles",
    "date_created": "2023-04-26T14:53:52.000",
    "date_modified": "2023-04-26T14:53:53.000",
    "request_status": "Pending",
    "responsible_agency": "Department of Public Works",
    "final_address": "Banks Street & South Pierce Street",
    "address_councildis": "A",
    "status": "Pending",
    "rowid": "994542",
    "final_x": "3670737.99943",
    "final_y": "537072.823112",
    "longitude": "-90.10186448868247",
    "latitude": "29.971086467892352",
    "geocoded_column": {
      "latitude": "29.971086467892352",
      "longitude": "-90.10186448868247"
    }
  },
  {
    "service_request": "2023-994541",
    "request_type": "Abandoned Vehicles",
    "request_reason": "Abandoned/Junk Vehicles",
    "date_created": "2023-04-26T14:49:17.000",
    "date_modified": "2023-04-26T14:49:18.000",
    "request_status": "Pending",
    "responsible_agency": "Department of Public Works",
    "final_address": "2004 Second St",
    "address_councildis": "B",
    "status": "Pending",
    "rowid": "994541",
    "final_x": "3675841.10766",
    "final_y": "524275.389692",
    "longitude": "-90.08618806795684",
    "latitude": "29.935746004428967",
    "geocoded_column": {
      "latitude": "29.935746004428967",
      "longitude": "-90.08618806795684"
    }
  },
  {
    "service_request": "2023-994540",
    "request_type": "Trash/Recycling",
    "request_reason": "Request a Large Item Pick Up",
    "date_created": "2023-04-26T14:48:49.000",
    "date_modified": "2023-04-26T14:48:49.000",
    "request_status": "Pending",
    "responsible_agency": "Department of Sanitation",
    "final_address": "1818 Toledano St",
    "address_councildis": "B",
    "status": "Assigned to Contractor",
    "contractor": "Richards Disposal",
    "rowid": "994540",
    "final_x": "3674178.2468",
    "final_y": "522515.284922",
    "longitude": "-90.09149797481544",
    "latitude": "29.93095594879078",
    "geocoded_column": {
      "latitude": "29.93095594879078",
      "longitude": "-90.09149797481544"
    }
  },
  {
    "service_request": "2023-994539",
    "request_type": "Trash/Recycling",
    "request_reason": "Order Trash Cart",
    "date_created": "2023-04-26T14:47:36.000",
    "date_modified": "2023-04-26T14:55:41.000",
    "request_status": "Pending",
    "responsible_agency": "Department of Sanitation",
    "final_address": "82 Marywood Ct",
    "address_councildis": "E",
    "status": "Assigned to Contractor",
    "contractor": "Waste Pro",
    "rowid": "994539",
    "final_x": "3712510.16446",
    "final_y": "566396.858659",
    "longitude": "-89.9688409869395",
    "latitude": "30.05041563155445",
    "geocoded_column": {
      "latitude": "30.05041563155445",
      "longitude": "-89.9688409869395"
    }
  },
  {
    "service_request": "2023-994538",
    "request_type": "Abandoned Vehicles",
    "request_reason": "Abandoned/Junk Vehicles",
    "date_created": "2023-04-26T14:45:27.000",
    "date_modified": "2023-04-26T14:45:27.000",
    "request_status": "Pending",
    "responsible_agency": "Department of Public Works",
    "final_address": "3200 BLK Thalia St",
    "address_councildis": "B",
    "status": "Pending",
    "rowid": "994538",
    "final_x": "3674483.3777",
    "final_y": "528872.53489",
    "longitude": "-90.09031700702741",
    "latitude": "29.948427208818536",
    "geocoded_column": {
      "latitude": "29.948427208818536",
      "longitude": "-90.09031700702741"
    }
  },
  {
    "service_request": "2023-994537",
    "request_type": "Roads/Drainage",
    "request_reason": "Street Subsidence (Sinking)",
    "date_created": "2023-04-26T14:45:13.000",
    "date_modified": "2023-04-26T14:45:13.000",
    "request_status": "Pending",
    "responsible_agency": "Department of Public Works",
    "final_address": "2605 Nashville Ave",
    "address_councildis": "A",
    "status": "Pending",
    "rowid": "994537",
    "final_x": "3667350.80052",
    "final_y": "525607.249341",
    "longitude": "-90.11294740826919",
    "latitude": "29.93965955626461",
    "geocoded_column": {
      "latitude": "29.93965955626461",
      "longitude": "-90.11294740826919"
    }
  },
  {
    "service_request": "2023-994536",
    "request_type": "Trash/Recycling",
    "request_reason": "Request a Large Item Pick Up",
    "date_created": "2023-04-26T14:44:56.000",
    "date_modified": "2023-04-26T14:44:56.000",
    "request_status": "Pending",
    "responsible_agency": "Department of Sanitation",
    "final_address": "300 BLK Bragg St",
    "address_councildis": "A",
    "status": "Assigned to Contractor",
    "contractor": "IV Waste",
    "rowid": "994536",
    "final_x": "3667584.21007",
    "final_y": "550149.102573",
    "longitude": "-90.11138421320912",
    "latitude": "30.007134598715353",
    "geocoded_column": {
      "latitude": "30.007134598715353",
      "longitude": "-90.11138421320912"
    }
  },
  {
    "service_request": "2023-994535",
    "request_type": "Mayor's Request",
    "request_reason": "Entergy Bill Payment Assistance",
    "date_created": "2023-04-26T14:43:08.000",
    "date_modified": "2023-04-26T14:43:08.000",
    "request_status": "Pending",
    "responsible_agency": "Executive Office of the Mayor",
    "final_address": "536 S Hennessey St",
    "address_councildis": "A",
    "status": "Pending",
    "rowid": "994535",
    "final_x": "3669188.48986",
    "final_y": "537440.8002",
    "longitude": "-90.10674562091735",
    "latitude": "29.972143980734984",
    "geocoded_column": {
      "latitude": "29.972143980734984",
      "longitude": "-90.10674562091735"
    }
  },
  {
    "service_request": "2023-994534",
    "request_type": "Roads/Drainage",
    "request_reason": "Drainage Issue (Catch Basins, Culverts, Ditches, and Manhole Covers)",
    "date_created": "2023-04-26T14:41:58.000",
    "date_modified": "2023-04-26T14:46:42.000",
    "request_status": "Pending",
    "responsible_agency": "Department of Public Works",
    "final_address": "6343 Pauline Dr",
    "address_councildis": "D",
    "status": "Pending",
    "rowid": "994534",
    "final_x": "3691299.79273",
    "final_y": "557024.031962",
    "longitude": "-90.0362145758033",
    "latitude": "30.025321370271488",
    "geocoded_column": {
      "latitude": "30.025321370271488",
      "longitude": "-90.0362145758033"
    }
  },
  {
    "service_request": "2023-994533",
    "request_type": "Trash/Recycling",
    "request_reason": "Request a Large Item Pick Up",
    "date_created": "2023-04-26T14:41:28.000",
    "date_modified": "2023-04-26T14:41:29.000",
    "request_status": "Pending",
    "responsible_agency": "Department of Sanitation",
    "final_address": "1034 St Maurice Ave",
    "address_councildis": "E",
    "status": "Assigned to Contractor",
    "contractor": "Waste Pro",
    "rowid": "994533",
    "final_x": "3699735.86205",
    "final_y": "533027.880132",
    "longitude": "-90.01043342996351",
    "latitude": "29.959075534494847",
    "geocoded_column": {
      "latitude": "29.959075534494847",
      "longitude": "-90.01043342996351"
    }
  },
  {
    "service_request": "2023-994532",
    "request_type": "Trash/Recycling",
    "request_reason": "Order Trash Cart",
    "date_created": "2023-04-26T14:40:37.000",
    "date_modified": "2023-04-26T14:40:38.000",
    "request_status": "Pending",
    "responsible_agency": "Department of Sanitation",
    "final_address": "361 Lowerline St",
    "address_councildis": "A",
    "status": "Assigned to Contractor",
    "contractor": "Richards Disposal",
    "rowid": "994532",
    "final_x": "3661728.18195",
    "final_y": "523761.576379",
    "longitude": "-90.13076004372527",
    "latitude": "29.934748003217045",
    "geocoded_column": {
      "latitude": "29.934748003217045",
      "longitude": "-90.13076004372527"
    }
  },
  {
    "service_request": "2023-994531",
    "request_type": "Trash/Recycling",
    "request_reason": "Missed Trash Pick-Up",
    "date_created": "2023-04-26T14:40:14.000",
    "date_modified": "2023-04-26T14:40:15.000",
    "request_status": "Pending",
    "responsible_agency": "Department of Sanitation",
    "final_address": "4418 Prentiss Ave",
    "address_councildis": "D",
    "status": "Assigned to Contractor",
    "contractor": "IV Waste",
    "rowid": "994531",
    "final_x": "3690141.84969",
    "final_y": "554006.510104",
    "longitude": "-90.0399811148354",
    "latitude": "30.017060303770624",
    "geocoded_column": {
      "latitude": "30.017060303770624",
      "longitude": "-90.0399811148354"
    }
  },
  {
    "service_request": "2023-994530",
    "request_type": "Trash/Recycling",
    "request_reason": "Request a Large Item Pick Up",
    "date_created": "2023-04-26T14:38:59.000",
    "date_modified": "2023-04-26T14:39:00.000",
    "request_status": "Pending",
    "responsible_agency": "Department of Sanitation",
    "final_address": "7101 W Renaissance Ct",
    "address_councildis": "E",
    "status": "Assigned to Contractor",
    "contractor": "Waste Pro",
    "rowid": "994530",
    "final_x": "3716828.53925",
    "final_y": "567529.731108",
    "longitude": "-89.95514922894598",
    "latitude": "30.05338846164778",
    "geocoded_column": {
      "latitude": "30.05338846164778",
      "longitude": "-89.95514922894598"
    }
  },
  {
    "service_request": "2023-994529",
    "request_type": "Abandoned Vehicles",
    "request_reason": "Abandoned/Junk Vehicles",
    "date_created": "2023-04-26T14:33:37.000",
    "date_modified": "2023-04-26T14:33:39.000",
    "request_status": "Pending",
    "responsible_agency": "Department of Public Works",
    "final_address": "3232 Tulane Ave",
    "address_councildis": "B",
    "status": "Pending",
    "rowid": "994529",
    "final_x": "3672326.76763",
    "final_y": "534628.376326",
    "longitude": "-90.09693023698094",
    "latitude": "29.96431801513713",
    "geocoded_column": {
      "latitude": "29.96431801513713",
      "longitude": "-90.09693023698094"
    }
  },
  {
    "service_request": "2023-994528",
    "request_type": "Trash/Recycling",
    "request_reason": "Repair Trash Cart",
    "date_created": "2023-04-26T14:32:35.000",
    "date_modified": "2023-04-26T14:32:36.000",
    "request_status": "Pending",
    "responsible_agency": "Department of Sanitation",
    "final_address": "4500 Gawain Dr",
    "address_councildis": "E",
    "status": "Assigned to Contractor",
    "contractor": "Waste Pro",
    "rowid": "994528",
    "final_x": "3707042.00209",
    "final_y": "554076.26556",
    "longitude": "-89.98658145142787",
    "latitude": "30.016716761817204",
    "geocoded_column": {
      "latitude": "30.016716761817204",
      "longitude": "-89.98658145142787"
    }
  },
  {
    "service_request": "2023-994527",
    "request_type": "Trash/Recycling",
    "request_reason": "MIssed Recycling Pick-Up",
    "date_created": "2023-04-26T14:31:03.000",
    "date_modified": "2023-04-26T14:31:04.000",
    "request_status": "Pending",
    "responsible_agency": "Department of Sanitation",
    "final_address": "124 S Scott St",
    "address_councildis": "A",
    "status": "Assigned to Contractor",
    "contractor": "Richards Disposal",
    "rowid": "994527",
    "final_x": "3671649.10478",
    "final_y": "537581.232264",
    "longitude": "-90.09896979334015",
    "latitude": "29.97245746568673",
    "geocoded_column": {
      "latitude": "29.97245746568673",
      "longitude": "-90.09896979334015"
    }
  },
  {
    "service_request": "2023-994526",
    "request_type": "Trash/Recycling",
    "request_reason": "Missed Trash Pick-Up",
    "date_created": "2023-04-26T14:30:49.000",
    "date_modified": "2023-04-26T14:33:08.000",
    "request_status": "Pending",
    "responsible_agency": "Department of Sanitation",
    "final_address": "2703 General De Gaulle Dr",
    "address_councildis": "C",
    "status": "Assigned to Contractor",
    "contractor": "Richards Disposal",
    "rowid": "994526",
    "final_x": "3693478.69712",
    "final_y": "521699.006841",
    "longitude": "-90.03059864694634",
    "latitude": "29.92812219242998",
    "geocoded_column": {
      "latitude": "29.92812219242998",
      "longitude": "-90.03059864694634"
    }
  },
  {
    "service_request": "2023-994525",
    "request_type": "Trash/Recycling",
    "request_reason": "Missed Trash Pick-Up",
    "date_created": "2023-04-26T14:30:32.000",
    "date_modified": "2023-04-26T14:30:33.000",
    "request_status": "Pending",
    "responsible_agency": "Department of Sanitation",
    "final_address": "2703 General De Gaulle Dr",
    "address_councildis": "C",
    "status": "Assigned to Contractor",
    "contractor": "Richards Disposal",
    "rowid": "994525",
    "final_x": "3693478.69712",
    "final_y": "521699.006841",
    "longitude": "-90.03059864694634",
    "latitude": "29.92812219242998",
    "geocoded_column": {
      "latitude": "29.92812219242998",
      "longitude": "-90.03059864694634"
    }
  },
  {
    "service_request": "2023-994524",
    "request_type": "Trash/Recycling",
    "request_reason": "Missed Trash Pick-Up",
    "date_created": "2023-04-26T14:30:12.000",
    "date_modified": "2023-04-26T14:30:12.000",
    "request_status": "Pending",
    "responsible_agency": "Department of Sanitation",
    "final_address": "2703 General De Gaulle Dr",
    "address_councildis": "C",
    "status": "Assigned to Contractor",
    "contractor": "Richards Disposal",
    "rowid": "994524",
    "final_x": "3693478.69712",
    "final_y": "521699.006841",
    "longitude": "-90.03059864694634",
    "latitude": "29.92812219242998",
    "geocoded_column": {
      "latitude": "29.92812219242998",
      "longitude": "-90.03059864694634"
    }
  },
  {
    "service_request": "2023-994523",
    "request_type": "Property Maintenance",
    "request_reason": "Property Maintenance",
    "date_created": "2023-04-26T14:28:24.000",
    "date_modified": "2023-04-26T14:28:24.000",
    "request_status": "Pending",
    "responsible_agency": "Department of Code Enforcement",
    "final_address": "2309 First St",
    "address_councildis": "B",
    "status": "Pending",
    "rowid": "994523",
    "final_x": "3675551.55899",
    "final_y": "525383.180733",
    "longitude": "-90.08706414007848",
    "latitude": "29.938800729567028",
    "geocoded_column": {
      "latitude": "29.938800729567028",
      "longitude": "-90.08706414007848"
    }
  },
  {
    "service_request": "2023-994522",
    "request_type": "Trash/Recycling",
    "request_reason": "Missed Trash Pick-Up",
    "date_created": "2023-04-26T14:27:51.000",
    "date_modified": "2023-04-26T14:27:52.000",
    "request_status": "Pending",
    "responsible_agency": "Department of Sanitation",
    "final_address": "2701 General De Gaulle Dr",
    "address_councildis": "C",
    "status": "Assigned to Contractor",
    "contractor": "Richards Disposal",
    "rowid": "994522",
    "final_x": "3693424.71184",
    "final_y": "521733.591482",
    "longitude": "-90.03076782444435",
    "latitude": "29.928218976026812",
    "geocoded_column": {
      "latitude": "29.928218976026812",
      "longitude": "-90.03076782444435"
    }
  },
  {
    "service_request": "2023-994521",
    "request_type": "Mosquito, Termite & Rodent Control",
    "request_reason": "Mosquito Complaint",
    "date_created": "2023-04-26T14:24:49.000",
    "date_modified": "2023-04-26T14:24:50.000",
    "request_status": "Pending",
    "responsible_agency": "Mosquito, Termite & Rodent Control Board",
    "final_address": "2101 Jena St",
    "address_councildis": "B",
    "status": "Pending",
    "rowid": "994521",
    "final_x": "3670319.60628",
    "final_y": "522658.638522",
    "longitude": "-90.10367435259296",
    "latitude": "29.931464549986917",
    "geocoded_column": {
      "latitude": "29.931464549986917",
      "longitude": "-90.10367435259296"
    }
  },
  {
    "service_request": "2023-994520",
    "request_type": "Trash/Recycling",
    "request_reason": "Missed Trash Pick-Up",
    "date_created": "2023-04-26T14:23:40.000",
    "date_modified": "2023-04-26T14:23:40.000",
    "request_status": "Pending",
    "responsible_agency": "Department of Sanitation",
    "final_address": "1000 Leontine St",
    "address_councildis": "B",
    "status": "Assigned to Contractor",
    "contractor": "Richards Disposal",
    "rowid": "994520",
    "final_x": "3667196.829",
    "final_y": "519170.263543",
    "longitude": "-90.11364984102431",
    "latitude": "29.92196440143432",
    "geocoded_column": {
      "latitude": "29.92196440143432",
      "longitude": "-90.11364984102431"
    }
  },
  {
    "service_request": "2023-994519",
    "request_type": "Trash/Recycling",
    "request_reason": "Request a Large Item Pick Up",
    "date_created": "2023-04-26T14:16:44.000",
    "date_modified": "2023-04-26T14:16:44.000",
    "request_status": "Pending",
    "responsible_agency": "Department of Sanitation",
    "final_address": "5175 Westgrove Park",
    "address_councildis": "C",
    "status": "Assigned to Contractor",
    "contractor": "Richards Disposal",
    "rowid": "994519",
    "final_x": "3703649.53962",
    "final_y": "510897.263599",
    "longitude": "-89.99888895015116",
    "latitude": "29.89809922364051",
    "geocoded_column": {
      "latitude": "29.89809922364051",
      "longitude": "-89.99888895015116"
    }
  },
  {
    "service_request": "2023-994518",
    "request_type": "Tax and Revenue",
    "request_reason": "Personal Property Tax Question",
    "date_created": "2023-04-26T14:12:29.000",
    "date_modified": "2023-04-26T14:16:41.000",
    "request_status": "Pending",
    "responsible_agency": "Bureau of Treasury",
    "final_address": "New Orleans,LA",
    "rowid": "994518",
    "longitude": "0.0",
    "latitude": "0.0",
    "geocoded_column": {
      "latitude": "0.0",
      "longitude": "0.0"
    }
  },
  {
    "service_request": "2023-994517",
    "request_type": "Trash/Recycling",
    "request_reason": "Request a Large Item Pick Up",
    "date_created": "2023-04-26T14:01:19.000",
    "date_modified": "2023-04-26T14:01:20.000",
    "request_status": "Pending",
    "responsible_agency": "Department of Sanitation",
    "final_address": "5936 Dover Pl",
    "address_councildis": "C",
    "status": "Assigned to Contractor",
    "contractor": "Richards Disposal",
    "rowid": "994517",
    "final_x": "3705786.2147",
    "final_y": "519177.085879",
    "longitude": "-89.9918401216447",
    "latitude": "29.92079729789274",
    "geocoded_column": {
      "latitude": "29.92079729789274",
      "longitude": "-89.9918401216447"
    }
  },
  {
    "service_request": "2023-994516",
    "request_type": "Trash/Recycling",
    "request_reason": "Missed Trash Pick-Up",
    "date_created": "2023-04-26T14:01:11.000",
    "date_modified": "2023-04-26T14:01:12.000",
    "request_status": "Pending",
    "responsible_agency": "Department of Sanitation",
    "final_address": "816 N Rocheblave St",
    "address_councildis": "D",
    "status": "Assigned to Contractor",
    "contractor": "Richards Disposal",
    "rowid": "994516",
    "final_x": "3677853.54344",
    "final_y": "536708.240839",
    "longitude": "-90.07940524303834",
    "latitude": "29.969871798477342",
    "geocoded_column": {
      "latitude": "29.969871798477342",
      "longitude": "-90.07940524303834"
    }
  },
  {
    "service_request": "2023-994515",
    "request_type": "Trash/Recycling",
    "request_reason": "Repair Trash Cart",
    "date_created": "2023-04-26T13:59:52.000",
    "date_modified": "2023-04-26T13:59:52.000",
    "request_status": "Pending",
    "responsible_agency": "Department of Sanitation",
    "final_address": "360 Broadway St",
    "address_councildis": "A",
    "status": "Assigned to Contractor",
    "contractor": "Richards Disposal",
    "rowid": "994515",
    "final_x": "3661773.1753",
    "final_y": "523033.834171",
    "longitude": "-90.13064211435646",
    "latitude": "29.932745642773344",
    "geocoded_column": {
      "latitude": "29.932745642773344",
      "longitude": "-90.13064211435646"
    }
  },
  {
    "service_request": "2023-994514",
    "request_type": "Trash/Recycling",
    "request_reason": "Replace Trash Cart",
    "date_created": "2023-04-26T13:58:22.000",
    "date_modified": "2023-04-26T13:58:25.000",
    "request_status": "Pending",
    "responsible_agency": "Department of Sanitation",
    "final_address": "4344 Ray Ave",
    "address_councildis": "E",
    "status": "Assigned to Contractor",
    "contractor": "Waste Pro",
    "rowid": "994514",
    "final_x": "3698900.33936",
    "final_y": "552248.311126",
    "longitude": "-90.01237209703201",
    "latitude": "30.011951183524285",
    "geocoded_column": {
      "latitude": "30.011951183524285",
      "longitude": "-90.01237209703201"
    }
  },
  {
    "service_request": "2023-994512",
    "request_type": "Trash/Recycling",
    "request_reason": "Missed Trash Pick-Up",
    "date_created": "2023-04-26T13:46:33.000",
    "date_modified": "2023-04-26T13:46:34.000",
    "request_status": "Pending",
    "responsible_agency": "Department of Sanitation",
    "final_address": "2780 Marengo St",
    "address_councildis": "B",
    "status": "Assigned to Contractor",
    "contractor": "Richards Disposal",
    "rowid": "994512",
    "final_x": "3671493.21774",
    "final_y": "525145.930557",
    "longitude": "-90.09988486947498",
    "latitude": "29.938269116222653",
    "geocoded_column": {
      "latitude": "29.938269116222653",
      "longitude": "-90.09988486947498"
    }
  },
  {
    "service_request": "2023-994511",
    "request_type": "Trash/Recycling",
    "request_reason": "Request a Large Item Pick Up",
    "date_created": "2023-04-26T13:44:46.000",
    "date_modified": "2023-04-26T13:44:47.000",
    "request_status": "Pending",
    "responsible_agency": "Department of Sanitation",
    "final_address": "28 St Claude Ct",
    "address_councildis": "E",
    "status": "Assigned to Contractor",
    "contractor": "Waste Pro",
    "rowid": "994511",
    "final_x": "3697413.61706",
    "final_y": "533566.957445",
    "longitude": "-90.01774692065975",
    "latitude": "29.960631322418738",
    "geocoded_column": {
      "latitude": "29.960631322418738",
      "longitude": "-90.01774692065975"
    }
  },
  {
    "service_request": "2023-994509",
    "request_type": "Trash/Recycling",
    "request_reason": "Order Recycling Cart",
    "date_created": "2023-04-26T13:41:14.000",
    "date_modified": "2023-04-26T13:41:15.000",
    "request_status": "Pending",
    "responsible_agency": "Department of Sanitation",
    "final_address": "32 St Claude Ct",
    "address_councildis": "E",
    "status": "Pending",
    "rowid": "994509",
    "final_x": "3697404.93635",
    "final_y": "533534.405829",
    "longitude": "-90.01777551263658",
    "latitude": "29.960542091064625",
    "geocoded_column": {
      "latitude": "29.960542091064625",
      "longitude": "-90.01777551263658"
    }
  },
  {
    "service_request": "2023-994510",
    "request_type": "Trash/Recycling",
    "request_reason": "Order Recycling Cart",
    "date_created": "2023-04-26T13:41:14.000",
    "date_modified": "2023-04-26T13:41:15.000",
    "request_status": "Pending",
    "responsible_agency": "Department of Sanitation",
    "final_address": "32 St Claude Ct",
    "address_councildis": "E",
    "status": "Pending",
    "rowid": "994510",
    "final_x": "3697404.93635",
    "final_y": "533534.405829",
    "longitude": "-90.01777551263658",
    "latitude": "29.960542091064625",
    "geocoded_column": {
      "latitude": "29.960542091064625",
      "longitude": "-90.01777551263658"
    }
  },
  {
    "service_request": "2023-994508",
    "request_type": "Trash/Recycling",
    "request_reason": "Repair Trash Cart",
    "date_created": "2023-04-26T13:38:09.000",
    "date_modified": "2023-04-26T13:38:10.000",
    "request_status": "Pending",
    "responsible_agency": "Department of Sanitation",
    "final_address": "2823 Chestnut St",
    "address_councildis": "B",
    "status": "Assigned to Contractor",
    "contractor": "Richards Disposal",
    "rowid": "994508",
    "final_x": "3676456.80366",
    "final_y": "521355.860217",
    "longitude": "-90.08434477186226",
    "latitude": "29.92769980944891",
    "geocoded_column": {
      "latitude": "29.92769980944891",
      "longitude": "-90.08434477186226"
    }
  },
  {
    "service_request": "2023-994507",
    "request_type": "Property Maintenance",
    "request_reason": "Property Maintenance",
    "date_created": "2023-04-26T13:36:08.000",
    "date_modified": "2023-04-26T13:36:08.000",
    "request_status": "Pending",
    "responsible_agency": "Department of Code Enforcement",
    "final_address": "2809 Johnny Jackson Jr Blvd",
    "address_councildis": "D",
    "status": "Pending",
    "rowid": "994507",
    "final_x": "3691347.49833",
    "final_y": "542714.068237",
    "longitude": "-90.0365755619267",
    "latitude": "29.985972747718044",
    "geocoded_column": {
      "latitude": "29.985972747718044",
      "longitude": "-90.0365755619267"
    }
  },
  {
    "service_request": "2023-994506",
    "request_type": "Trash/Recycling",
    "request_reason": "Missed Trash Pick-Up",
    "date_created": "2023-04-26T13:32:17.000",
    "date_modified": "2023-04-26T13:32:18.000",
    "request_status": "Pending",
    "responsible_agency": "Department of Sanitation",
    "final_address": "2600 BLK Erato St",
    "address_councildis": "B",
    "status": "Assigned to Contractor",
    "contractor": "Richards Disposal",
    "rowid": "994506",
    "final_x": "3676342.58363",
    "final_y": "528057.186455",
    "longitude": "-90.08447477339438",
    "latitude": "29.946129682601732",
    "geocoded_column": {
      "latitude": "29.946129682601732",
      "longitude": "-90.08447477339438"
    }
  },
  {
    "service_request": "2023-994505",
    "request_type": "Trash/Recycling",
    "request_reason": "Request a Large Item Pick Up",
    "date_created": "2023-04-26T13:32:06.000",
    "date_modified": "2023-04-26T13:32:42.000",
    "request_status": "Pending",
    "responsible_agency": "Department of Sanitation",
    "final_address": "1424 Constance St",
    "address_councildis": "B",
    "status": "Assigned to Contractor",
    "contractor": "Richards Disposal",
    "rowid": "994505",
    "final_x": "3680712.58376",
    "final_y": "524229.086076",
    "longitude": "-90.07081036187726",
    "latitude": "29.93547199374169",
    "geocoded_column": {
      "latitude": "29.93547199374169",
      "longitude": "-90.07081036187726"
    }
  },
  {
    "service_request": "2023-994504",
    "request_type": "Abandoned Vehicles",
    "request_reason": "Abandoned/Junk Vehicles",
    "date_created": "2023-04-26T13:31:16.000",
    "date_modified": "2023-04-26T13:32:08.000",
    "request_status": "Pending",
    "responsible_agency": "Department of Public Works",
    "final_address": "1500 BLK Valence St",
    "address_councildis": "B",
    "status": "Inspected",
    "rowid": "994504",
    "final_x": "3669759.05087",
    "final_y": "520585.29884",
    "longitude": "-90.1055140993079",
    "latitude": "29.925780057160143",
    "geocoded_column": {
      "latitude": "29.925780057160143",
      "longitude": "-90.1055140993079"
    }
  },
  {
    "service_request": "2023-994503",
    "request_type": "Trash/Recycling",
    "request_reason": "Order Recycling Cart",
    "date_created": "2023-04-26T13:25:59.000",
    "date_modified": "2023-04-26T13:26:00.000",
    "request_status": "Pending",
    "responsible_agency": "Department of Sanitation",
    "final_address": "4209 Iris St",
    "address_councildis": "D",
    "status": "Pending",
    "rowid": "994503",
    "final_x": "3686310.54338",
    "final_y": "548432.440338",
    "longitude": "-90.05228334191105",
    "latitude": "30.001851999357783",
    "geocoded_column": {
      "latitude": "30.001851999357783",
      "longitude": "-90.05228334191105"
    }
  },
  {
    "service_request": "2023-994502",
    "request_type": "Trash/Recycling",
    "request_reason": "Illegal Dumping",
    "date_created": "2023-04-26T13:12:13.000",
    "date_modified": "2023-04-26T13:12:13.000",
    "request_status": "Pending",
    "responsible_agency": "Department of Sanitation",
    "final_address": "1827 Soniat St",
    "address_councildis": "B",
    "status": "Pending",
    "rowid": "994502",
    "final_x": "3668553.07559",
    "final_y": "522361.082938",
    "longitude": "-90.10926113004166",
    "latitude": "29.930698375977475",
    "geocoded_column": {
      "latitude": "29.930698375977475",
      "longitude": "-90.10926113004166"
    }
  },
  {
    "service_request": "2023-994501",
    "request_type": "Trash/Recycling",
    "request_reason": "Request a Large Item Pick Up",
    "date_created": "2023-04-26T13:11:45.000",
    "date_modified": "2023-04-26T13:11:46.000",
    "request_status": "Pending",
    "responsible_agency": "Department of Sanitation",
    "final_address": "5700 Tullis Dr",
    "address_councildis": "C",
    "status": "Assigned to Contractor",
    "contractor": "Richards Disposal",
    "rowid": "994501",
    "final_x": "3705093.55531",
    "final_y": "512744.214897",
    "longitude": "-89.9942638108508",
    "latitude": "29.903131392237807",
    "geocoded_column": {
      "latitude": "29.903131392237807",
      "longitude": "-89.9942638108508"
    }
  },
  {
    "service_request": "2023-994499",
    "request_type": "Trash/Recycling",
    "request_reason": "Repair Recycling Cart",
    "date_created": "2023-04-26T13:09:41.000",
    "date_modified": "2023-04-26T13:09:41.000",
    "request_status": "Pending",
    "responsible_agency": "Department of Sanitation",
    "final_address": "226 14Th St",
    "address_councildis": "A",
    "status": "Pending",
    "rowid": "994499",
    "final_x": "3665449.38893",
    "final_y": "548068.29109",
    "longitude": "-90.11819844138718",
    "latitude": "30.00147551253702",
    "geocoded_column": {
      "latitude": "30.00147551253702",
      "longitude": "-90.11819844138718"
    }
  },
  {
    "service_request": "2023-994498",
    "request_type": "Trash/Recycling",
    "request_reason": "Illegal Dumping",
    "date_created": "2023-04-26T13:08:50.000",
    "date_modified": "2023-04-26T13:08:50.000",
    "request_status": "Pending",
    "responsible_agency": "Department of Sanitation",
    "final_address": "1827 Soniat St",
    "address_councildis": "B",
    "status": "Pending",
    "rowid": "994498",
    "final_x": "3668553.07559",
    "final_y": "522361.082938",
    "longitude": "-90.10926113004166",
    "latitude": "29.930698375977475",
    "geocoded_column": {
      "latitude": "29.930698375977475",
      "longitude": "-90.10926113004166"
    }
  },
  {
    "service_request": "2023-994496",
    "request_type": "Trash/Recycling",
    "request_reason": "Repair Trash Cart",
    "date_created": "2023-04-26T13:07:37.000",
    "date_modified": "2023-04-26T13:07:37.000",
    "request_status": "Pending",
    "responsible_agency": "Department of Sanitation",
    "final_address": "4626 Longfellow Dr",
    "address_councildis": "E",
    "status": "Assigned to Contractor",
    "contractor": "Waste Pro",
    "rowid": "994496",
    "final_x": "3709630.71902",
    "final_y": "555053.571289",
    "longitude": "-89.97836576184137",
    "latitude": "30.019320057455435",
    "geocoded_column": {
      "latitude": "30.019320057455435",
      "longitude": "-89.97836576184137"
    }
  },
  {
    "service_request": "2023-994495",
    "request_type": "Roads/Drainage",
    "request_reason": "Pothole",
    "date_created": "2023-04-26T13:07:17.000",
    "date_modified": "2023-04-26T13:07:17.000",
    "request_status": "Pending",
    "responsible_agency": "Department of Public Works",
    "status": "Pending",
    "rowid": "994495",
    "longitude": "0.0",
    "latitude": "0.0",
    "geocoded_column": {
      "latitude": "0.0",
      "longitude": "0.0"
    }
  },
  {
    "service_request": "2023-994494",
    "request_type": "Trash/Recycling",
    "request_reason": "Illegal Dumping",
    "date_created": "2023-04-26T13:06:37.000",
    "date_modified": "2023-04-26T13:06:37.000",
    "request_status": "Pending",
    "responsible_agency": "Department of Sanitation",
    "final_address": "1827 Soniat St",
    "address_councildis": "B",
    "status": "Pending",
    "rowid": "994494",
    "final_x": "3668553.07559",
    "final_y": "522361.082938",
    "longitude": "-90.10926113004166",
    "latitude": "29.930698375977475",
    "geocoded_column": {
      "latitude": "29.930698375977475",
      "longitude": "-90.10926113004166"
    }
  },
  {
    "service_request": "2023-994492",
    "request_type": "Roads/Drainage",
    "request_reason": "Street Flooding / Drainage",
    "date_created": "2023-04-26T13:04:36.000",
    "date_modified": "2023-04-26T13:04:36.000",
    "request_status": "Pending",
    "responsible_agency": "Department of Public Works",
    "final_address": "831 Calhoun St",
    "address_councildis": "A",
    "status": "Pending",
    "rowid": "994492",
    "final_x": "3663607.45293",
    "final_y": "519973.042168",
    "longitude": "-90.12495332013025",
    "latitude": "29.924276360562533",
    "geocoded_column": {
      "latitude": "29.924276360562533",
      "longitude": "-90.12495332013025"
    }
  },
  {
    "service_request": "2023-994491",
    "request_type": "Trash/Recycling",
    "request_reason": "Illegal Dumping",
    "date_created": "2023-04-26T13:02:01.000",
    "date_modified": "2023-04-26T13:02:01.000",
    "request_status": "Pending",
    "responsible_agency": "Department of Sanitation",
    "final_address": "1827 Soniat St",
    "address_councildis": "B",
    "status": "Pending",
    "rowid": "994491",
    "final_x": "3668553.07559",
    "final_y": "522361.082938",
    "longitude": "-90.10926113004166",
    "latitude": "29.930698375977475",
    "geocoded_column": {
      "latitude": "29.930698375977475",
      "longitude": "-90.10926113004166"
    }
  },
  {
    "service_request": "2023-994490",
    "request_type": "Abandoned Vehicles",
    "request_reason": "Abandoned/Junk Vehicles",
    "date_created": "2023-04-26T13:01:17.000",
    "date_modified": "2023-04-26T13:01:17.000",
    "request_status": "Pending",
    "responsible_agency": "Department of Public Works",
    "final_address": "4209 Buchanan St",
    "address_councildis": "D",
    "status": "Pending",
    "rowid": "994490",
    "final_x": "3677277.91618",
    "final_y": "547648.755154",
    "longitude": "-90.08084545962063",
    "latitude": "29.99997172210418",
    "geocoded_column": {
      "latitude": "29.99997172210418",
      "longitude": "-90.08084545962063"
    }
  },