[
  {
    "service_request": "2026-1272574",
    "request_type": "Trash/Recycling",
    "request_reason": "Request a Large Item Pick Up",
    "date_created": "2026-04-09T22:37:36.000",
    "date_modified": "2026-04-09T22:37:38.000",
    "request_status": "Pending",
    "responsible_agency": "Department of Sanitation",
    "final_address": "2014 N Roman St",
    "address_councildis": "C",
    "status": "Assigned to Contractor",
    "contractor": "IV Waste",
    "rowid": "1272574",
    "final_x": "3684166.55145",
    "final_y": "538797.082889",
    "longitude": "-90.05939485279828",
    "latitude": "29.97542391658076",
    "geocoded_column": {
      "latitude": "29.97542391658076",
      "longitude": "-90.05939485279828"
    }
  },
  {
    "service_request": "2026-1272573",
    "request_type": "Property Maintenance",
    "request_reason": "Property Maintenance",
    "date_created": "2026-04-09T22:26:22.000",
    "date_modified": "2026-04-09T22:26:24.000",
    "request_status": "Pending",
    "responsible_agency": "Department of Code Enforcement",
    "final_address": "2758 St Philip St",
    "address_councildis": "C",
    "status": "Pending",
    "rowid": "1272573",
    "final_x": "3676972.13723",
    "final_y": "538139.082441",
    "longitude": "-90.08213946724827",
    "latitude": "29.97383261634116",
    "geocoded_column": {
      "latitude": "29.97383261634116",
      "longitude": "-90.08213946724827"
    }
  },
  {
    "service_request": "2026-1272572",
    "request_type": "Trash/Recycling",
    "request_reason": "Request a Large Item Pick Up",
    "date_created": "2026-04-09T22:24:30.000",
    "date_modified": "2026-04-09T22:24:31.000",
    "request_status": "Pending",
    "responsible_agency": "Department of Sanitation",
    "final_address": "2676 Jasmine St",
    "address_councildis": "D",
    "status": "Assigned to Contractor",
    "contractor": "IV Waste",
    "rowid": "1272572",
    "final_x": "3687634.77852",
    "final_y": "548097.290002",
    "longitude": "-90.0481118273831",
    "latitude": "30.000889682708436",
    "geocoded_column": {
      "latitude": "30.000889682708436",
      "longitude": "-90.0481118273831"
    }
  },
  {
    "service_request": "2026-1272571",
    "request_type": "Health Related Request",
    "request_reason": "Noise Ordinance Complaint",
    "date_created": "2026-04-09T22:21:34.000",
    "date_modified": "2026-04-09T22:21:36.000",
    "request_status": "Pending",
    "responsible_agency": "Health Department",
    "final_address": "801 Bourbon St, New Orleans, Louisiana, 70116",
    "address_councildis": "C",
    "status": "Pending",
    "rowid": "1272571",
    "final_x": "3682490.98735",
    "final_y": "533018.672772",
    "longitude": "-90.06488875731978",
    "latitude": "29.959586396383013",
    "geocoded_column": {
      "latitude": "29.959586396383013",
      "longitude": "-90.06488875731978"
    }
  },
  {
    "service_request": "2026-1272570",
    "request_type": "Trash/Recycling",
    "request_reason": "Replace Recycling Cart",
    "date_created": "2026-04-09T22:06:32.000",
    "date_modified": "2026-04-09T22:06:34.000",
    "request_status": "Pending",
    "responsible_agency": "Department of Sanitation",
    "final_address": "5524 Hawthorne Pl",
    "address_councildis": "A",
    "status": "Pending",
    "rowid": "1272570",
    "final_x": "3667722.81927",
    "final_y": "544490.092175",
    "longitude": "-90.11113700475914",
    "latitude": "29.99157020941061",
    "geocoded_column": {
      "latitude": "29.99157020941061",
      "longitude": "-90.11113700475914"
    }
  },
  {
    "service_request": "2026-1272569",
    "request_type": "Trash/Recycling",
    "request_reason": "Replace Trash Cart",
    "date_created": "2026-04-09T22:04:08.000",
    "date_modified": "2026-04-09T22:04:10.000",
    "request_status": "Pending",
    "responsible_agency": "Department of Sanitation",
    "final_address": "5524 Hawthorne Pl",
    "address_councildis": "A",
    "status": "Assigned to Contractor",
    "contractor": "IV Waste",
    "rowid": "1272569",
    "final_x": "3667722.81927",
    "final_y": "544490.092175",
    "longitude": "-90.11113700475914",
    "latitude": "29.99157020941061",
    "geocoded_column": {
      "latitude": "29.99157020941061",
      "longitude": "-90.11113700475914"
    }
  },
  {
    "service_request": "2026-1272568",
    "request_type": "Streetlights",
    "request_reason": "Streetlight Outage/Malfunction",
    "date_created": "2026-04-09T21:39:41.000",
    "date_modified": "2026-04-09T21:39:43.000",
    "request_status": "Pending",
    "responsible_agency": "Department of Public Works",
    "final_address": "3243 River Oaks Dr",
    "address_councildis": "C",
    "status": "Pending",
    "rowid": "1272568",
    "final_x": "3701374.54826",
    "final_y": "519164.051511",
    "longitude": "-90.00576611454646",
    "latitude": "29.92090274002364",
    "geocoded_column": {
      "latitude": "29.92090274002364",
      "longitude": "-90.00576611454646"
    }
  },
  {
    "service_request": "2026-1272567",
    "request_type": "Streetlights",
    "request_reason": "Streetlight Outage/Malfunction",
    "date_created": "2026-04-09T21:35:26.000",
    "date_modified": "2026-04-09T21:35:28.000",
    "request_status": "Pending",
    "responsible_agency": "Department of Public Works",
    "final_address": "0 BLK Admiralty Ct",
    "address_councildis": "C",
    "status": "Pending",
    "rowid": "1272567",
    "final_x": "3704031.03777",
    "final_y": "523040.620373",
    "longitude": "-89.99723816614093",
    "latitude": "29.931477060413563",
    "geocoded_column": {
      "latitude": "29.931477060413563",
      "longitude": "-89.99723816614093"
    }
  },
  {
    "service_request": "2026-1272566",
    "request_type": "Abandoned Vehicles",
    "request_reason": "Abandoned/Junk Vehicles",
    "date_created": "2026-04-09T20:48:20.000",
    "date_modified": "2026-04-09T20:48:21.000",
    "request_status": "Pending",
    "responsible_agency": "Department of Public Works",
    "final_address": "6127 Catina St",
    "address_councildis": "A",
    "status": "Pending",
    "rowid": "1272566",
    "final_x": "3666892.75085",
    "final_y": "548330.788242",
    "longitude": "-90.11362987950577",
    "latitude": "30.002155122533924",
    "geocoded_column": {
      "latitude": "30.002155122533924",
      "longitude": "-90.11362987950577"
    }
  },
  {
    "service_request": "2026-1272565",
    "request_type": "Trash/Recycling",
    "request_reason": "Illegal Dumping",
    "date_created": "2026-04-09T20:47:05.000",
    "date_modified": "2026-04-09T20:47:06.000",
    "request_status": "Pending",
    "responsible_agency": "Department of Sanitation",
    "final_address": "2020 Seventh St",
    "address_councildis": "B",
    "status": "Pending",
    "rowid": "1272565",
    "final_x": "3674330.05057",
    "final_y": "523415.858555",
    "longitude": "-90.09098792599798",
    "latitude": "29.933427709429793",
    "geocoded_column": {
      "latitude": "29.933427709429793",
      "longitude": "-90.09098792599798"
    }
  },
  {
    "service_request": "2026-1272564",
    "request_type": "Safety & Permits",
    "request_reason": "Zoning Enforcement",
    "date_created": "2026-04-09T20:33:05.000",
    "date_modified": "2026-04-09T20:33:09.000",
    "request_status": "Pending",
    "responsible_agency": "Safety and Permits",
    "final_address": "5363 Franklin Ave",
    "address_councildis": "D",
    "status": "Pending",
    "rowid": "1272564",
    "final_x": "3686707.55311",
    "final_y": "552752.713814",
    "longitude": "-90.05087639397459",
    "latitude": "30.01371896551331",
    "geocoded_column": {
      "latitude": "30.01371896551331",
      "longitude": "-90.05087639397459"
    }
  },
  {
    "service_request": "2026-1272563",
    "request_type": "Abandoned Vehicles",
    "request_reason": "Abandoned/Junk Vehicles",
    "date_created": "2026-04-09T20:28:45.000",
    "date_modified": "2026-04-09T20:28:47.000",
    "request_status": "Pending",
    "responsible_agency": "Department of Public Works",
    "final_address": "500 BLK Mandeville St",
    "address_councildis": "C",
    "status": "Pending",
    "rowid": "1272563",
    "final_x": "3685935.91582",
    "final_y": "534394.782704",
    "longitude": "-90.0539619718762",
    "latitude": "29.9632649149893",
    "geocoded_column": {
      "latitude": "29.9632649149893",
      "longitude": "-90.0539619718762"
    }
  },
  {
    "service_request": "2026-1272562",
    "request_type": "General Services",
    "request_reason": "General Service Request",
    "date_created": "2026-04-09T20:26:31.000",
    "date_modified": "2026-04-09T20:26:32.000",
    "request_status": "Pending",
    "responsible_agency": "Orleans Parish Communication District",
    "final_address": "4525 Iberville St",
    "address_councildis": "A",
    "status": "Pending",
    "rowid": "1272562",
    "final_x": "3669822.12634",
    "final_y": "539901.182154",
    "longitude": "-90.1046611655311",
    "latitude": "29.978890535409427",
    "geocoded_column": {
      "latitude": "29.978890535409427",
      "longitude": "-90.1046611655311"
    }
  },
  {
    "service_request": "2026-1272561",
    "request_type": "Street and Traffic Signs",
    "request_reason": "Traffic or Parking Sign Damaged or Missing",
    "date_created": "2026-04-09T20:23:52.000",
    "date_modified": "2026-04-09T20:23:54.000",
    "request_status": "Pending",
    "responsible_agency": "Department of Public Works",
    "final_address": "759 N Claiborne Ave",
    "address_councildis": "C",
    "status": "Pending",
    "rowid": "1272561",
    "final_x": "3679843.21928",
    "final_y": "534864.83687",
    "longitude": "-90.07318568321999",
    "latitude": "29.96474304848315",
    "geocoded_column": {
      "latitude": "29.96474304848315",
      "longitude": "-90.07318568321999"
    }
  },
  {
    "service_request": "2026-1272560",
    "request_type": "Street and Traffic Signs",
    "request_reason": "Traffic or Parking Sign Damaged or Missing",
    "date_created": "2026-04-09T20:20:57.000",
    "date_modified": "2026-04-09T20:21:00.000",
    "request_status": "Pending",
    "responsible_agency": "Department of Public Works",
    "final_address": "2650 Canal St",
    "address_councildis": "B",
    "status": "Pending",
    "rowid": "1272560",
    "final_x": "3675384.02734",
    "final_y": "534913.722694",
    "longitude": "-90.08726584790539",
    "latitude": "29.96501155880365",
    "geocoded_column": {
      "latitude": "29.96501155880365",
      "longitude": "-90.08726584790539"
    }
  },
  {
    "service_request": "2026-1272559",
    "request_type": "Trash/Recycling",
    "request_reason": "Request a Large Item Pick Up",
    "date_created": "2026-04-09T19:54:41.000",
    "date_modified": "2026-04-09T19:54:45.000",
    "request_status": "Pending",
    "responsible_agency": "Department of Sanitation",
    "final_address": "7046 Lake Willow Dr",
    "address_councildis": "E",
    "status": "Assigned to Contractor",
    "contractor": "Waste Pro",
    "rowid": "1272559",
    "final_x": "3702245.72721",
    "final_y": "559069.97398",
    "longitude": "-90.00155216452771",
    "latitude": "30.030601668775283",
    "geocoded_column": {
      "latitude": "30.030601668775283",
      "longitude": "-90.00155216452771"
    }
  },
  {
    "service_request": "2026-1272558",
    "request_type": "Property Maintenance",
    "request_reason": "Property Maintenance",
    "date_created": "2026-04-09T19:25:51.000",
    "date_modified": "2026-04-09T19:25:54.000",
    "request_status": "Pending",
    "responsible_agency": "Department of Code Enforcement",
    "final_address": "7117 Edinburgh St",
    "address_councildis": "B",
    "status": "Pending",
    "rowid": "1272558",
    "final_x": "3668870.07994",
    "final_y": "533217.783684",
    "longitude": "-90.1078938506277",
    "latitude": "29.960541459440126",
    "geocoded_column": {
      "latitude": "29.960541459440126",
      "longitude": "-90.1078938506277"
    }
  },
  {
    "service_request": "2026-1272557",
    "request_type": "Abandoned Vehicles",
    "request_reason": "Abandoned/Junk Vehicles",
    "date_created": "2026-04-09T19:20:18.000",
    "date_modified": "2026-04-09T19:20:20.000",
    "request_status": "Pending",
    "responsible_agency": "Department of Public Works",
    "final_address": "1418 Crete St",
    "address_councildis": "D",
    "status": "Pending",
    "rowid": "1272557",
    "final_x": "3677916.43246",
    "final_y": "539477.02049",
    "longitude": "-90.07911092199508",
    "latitude": "29.977483099760146",
    "geocoded_column": {
      "latitude": "29.977483099760146",
      "longitude": "-90.07911092199508"
    }
  },
  {
    "service_request": "2026-1272556",
    "request_type": "Trash/Recycling",
    "request_reason": "Request a Large Item Pick Up",
    "date_created": "2026-04-09T19:17:18.000",
    "date_modified": "2026-04-09T19:17:20.000",
    "request_status": "Pending",
    "responsible_agency": "Department of Sanitation",
    "final_address": "10 Avoyelles Pl",
    "address_councildis": "E",
    "status": "Assigned to Contractor",
    "contractor": "Waste Pro",
    "rowid": "1272556",
    "final_x": "3725616.91347",
    "final_y": "564466.947489",
    "longitude": "-89.92749064488848",
    "latitude": "30.044673511796",
    "geocoded_column": {
      "latitude": "30.044673511796",
      "longitude": "-89.92749064488848"
    }
  },
  {
    "service_request": "2026-1272555",
    "request_type": "Parks & Grass Service",
    "request_reason": "Park Maintenance/Clean Up",
    "date_created": "2026-04-09T19:16:50.000",
    "date_modified": "2026-04-09T19:16:51.000",
    "request_status": "Pending",
    "responsible_agency": "Department of Parks & Parkways",
    "final_address": "5300 BLK Wildair Dr",
    "address_councildis": "D",
    "status": "Pending",
    "rowid": "1272555",
    "final_x": "3681665.53361",
    "final_y": "552499.504697",
    "longitude": "-90.06681540085445",
    "latitude": "30.01317693535937",
    "geocoded_column": {
      "latitude": "30.01317693535937",
      "longitude": "-90.06681540085445"
    }
  },
  {
    "service_request": "2026-1272554",
    "request_type": "Trash/Recycling",
    "request_reason": "Request a Large Item Pick Up",
    "date_created": "2026-04-09T19:14:55.000",
    "date_modified": "2026-04-09T19:14:56.000",
    "request_status": "Pending",
    "responsible_agency": "Department of Sanitation",
    "final_address": "13 Avoyelles Pl",
    "address_councildis": "E",
    "status": "Assigned to Contractor",
    "contractor": "Waste Pro",
    "rowid": "1272554",
    "final_x": "3725730.2055",
    "final_y": "564556.185761",
    "longitude": "-89.92712913365654",
    "latitude": "30.044915057518367",
    "geocoded_column": {
      "latitude": "30.044915057518367",
      "longitude": "-89.92712913365654"
    }
  },
  {
    "service_request": "2026-1272553",
    "request_type": "Tree Service",
    "request_reason": "Tree Trim",
    "date_created": "2026-04-09T19:09:29.000",
    "date_modified": "2026-04-09T19:09:31.000",
    "request_status": "Pending",
    "responsible_agency": "Department of Parks & Parkways",
    "final_address": "7028 Lake Willow Dr",
    "address_councildis": "E",
    "status": "Pending",
    "rowid": "1272553",
    "final_x": "3702337.71069",
    "final_y": "558895.66166",
    "longitude": "-90.00126790066801",
    "latitude": "30.030119437590105",
    "geocoded_column": {
      "latitude": "30.030119437590105",
      "longitude": "-90.00126790066801"
    }
  },
  {
    "service_request": "2026-1272552",
    "request_type": "General Services",
    "request_reason": "General Service Request",
    "date_created": "2026-04-09T18:58:27.000",
    "date_modified": "2026-04-09T18:58:31.000",
    "request_status": "Pending",
    "responsible_agency": "Orleans Parish Communication District",
    "final_address": "1437 Saint Andrew St, New Orleans, Louisiana, 70130",
    "address_councildis": "B",
    "status": "Pending",
    "rowid": "1272552",
    "final_x": "3678674.63016",
    "final_y": "523626.303099",
    "longitude": "-90.0772650561403",
    "latitude": "29.933876124838466",
    "geocoded_column": {
      "latitude": "29.933876124838466",
      "longitude": "-90.0772650561403"
    }
  },
  {
    "service_request": "2026-1272551",
    "request_type": "Drainage",
    "request_reason": "Catch Basin Not Draining",
    "date_created": "2026-04-09T18:55:51.000",
    "date_modified": "2026-04-09T18:55:53.000",
    "request_status": "Pending",
    "responsible_agency": "Sewerage & Water Board",
    "final_address": "2318 Dublin St",
    "address_councildis": "A",
    "status": "Pending",
    "rowid": "1272551",
    "final_x": "3664383.57357",
    "final_y": "531611.614403",
    "longitude": "-90.12211501452727",
    "latitude": "29.956256188883906",
    "geocoded_column": {
      "latitude": "29.956256188883906",
      "longitude": "-90.12211501452727"
    }
  },
  {
    "service_request": "2026-1272550",
    "request_type": "Trash/Recycling",
    "request_reason": "Damaged Caused By Contractor",
    "date_created": "2026-04-09T18:47:39.000",
    "date_modified": "2026-04-09T18:47:41.000",
    "request_status": "Pending",
    "responsible_agency": "Department of Sanitation",
    "final_address": "1524 Paula St",
    "address_councildis": "D",
    "status": "Assigned to Contractor",
    "contractor": "IV Waste",
    "rowid": "1272550",
    "final_x": "3679033.58165",
    "final_y": "549221.557459",
    "longitude": "-90.07524467535963",
    "latitude": "30.004243484366025",
    "geocoded_column": {
      "latitude": "30.004243484366025",
      "longitude": "-90.07524467535963"
    }
  },
  {
    "service_request": "2026-1272549",
    "request_type": "Trash/Recycling",
    "request_reason": "Return Trash Cart",
    "date_created": "2026-04-09T18:37:04.000",
    "date_modified": "2026-04-09T18:37:05.000",
    "request_status": "Pending",
    "responsible_agency": "Department of Sanitation",
    "final_address": "5710 Macarthur Blvd",
    "address_councildis": "C",
    "status": "Assigned to Contractor",
    "contractor": "Richards Disposal",
    "rowid": "1272549",
    "final_x": "3704474.8714",
    "final_y": "519502.149175",
    "longitude": "-89.99596742392492",
    "latitude": "29.921733258720547",
    "geocoded_column": {
      "latitude": "29.921733258720547",
      "longitude": "-89.99596742392492"
    }
  },
  {
    "service_request": "2026-1272548",
    "request_type": "Abandoned Vehicles",
    "request_reason": "Abandoned/Junk Vehicles",
    "date_created": "2026-04-09T18:36:48.000",
    "date_modified": "2026-04-09T18:36:49.000",
    "request_status": "Pending",
    "responsible_agency": "Department of Public Works",
    "final_address": "1704 Frenchmen St",
    "address_councildis": "C",
    "status": "Pending",
    "rowid": "1272548",
    "final_x": "3684377.68066",
    "final_y": "538545.761417",
    "longitude": "-90.05873687999602",
    "latitude": "29.974726414273828",
    "geocoded_column": {
      "latitude": "29.974726414273828",
      "longitude": "-90.05873687999602"
    }
  },
  {
    "service_request": "2026-1272547",
    "request_type": "Streetlights",
    "request_reason": "Streetlight Outage/Malfunction",
    "date_created": "2026-04-09T17:58:27.000",
    "date_modified": "2026-04-09T17:58:30.000",
    "request_status": "Pending",
    "responsible_agency": "Department of Public Works",
    "final_address": "1466 Mandolin St",
    "address_councildis": "D",
    "status": "Pending",
    "rowid": "1272547",
    "final_x": "3678449.30818",
    "final_y": "547956.031314",
    "longitude": "-90.07713433354566",
    "latitude": "30.00078136363834",
    "geocoded_column": {
      "latitude": "30.00078136363834",
      "longitude": "-90.07713433354566"
    }
  },
  {
    "service_request": "2026-1272546",
    "request_type": "General Services",
    "request_reason": "General Service Request",
    "date_created": "2026-04-09T17:49:04.000",
    "date_modified": "2026-04-09T17:49:05.000",
    "request_status": "Pending",
    "responsible_agency": "Orleans Parish Communication District",
    "final_address": "901 Stewart Ct",
    "address_councildis": "A",
    "status": "Pending",
    "rowid": "1272546",
    "final_x": "3673010.33992",
    "final_y": "540754.678475",
    "longitude": "-90.09456241286665",
    "latitude": "29.981142971358693",
    "geocoded_column": {
      "latitude": "29.981142971358693",
      "longitude": "-90.09456241286665"
    }
  },
  {
    "service_request": "2026-1272545",
    "request_type": "Roads and Streets",
    "request_reason": "Sidewalk Damaged or Missing",
    "date_created": "2026-04-09T17:48:36.000",
    "date_modified": "2026-04-09T17:48:37.000",
    "request_status": "Pending",
    "responsible_agency": "Department of Public Works",
    "final_address": "2024 St Ann St",
    "address_councildis": "C",
    "status": "Pending",
    "rowid": "1272545",
    "final_x": "3678942.17922",
    "final_y": "535636.18759",
    "longitude": "-90.07600437834869",
    "latitude": "29.96689121630417",
    "geocoded_column": {
      "latitude": "29.96689121630417",
      "longitude": "-90.07600437834869"
    }
  },
  {
    "service_request": "2026-1272544",
    "request_type": "Roads and Streets",
    "request_reason": "Sidewalk Damaged or Missing",
    "date_created": "2026-04-09T17:48:06.000",
    "date_modified": "2026-04-09T17:48:07.000",
    "request_status": "Pending",
    "responsible_agency": "Department of Public Works",
    "final_address": "2009 St Ann St",
    "address_councildis": "C",
    "status": "Pending",
    "rowid": "1272544",
    "final_x": "3679070.19247",
    "final_y": "535622.219398",
    "longitude": "-90.07560059661421",
    "latitude": "29.96684894551429",
    "geocoded_column": {
      "latitude": "29.96684894551429",
      "longitude": "-90.07560059661421"
    }
  },
  {
    "service_request": "2026-1272543",
    "request_type": "Roads and Streets",
    "request_reason": "Sidewalk Damaged or Missing",
    "date_created": "2026-04-09T17:47:23.000",
    "date_modified": "2026-04-09T17:47:24.000",
    "request_status": "Pending",
    "responsible_agency": "Department of Public Works",
    "final_address": "2017 St Ann St",
    "address_councildis": "C",
    "status": "Pending",
    "rowid": "1272543",
    "final_x": "3679035.18671",
    "final_y": "535668.401991",
    "longitude": "-90.07570954405526",
    "latitude": "29.966976988360898",
    "geocoded_column": {
      "latitude": "29.966976988360898",
      "longitude": "-90.07570954405526"
    }
  },
  {
    "service_request": "2026-1272542",
    "request_type": "Roads and Streets",
    "request_reason": "Sidewalk Damaged or Missing",
    "date_created": "2026-04-09T17:46:56.000",
    "date_modified": "2026-04-09T17:46:58.000",
    "request_status": "Pending",
    "responsible_agency": "Department of Public Works",
    "final_address": "2021 St Ann St",
    "address_councildis": "C",
    "status": "Pending",
    "rowid": "1272542",
    "final_x": "3679002.74434",
    "final_y": "535686.050503",
    "longitude": "-90.07581138550779",
    "latitude": "29.967026494782086",
    "geocoded_column": {
      "latitude": "29.967026494782086",
      "longitude": "-90.07581138550779"
    }
  },
  {
    "service_request": "2026-1272541",
    "request_type": "Roads and Streets",
    "request_reason": "Sidewalk Damaged or Missing",
    "date_created": "2026-04-09T17:46:31.000",
    "date_modified": "2026-04-09T17:46:32.000",
    "request_status": "Pending",
    "responsible_agency": "Department of Public Works",
    "final_address": "2025 St Ann St",
    "address_councildis": "C",
    "status": "Pending",
    "rowid": "1272541",
    "final_x": "3678985.86722",
    "final_y": "535700.403719",
    "longitude": "-90.07586418610346",
    "latitude": "29.967066470508087",
    "geocoded_column": {
      "latitude": "29.967066470508087",
      "longitude": "-90.07586418610346"
    }
  },
  {
    "service_request": "2026-1272540",
    "request_type": "Trash/Recycling",
    "request_reason": "Repair Trash Cart",
    "date_created": "2026-04-09T17:46:01.000",
    "date_modified": "2026-04-09T17:46:02.000",
    "request_status": "Pending",
    "responsible_agency": "Department of Sanitation",
    "final_address": "2613 Soniat St",
    "address_councildis": "B",
    "status": "Assigned to Contractor",
    "contractor": "IV Waste",
    "rowid": "1272540",
    "final_x": "3668582.57479",
    "final_y": "525081.193149",
    "longitude": "-90.10907625840711",
    "latitude": "29.938176940529708",
    "geocoded_column": {
      "latitude": "29.938176940529708",
      "longitude": "-90.10907625840711"
    }
  },
  {
    "service_request": "2026-1272539",
    "request_type": "Roads and Streets",
    "request_reason": "Sidewalk Damaged or Missing",
    "date_created": "2026-04-09T17:44:50.000",
    "date_modified": "2026-04-09T17:44:52.000",
    "request_status": "Pending",
    "responsible_agency": "Department of Public Works",
    "final_address": "2337 Dumaine St",
    "address_councildis": "C",
    "status": "Pending",
    "rowid": "1272539",
    "final_x": "3678299.25288",
    "final_y": "536695.665927",
    "longitude": "-90.07799808504507",
    "latitude": "29.96982380269398",
    "geocoded_column": {
      "latitude": "29.96982380269398",
      "longitude": "-90.07799808504507"
    }
  },
  {
    "service_request": "2026-1272538",
    "request_type": "Roads and Streets",
    "request_reason": "Sidewalk Damaged or Missing",
    "date_created": "2026-04-09T17:44:14.000",
    "date_modified": "2026-04-09T17:44:15.000",
    "request_status": "Pending",
    "responsible_agency": "Department of Public Works",
    "final_address": "929 N Dorgenois St",
    "address_councildis": "C",
    "status": "Pending",
    "rowid": "1272538",
    "final_x": "3677645.78952",
    "final_y": "537467.23956",
    "longitude": "-90.08003513211125",
    "latitude": "29.97196503522215",
    "geocoded_column": {
      "latitude": "29.97196503522215",
      "longitude": "-90.08003513211125"
    }
  },
  {
    "service_request": "2026-1272537",
    "request_type": "Trash/Recycling",
    "request_reason": "Missed Trash Pick-Up",
    "date_created": "2026-04-09T17:43:14.000",
    "date_modified": "2026-04-09T17:43:16.000",
    "request_status": "Pending",
    "responsible_agency": "Department of Sanitation",
    "final_address": "804 General Taylor St",
    "address_councildis": "B",
    "status": "Assigned to Contractor",
    "contractor": "IV Waste",
    "rowid": "1272537",
    "final_x": "3673148.01723",
    "final_y": "518690.203127",
    "longitude": "-90.09488078749975",
    "latitude": "29.920468863205787",
    "geocoded_column": {
      "latitude": "29.920468863205787",
      "longitude": "-90.09488078749975"
    }
  },
  {
    "service_request": "2026-1272536",
    "request_type": "Roads and Streets",
    "request_reason": "Sidewalk Damaged or Missing",
    "date_created": "2026-04-09T17:42:02.000",
    "date_modified": "2026-04-09T17:42:04.000",
    "request_status": "Pending",
    "responsible_agency": "Department of Public Works",
    "final_address": "1025 N Rocheblave St",
    "address_councildis": "C",
    "status": "Pending",
    "rowid": "1272536",
    "final_x": "3678282.66242",
    "final_y": "537386.350408",
    "longitude": "-90.07802658299444",
    "latitude": "29.97172344832138",
    "geocoded_column": {
      "latitude": "29.97172344832138",
      "longitude": "-90.07802658299444"
    }
  },
  {
    "service_request": "2026-1272535",
    "request_type": "Roads and Streets",
    "request_reason": "Sidewalk Damaged or Missing",
    "date_created": "2026-04-09T17:41:35.000",
    "date_modified": "2026-04-09T17:41:38.000",
    "request_status": "Pending",
    "responsible_agency": "Department of Public Works",
    "final_address": "2434 St Philip St",
    "address_councildis": "C",
    "status": "Pending",
    "rowid": "1272535",
    "final_x": "3678211.29006",
    "final_y": "537175.619208",
    "longitude": "-90.07825927758796",
    "latitude": "29.971146159494737",
    "geocoded_column": {
      "latitude": "29.971146159494737",
      "longitude": "-90.07825927758796"
    }
  },
  {
    "service_request": "2026-1272534",
    "request_type": "Property Maintenance",
    "request_reason": "Property Maintenance",
    "date_created": "2026-04-09T17:41:07.000",
    "date_modified": "2026-04-09T17:41:08.000",
    "request_status": "Pending",
    "responsible_agency": "Department of Code Enforcement",
    "final_address": "7640 Pineridge St",
    "address_councildis": "E",
    "status": "Pending",
    "rowid": "1272534",
    "final_x": "3718840.63621",
    "final_y": "572076.896808",
    "longitude": "-89.9486159071268",
    "latitude": "30.065824577679592",
    "geocoded_column": {
      "latitude": "30.065824577679592",
      "longitude": "-89.9486159071268"
    }
  },
  {
    "service_request": "2026-1272533",
    "request_type": "Roads and Streets",
    "request_reason": "Sidewalk Damaged or Missing",
    "date_created": "2026-04-09T17:40:17.000",
    "date_modified": "2026-04-09T17:40:19.000",
    "request_status": "Pending",
    "responsible_agency": "Department of Public Works",
    "final_address": "2437 St Ann St",
    "address_councildis": "C",
    "status": "Pending",
    "rowid": "1272533",
    "final_x": "3677811.29115",
    "final_y": "536640.964551",
    "longitude": "-90.0795410046504",
    "latitude": "29.969688082982916",
    "geocoded_column": {
      "latitude": "29.969688082982916",
      "longitude": "-90.0795410046504"
    }
  },
  {
    "service_request": "2026-1272532",
    "request_type": "Roads and Streets",
    "request_reason": "Sidewalk Damaged or Missing",
    "date_created": "2026-04-09T17:39:40.000",
    "date_modified": "2026-04-09T17:39:41.000",
    "request_status": "Pending",
    "responsible_agency": "Department of Public Works",
    "final_address": "735 N Miro St",
    "address_councildis": "C",
    "status": "Pending",
    "rowid": "1272532",
    "final_x": "3678235.65186",
    "final_y": "536167.550919",
    "longitude": "-90.07821721199754",
    "latitude": "29.968373582624004",
    "geocoded_column": {
      "latitude": "29.968373582624004",
      "longitude": "-90.07821721199754"
    }
  },
  {
    "service_request": "2026-1272531",
    "request_type": "Roads and Streets",
    "request_reason": "Sidewalk Damaged or Missing",
    "date_created": "2026-04-09T17:37:55.000",
    "date_modified": "2026-04-09T17:37:57.000",
    "request_status": "Pending",
    "responsible_agency": "Department of Public Works",
    "final_address": "2413 St Ann St",
    "address_councildis": "C",
    "status": "Pending",
    "rowid": "1272531",
    "final_x": "3677986.07592",
    "final_y": "536548.766983",
    "longitude": "-90.07899220597369",
    "latitude": "29.969429311246436",
    "geocoded_column": {
      "latitude": "29.969429311246436",
      "longitude": "-90.07899220597369"
    }
  },
  {
    "service_request": "2026-1272530",
    "request_type": "Roads and Streets",
    "request_reason": "Sidewalk Damaged or Missing",
    "date_created": "2026-04-09T17:37:26.000",
    "date_modified": "2026-04-09T17:37:28.000",
    "request_status": "Pending",
    "responsible_agency": "Department of Public Works",
    "final_address": "2414 St Ann St",
    "address_councildis": "C",
    "status": "Pending",
    "rowid": "1272530",
    "final_x": "3677868.58926",
    "final_y": "536419.755207",
    "longitude": "-90.07936769725389",
    "latitude": "29.969078108763366",
    "geocoded_column": {
      "latitude": "29.969078108763366",
      "longitude": "-90.07936769725389"
    }
  },
  {
    "service_request": "2026-1272529",
    "request_type": "Roads and Streets",
    "request_reason": "Sidewalk Damaged or Missing",
    "date_created": "2026-04-09T17:36:56.000",
    "date_modified": "2026-04-09T17:36:58.000",
    "request_status": "Pending",
    "responsible_agency": "Department of Public Works",
    "final_address": "2416 St Ann St",
    "address_councildis": "C",
    "status": "Pending",
    "rowid": "1272529",
    "final_x": "3677844.67733",
    "final_y": "536437.885511",
    "longitude": "-90.07944258626746",
    "latitude": "29.969128680429044",
    "geocoded_column": {
      "latitude": "29.969128680429044",
      "longitude": "-90.07944258626746"
    }
  },
  {
    "service_request": "2026-1272528",
    "request_type": "Roads and Streets",
    "request_reason": "Sidewalk Damaged or Missing",
    "date_created": "2026-04-09T17:36:23.000",
    "date_modified": "2026-04-09T17:36:25.000",
    "request_status": "Pending",
    "responsible_agency": "Department of Public Works",
    "final_address": "2422 St Ann St",
    "address_councildis": "C",
    "status": "Pending",
    "rowid": "1272528",
    "final_x": "3677827.07566",
    "final_y": "536475.608519",
    "longitude": "-90.07949687001776",
    "latitude": "29.96923293543726",
    "geocoded_column": {
      "latitude": "29.96923293543726",
      "longitude": "-90.07949687001776"
    }
  },
  {
    "service_request": "2026-1272527",
    "request_type": "Trash/Recycling",
    "request_reason": "Replace Trash Cart",
    "date_created": "2026-04-09T17:31:27.000",
    "date_modified": "2026-04-09T17:31:28.000",
    "request_status": "Pending",
    "responsible_agency": "Department of Sanitation",
    "final_address": "725 General Pershing St",
    "address_councildis": "B",
    "status": "Assigned to Contractor",
    "contractor": "IV Waste",
    "rowid": "1272527",
    "final_x": "3671545.19387",
    "final_y": "518304.99775",
    "longitude": "-90.09995325041771",
    "latitude": "29.91945720814438",
    "geocoded_column": {
      "latitude": "29.91945720814438",
      "longitude": "-90.09995325041771"
    }
  },
  {
    "service_request": "2026-1272526",
    "request_type": "Abandoned Vehicles",
    "request_reason": "Abandoned/Junk Vehicles",
    "date_created": "2026-04-09T17:30:06.000",
    "date_modified": "2026-04-09T17:30:07.000",
    "request_status": "Pending",
    "responsible_agency": "Department of Public Works",
    "final_address": "7651 Pineridge St",
    "address_councildis": "E",
    "status": "Pending",
    "rowid": "1272526",
    "final_x": "3718901.22476",
    "final_y": "572184.744489",
    "longitude": "-89.9484202604737",
    "latitude": "30.06611910018317",
    "geocoded_column": {
      "latitude": "30.06611910018317",
      "longitude": "-89.9484202604737"
    }
  },
  {
    "service_request": "2026-1272525",
    "request_type": "Trash/Recycling",
    "request_reason": "Repair Trash Cart",
    "date_created": "2026-04-09T17:11:29.000",
    "date_modified": "2026-04-09T17:11:30.000",
    "request_status": "Pending",
    "responsible_agency": "Department of Sanitation",
    "final_address": "226 Spencer Ave",
    "address_councildis": "A",
    "status": "Assigned to Contractor",
    "contractor": "IV Waste",
    "rowid": "1272525",
    "final_x": "3665775.39642",
    "final_y": "553573.942103",
    "longitude": "-90.1169839168393",
    "latitude": "30.01660462721603",
    "geocoded_column": {
      "latitude": "30.01660462721603",
      "longitude": "-90.1169839168393"
    }
  },
  {
    "service_request": "2026-1272524",
    "request_type": "Trash/Recycling",
    "request_reason": "Replace Trash Cart",
    "date_created": "2026-04-09T17:11:01.000",
    "date_modified": "2026-04-09T17:11:03.000",
    "request_status": "Pending",
    "responsible_agency": "Department of Sanitation",
    "final_address": "6931 Canal Blvd",
    "address_councildis": "A",
    "status": "Assigned to Contractor",
    "contractor": "IV Waste",
    "rowid": "1272524",
    "final_x": "3669166.3051",
    "final_y": "553622.672855",
    "longitude": "-90.10626840671743",
    "latitude": "30.01663920845813",
    "geocoded_column": {
      "latitude": "30.01663920845813",
      "longitude": "-90.10626840671743"
    }
  },
  {
    "service_request": "2026-1272522",
    "request_type": "General Services",
    "request_reason": "General Service Request",
    "date_created": "2026-04-09T17:00:00.000",
    "date_modified": "2026-04-09T17:00:01.000",
    "request_status": "Pending",
    "responsible_agency": "Orleans Parish Communication District",
    "final_address": "10920 Zenith St",
    "address_councildis": "E",
    "status": "Pending",
    "rowid": "1272522",
    "final_x": "3710550.88696",
    "final_y": "565371.537954",
    "longitude": "-89.97507192304582",
    "latitude": "30.04766042077757",
    "geocoded_column": {
      "latitude": "30.04766042077757",
      "longitude": "-89.97507192304582"
    }
  },
  {
    "service_request": "2026-1272521",
    "request_type": "Roads and Streets",
    "request_reason": "Sidewalk Damaged or Missing",
    "date_created": "2026-04-09T16:55:00.000",
    "date_modified": "2026-04-09T16:55:03.000",
    "request_status": "Pending",
    "responsible_agency": "Department of Public Works",
    "final_address": "2211 Cypress Acres Dr",
    "address_councildis": "C",
    "status": "Pending",
    "rowid": "1272521",
    "final_x": "3696163.76637",
    "final_y": "523044.258235",
    "longitude": "-90.02207393741213",
    "latitude": "29.931736960824402",
    "geocoded_column": {
      "latitude": "29.931736960824402",
      "longitude": "-90.02207393741213"
    }
  },
  {
    "service_request": "2026-1272520",
    "request_type": "Property Maintenance",
    "request_reason": "Property Maintenance",
    "date_created": "2026-04-09T16:51:36.000",
    "date_modified": "2026-04-09T16:51:37.000",
    "request_status": "Pending",
    "responsible_agency": "Department of Code Enforcement",
    "final_address": "1714 Marais St",
    "address_councildis": "C",
    "status": "Pending",
    "rowid": "1272520",
    "final_x": "3683262.09916",
    "final_y": "536420.551175",
    "longitude": "-90.06233461000782",
    "latitude": "29.968916897745167",
    "geocoded_column": {
      "latitude": "29.968916897745167",
      "longitude": "-90.06233461000782"
    }
  },
  {
    "service_request": "2026-1272519",
    "request_type": "Trash/Recycling",
    "request_reason": "Order Trash Cart",
    "date_created": "2026-04-09T16:51:11.000",
    "date_modified": "2026-04-09T16:51:13.000",
    "request_status": "Pending",
    "responsible_agency": "Department of Sanitation",
    "final_address": "3419 Louisiana Avenue Prkwy",
    "address_councildis": "B",
    "status": "Assigned to Contractor",
    "contractor": "IV Waste",
    "rowid": "1272519",
    "final_x": "3671753.90951",
    "final_y": "527694.027071",
    "longitude": "-90.09897517854444",
    "latitude": "29.945267832547955",
    "geocoded_column": {
      "latitude": "29.945267832547955",
      "longitude": "-90.09897517854444"
    }
  },
  {
    "service_request": "2026-1272517",
    "request_type": "Streetlights",
    "request_reason": "Streetlight Outage/Malfunction",
    "date_created": "2026-04-09T16:48:02.000",
    "date_modified": "2026-04-09T16:48:04.000",
    "request_status": "Pending",
    "responsible_agency": "Department of Public Works",
    "final_address": "11831 W Barrington Dr",
    "address_councildis": "E",
    "status": "Pending",
    "rowid": "1272517",
    "final_x": "3714163.44306",
    "final_y": "565729.112418",
    "longitude": "-89.96364084418914",
    "latitude": "30.048525364404682",
    "geocoded_column": {
      "latitude": "30.048525364404682",
      "longitude": "-89.96364084418914"
    }
  },
  {
    "service_request": "2026-1272516",
    "request_type": "Trash/Recycling",
    "request_reason": "Request a Large Item Pick Up",
    "date_created": "2026-04-09T16:47:16.000",
    "date_modified": "2026-04-09T16:47:17.000",
    "request_status": "Pending",
    "responsible_agency": "Department of Sanitation",
    "final_address": "5062 Stephen Girard Ave",
    "address_councildis": "D",
    "status": "Assigned to Contractor",
    "contractor": "IV Waste",
    "rowid": "1272516",
    "final_x": "3693075.81936",
    "final_y": "551205.015573",
    "longitude": "-90.03081163495635",
    "latitude": "30.0092658516872",
    "geocoded_column": {
      "latitude": "30.0092658516872",
      "longitude": "-90.03081163495635"
    }
  },
  {
    "service_request": "2026-1272515",
    "request_type": "Trash/Recycling",
    "request_reason": "Request a Large Item Pick Up",
    "date_created": "2026-04-09T16:45:48.000",
    "date_modified": "2026-04-09T16:45:51.000",
    "request_status": "Pending",
    "responsible_agency": "Department of Sanitation",
    "final_address": "2027 Seventh St",
    "address_councildis": "B",
    "status": "Assigned to Contractor",
    "contractor": "IV Waste",
    "rowid": "1272515",
    "final_x": "3674359.66913",
    "final_y": "523486.253371",
    "longitude": "-90.09089201211268",
    "latitude": "29.93362038926129",
    "geocoded_column": {
      "latitude": "29.93362038926129",
      "longitude": "-90.09089201211268"
    }
  },
  {
    "service_request": "2026-1272514",
    "request_type": "Trash/Recycling",
    "request_reason": "Request a Large Item Pick Up",
    "date_created": "2026-04-09T16:40:30.000",
    "date_modified": "2026-04-09T16:40:32.000",
    "request_status": "Pending",
    "responsible_agency": "Department of Sanitation",
    "final_address": "4735 Gabriel Dr",
    "address_councildis": "E",
    "status": "Assigned to Contractor",
    "contractor": "Waste Pro",
    "rowid": "1272514",
    "final_x": "3708951.51716",
    "final_y": "555718.770073",
    "longitude": "-89.98048697414822",
    "latitude": "30.021171161550107",
    "geocoded_column": {
      "latitude": "30.021171161550107",
      "longitude": "-89.98048697414822"
    }
  },
  {
    "service_request": "2026-1272513",
    "request_type": "Trash/Recycling",
    "request_reason": "Repair Trash Cart",
    "date_created": "2026-04-09T16:39:38.000",
    "date_modified": "2026-04-09T16:39:40.000",
    "request_status": "Pending",
    "responsible_agency": "Department of Sanitation",
    "final_address": "4774 Marque Dr",
    "address_councildis": "E",
    "status": "Assigned to Contractor",
    "contractor": "Waste Pro",
    "rowid": "1272513",
    "final_x": "3709994.71582",
    "final_y": "555953.337433",
    "longitude": "-89.9771820191202",
    "latitude": "30.021782222738164",
    "geocoded_column": {
      "latitude": "30.021782222738164",
      "longitude": "-89.9771820191202"
    }
  },
  {
    "service_request": "2026-1272512",
    "request_type": "Abandoned Vehicles",
    "request_reason": "Abandoned/Junk Vehicles",
    "date_created": "2026-04-09T16:37:20.000",
    "date_modified": "2026-04-09T16:37:22.000",
    "request_status": "Pending",
    "responsible_agency": "Department of Public Works",
    "final_address": "2411 Royal St",
    "address_councildis": "C",
    "status": "Pending",
    "rowid": "1272512",
    "final_x": "3685984.66697",
    "final_y": "534973.167046",
    "longitude": "-90.05378762566677",
    "latitude": "29.96485377491716",
    "geocoded_column": {
      "latitude": "29.96485377491716",
      "longitude": "-90.05378762566677"
    }
  },
  {
    "service_request": "2026-1272511",
    "request_type": "Streetlights",
    "request_reason": "New Streetlight Request",
    "date_created": "2026-04-09T16:36:27.000",
    "date_modified": "2026-04-09T16:36:28.000",
    "request_status": "Pending",
    "responsible_agency": "Department of Public Works",
    "final_address": "515 Patterson St",
    "address_councildis": "C",
    "status": "Pending",
    "rowid": "1272511",
    "final_x": "3686933.6815",
    "final_y": "531381.258883",
    "longitude": "-90.05091765557985",
    "latitude": "29.954948094257194",
    "geocoded_column": {
      "latitude": "29.954948094257194",
      "longitude": "-90.05091765557985"
    }
  },
  {
    "service_request": "2026-1272510",
    "request_type": "Trash/Recycling",
    "request_reason": "Request a Large Item Pick Up",
    "date_created": "2026-04-09T16:35:49.000",
    "date_modified": "2026-04-09T16:35:51.000",
    "request_status": "Pending",
    "responsible_agency": "Department of Sanitation",
    "final_address": "1431 N Prieur St",
    "address_councildis": "D",
    "status": "Assigned to Contractor",
    "contractor": "IV Waste",
    "rowid": "1272510",
    "final_x": "3680560.18651",
    "final_y": "537477.252744",
    "longitude": "-90.07083065225876",
    "latitude": "29.97190459506695",
    "geocoded_column": {
      "latitude": "29.97190459506695",
      "longitude": "-90.07083065225876"
    }
  },
  {
    "service_request": "2026-1272509",
    "request_type": "Trash/Recycling",
    "request_reason": "Request a Large Item Pick Up",
    "date_created": "2026-04-09T16:34:13.000",
    "date_modified": "2026-04-09T16:34:15.000",
    "request_status": "Pending",
    "responsible_agency": "Department of Sanitation",
    "final_address": "6122 Dauphine St",
    "address_councildis": "E",
    "status": "Assigned to Contractor",
    "contractor": "Waste Pro",
    "rowid": "1272509",
    "final_x": "3699207.76989",
    "final_y": "532078.315779",
    "longitude": "-90.01213557797783",
    "latitude": "29.956481323665226",
    "geocoded_column": {
      "latitude": "29.956481323665226",
      "longitude": "-90.01213557797783"
    }
  },
  {
    "service_request": "2026-1272508",
    "request_type": "Trash/Recycling",
    "request_reason": "Request a Large Item Pick Up",
    "date_created": "2026-04-09T16:34:11.000",
    "date_modified": "2026-04-09T16:34:13.000",
    "request_status": "Pending",
    "responsible_agency": "Department of Sanitation",
    "final_address": "7227 Claridge Ct",
    "address_councildis": "E",
    "status": "Assigned to Contractor",
    "contractor": "Waste Pro",
    "rowid": "1272508",
    "final_x": "3704934.52471",
    "final_y": "560861.405406",
    "longitude": "-89.9929893653719",
    "latitude": "30.035441200613068",
    "geocoded_column": {
      "latitude": "30.035441200613068",
      "longitude": "-89.9929893653719"
    }
  },
  {
    "service_request": "2026-1272507",
    "request_type": "Trash/Recycling",
    "request_reason": "Request a Large Item Pick Up",
    "date_created": "2026-04-09T16:31:42.000",
    "date_modified": "2026-04-09T16:31:44.000",
    "request_status": "Pending",
    "responsible_agency": "Department of Sanitation",
    "final_address": "5359 Canal Blvd",
    "address_councildis": "A",
    "status": "Assigned to Contractor",
    "contractor": "IV Waste",
    "rowid": "1272507",
    "final_x": "3668217.71745",
    "final_y": "543106.591373",
    "longitude": "-90.10962039612085",
    "latitude": "29.987751530924335",
    "geocoded_column": {
      "latitude": "29.987751530924335",
      "longitude": "-90.10962039612085"
    }
  },
  {
    "service_request": "2026-1272506",
    "request_type": "Trash/Recycling",
    "request_reason": "Request a Large Item Pick Up",
    "date_created": "2026-04-09T16:28:21.000",
    "date_modified": "2026-04-09T16:28:23.000",
    "request_status": "Pending",
    "responsible_agency": "Department of Sanitation",
    "final_address": "7830 W Laverne St",
    "address_councildis": "D",
    "status": "Assigned to Contractor",
    "contractor": "Waste Pro",
    "rowid": "1272506",
    "final_x": "3694905.38486",
    "final_y": "559230.191516",
    "longitude": "-90.02474188511295",
    "latitude": "30.0312747471225",
    "geocoded_column": {
      "latitude": "30.0312747471225",
      "longitude": "-90.02474188511295"
    }
  },
  {
    "service_request": "2026-1272505",
    "request_type": "Trash/Recycling",
    "request_reason": "Request a Large Item Pick Up",
    "date_created": "2026-04-09T16:27:57.000",
    "date_modified": "2026-04-09T16:27:58.000",
    "request_status": "Pending",
    "responsible_agency": "Department of Sanitation",
    "final_address": "1780 N Gayoso St",
    "address_councildis": "D",
    "status": "Assigned to Contractor",
    "contractor": "IV Waste",
    "rowid": "1272505",
    "final_x": "3679166.62677",
    "final_y": "541914.405068",
    "longitude": "-90.07507785543403",
    "latitude": "29.984147374544133",
    "geocoded_column": {
      "latitude": "29.984147374544133",
      "longitude": "-90.07507785543403"
    }
  },
  {
    "service_request": "2026-1272504",
    "request_type": "Trash/Recycling",
    "request_reason": "Order Second Trash Cart",
    "date_created": "2026-04-09T16:26:55.000",
    "date_modified": "2026-04-09T16:26:57.000",
    "request_status": "Pending",
    "responsible_agency": "Department of Sanitation",
    "final_address": "2620 Jasmine St",
    "address_councildis": "D",
    "status": "Assigned to Contractor",
    "contractor": "IV Waste",
    "rowid": "1272504",
    "final_x": "3687189.34338",
    "final_y": "548066.48949",
    "longitude": "-90.0495200779705",
    "latitude": "30.000818722649065",
    "geocoded_column": {
      "latitude": "30.000818722649065",
      "longitude": "-90.0495200779705"
    }
  },
  {
    "service_request": "2026-1272503",
    "request_type": "Drainage",
    "request_reason": "Ditch and Culvert Maintenance",
    "date_created": "2026-04-09T16:26:05.000",
    "date_modified": "2026-04-09T16:26:06.000",
    "request_status": "Pending",
    "responsible_agency": "Department of Public Works",
    "final_address": "1223 Gallier St",
    "address_councildis": "C",
    "status": "Pending",
    "rowid": "1272503",
    "final_x": "3690629.66204",
    "final_y": "536166.793799",
    "longitude": "-90.03907650356219",
    "latitude": "29.96799238707538",
    "geocoded_column": {
      "latitude": "29.96799238707538",
      "longitude": "-90.03907650356219"
    }
  },
  {
    "service_request": "2026-1272502",
    "request_type": "Trash/Recycling",
    "request_reason": "Order Second Trash Cart",
    "date_created": "2026-04-09T16:25:52.000",
    "date_modified": "2026-04-09T16:25:54.000",
    "request_status": "Pending",
    "responsible_agency": "Department of Sanitation",
    "final_address": "2622 Jasmine St",
    "address_councildis": "D",
    "status": "Assigned to Contractor",
    "contractor": "IV Waste",
    "rowid": "1272502",
    "final_x": "3687211.21839",
    "final_y": "548068.920018",
    "longitude": "-90.0494508873184",
    "latitude": "30.00082473179233",
    "geocoded_column": {
      "latitude": "30.00082473179233",
      "longitude": "-90.0494508873184"
    }
  },
  {
    "service_request": "2026-1272501",
    "request_type": "Trash/Recycling",
    "request_reason": "Request a Large Item Pick Up",
    "date_created": "2026-04-09T16:24:13.000",
    "date_modified": "2026-04-09T16:24:14.000",
    "request_status": "Pending",
    "responsible_agency": "Department of Sanitation",
    "final_address": "506 David St",
    "address_councildis": "A",
    "status": "Assigned to Contractor",
    "contractor": "IV Waste",
    "rowid": "1272501",
    "final_x": "3671898.56475",
    "final_y": "539691.96033",
    "longitude": "-90.09811009244325",
    "latitude": "29.978253860929733",
    "geocoded_column": {
      "latitude": "29.978253860929733",
      "longitude": "-90.09811009244325"
    }
  },
  {
    "service_request": "2026-1272500",
    "request_type": "Trash/Recycling",
    "request_reason": "Order Second Trash Cart",
    "date_created": "2026-04-09T16:23:58.000",
    "date_modified": "2026-04-09T16:23:59.000",
    "request_status": "Pending",
    "responsible_agency": "Department of Sanitation",
    "final_address": "2622 Jasmine St",
    "address_councildis": "D",
    "status": "Assigned to Contractor",
    "contractor": "IV Waste",
    "rowid": "1272500",
    "final_x": "3687211.21839",
    "final_y": "548068.920018",
    "longitude": "-90.0494508873184",
    "latitude": "30.00082473179233",
    "geocoded_column": {
      "latitude": "30.00082473179233",
      "longitude": "-90.0494508873184"
    }
  },
  {
    "service_request": "2026-1272499",
    "request_type": "Trash/Recycling",
    "request_reason": "Request a Large Item Pick Up",
    "date_created": "2026-04-09T16:23:15.000",
    "date_modified": "2026-04-09T16:23:16.000",
    "request_status": "Pending",
    "responsible_agency": "Department of Sanitation",
    "final_address": "728 Philip St",
    "address_councildis": "B",
    "status": "Assigned to Contractor",
    "contractor": "IV Waste",
    "rowid": "1272499",
    "final_x": "3679257.93647",
    "final_y": "520858.939065",
    "longitude": "-90.07551948566586",
    "latitude": "29.926249185892427",
    "geocoded_column": {
      "latitude": "29.926249185892427",
      "longitude": "-90.07551948566586"
    }
  },
  {
    "service_request": "2026-1272498",
    "request_type": "Trash/Recycling",
    "request_reason": "Request a Large Item Pick Up",
    "date_created": "2026-04-09T16:21:27.000",
    "date_modified": "2026-04-09T16:21:29.000",
    "request_status": "Pending",
    "responsible_agency": "Department of Sanitation",
    "final_address": "5048 St Ferdinand Dr",
    "address_councildis": "D",
    "status": "Assigned to Contractor",
    "contractor": "IV Waste",
    "rowid": "1272498",
    "final_x": "3689111.36003",
    "final_y": "551593.232917",
    "longitude": "-90.0433228721661",
    "latitude": "30.01045662485391",
    "geocoded_column": {
      "latitude": "30.01045662485391",
      "longitude": "-90.0433228721661"
    }
  },
  {
    "service_request": "2026-1272497",
    "request_type": "Trash/Recycling",
    "request_reason": "Request a Large Item Pick Up",
    "date_created": "2026-04-09T16:12:45.000",
    "date_modified": "2026-04-09T16:12:47.000",
    "request_status": "Pending",
    "responsible_agency": "Department of Sanitation",
    "final_address": "4545 Rosemont Pl",
    "address_councildis": "E",
    "status": "Assigned to Contractor",
    "contractor": "Waste Pro",
    "rowid": "1272497",
    "final_x": "3702903.15863",
    "final_y": "553890.798807",
    "longitude": "-89.9996651748898",
    "latitude": "30.016339906874233",
    "geocoded_column": {
      "latitude": "30.016339906874233",
      "longitude": "-89.9996651748898"
    }
  },
  {
    "service_request": "2026-1272496",
    "request_type": "Trash/Recycling",
    "request_reason": "Request a Large Item Pick Up",
    "date_created": "2026-04-09T16:12:12.000",
    "date_modified": "2026-04-09T16:12:14.000",
    "request_status": "Pending",
    "responsible_agency": "Department of Sanitation",
    "final_address": "2239 Bayou Rd",
    "address_councildis": "D",
    "status": "Assigned to Contractor",
    "contractor": "IV Waste",
    "rowid": "1272496",
    "final_x": "3679428.12527",
    "final_y": "538164.706121",
    "longitude": "-90.07438202756605",
    "latitude": "29.97382910373643",
    "geocoded_column": {
      "latitude": "29.97382910373643",
      "longitude": "-90.07438202756605"
    }
  },
  {
    "service_request": "2026-1272495",
    "request_type": "Trash/Recycling",
    "request_reason": "Return Trash Cart",
    "date_created": "2026-04-09T16:07:48.000",
    "date_modified": "2026-04-09T16:07:49.000",
    "request_status": "Pending",
    "responsible_agency": "Department of Sanitation",
    "final_address": "728 City Park Ave",
    "address_councildis": "A",
    "status": "Assigned to Contractor",
    "contractor": "IV Waste",
    "rowid": "1272495",
    "final_x": "3670319.75758",
    "final_y": "541706.95918",
    "longitude": "-90.10302821512421",
    "latitude": "29.98384112651",
    "geocoded_column": {
      "latitude": "29.98384112651",
      "longitude": "-90.10302821512421"
    }
  },
  {
    "service_request": "2026-1272494",
    "request_type": "Trash/Recycling",
    "request_reason": "Replace Trash Cart",
    "date_created": "2026-04-09T16:04:26.000",
    "date_modified": "2026-04-09T16:04:27.000",
    "request_status": "Pending",
    "responsible_agency": "Department of Sanitation",
    "final_address": "1126 Frenchmen St",
    "address_councildis": "C",
    "status": "Assigned to Contractor",
    "contractor": "IV Waste",
    "rowid": "1272494",
    "final_x": "3684524.91004",
    "final_y": "536488.893447",
    "longitude": "-90.0583441765534",
    "latitude": "29.96906623917138",
    "geocoded_column": {
      "latitude": "29.96906623917138",
      "longitude": "-90.0583441765534"
    }
  },
  {
    "service_request": "2026-1272493",
    "request_type": "Property Maintenance",
    "request_reason": "Property Maintenance",
    "date_created": "2026-04-09T16:02:32.000",
    "date_modified": "2026-04-09T16:02:34.000",
    "request_status": "Pending",
    "responsible_agency": "Department of Code Enforcement",
    "final_address": "6421 N Robertson St",
    "address_councildis": "E",
    "status": "Pending",
    "rowid": "1272493",
    "final_x": "3701216.65853",
    "final_y": "534281.478981",
    "longitude": "-90.00571160671882",
    "latitude": "29.962475390936337",
    "geocoded_column": {
      "latitude": "29.962475390936337",
      "longitude": "-90.00571160671882"
    }
  },
  {
    "service_request": "2026-1272492",
    "request_type": "Roads and Streets",
    "request_reason": "Debris in Driving Lanes",
    "date_created": "2026-04-09T16:01:27.000",
    "date_modified": "2026-04-09T16:01:28.000",
    "request_status": "Pending",
    "responsible_agency": "Department of Public Works",
    "final_address": "5000 BLK Westlake Dr",
    "address_councildis": "E",
    "status": "Pending",
    "rowid": "1272492",
    "final_x": "3699629.61055",
    "final_y": "555834.919614",
    "longitude": "-90.00993715728744",
    "latitude": "30.0217898578857",
    "geocoded_column": {
      "latitude": "30.0217898578857",
      "longitude": "-90.00993715728744"
    }
  },
  {
    "service_request": "2026-1272491",
    "request_type": "Trash/Recycling",
    "request_reason": "Order Trash Cart",
    "date_created": "2026-04-09T16:01:23.000",
    "date_modified": "2026-04-09T16:01:26.000",
    "request_status": "Pending",
    "responsible_agency": "Department of Sanitation",
    "final_address": "545 Verret St",
    "address_councildis": "C",
    "status": "Assigned to Contractor",
    "contractor": "Richards Disposal",
    "rowid": "1272491",
    "final_x": "3686980.94249",
    "final_y": "529523.128065",
    "longitude": "-90.05083409388266",
    "latitude": "29.949837416450137",
    "geocoded_column": {
      "latitude": "29.949837416450137",
      "longitude": "-90.05083409388266"
    }
  },
  {
    "service_request": "2026-1272490",
    "request_type": "Trash/Recycling",
    "request_reason": "Request a Large Item Pick Up",
    "date_created": "2026-04-09T16:00:43.000",
    "date_modified": "2026-04-09T16:00:45.000",
    "request_status": "Pending",
    "responsible_agency": "Department of Sanitation",
    "final_address": "7729 Shelly St",
    "address_councildis": "E",
    "status": "Assigned to Contractor",
    "contractor": "Waste Pro",
    "rowid": "1272490",
    "final_x": "3695936.94627",
    "final_y": "559324.056861",
    "longitude": "-90.02147873128754",
    "latitude": "30.031500407712254",
    "geocoded_column": {
      "latitude": "30.031500407712254",
      "longitude": "-90.02147873128754"
    }
  },
  {
    "service_request": "2026-1272489",
    "request_type": "Trash/Recycling",
    "request_reason": "Request a Large Item Pick Up",
    "date_created": "2026-04-09T15:59:12.000",
    "date_modified": "2026-04-09T15:59:14.000",
    "request_status": "Pending",
    "responsible_agency": "Department of Sanitation",
    "final_address": "4833 Viola St",
    "address_councildis": "E",
    "status": "Assigned to Contractor",
    "contractor": "Waste Pro",
    "rowid": "1272489",
    "final_x": "3703971.11825",
    "final_y": "555808.279833",
    "longitude": "-89.99622021475747",
    "latitude": "30.021578020797552",
    "geocoded_column": {
      "latitude": "30.021578020797552",
      "longitude": "-89.99622021475747"
    }
  },
  {
    "service_request": "2026-1272488",
    "request_type": "Trash/Recycling",
    "request_reason": "Request a Large Item Pick Up",
    "date_created": "2026-04-09T15:58:02.000",
    "date_modified": "2026-04-09T15:58:04.000",
    "request_status": "Pending",
    "responsible_agency": "Department of Sanitation",
    "final_address": "1349 Terry St",
    "address_councildis": "C",
    "status": "Assigned to Contractor",
    "contractor": "Richards Disposal",
    "rowid": "1272488",
    "final_x": "3696925.68861",
    "final_y": "526124.577726",
    "longitude": "-90.01955715321216",
    "latitude": "29.940182780210588",
    "geocoded_column": {
      "latitude": "29.940182780210588",
      "longitude": "-90.01955715321216"
    }
  },
  {
    "service_request": "2026-1272487",
    "request_type": "Roads and Streets",
    "request_reason": "ADA Ramps Damaged or Missing",
    "date_created": "2026-04-09T15:55:31.000",
    "date_modified": "2026-04-09T15:55:32.000",
    "request_status": "Pending",
    "responsible_agency": "Department of Public Works",
    "final_address": "3140 Erato St",
    "address_councildis": "B",
    "status": "Pending",
    "rowid": "1272487",
    "final_x": "3674800.95848",
    "final_y": "528990.243776",
    "longitude": "-90.0893102359607",
    "latitude": "29.94874139249787",
    "geocoded_column": {
      "latitude": "29.94874139249787",
      "longitude": "-90.0893102359607"
    }
  },
  {
    "service_request": "2026-1272486",
    "request_type": "Trash/Recycling",
    "request_reason": "Repair Trash Cart",
    "date_created": "2026-04-09T15:54:56.000",
    "date_modified": "2026-04-09T15:54:58.000",
    "request_status": "Pending",
    "responsible_agency": "Department of Sanitation",
    "final_address": "6050 Curran Rd",
    "address_councildis": "E",
    "status": "Assigned to Contractor",
    "contractor": "Waste Pro",
    "rowid": "1272486",
    "final_x": "3695428.85808",
    "final_y": "558835.64214",
    "longitude": "-90.02310195400588",
    "latitude": "30.030173438762414",
    "geocoded_column": {
      "latitude": "30.030173438762414",
      "longitude": "-90.02310195400588"
    }
  },
  {
    "service_request": "2026-1272485",
    "request_type": "Trash/Recycling",
    "request_reason": "Request a Large Item Pick Up",
    "date_created": "2026-04-09T15:53:54.000",
    "date_modified": "2026-04-09T15:53:56.000",
    "request_status": "Pending",
    "responsible_agency": "Department of Sanitation",
    "final_address": "6050 Curran Rd",
    "address_councildis": "E",
    "status": "Assigned to Contractor",
    "contractor": "Waste Pro",
    "rowid": "1272485",
    "final_x": "3695428.85808",
    "final_y": "558835.64214",
    "longitude": "-90.02310195400588",
    "latitude": "30.030173438762414",
    "geocoded_column": {
      "latitude": "30.030173438762414",
      "longitude": "-90.02310195400588"
    }
  },
  {
    "service_request": "2026-1272484",
    "request_type": "Trash/Recycling",
    "request_reason": "Illegal Dumping",
    "date_created": "2026-04-09T15:52:19.000",
    "date_modified": "2026-04-09T15:53:54.000",
    "request_status": "Pending",
    "responsible_agency": "Department of Sanitation",
    "final_address": "3213 Second St",
    "address_councildis": "B",
    "status": "Pending",
    "rowid": "1272484",
    "final_x": "3673495.93051",
    "final_y": "527954.846143",
    "longitude": "-90.09346614715665",
    "latitude": "29.9459332841801",
    "geocoded_column": {
      "latitude": "29.9459332841801",
      "longitude": "-90.09346614715665"
    }
  },
  {
    "service_request": "2026-1272483",
    "request_type": "Abandoned Vehicles",
    "request_reason": "Abandoned/Junk Vehicles",
    "date_created": "2026-04-09T15:51:49.000",
    "date_modified": "2026-04-09T15:51:52.000",
    "request_status": "Pending",
    "responsible_agency": "Department of Public Works",
    "final_address": "6000 Providence Pl",
    "address_councildis": "D",
    "status": "Pending",
    "rowid": "1272483",
    "final_x": "3688085.30153",
    "final_y": "555513.371033",
    "longitude": "-90.04642547221573",
    "latitude": "30.021267279615767",
    "geocoded_column": {
      "latitude": "30.021267279615767",
      "longitude": "-90.04642547221573"
    }
  },
  {
    "service_request": "2026-1272482",
    "request_type": "Trash/Recycling",
    "request_reason": "Request a Large Item Pick Up",
    "date_created": "2026-04-09T15:50:07.000",
    "date_modified": "2026-04-09T15:50:09.000",
    "request_status": "Pending",
    "responsible_agency": "Department of Sanitation",
    "final_address": "7915 Redfish St",
    "address_councildis": "E",
    "status": "Assigned to Contractor",
    "contractor": "Waste Pro",
    "rowid": "1272482",
    "final_x": "3698653.99229",
    "final_y": "560925.39555",
    "longitude": "-90.01283447480422",
    "latitude": "30.035817657944083",
    "geocoded_column": {
      "latitude": "30.035817657944083",
      "longitude": "-90.01283447480422"
    }
  },
  {
    "service_request": "2026-1272481",
    "request_type": "Street and Traffic Signs",
    "request_reason": "Stop Sign Missing or Damaged",
    "date_created": "2026-04-09T15:48:33.000",
    "date_modified": "2026-04-09T15:48:36.000",
    "request_status": "Pending",
    "responsible_agency": "Department of Public Works",
    "final_address": "BREVARD AVE & DINKINS ST",
    "address_councildis": "E",
    "status": "Pending",
    "rowid": "1272481",
    "final_x": "3705971.6",
    "final_y": "564134.28",
    "longitude": "-89.98959076549929",
    "latitude": "30.044406914200437",
    "geocoded_column": {
      "latitude": "30.044406914200437",
      "longitude": "-89.98959076549929"
    }
  },
  {
    "service_request": "2026-1272480",
    "request_type": "Abandoned Vehicles",
    "request_reason": "Abandoned/Junk Vehicles",
    "date_created": "2026-04-09T15:47:28.000",
    "date_modified": "2026-04-09T15:47:30.000",
    "request_status": "Pending",
    "responsible_agency": "Department of Public Works",
    "final_address": "2668 Myrtle St",
    "address_councildis": "D",
    "status": "Pending",
    "rowid": "1272480",
    "final_x": "3687761.84572",
    "final_y": "546066.715152",
    "longitude": "-90.04778238213042",
    "latitude": "29.995302416330105",
    "geocoded_column": {
      "latitude": "29.995302416330105",
      "longitude": "-90.04778238213042"
    }
  },
  {
    "service_request": "2026-1272479",
    "request_type": "Street and Traffic Signs",
    "request_reason": "Stop Sign Missing or Damaged",
    "date_created": "2026-04-09T15:47:25.000",
    "date_modified": "2026-04-09T15:47:27.000",
    "request_status": "Pending",
    "responsible_agency": "Department of Public Works",
    "final_address": "DINKINS ST & TRAPIER AVE",
    "address_councildis": "E",
    "status": "Pending",
    "rowid": "1272479",
    "final_x": "3706196.9",
    "final_y": "564258.88",
    "longitude": "-89.98887410034702",
    "latitude": "30.044742247867433",
    "geocoded_column": {
      "latitude": "30.044742247867433",
      "longitude": "-89.98887410034702"
    }
  },
  {
    "service_request": "2026-1272478",
    "request_type": "Trash/Recycling",
    "request_reason": "Replace Trash Cart",
    "date_created": "2026-04-09T15:46:25.000",
    "date_modified": "2026-04-09T15:46:26.000",
    "request_status": "Pending",
    "responsible_agency": "Department of Sanitation",
    "final_address": "5611 Holley Ln",
    "address_councildis": "E",
    "status": "Assigned to Contractor",
    "contractor": "Waste Pro",
    "rowid": "1272478",
    "final_x": "3703424.83127",
    "final_y": "556579.221722",
    "longitude": "-89.99791793242247",
    "latitude": "30.023715330674086",
    "geocoded_column": {
      "latitude": "30.023715330674086",
      "longitude": "-89.99791793242247"
    }
  },
  {
    "service_request": "2026-1272477",
    "request_type": "Property Maintenance",
    "request_reason": "Property Maintenance",
    "date_created": "2026-04-09T15:45:06.000",
    "date_modified": "2026-04-09T15:45:08.000",
    "request_status": "Pending",
    "responsible_agency": "Department of Code Enforcement",
    "final_address": "1300 Magazine St",
    "address_councildis": "B",
    "status": "Pending",
    "rowid": "1272477",
    "final_x": "3680575.60335",
    "final_y": "525194.061565",
    "longitude": "-90.07120925378202",
    "latitude": "29.93812950599452",
    "geocoded_column": {
      "latitude": "29.93812950599452",
      "longitude": "-90.07120925378202"
    }
  },
  {
    "service_request": "2026-1272476",
    "request_type": "Roads and Streets",
    "request_reason": "Debris in Driving Lanes",
    "date_created": "2026-04-09T15:43:49.000",
    "date_modified": "2026-04-09T15:43:50.000",
    "request_status": "Pending",
    "responsible_agency": "Department of Public Works",
    "final_address": "1700 BLK Annunciation St",
    "address_councildis": "B",
    "status": "Pending",
    "rowid": "1272476",
    "final_x": "3680627.50813",
    "final_y": "522166.962672",
    "longitude": "-90.0711506574617",
    "latitude": "29.929804411736363",
    "geocoded_column": {
      "latitude": "29.929804411736363",
      "longitude": "-90.0711506574617"
    }
  },
  {
    "service_request": "2026-1272475",
    "request_type": "Tree Service",
    "request_reason": "Tree Trim",
    "date_created": "2026-04-09T15:39:25.000",
    "date_modified": "2026-04-09T15:39:26.000",
    "request_status": "Pending",
    "responsible_agency": "Department of Parks & Parkways",
    "final_address": "4650 Knight Dr",
    "address_councildis": "E",
    "status": "Pending",
    "rowid": "1272475",
    "final_x": "3708120.95704",
    "final_y": "554951.786712",
    "longitude": "-89.98313984369432",
    "latitude": "30.019089192317633",
    "geocoded_column": {
      "latitude": "30.019089192317633",
      "longitude": "-89.98313984369432"
    }
  },
  {
    "service_request": "2026-1272474",
    "request_type": "Trash/Recycling",
    "request_reason": "Illegal Dumping",
    "date_created": "2026-04-09T15:39:17.000",
    "date_modified": "2026-04-09T15:39:18.000",
    "request_status": "Pending",
    "responsible_agency": "Department of Sanitation",
    "final_address": "4400 Ray Ave",
    "address_councildis": "E",
    "status": "Pending",
    "rowid": "1272474",
    "final_x": "3698870.42231",
    "final_y": "552513.925782",
    "longitude": "-90.01245694338763",
    "latitude": "30.01268247196575",
    "geocoded_column": {
      "latitude": "30.01268247196575",
      "longitude": "-90.01245694338763"
    }
  },
  {
    "service_request": "2026-1272473",
    "request_type": "Trash/Recycling",
    "request_reason": "Order Recycling Cart",
    "date_created": "2026-04-09T15:35:15.000",
    "date_modified": "2026-04-09T15:35:16.000",
    "request_status": "Pending",
    "responsible_agency": "Department of Sanitation",
    "final_address": "2302 New Orleans St",
    "address_councildis": "D",
    "status": "Pending",
    "rowid": "1272473",
    "final_x": "3682014.0422",
    "final_y": "540559.509003",
    "longitude": "-90.06613149598431",
    "latitude": "29.980335602193204",
    "geocoded_column": {
      "latitude": "29.980335602193204",
      "longitude": "-90.06613149598431"
    }
  },
  {
    "service_request": "2026-1272472",
    "request_type": "Trash/Recycling",
    "request_reason": "Order Recycling Cart",
    "date_created": "2026-04-09T15:33:39.000",
    "date_modified": "2026-04-09T15:33:40.000",
    "request_status": "Pending",
    "responsible_agency": "Department of Sanitation",
    "final_address": "2300 New Orleans St",
    "address_councildis": "D",
    "status": "Pending",
    "rowid": "1272472",
    "final_x": "3682013.88866",
    "final_y": "540550.381643",
    "longitude": "-90.06613229974246",
    "latitude": "29.98031050981024",
    "geocoded_column": {
      "latitude": "29.98031050981024",
      "longitude": "-90.06613229974246"
    }
  },
  {
    "service_request": "2026-1272471",
    "request_type": "Trash/Recycling",
    "request_reason": "Return Recycling Cart",
    "date_created": "2026-04-09T15:32:53.000",
    "date_modified": "2026-04-09T15:32:54.000",
    "request_status": "Pending",
    "responsible_agency": "Department of Sanitation",
    "final_address": "2580 Valentine Ct",
    "address_councildis": "C",
    "status": "Pending",
    "rowid": "1272471",
    "final_x": "3699151.46052",
    "final_y": "521639.858169",
    "longitude": "-90.01269327753509",
    "latitude": "29.92778099502865",
    "geocoded_column": {
      "latitude": "29.92778099502865",
      "longitude": "-90.01269327753509"
    }
  },
  {
    "service_request": "2026-1272470",
    "request_type": "Trash/Recycling",
    "request_reason": "Request a Large Item Pick Up",
    "date_created": "2026-04-09T15:31:18.000",
    "date_modified": "2026-04-09T15:31:20.000",
    "request_status": "Pending",
    "responsible_agency": "Department of Sanitation",
    "final_address": "4925 Elysian Fields Ave",
    "address_councildis": "D",
    "status": "Assigned to Contractor",
    "contractor": "IV Waste",
    "rowid": "1272470",
    "final_x": "3683952.35426",
    "final_y": "550909.846805",
    "longitude": "-90.05964610750593",
    "latitude": "30.008736254421557",
    "geocoded_column": {
      "latitude": "30.008736254421557",
      "longitude": "-90.05964610750593"
    }
  },
  {
    "service_request": "2026-1272469",
    "request_type": "Trash/Recycling",
    "request_reason": "Replace Recycling Cart",
    "date_created": "2026-04-09T15:28:53.000",
    "date_modified": "2026-04-09T15:28:54.000",
    "request_status": "Pending",
    "responsible_agency": "Department of Sanitation",
    "final_address": "4923 Tchoupitoulas St",
    "address_councildis": "B",
    "status": "Pending",
    "rowid": "1272469",
    "final_x": "3668754.87278",
    "final_y": "517261.336117",
    "longitude": "-90.10879613225505",
    "latitude": "29.916669758838445",
    "geocoded_column": {
      "latitude": "29.916669758838445",
      "longitude": "-90.10879613225505"
    }
  },
  {
    "service_request": "2026-1272468",
    "request_type": "Property Maintenance",
    "request_reason": "Property Maintenance",
    "date_created": "2026-04-09T15:27:43.000",
    "date_modified": "2026-04-09T15:27:44.000",
    "request_status": "Pending",
    "responsible_agency": "Department of Code Enforcement",
    "final_address": "5407 West End Blvd",
    "address_councildis": "A",
    "status": "Pending",
    "rowid": "1272468",
    "final_x": "3666307.15399",
    "final_y": "543531.572046",
    "longitude": "-90.11564097582037",
    "latitude": "29.988976049210383",
    "geocoded_column": {
      "latitude": "29.988976049210383",
      "longitude": "-90.11564097582037"
    }
  },
  {
    "service_request": "2026-1272467",
    "request_type": "Roads and Streets",
    "request_reason": "Abandoned Service Cut",
    "date_created": "2026-04-09T15:25:02.000",
    "date_modified": "2026-04-09T15:25:41.000",
    "request_status": "Pending",
    "responsible_agency": "Department of Public Works",
    "final_address": "2953 Grand-Route St John St",
    "address_councildis": "A",
    "status": "Pending",
    "rowid": "1272467",
    "final_x": "3677289.79234",
    "final_y": "540342.245643",
    "longitude": "-90.08106019804124",
    "latitude": "29.979881016034657",
    "geocoded_column": {
      "latitude": "29.979881016034657",
      "longitude": "-90.08106019804124"
    }
  },
  {
    "service_request": "2026-1272466",
    "request_type": "Streetlights",
    "request_reason": "Streetlight Outage/Malfunction",
    "date_created": "2026-04-09T15:23:52.000",
    "date_modified": "2026-04-09T15:23:55.000",
    "request_status": "Pending",
    "responsible_agency": "Department of Public Works",
    "final_address": "PAINTERS ST & ATHIS ST",
    "address_councildis": "D",
    "status": "Pending",
    "rowid": "1272466",
    "final_x": "3686122.5",
    "final_y": "554430.18",
    "longitude": "-90.05266562007796",
    "latitude": "30.01834937254669",
    "geocoded_column": {
      "latitude": "30.01834937254669",
      "longitude": "-90.05266562007796"
    }
  },
  {
    "service_request": "2026-1272465",
    "request_type": "Trash/Recycling",
    "request_reason": "Repair Trash Cart",
    "date_created": "2026-04-09T15:22:51.000",
    "date_modified": "2026-04-09T15:22:53.000",
    "request_status": "Pending",
    "responsible_agency": "Department of Sanitation",
    "final_address": "1719 Toledano St",
    "address_councildis": "B",
    "status": "Assigned to Contractor",
    "contractor": "IV Waste",
    "rowid": "1272465",
    "final_x": "3674403.64788",
    "final_y": "522246.697082",
    "longitude": "-90.09079560780958",
    "latitude": "29.930210700280217",
    "geocoded_column": {
      "latitude": "29.930210700280217",
      "longitude": "-90.09079560780958"
    }
  },
  {
    "service_request": "2026-1272464",
    "request_type": "Trash/Recycling",
    "request_reason": "Illegal Dumping",
    "date_created": "2026-04-09T15:21:43.000",
    "date_modified": "2026-04-09T15:21:44.000",
    "request_status": "Pending",
    "responsible_agency": "Department of Sanitation",
    "final_address": "1900 BLK Onzaga St",
    "address_councildis": "D",
    "status": "Pending",
    "rowid": "1272464",
    "final_x": "3681409.94554",
    "final_y": "538828.588141",
    "longitude": "-90.06809985562494",
    "latitude": "29.97559452792731",
    "geocoded_column": {
      "latitude": "29.97559452792731",
      "longitude": "-90.06809985562494"
    }
  },
  {
    "service_request": "2026-1272463",
    "request_type": "Trash/Recycling",
    "request_reason": "Request a Large Item Pick Up",
    "date_created": "2026-04-09T15:21:18.000",
    "date_modified": "2026-04-09T15:21:20.000",
    "request_status": "Pending",
    "responsible_agency": "Department of Sanitation",
    "final_address": "6601 Dorchester St",
    "address_councildis": "E",
    "status": "Assigned to Contractor",
    "contractor": "Waste Pro",
    "rowid": "1272463",
    "final_x": "3697666.19856",
    "final_y": "558935.165404",
    "longitude": "-90.01602837278277",
    "latitude": "30.030376555312035",
    "geocoded_column": {
      "latitude": "30.030376555312035",
      "longitude": "-90.01602837278277"
    }
  },
  {
    "service_request": "2026-1272462",
    "request_type": "Trash/Recycling",
    "request_reason": "Request a Large Item Pick Up",
    "date_created": "2026-04-09T15:20:59.000",
    "date_modified": "2026-04-09T15:59:05.000",
    "request_status": "Pending",
    "responsible_agency": "Department of Sanitation",
    "final_address": "1616 Annette St, New Orleans, Louisiana, 70116",
    "address_councildis": "C",
    "status": "Pending",
    "contractor": "IV Waste",
    "rowid": "1272462",
    "final_x": "3682907.01916",
    "final_y": "538124.254729",
    "longitude": "-90.06339634321411",
    "latitude": "29.97361231748722",
    "geocoded_column": {
      "latitude": "29.97361231748722",
      "longitude": "-90.06339634321411"
    }
  },
  {
    "service_request": "2026-1272461",
    "request_type": "Trash/Recycling",
    "request_reason": "Replace Recycling Cart",
    "date_created": "2026-04-09T15:19:39.000",
    "date_modified": "2026-04-09T15:19:40.000",
    "request_status": "Pending",
    "responsible_agency": "Department of Sanitation",
    "final_address": "7223 Onyx St",
    "address_councildis": "D",
    "status": "Pending",
    "rowid": "1272461",
    "final_x": "3668856.68718",
    "final_y": "555257.196633",
    "longitude": "-90.10719140767759",
    "latitude": "30.021142682400477",
    "geocoded_column": {
      "latitude": "30.021142682400477",
      "longitude": "-90.10719140767759"
    }
  },
  {
    "service_request": "2026-1272460",
    "request_type": "Abandoned Vehicles",
    "request_reason": "Abandoned/Junk Vehicles",
    "date_created": "2026-04-09T15:17:22.000",
    "date_modified": "2026-04-09T15:17:23.000",
    "request_status": "Pending",
    "responsible_agency": "Department of Public Works",
    "final_address": "0 BLK Erato St",
    "address_councildis": "B",
    "status": "Pending",
    "rowid": "1272460",
    "final_x": "3677125.39112",
    "final_y": "527563.559162",
    "longitude": "-90.08202019976993",
    "latitude": "29.94474888823782",
    "geocoded_column": {
      "latitude": "29.94474888823782",
      "longitude": "-90.08202019976993"
    }
  },
  {
    "service_request": "2026-1272459",
    "request_type": "Trash/Recycling",
    "request_reason": "Repair Trash Cart",
    "date_created": "2026-04-09T15:17:14.000",
    "date_modified": "2026-04-09T15:17:15.000",
    "request_status": "Pending",
    "responsible_agency": "Department of Sanitation",
    "final_address": "3042 St Peter St",
    "address_councildis": "A",
    "status": "Assigned to Contractor",
    "contractor": "IV Waste",
    "rowid": "1272459",
    "final_x": "3675308.73915",
    "final_y": "537823.768137",
    "longitude": "-90.08740367903778",
    "latitude": "29.973015447719156",
    "geocoded_column": {
      "latitude": "29.973015447719156",
      "longitude": "-90.08740367903778"
    }
  },
  {
    "service_request": "2026-1272458",
    "request_type": "Trash/Recycling",
    "request_reason": "Request a Large Item Pick Up",
    "date_created": "2026-04-09T15:16:51.000",
    "date_modified": "2026-04-09T15:25:13.000",
    "request_status": "Pending",
    "responsible_agency": "Department of Sanitation",
    "final_address": "2941 Oliver White Ave",
    "address_councildis": "D",
    "status": "Assigned to Contractor",
    "contractor": "IV Waste",
    "rowid": "1272458",
    "final_x": "3692090.48176",
    "final_y": "543141.467085",
    "longitude": "-90.03421347471169",
    "latitude": "29.987124799449372",
    "geocoded_column": {
      "latitude": "29.987124799449372",
      "longitude": "-90.03421347471169"
    }
  },
  {
    "service_request": "2026-1272457",
    "request_type": "Trash/Recycling",
    "request_reason": "Replace Recycling Cart",
    "date_created": "2026-04-09T15:16:34.000",
    "date_modified": "2026-04-09T15:16:36.000",
    "request_status": "Pending",
    "responsible_agency": "Department of Sanitation",
    "final_address": "1037 Allen Toussaint Blvd",
    "address_councildis": "D",
    "status": "Pending",
    "rowid": "1272457",
    "final_x": "3673226.12635",
    "final_y": "554457.090904",
    "longitude": "-90.09341254217539",
    "latitude": "30.018813391253786",
    "geocoded_column": {
      "latitude": "30.018813391253786",
      "longitude": "-90.09341254217539"
    }
  },
  {
    "service_request": "2026-1272456",
    "request_type": "Road Striping",
    "request_reason": "Lane Striping or other Pavement Markings",
    "date_created": "2026-04-09T15:09:00.000",
    "date_modified": "2026-04-09T15:09:02.000",
    "request_status": "Pending",
    "responsible_agency": "Department of Public Works",
    "final_address": "0 BLK Bienville St",
    "address_councildis": "C",
    "status": "Pending",
    "rowid": "1272456",
    "final_x": "3682796.7971",
    "final_y": "530442.12099",
    "longitude": "-90.06401321104035",
    "latitude": "29.95249244398008",
    "geocoded_column": {
      "latitude": "29.95249244398008",
      "longitude": "-90.06401321104035"
    }
  },
  {
    "service_request": "2026-1272455",
    "request_type": "Roads and Streets",
    "request_reason": "Street Subsidence (Sinking)",
    "date_created": "2026-04-09T14:53:36.000",
    "date_modified": "2026-04-09T14:53:38.000",
    "request_status": "Pending",
    "responsible_agency": "Sewerage & Water Board",
    "final_address": "1900 Wickfield Dr",
    "address_councildis": "D",
    "status": "Pending",
    "rowid": "1272455",
    "final_x": "3681119.09685",
    "final_y": "551405.135637",
    "longitude": "-90.06858001271543",
    "latitude": "30.010184412320893",
    "geocoded_column": {
      "latitude": "30.010184412320893",
      "longitude": "-90.06858001271543"
    }
  },
  {
    "service_request": "2026-1272454",
    "request_type": "Property Maintenance",
    "request_reason": "Property Maintenance",
    "date_created": "2026-04-09T14:46:05.000",
    "date_modified": "2026-04-09T15:08:32.000",
    "case_close_date": "2026-04-09T10:08:31.000",
    "request_status": "Closed",
    "responsible_agency": "Department of Code Enforcement",
    "final_address": "2417 Jonquil St",
    "address_councildis": "D",
    "status": "Resolved",
    "rowid": "1272454",
    "final_x": "3685895.38556",
    "final_y": "547160.161425",
    "longitude": "-90.05363975515361",
    "latitude": "29.99836644712251",
    "geocoded_column": {
      "latitude": "29.99836644712251",
      "longitude": "-90.05363975515361"
    }
  },
  {
    "service_request": "2026-1272453",
    "request_type": "Trash/Recycling",
    "request_reason": "Dead Animal Pick Up",
    "date_created": "2026-04-09T14:37:26.000",
    "date_modified": "2026-04-09T16:00:26.000",
    "request_status": "Pending",
    "responsible_agency": "Department of Sanitation",
    "final_address": "2221 St Philip St",
    "address_councildis": "C",
    "status": "Pending",
    "rowid": "1272453",
    "final_x": "3678922.46069",
    "final_y": "536728.465223",
    "longitude": "-90.07602879985699",
    "latitude": "29.96989520122891",
    "geocoded_column": {
      "latitude": "29.96989520122891",
      "longitude": "-90.07602879985699"
    }
  },
  {
    "service_request": "2026-1272452",
    "request_type": "General Services",
    "request_reason": "General Service Request",
    "date_created": "2026-04-09T14:36:13.000",
    "date_modified": "2026-04-09T14:36:15.000",
    "request_status": "Pending",
    "responsible_agency": "Orleans Parish Communication District",
    "final_address": "2523 Governor Nicholls St",
    "address_councildis": "C",
    "status": "Pending",
    "rowid": "1272452",
    "final_x": "3678519.39803",
    "final_y": "537952.406985",
    "longitude": "-90.07725933870195",
    "latitude": "29.97327277621095",
    "geocoded_column": {
      "latitude": "29.97327277621095",
      "longitude": "-90.07725933870195"
    }
  },
  {
    "service_request": "2026-1272451",
    "request_type": "Abandoned Vehicles",
    "request_reason": "Abandoned/Junk Vehicles",
    "date_created": "2026-04-09T14:33:49.000",
    "date_modified": "2026-04-09T14:33:51.000",
    "request_status": "Pending",
    "responsible_agency": "Department of Public Works",
    "final_address": "4000 Vincennes Pl",
    "address_councildis": "B",
    "status": "Pending",
    "rowid": "1272451",
    "final_x": "3668361.6891",
    "final_y": "529964.509825",
    "longitude": "-90.10960896698514",
    "latitude": "29.951610965354156",
    "geocoded_column": {
      "latitude": "29.951610965354156",
      "longitude": "-90.10960896698514"
    }
  },
  {
    "service_request": "2026-1272450",
    "request_type": "Abandoned Vehicles",
    "request_reason": "Abandoned/Junk Vehicles",
    "date_created": "2026-04-09T14:22:28.000",
    "date_modified": "2026-04-09T14:22:30.000",
    "request_status": "Pending",
    "responsible_agency": "Department of Public Works",
    "final_address": "2641 St Ann St",
    "address_councildis": "C",
    "status": "Pending",
    "rowid": "1272450",
    "final_x": "3677112.14606",
    "final_y": "537127.967048",
    "longitude": "-90.08173216893792",
    "latitude": "29.971048190387318",
    "geocoded_column": {
      "latitude": "29.971048190387318",
      "longitude": "-90.08173216893792"
    }
  },
  {
    "service_request": "2026-1272449",
    "request_type": "Streetlights",
    "request_reason": "Streetlight Outage/Malfunction",
    "date_created": "2026-04-09T14:20:27.000",
    "date_modified": "2026-04-09T14:20:29.000",
    "request_status": "Pending",
    "responsible_agency": "Department of Public Works",
    "final_address": "6147 Catina St",
    "address_councildis": "A",
    "status": "Pending",
    "rowid": "1272449",
    "final_x": "3666919.95674",
    "final_y": "548690.012819",
    "longitude": "-90.11353185175822",
    "latitude": "30.003142069477814",
    "geocoded_column": {
      "latitude": "30.003142069477814",
      "longitude": "-90.11353185175822"
    }
  },
  {
    "service_request": "2026-1272448",
    "request_type": "Streetlights",
    "request_reason": "Streetlight Outage/Malfunction",
    "date_created": "2026-04-09T14:20:13.000",
    "date_modified": "2026-04-09T15:09:56.000",
    "request_status": "Pending",
    "responsible_agency": "Department of Public Works",
    "final_address": "2941 Paris Ave",
    "address_councildis": "D",
    "status": "Pending",
    "rowid": "1272448",
    "final_x": "3679978.38287",
    "final_y": "543272.346894",
    "longitude": "-90.07246668956986",
    "latitude": "29.987856704207477",
    "geocoded_column": {
      "latitude": "29.987856704207477",
      "longitude": "-90.07246668956986"
    }
  },
  {
    "service_request": "2026-1272447",
    "request_type": "Trash/Recycling",
    "request_reason": "Request a Large Item Pick Up",
    "date_created": "2026-04-09T14:18:35.000",
    "date_modified": "2026-04-09T14:21:17.000",
    "request_status": "Pending",
    "responsible_agency": "Department of Sanitation",
    "final_address": "2844 Eton St",
    "address_councildis": "C",
    "status": "Assigned to Contractor",
    "contractor": "Richards Disposal",
    "rowid": "1272447",
    "final_x": "3703988.83434",
    "final_y": "520391.727864",
    "longitude": "-89.99746888616052",
    "latitude": "29.924194881267166",
    "geocoded_column": {
      "latitude": "29.924194881267166",
      "longitude": "-89.99746888616052"
    }
  },
  {
    "service_request": "2026-1272446",
    "request_type": "Trash/Recycling",
    "request_reason": "Missed Trash Pick-Up",
    "date_created": "2026-04-09T14:16:35.000",
    "date_modified": "2026-04-09T14:36:07.000",
    "case_close_date": "2026-04-09T09:36:06.000",
    "request_status": "Closed",
    "responsible_agency": "Department of Sanitation",
    "final_address": "6831 Rugby Ct",
    "address_councildis": "E",
    "status": "Duplicate Request",
    "contractor": "Waste Pro",
    "contractor_action": "Duplicate",
    "rowid": "1272446",
    "final_x": "3701451.67735",
    "final_y": "557421.870363",
    "longitude": "-90.0041217738793",
    "latitude": "30.026095373112646",
    "geocoded_column": {
      "latitude": "30.026095373112646",
      "longitude": "-90.0041217738793"
    }
  },
  {
    "service_request": "2026-1272445",
    "request_type": "Trash/Recycling",
    "request_reason": "Order Trash Cart",
    "date_created": "2026-04-09T14:15:50.000",
    "date_modified": "2026-04-09T14:15:53.000",
    "request_status": "Pending",
    "responsible_agency": "Department of Sanitation",
    "final_address": "3642 Huntlee Dr",
    "address_councildis": "C",
    "status": "Assigned to Contractor",
    "contractor": "Richards Disposal",
    "rowid": "1272445",
    "final_x": "3701765.22986",
    "final_y": "517589.247798",
    "longitude": "-90.0045905628738",
    "latitude": "29.91656011791266",
    "geocoded_column": {
      "latitude": "29.91656011791266",
      "longitude": "-90.0045905628738"
    }
  },
  {
    "service_request": "2026-1272444",
    "request_type": "Trash/Recycling",
    "request_reason": "Request a Large Item Pick Up",
    "date_created": "2026-04-09T14:14:47.000",
    "date_modified": "2026-04-09T14:14:50.000",
    "request_status": "Pending",
    "responsible_agency": "Department of Sanitation",
    "final_address": "5301 E Idlewood Ct",
    "address_councildis": "E",
    "status": "Assigned to Contractor",
    "contractor": "Waste Pro",
    "rowid": "1272444",
    "final_x": "3716584.371",
    "final_y": "560166.824285",
    "longitude": "-89.95620066943727",
    "latitude": "30.033151534956605",
    "geocoded_column": {
      "latitude": "30.033151534956605",
      "longitude": "-89.95620066943727"
    }
  },
  {
    "service_request": "2026-1272443",
    "request_type": "Trash/Recycling",
    "request_reason": "Repair Trash Cart",
    "date_created": "2026-04-09T14:09:47.000",
    "date_modified": "2026-04-09T14:13:39.000",
    "request_status": "Pending",
    "responsible_agency": "Department of Sanitation",
    "final_address": "1457 Lauradale Dr",
    "address_councildis": "C",
    "status": "Assigned to Contractor",
    "contractor": "Richards Disposal",
    "rowid": "1272443",
    "final_x": "3692735.20611",
    "final_y": "525718.767357",
    "longitude": "-90.03280164459694",
    "latitude": "29.93919838715334",
    "geocoded_column": {
      "latitude": "29.93919838715334",
      "longitude": "-90.03280164459694"
    }
  },
  {
    "service_request": "2026-1272442",
    "request_type": "Streetlights",
    "request_reason": "Streetlight Outage/Malfunction",
    "date_created": "2026-04-09T14:09:14.000",
    "date_modified": "2026-04-09T14:09:15.000",
    "request_status": "Pending",
    "responsible_agency": "Department of Public Works",
    "final_address": "5200 BLK N Prieur St",
    "address_councildis": "E",
    "status": "Pending",
    "rowid": "1272442",
    "final_x": "3697502.64269",
    "final_y": "537078.574909",
    "longitude": "-90.01733844032988",
    "latitude": "29.970284207353615",
    "geocoded_column": {
      "latitude": "29.970284207353615",
      "longitude": "-90.01733844032988"
    }
  },
  {
    "service_request": "2026-1272441",
    "request_type": "Trash/Recycling",
    "request_reason": "Request a Large Item Pick Up",
    "date_created": "2026-04-09T14:07:41.000",
    "date_modified": "2026-04-09T14:07:52.000",
    "request_status": "Pending",
    "responsible_agency": "Department of Sanitation",
    "final_address": "3700 Huntlee Dr",
    "address_councildis": "C",
    "status": "Assigned to Contractor",
    "contractor": "Richards Disposal",
    "rowid": "1272441",
    "final_x": "3701756.4762",
    "final_y": "517518.791926",
    "longitude": "-90.0046207715978",
    "latitude": "29.916366667484276",
    "geocoded_column": {
      "latitude": "29.916366667484276",
      "longitude": "-90.0046207715978"
    }
  },
  {
    "service_request": "2026-1272440",
    "request_type": "Trash/Recycling",
    "request_reason": "Repair Trash Cart",
    "date_created": "2026-04-09T14:06:58.000",
    "date_modified": "2026-04-09T14:06:59.000",
    "request_status": "Pending",
    "responsible_agency": "Department of Sanitation",
    "final_address": "1843 Annunciation St",
    "address_councildis": "B",
    "status": "Assigned to Contractor",
    "contractor": "IV Waste",
    "rowid": "1272440",
    "final_x": "3680565.70747",
    "final_y": "522107.550586",
    "longitude": "-90.07134781703185",
    "latitude": "29.92964291973852",
    "geocoded_column": {
      "latitude": "29.92964291973852",
      "longitude": "-90.07134781703185"
    }
  },
  {
    "service_request": "2026-1272439",
    "request_type": "Trash/Recycling",
    "request_reason": "Request a Large Item Pick Up",
    "date_created": "2026-04-09T14:06:03.000",
    "date_modified": "2026-04-09T14:06:05.000",
    "request_status": "Pending",
    "responsible_agency": "Department of Sanitation",
    "final_address": "2818 Cadiz St",
    "address_councildis": "B",
    "status": "Assigned to Contractor",
    "contractor": "IV Waste",
    "rowid": "1272439",
    "final_x": "3669616.85012",
    "final_y": "525161.307837",
    "longitude": "-90.10580823706286",
    "latitude": "29.938366804098113",
    "geocoded_column": {
      "latitude": "29.938366804098113",
      "longitude": "-90.10580823706286"
    }
  },
  {
    "service_request": "2026-1272438",
    "request_type": "Property Maintenance",
    "request_reason": "Property Maintenance",
    "date_created": "2026-04-09T14:04:48.000",
    "date_modified": "2026-04-09T14:49:47.000",
    "case_close_date": "2026-04-09T09:49:47.000",
    "request_status": "Closed",
    "responsible_agency": "Department of Code Enforcement",
    "final_address": "8309 Plum St",
    "address_councildis": "A",
    "status": "Resolved",
    "rowid": "1272438",
    "final_x": "3661612.87251",
    "final_y": "529217.28352",
    "longitude": "-90.13094333935206",
    "latitude": "29.949752790799305",
    "geocoded_column": {
      "latitude": "29.949752790799305",
      "longitude": "-90.13094333935206"
    }
  },
  {
    "service_request": "2026-1272437",
    "request_type": "Roads and Streets",
    "request_reason": "Pothole",
    "date_created": "2026-04-09T14:03:08.000",
    "date_modified": "2026-04-09T14:03:10.000",
    "request_status": "Pending",
    "responsible_agency": "Department of Public Works",
    "final_address": "3281 Elmwood Park Dr",
    "address_councildis": "C",
    "status": "Pending",
    "rowid": "1272437",
    "final_x": "3695196.68445",
    "final_y": "518005.091574",
    "longitude": "-90.02530848919453",
    "latitude": "29.91791135770806",
    "geocoded_column": {
      "latitude": "29.91791135770806",
      "longitude": "-90.02530848919453"
    }
  },
  {
    "service_request": "2026-1272436",
    "request_type": "Trash/Recycling",
    "request_reason": "Request a Large Item Pick Up",
    "date_created": "2026-04-09T14:01:01.000",
    "date_modified": "2026-04-09T14:01:03.000",
    "request_status": "Pending",
    "responsible_agency": "Department of Sanitation",
    "final_address": "5431 Carlisle Ct",
    "address_councildis": "C",
    "status": "Assigned to Contractor",
    "contractor": "Richards Disposal",
    "rowid": "1272436",
    "final_x": "3704058.13297",
    "final_y": "516519.071989",
    "longitude": "-89.99739266336202",
    "latitude": "29.913544192035634",
    "geocoded_column": {
      "latitude": "29.913544192035634",
      "longitude": "-89.99739266336202"
    }
  },
  {
    "service_request": "2026-1272435",
    "request_type": "Safety & Permits",
    "request_reason": "Zoning Enforcement",
    "date_created": "2026-04-09T13:54:37.000",
    "date_modified": "2026-04-09T14:00:07.000",
    "request_status": "Pending",
    "responsible_agency": "Safety and Permits",
    "final_address": "5912 Mandeville St",
    "address_councildis": "D",
    "status": "Pending",
    "rowid": "1272435",
    "final_x": "3684245.62236",
    "final_y": "554821.743256",
    "longitude": "-90.05858208588735",
    "latitude": "30.019483573848518",
    "geocoded_column": {
      "latitude": "30.019483573848518",
      "longitude": "-90.05858208588735"
    }
  },
  {
    "service_request": "2026-1272434",
    "request_type": "Trash/Recycling",
    "request_reason": "Request a Large Item Pick Up",
    "date_created": "2026-04-09T13:51:58.000",
    "date_modified": "2026-04-09T13:52:00.000",
    "request_status": "Pending",
    "responsible_agency": "Department of Sanitation",
    "final_address": "2561 Chelsea Dr",
    "address_councildis": "C",
    "status": "Assigned to Contractor",
    "contractor": "Richards Disposal",
    "rowid": "1272434",
    "final_x": "3704196.24042",
    "final_y": "521648.606521",
    "longitude": "-89.99676790382438",
    "latitude": "29.92764421026575",
    "geocoded_column": {
      "latitude": "29.92764421026575",
      "longitude": "-89.99676790382438"
    }
  },