[
  {
    "service_request": "2022-895455",
    "request_type": "Trash/Recycling",
    "request_reason": "Request a Large Item Pick Up",
    "date_created": "2022-06-29T02:06:02.000",
    "date_modified": "2022-06-29T02:06:03.000",
    "request_status": "Pending",
    "responsible_agency": "Department of Sanitation",
    "final_address": "131 S Rendon St",
    "address_councildis": "B",
    "status": "Assigned to Contractor",
    "contractor": "Richards Disposal",
    "rowid": "895455",
    "final_x": "3673353.23329",
    "final_y": "536264.249415",
    "longitude": "-90.09363284460643",
    "latitude": "29.968785620484017",
    "geocoded_column": {
      "latitude": "29.968785620484017",
      "longitude": "-90.09363284460643"
    }
  },
  {
    "service_request": "2022-895454",
    "request_type": "Trash/Recycling",
    "request_reason": "MIssed Recycling Pick-Up",
    "date_created": "2022-06-29T00:32:11.000",
    "date_modified": "2022-06-29T00:32:11.000",
    "request_status": "Pending",
    "responsible_agency": "Department of Sanitation",
    "final_address": "219 N Tonti St",
    "address_councildis": "B",
    "status": "Assigned to Contractor",
    "contractor": "Richards Disposal",
    "rowid": "895454",
    "final_x": "3676708.91105",
    "final_y": "534839.579974",
    "longitude": "-90.08308449486326",
    "latitude": "29.96476800860436",
    "geocoded_column": {
      "latitude": "29.96476800860436",
      "longitude": "-90.08308449486326"
    }
  },
  {
    "service_request": "2022-895453",
    "request_type": "Traffic Signals/Signs/Striping/Streetlights",
    "request_reason": "Street Light Outage/Malfunction",
    "date_created": "2022-06-29T00:17:04.000",
    "date_modified": "2022-06-29T00:17:05.000",
    "request_status": "Pending",
    "responsible_agency": "Department of Public Works",
    "final_address": "755 Jewel St",
    "address_councildis": "D",
    "status": "Pending",
    "contractor": "Royal Engineering",
    "rowid": "895453",
    "final_x": "3669855.89735",
    "final_y": "555970.782361",
    "longitude": "-90.10400998600407",
    "latitude": "30.023075350535507",
    "geocoded_column": {
      "latitude": "30.023075350535507",
      "longitude": "-90.10400998600407"
    }
  },
  {
    "service_request": "2022-895452",
    "request_type": "Roads/Drainage",
    "request_reason": "Pothole",
    "date_created": "2022-06-28T23:22:11.000",
    "date_modified": "2022-06-28T23:22:11.000",
    "request_status": "Pending",
    "responsible_agency": "Department of Public Works",
    "final_address": "1540 General Collins Ave",
    "address_councildis": "C",
    "status": "Pending",
    "rowid": "895452",
    "final_x": "3698617.95396",
    "final_y": "525383.964861",
    "longitude": "-90.01424135820281",
    "latitude": "29.9380928924185",
    "geocoded_column": {
      "latitude": "29.9380928924185",
      "longitude": "-90.01424135820281"
    }
  },
  {
    "service_request": "2022-895451",
    "request_type": "Traffic Signals/Signs/Striping/Streetlights",
    "request_reason": "Street Light Outage/Malfunction",
    "date_created": "2022-06-28T23:20:52.000",
    "date_modified": "2022-06-28T23:20:52.000",
    "request_status": "Pending",
    "responsible_agency": "Department of Public Works",
    "final_address": "3924 Socrates St",
    "address_councildis": "C",
    "status": "Pending",
    "contractor": "Royal Engineering",
    "rowid": "895451",
    "final_x": "3698793.75824",
    "final_y": "526120.923262",
    "longitude": "-90.01365953566466",
    "latitude": "29.94011370568432",
    "geocoded_column": {
      "latitude": "29.94011370568432",
      "longitude": "-90.01365953566466"
    }
  },
  {
    "service_request": "2022-895450",
    "request_type": "Trash/Recycling",
    "request_reason": "Replace Trash Cart",
    "date_created": "2022-06-28T23:00:20.000",
    "date_modified": "2022-06-28T23:00:21.000",
    "request_status": "Pending",
    "responsible_agency": "Department of Sanitation",
    "final_address": "823 Marengo St",
    "address_councildis": "B",
    "status": "Assigned to Contractor",
    "contractor": "Richards Disposal",
    "rowid": "895450",
    "final_x": "3672233.4107",
    "final_y": "518715.276983",
    "longitude": "-90.09776692487519",
    "latitude": "29.92056495800624",
    "geocoded_column": {
      "latitude": "29.92056495800624",
      "longitude": "-90.09776692487519"
    }
  },
  {
    "service_request": "2022-895449",
    "request_type": "Trash/Recycling",
    "request_reason": "Start Trash Service",
    "date_created": "2022-06-28T22:25:06.000",
    "date_modified": "2022-06-28T22:25:07.000",
    "request_status": "Pending",
    "responsible_agency": "Department of Sanitation",
    "final_address": "621 N Pierce St",
    "address_councildis": "A",
    "status": "Assigned to Contractor",
    "contractor": "Richards Disposal",
    "rowid": "895449",
    "final_x": "3672654.93019",
    "final_y": "539638.471242",
    "longitude": "-90.09572303795275",
    "latitude": "29.978084342701408",
    "geocoded_column": {
      "latitude": "29.978084342701408",
      "longitude": "-90.09572303795275"
    }
  },
  {
    "service_request": "2022-895448",
    "request_type": "Property Maintenance",
    "request_reason": "Property Maintenance",
    "date_created": "2022-06-28T22:12:40.000",
    "date_modified": "2022-06-28T22:12:40.000",
    "request_status": "Pending",
    "responsible_agency": "Department of Code Enforcement",
    "final_address": "1030 Farragut St",
    "address_councildis": "C",
    "status": "Pending",
    "rowid": "895448",
    "final_x": "3692465.22102",
    "final_y": "527454.754239",
    "longitude": "-90.03359184911575",
    "latitude": "29.943980178542937",
    "geocoded_column": {
      "latitude": "29.943980178542937",
      "longitude": "-90.03359184911575"
    }
  },
  {
    "service_request": "2022-895447",
    "request_type": "Trash/Recycling",
    "request_reason": "Order Trash Cart",
    "date_created": "2022-06-28T21:53:27.000",
    "date_modified": "2022-06-28T21:53:28.000",
    "request_status": "Pending",
    "responsible_agency": "Department of Sanitation",
    "final_address": "515 First St",
    "address_councildis": "B",
    "status": "Assigned to Contractor",
    "contractor": "Richards Disposal",
    "rowid": "895447",
    "final_x": "3679273.06971",
    "final_y": "519746.851384",
    "longitude": "-90.07551025062207",
    "latitude": "29.923190850332656",
    "geocoded_column": {
      "latitude": "29.923190850332656",
      "longitude": "-90.07551025062207"
    }
  },
  {
    "service_request": "2022-895446",
    "request_type": "Property Maintenance",
    "request_reason": "Property Maintenance",
    "date_created": "2022-06-28T21:17:35.000",
    "date_modified": "2022-06-28T21:17:35.000",
    "request_status": "Pending",
    "responsible_agency": "Department of Code Enforcement",
    "final_address": "1926 St Roch Ave",
    "address_councildis": "D",
    "status": "Pending",
    "rowid": "895446",
    "final_x": "3686021.33225",
    "final_y": "539590.745994",
    "longitude": "-90.05350896837156",
    "latitude": "29.977549379555953",
    "geocoded_column": {
      "latitude": "29.977549379555953",
      "longitude": "-90.05350896837156"
    }
  },
  {
    "service_request": "2022-895444",
    "request_type": "Roads/Drainage",
    "request_reason": "Man hole cover issue",
    "date_created": "2022-06-28T20:25:42.000",
    "date_modified": "2022-06-28T20:25:42.000",
    "request_status": "Pending",
    "responsible_agency": "Department of Public Works",
    "final_address": "700 Independence St",
    "address_councildis": "C",
    "status": "Pending",
    "rowid": "895444",
    "final_x": "3690570.62588",
    "final_y": "534052.694213",
    "longitude": "-90.03933833755224",
    "latitude": "29.96218118756963",
    "geocoded_column": {
      "latitude": "29.96218118756963",
      "longitude": "-90.03933833755224"
    }
  },
  {
    "service_request": "2022-895443",
    "request_type": "Trash/Recycling",
    "request_reason": "Request a Large Item Pick Up",
    "date_created": "2022-06-28T20:19:50.000",
    "date_modified": "2022-06-28T20:19:51.000",
    "request_status": "Pending",
    "responsible_agency": "Department of Sanitation",
    "final_address": "2414 Milan St",
    "address_councildis": "B",
    "status": "Assigned to Contractor",
    "contractor": "Richards Disposal",
    "rowid": "895443",
    "final_x": "3671255.04078",
    "final_y": "523901.308668",
    "longitude": "-90.10067908954156",
    "latitude": "29.934853856345825",
    "geocoded_column": {
      "latitude": "29.934853856345825",
      "longitude": "-90.10067908954156"
    }
  },
  {
    "service_request": "2022-895442",
    "request_type": "Trash/Recycling",
    "request_reason": "Request a Large Item Pick Up",
    "date_created": "2022-06-28T20:19:31.000",
    "date_modified": "2022-06-28T20:19:32.000",
    "request_status": "Pending",
    "responsible_agency": "Department of Sanitation",
    "final_address": "5020 Laurel St",
    "address_councildis": "B",
    "status": "Assigned to Contractor",
    "contractor": "Richards Disposal",
    "rowid": "895442",
    "final_x": "3668447.69812",
    "final_y": "517771.95007",
    "longitude": "-90.10974849448404",
    "latitude": "29.91808280954051",
    "geocoded_column": {
      "latitude": "29.91808280954051",
      "longitude": "-90.10974849448404"
    }
  },
  {
    "service_request": "2022-895441",
    "request_type": "Trash/Recycling",
    "request_reason": "Order Trash Cart",
    "date_created": "2022-06-28T20:18:39.000",
    "date_modified": "2022-06-28T20:18:40.000",
    "request_status": "Pending",
    "responsible_agency": "Department of Sanitation",
    "final_address": "2200 Almonaster Ave",
    "address_councildis": "D",
    "status": "Assigned to Contractor",
    "contractor": "Metro Disposal",
    "rowid": "895441",
    "final_x": "3688075.14748",
    "final_y": "540657.944139",
    "longitude": "-90.04698450475946",
    "latitude": "29.9804205608054",
    "geocoded_column": {
      "latitude": "29.9804205608054",
      "longitude": "-90.04698450475946"
    }
  },
  {
    "service_request": "2022-895440",
    "request_type": "Trash/Recycling",
    "request_reason": "Missed Trash Pick-Up",
    "date_created": "2022-06-28T20:18:35.000",
    "date_modified": "2022-06-28T20:18:35.000",
    "request_status": "Pending",
    "responsible_agency": "Department of Sanitation",
    "final_address": "2415 Milan St",
    "address_councildis": "B",
    "status": "Assigned to Contractor",
    "contractor": "Richards Disposal",
    "rowid": "895440",
    "final_x": "3671342.49793",
    "final_y": "523913.802108",
    "longitude": "-90.10040256341955",
    "latitude": "29.93488562199893",
    "geocoded_column": {
      "latitude": "29.93488562199893",
      "longitude": "-90.10040256341955"
    }
  },
  {
    "service_request": "2022-895439",
    "request_type": "Trash/Recycling",
    "request_reason": "Request a Large Item Pick Up",
    "date_created": "2022-06-28T20:18:00.000",
    "date_modified": "2022-06-28T20:18:00.000",
    "request_status": "Pending",
    "responsible_agency": "Department of Sanitation",
    "final_address": "4805 Annette St",
    "address_councildis": "D",
    "status": "Assigned to Contractor",
    "contractor": "Metro Disposal",
    "rowid": "895439",
    "final_x": "3682112.60924",
    "final_y": "550208.683476",
    "longitude": "-90.06548296634084",
    "latitude": "30.006864410474634",
    "geocoded_column": {
      "latitude": "30.006864410474634",
      "longitude": "-90.06548296634084"
    }
  },
  {
    "service_request": "2022-895438",
    "request_type": "Roads/Drainage",
    "request_reason": "Pothole",
    "date_created": "2022-06-28T19:47:09.000",
    "date_modified": "2022-06-28T19:47:10.000",
    "request_status": "Pending",
    "responsible_agency": "Department of Public Works",
    "final_address": "6625 Center St",
    "address_councildis": "A",
    "status": "Pending",
    "rowid": "895438",
    "final_x": "3664993.87015",
    "final_y": "552126.396054",
    "longitude": "-90.11950166812443",
    "latitude": "30.012647170100962",
    "geocoded_column": {
      "latitude": "30.012647170100962",
      "longitude": "-90.11950166812443"
    }
  },
  {
    "service_request": "2022-895437",
    "request_type": "Traffic Signals/Signs/Striping/Streetlights",
    "request_reason": "Street Light Outage/Malfunction",
    "date_created": "2022-06-28T19:30:34.000",
    "date_modified": "2022-06-28T19:30:35.000",
    "request_status": "Pending",
    "responsible_agency": "Department of Public Works",
    "final_address": "6719 Milne Blvd",
    "address_councildis": "A",
    "status": "Pending",
    "contractor": "Royal Engineering",
    "rowid": "895437",
    "final_x": "3667611.67079",
    "final_y": "552295.027734",
    "longitude": "-90.11122514868262",
    "latitude": "30.013034336956363",
    "geocoded_column": {
      "latitude": "30.013034336956363",
      "longitude": "-90.11122514868262"
    }
  },
  {
    "service_request": "2022-895436",
    "request_type": "Property Maintenance",
    "request_reason": "Property Maintenance",
    "date_created": "2022-06-28T19:30:29.000",
    "date_modified": "2022-06-28T19:30:29.000",
    "request_status": "Pending",
    "responsible_agency": "Department of Code Enforcement",
    "final_address": "30 Seaward Ct",
    "address_councildis": "C",
    "status": "Pending",
    "rowid": "895436",
    "final_x": "3704385.19223",
    "final_y": "522848.292411",
    "longitude": "-89.99612723730269",
    "latitude": "29.930936866063902",
    "geocoded_column": {
      "latitude": "29.930936866063902",
      "longitude": "-89.99612723730269"
    }
  },
  {
    "service_request": "2022-895435",
    "request_type": "Trash/Recycling",
    "request_reason": "Order Recycling Cart",
    "date_created": "2022-06-28T19:27:32.000",
    "date_modified": "2022-06-28T19:27:32.000",
    "request_status": "Pending",
    "responsible_agency": "Department of Sanitation",
    "final_address": "524 S Pierce St",
    "address_councildis": "B",
    "status": "Pending",
    "rowid": "895435",
    "final_x": "3670428.99214",
    "final_y": "536536.424519",
    "longitude": "-90.10285856889463",
    "latitude": "29.969620679828925",
    "geocoded_column": {
      "latitude": "29.969620679828925",
      "longitude": "-90.10285856889463"
    }
  },
  {
    "service_request": "2022-895434",
    "request_type": "Abandoned Vehicles",
    "request_reason": "Abandoned/Junk Vehicles",
    "date_created": "2022-06-28T19:27:21.000",
    "date_modified": "2022-06-28T19:27:21.000",
    "request_status": "Pending",
    "responsible_agency": "Department of Public Works",
    "final_address": "1011 Fourth St",
    "address_councildis": "B",
    "status": "Pending",
    "rowid": "895434",
    "final_x": "3677498.35054",
    "final_y": "520798.082425",
    "longitude": "-90.08107609893078",
    "latitude": "29.9261348435615",
    "geocoded_column": {
      "latitude": "29.9261348435615",
      "longitude": "-90.08107609893078"
    }
  },
  {
    "service_request": "2022-895433",
    "request_type": "Trash/Recycling",
    "request_reason": "MIssed Recycling Pick-Up",
    "date_created": "2022-06-28T19:09:22.000",
    "date_modified": "2022-06-28T19:09:23.000",
    "request_status": "Pending",
    "responsible_agency": "Department of Sanitation",
    "final_address": "3729 Baudin St",
    "address_councildis": "B",
    "status": "Assigned to Contractor",
    "contractor": "Richards Disposal",
    "rowid": "895433",
    "final_x": "3671200.85748",
    "final_y": "536300.205959",
    "longitude": "-90.1004289720538",
    "latitude": "29.968948344270064",
    "geocoded_column": {
      "latitude": "29.968948344270064",
      "longitude": "-90.1004289720538"
    }
  },
  {
    "service_request": "2022-895432",
    "request_type": "Safety & Permits",
    "request_reason": "Short term Rental (Enforcement)",
    "date_created": "2022-06-28T19:08:56.000",
    "date_modified": "2022-06-28T19:08:56.000",
    "request_status": "Pending",
    "responsible_agency": "Safety and Permits",
    "final_address": "6173 Canal Blvd",
    "address_councildis": "A",
    "status": "Pending",
    "rowid": "895432",
    "final_x": "3668736.96385",
    "final_y": "548519.97461",
    "longitude": "-90.10779738441249",
    "latitude": "30.00262121222569",
    "geocoded_column": {
      "latitude": "30.00262121222569",
      "longitude": "-90.10779738441249"
    }
  },
  {
    "service_request": "2022-895431",
    "request_type": "Trash/Recycling",
    "request_reason": "Replace Trash Cart",
    "date_created": "2022-06-28T18:49:51.000",
    "date_modified": "2022-06-28T18:49:52.000",
    "request_status": "Pending",
    "responsible_agency": "Department of Sanitation",
    "final_address": "1437 Music St",
    "address_councildis": "C",
    "status": "Assigned to Contractor",
    "contractor": "Metro Disposal",
    "rowid": "895431",
    "final_x": "3686770.28815",
    "final_y": "537877.559433",
    "longitude": "-90.05120406197683",
    "latitude": "29.97281569525698",
    "geocoded_column": {
      "latitude": "29.97281569525698",
      "longitude": "-90.05120406197683"
    }
  },
  {
    "service_request": "2022-895430",
    "request_type": "Traffic Signals/Signs/Striping/Streetlights",
    "request_reason": "Traffic Sign Missing/Damaged",
    "date_created": "2022-06-28T18:46:17.000",
    "date_modified": "2022-06-28T18:46:17.000",
    "request_status": "Pending",
    "responsible_agency": "Department of Public Works",
    "final_address": "3140 N Claiborne Ave",
    "address_councildis": "D",
    "status": "Pending",
    "rowid": "895430",
    "final_x": "3689801.89795",
    "final_y": "537668.727432",
    "longitude": "-90.0416371341443",
    "latitude": "29.972147859006025",
    "geocoded_column": {
      "latitude": "29.972147859006025",
      "longitude": "-90.0416371341443"
    }
  },
  {
    "service_request": "2022-895429",
    "request_type": "Traffic Signals/Signs/Striping/Streetlights",
    "request_reason": "Additional signage",
    "date_created": "2022-06-28T18:45:37.000",
    "date_modified": "2022-06-28T18:45:37.000",
    "request_status": "Pending",
    "responsible_agency": "Department of Public Works",
    "final_address": "3140 N Claiborne Ave",
    "address_councildis": "D",
    "status": "Pending",
    "rowid": "895429",
    "final_x": "3689801.89795",
    "final_y": "537668.727432",
    "longitude": "-90.0416371341443",
    "latitude": "29.972147859006025",
    "geocoded_column": {
      "latitude": "29.972147859006025",
      "longitude": "-90.0416371341443"
    }
  },
  {
    "service_request": "2022-895428",
    "request_type": "Traffic Signals/Signs/Striping/Streetlights",
    "request_reason": "Request for Traffic Calming due to Speeding",
    "date_created": "2022-06-28T18:41:31.000",
    "date_modified": "2022-06-28T18:41:31.000",
    "request_status": "Pending",
    "responsible_agency": "Department of Public Works",
    "final_address": "3140 N Claiborne Ave",
    "address_councildis": "D",
    "status": "Pending",
    "rowid": "895428",
    "final_x": "3689801.89795",
    "final_y": "537668.727432",
    "longitude": "-90.0416371341443",
    "latitude": "29.972147859006025",
    "geocoded_column": {
      "latitude": "29.972147859006025",
      "longitude": "-90.0416371341443"
    }
  },
  {
    "service_request": "2022-895427",
    "request_type": "Trash/Recycling",
    "request_reason": "Order Trash Cart",
    "date_created": "2022-06-28T18:33:54.000",
    "date_modified": "2022-06-28T18:33:54.000",
    "request_status": "Pending",
    "responsible_agency": "Department of Sanitation",
    "final_address": "1964 Mirabeau Ave",
    "address_councildis": "D",
    "status": "Assigned to Contractor",
    "contractor": "Metro Disposal",
    "rowid": "895427",
    "final_x": "3682210.54613",
    "final_y": "550490.804692",
    "longitude": "-90.06516369342746",
    "latitude": "30.007637162054845",
    "geocoded_column": {
      "latitude": "30.007637162054845",
      "longitude": "-90.06516369342746"
    }
  },
  {
    "service_request": "2022-895426",
    "request_type": "Traffic Signals/Signs/Striping/Streetlights",
    "request_reason": "Street Light Outage/Malfunction",
    "date_created": "2022-06-28T18:32:48.000",
    "date_modified": "2022-06-28T18:32:49.000",
    "request_status": "Pending",
    "responsible_agency": "Department of Public Works",
    "final_address": "4122 Chef Menteur Hwy",
    "address_councildis": "D",
    "status": "Pending",
    "contractor": "Royal Engineering",
    "rowid": "895426",
    "final_x": "3690058.65187",
    "final_y": "549029.558931",
    "longitude": "-90.04042141948581",
    "latitude": "30.003378104261728",
    "geocoded_column": {
      "latitude": "30.003378104261728",
      "longitude": "-90.04042141948581"
    }
  },
  {
    "service_request": "2022-895425",
    "request_type": "Trash/Recycling",
    "request_reason": "Missed Trash Pick-Up",
    "date_created": "2022-06-28T18:24:12.000",
    "date_modified": "2022-06-28T18:24:13.000",
    "request_status": "Pending",
    "responsible_agency": "Department of Sanitation",
    "final_address": "900 Pacific Ave, New Orleans, Louisiana, 70114",
    "address_councildis": "C",
    "status": "Assigned to Contractor",
    "contractor": "Richards Disposal",
    "rowid": "895425",
    "final_x": "3688482.65436",
    "final_y": "528276.6928",
    "longitude": "-90.04613672160968",
    "latitude": "29.94636384380555",
    "geocoded_column": {
      "latitude": "29.94636384380555",
      "longitude": "-90.04613672160968"
    }
  },
  {
    "service_request": "2022-895424",
    "request_type": "Trash/Recycling",
    "request_reason": "Missed Trash Pick-Up",
    "date_created": "2022-06-28T18:20:05.000",
    "date_modified": "2022-06-28T18:20:05.000",
    "request_status": "Pending",
    "responsible_agency": "Department of Sanitation",
    "final_address": "700 Block of Jefferson Ave, New Orleans, Louisiana, 70115",
    "status": "Assigned to Contractor",
    "rowid": "895424",
    "longitude": "0.0",
    "latitude": "0.0",
    "geocoded_column": {
      "latitude": "0.0",
      "longitude": "0.0"
    }
  },
  {
    "service_request": "2022-895423",
    "request_type": "Health Related Questions",
    "request_reason": "Noise Ordinance Complaint",
    "date_created": "2022-06-28T18:17:11.000",
    "date_modified": "2022-06-28T18:17:12.000",
    "request_status": "Pending",
    "responsible_agency": "Health Department",
    "final_address": "1015 Pelican Ave",
    "address_councildis": "C",
    "status": "Pending",
    "rowid": "895423",
    "final_x": "3688675.85481",
    "final_y": "530694.825282",
    "longitude": "-90.04544090778843",
    "latitude": "29.95300690975446",
    "geocoded_column": {
      "latitude": "29.95300690975446",
      "longitude": "-90.04544090778843"
    }
  },
  {
    "service_request": "2022-895422",
    "request_type": "Trash/Recycling",
    "request_reason": "Request a Large Item Pick Up",
    "date_created": "2022-06-28T18:14:05.000",
    "date_modified": "2022-06-28T18:14:05.000",
    "request_status": "Pending",
    "responsible_agency": "Department of Sanitation",
    "final_address": "4670 Venus St",
    "address_councildis": "D",
    "status": "Assigned to Contractor",
    "contractor": "Metro Disposal",
    "rowid": "895422",
    "final_x": "3686449.67778",
    "final_y": "550118.569236",
    "longitude": "-90.05178422712068",
    "latitude": "30.006483964060948",
    "geocoded_column": {
      "latitude": "30.006483964060948",
      "longitude": "-90.05178422712068"
    }
  },
  {
    "service_request": "2022-895421",
    "request_type": "Abandoned Vehicles",
    "request_reason": "Abandoned/Junk Vehicles",
    "date_created": "2022-06-28T18:13:24.000",
    "date_modified": "2022-06-28T18:14:19.000",
    "request_status": "Pending",
    "responsible_agency": "Department of Public Works",
    "final_address": "IBERVILLE ST & N HENNESSEY ST",
    "address_councildis": "A",
    "status": "Pending",
    "rowid": "895421",
    "final_x": "3670551.9",
    "final_y": "539299.48",
    "longitude": "-90.10237667252501",
    "latitude": "29.977214521380855",
    "geocoded_column": {
      "latitude": "29.977214521380855",
      "longitude": "-90.10237667252501"
    }
  },
  {
    "service_request": "2022-895420",
    "request_type": "Trash/Recycling",
    "request_reason": "Missed Trash Pick-Up",
    "date_created": "2022-06-28T18:10:23.000",
    "date_modified": "2022-06-28T18:10:23.000",
    "request_status": "Pending",
    "responsible_agency": "Department of Sanitation",
    "final_address": "5516 S Robertson St",
    "address_councildis": "A",
    "status": "Assigned to Contractor",
    "contractor": "Richards Disposal",
    "rowid": "895420",
    "final_x": "3667488.18477",
    "final_y": "524354.552508",
    "longitude": "-90.11255580151756",
    "latitude": "29.93621101795264",
    "geocoded_column": {
      "latitude": "29.93621101795264",
      "longitude": "-90.11255580151756"
    }
  },
  {
    "service_request": "2022-895419",
    "request_type": "Abandoned Vehicles",
    "request_reason": "Abandoned/Junk Vehicles",
    "date_created": "2022-06-28T18:00:33.000",
    "date_modified": "2022-06-28T18:00:33.000",
    "request_status": "Pending",
    "responsible_agency": "Department of Public Works",
    "final_address": "423 St Maurice Ave",
    "address_councildis": "E",
    "status": "Pending",
    "rowid": "895419",
    "final_x": "3699003.28541",
    "final_y": "531011.966658",
    "longitude": "-90.0128200734196",
    "latitude": "29.9535557224401",
    "geocoded_column": {
      "latitude": "29.9535557224401",
      "longitude": "-90.0128200734196"
    }
  },
  {
    "service_request": "2022-895418",
    "request_type": "Parks & Parkways",
    "request_reason": "Request Grass Cutting Service (City Owned Property)",
    "date_created": "2022-06-28T17:56:17.000",
    "date_modified": "2022-06-28T17:56:17.000",
    "request_status": "Pending",
    "responsible_agency": "Department of Parks & Parkway",
    "final_address": "4917 Dreux Ave",
    "address_councildis": "D",
    "status": "Pending",
    "rowid": "895418",
    "final_x": "3691464.34582",
    "final_y": "553317.836119",
    "longitude": "-90.03582722558009",
    "latitude": "30.01512559522861",
    "geocoded_column": {
      "latitude": "30.01512559522861",
      "longitude": "-90.03582722558009"
    }
  },
  {
    "service_request": "2022-895417",
    "request_type": "Roads/Drainage",
    "request_reason": "Pothole",
    "date_created": "2022-06-28T17:53:17.000",
    "date_modified": "2022-06-28T17:53:17.000",
    "request_status": "Pending",
    "responsible_agency": "Department of Public Works",
    "final_address": "1926 Prytania St",
    "address_councildis": "B",
    "status": "Pending",
    "rowid": "895417",
    "final_x": "3678594.46504",
    "final_y": "523749.269563",
    "longitude": "-90.07751387934664",
    "latitude": "29.934216658284733",
    "geocoded_column": {
      "latitude": "29.934216658284733",
      "longitude": "-90.07751387934664"
    }
  },
  {
    "service_request": "2022-895416",
    "request_type": "Trash/Recycling",
    "request_reason": "Request a Large Item Pick Up",
    "date_created": "2022-06-28T17:43:25.000",
    "date_modified": "2022-06-28T17:43:26.000",
    "request_status": "Pending",
    "responsible_agency": "Department of Sanitation",
    "final_address": "1124 General Taylor St",
    "address_councildis": "B",
    "status": "Assigned to Contractor",
    "contractor": "Richards Disposal",
    "rowid": "895416",
    "final_x": "3672866.27726",
    "final_y": "519903.016184",
    "longitude": "-90.09572876169955",
    "latitude": "29.923812081542685",
    "geocoded_column": {
      "latitude": "29.923812081542685",
      "longitude": "-90.09572876169955"
    }
  },
  {
    "service_request": "2022-895415",
    "request_type": "Trash/Recycling",
    "request_reason": "Request a Large Item Pick Up",
    "date_created": "2022-06-28T17:22:46.000",
    "date_modified": "2022-06-28T17:22:46.000",
    "request_status": "Pending",
    "responsible_agency": "Department of Sanitation",
    "final_address": "1237 General Ogden St",
    "address_councildis": "A",
    "status": "Assigned to Contractor",
    "contractor": "Richards Disposal",
    "rowid": "895415",
    "final_x": "3660107.6713",
    "final_y": "530483.716802",
    "longitude": "-90.13565417981376",
    "latitude": "29.953278421692563",
    "geocoded_column": {
      "latitude": "29.953278421692563",
      "longitude": "-90.13565417981376"
    }
  },
  {
    "service_request": "2022-895414",
    "request_type": "Trash/Recycling",
    "request_reason": "Request a Large Item Pick Up",
    "date_created": "2022-06-28T17:15:18.000",
    "date_modified": "2022-06-28T17:15:19.000",
    "request_status": "Pending",
    "responsible_agency": "Department of Sanitation",
    "final_address": "731 Bartholomew St",
    "address_councildis": "C",
    "status": "Assigned to Contractor",
    "contractor": "Metro Disposal",
    "rowid": "895414",
    "final_x": "3691517.9688",
    "final_y": "534050.259013",
    "longitude": "-90.03634686769857",
    "latitude": "29.96214504090383",
    "geocoded_column": {
      "latitude": "29.96214504090383",
      "longitude": "-90.03634686769857"
    }
  },
  {
    "service_request": "2022-895413",
    "request_type": "Trash/Recycling",
    "request_reason": "Replace Trash Cart",
    "date_created": "2022-06-28T17:10:42.000",
    "date_modified": "2022-06-28T17:10:43.000",
    "request_status": "Pending",
    "responsible_agency": "Department of Sanitation",
    "final_address": "5028 Cartier Ave",
    "address_councildis": "D",
    "status": "Assigned to Contractor",
    "contractor": "Metro Disposal",
    "rowid": "895413",
    "final_x": "3677646.69013",
    "final_y": "550791.872917",
    "longitude": "-90.07957184005733",
    "latitude": "30.008603089458266",
    "geocoded_column": {
      "latitude": "30.008603089458266",
      "longitude": "-90.07957184005733"
    }
  },
  {
    "service_request": "2022-895412",
    "request_type": "Parks & Parkways",
    "request_reason": "Request Tree Service (Right of Way/Public Property)",
    "date_created": "2022-06-28T17:10:08.000",
    "date_modified": "2022-06-28T17:10:09.000",
    "request_status": "Pending",
    "responsible_agency": "Department of Parks & Parkway",
    "final_address": "3621 Dearmas St",
    "address_councildis": "C",
    "status": "Pending",
    "rowid": "895412",
    "final_x": "3697418.44112",
    "final_y": "526905.585406",
    "longitude": "-90.01797316019652",
    "latitude": "29.942314736102535",
    "geocoded_column": {
      "latitude": "29.942314736102535",
      "longitude": "-90.01797316019652"
    }
  },
  {
    "service_request": "2022-895411",
    "request_type": "Trash/Recycling",
    "request_reason": "Replace Recycling Cart",
    "date_created": "2022-06-28T17:08:44.000",
    "date_modified": "2022-06-28T17:08:44.000",
    "request_status": "Pending",
    "responsible_agency": "Department of Sanitation",
    "final_address": "2025 Magazine St",
    "address_councildis": "B",
    "status": "Pending",
    "rowid": "895411",
    "final_x": "3679323.79387",
    "final_y": "522489.03705",
    "longitude": "-90.07525509471698",
    "latitude": "29.93072943395651",
    "geocoded_column": {
      "latitude": "29.93072943395651",
      "longitude": "-90.07525509471698"
    }
  },
  {
    "service_request": "2022-895410",
    "request_type": "Traffic Signals/Signs/Striping/Streetlights",
    "request_reason": "Traffic Signal Malfunctioning/Damaged",
    "date_created": "2022-06-28T17:02:12.000",
    "date_modified": "2022-06-28T17:02:12.000",
    "request_status": "Pending",
    "responsible_agency": "Department of Public Works",
    "final_address": "WESTBANK EXP SERVICE ROAD & HOV",
    "address_councildis": "C",
    "status": "Pending",
    "rowid": "895410",
    "final_x": "3690752.63",
    "final_y": "521019.21",
    "longitude": "-90.03922843069076",
    "latitude": "29.926337919775897",
    "geocoded_column": {
      "latitude": "29.926337919775897",
      "longitude": "-90.03922843069076"
    }
  },
  {
    "service_request": "2022-895409",
    "request_type": "Health Related Questions",
    "request_reason": "Request Health Records (Immunization, Lead and Health)",
    "date_created": "2022-06-28T17:01:57.000",
    "date_modified": "2022-06-28T17:01:57.000",
    "request_status": "Pending",
    "responsible_agency": "Health Department",
    "status": "Pending",
    "rowid": "895409",
    "longitude": "0.0",
    "latitude": "0.0",
    "geocoded_column": {
      "latitude": "0.0",
      "longitude": "0.0"
    }
  },
  {
    "service_request": "2022-895408",
    "request_type": "Trash/Recycling",
    "request_reason": "Missed Trash Pick-Up",
    "date_created": "2022-06-28T16:57:45.000",
    "date_modified": "2022-06-28T16:57:45.000",
    "request_status": "Pending",
    "responsible_agency": "Department of Sanitation",
    "final_address": "2011 Camp St",
    "address_councildis": "B",
    "status": "Assigned to Contractor",
    "contractor": "Richards Disposal",
    "rowid": "895408",
    "final_x": "3679182.50933",
    "final_y": "522834.092603",
    "longitude": "-90.07568915396513",
    "latitude": "29.931682488155037",
    "geocoded_column": {
      "latitude": "29.931682488155037",
      "longitude": "-90.07568915396513"
    }
  },
  {
    "service_request": "2022-895406",
    "request_type": "Roads/Drainage",
    "request_reason": "Unpermitted work in ROW",
    "date_created": "2022-06-28T16:52:04.000",
    "date_modified": "2022-06-28T16:52:04.000",
    "request_status": "Pending",
    "responsible_agency": "Department of Public Works",
    "final_address": "4219 Duplessis St",
    "address_councildis": "D",
    "status": "Pending",
    "rowid": "895406",
    "final_x": "3678379.0525",
    "final_y": "547812.602706",
    "longitude": "-90.07736124296521",
    "latitude": "30.000389103477097",
    "geocoded_column": {
      "latitude": "30.000389103477097",
      "longitude": "-90.07736124296521"
    }
  },
  {
    "service_request": "2022-895405",
    "request_type": "Parks & Parkways",
    "request_reason": "Request Grass Cutting Service (City Owned Property)",
    "date_created": "2022-06-28T16:44:42.000",
    "date_modified": "2022-06-28T16:44:43.000",
    "request_status": "Pending",
    "responsible_agency": "Department of Parks & Parkway",
    "final_address": "6719 Milne Blvd",
    "address_councildis": "A",
    "status": "Pending",
    "rowid": "895405",
    "final_x": "3667611.67079",
    "final_y": "552295.027734",
    "longitude": "-90.11122514868262",
    "latitude": "30.013034336956363",
    "geocoded_column": {
      "latitude": "30.013034336956363",
      "longitude": "-90.11122514868262"
    }
  },
  {
    "service_request": "2022-895404",
    "request_type": "Traffic Signals/Signs/Striping/Streetlights",
    "request_reason": "Street Light Knocked Down/Leaning",
    "date_created": "2022-06-28T16:42:14.000",
    "date_modified": "2022-06-28T16:42:14.000",
    "request_status": "Pending",
    "responsible_agency": "Department of Public Works",
    "final_address": "7001 Martin Dr",
    "address_councildis": "E",
    "status": "Pending",
    "contractor": "Royal Engineering",
    "rowid": "895404",
    "final_x": "3699289.35824",
    "final_y": "557953.520347",
    "longitude": "-90.01093500208854",
    "latitude": "30.02762599978341",
    "geocoded_column": {
      "latitude": "30.02762599978341",
      "longitude": "-90.01093500208854"
    }
  },
  {
    "service_request": "2022-895403",
    "request_type": "Trash/Recycling",
    "request_reason": "Request a Large Item Pick Up",
    "date_created": "2022-06-28T16:38:34.000",
    "date_modified": "2022-06-28T16:38:38.000",
    "request_status": "Pending",
    "responsible_agency": "Department of Sanitation",
    "final_address": "1410 Erato St",
    "address_councildis": "B",
    "status": "Assigned to Contractor",
    "contractor": "Richards Disposal",
    "rowid": "895403",
    "final_x": "3680078.86331",
    "final_y": "525664.248509",
    "longitude": "-90.07276117607097",
    "latitude": "29.9394373996616",
    "geocoded_column": {
      "latitude": "29.9394373996616",
      "longitude": "-90.07276117607097"
    }
  },
  {
    "service_request": "2022-895401",
    "request_type": "Parks & Parkways",
    "request_reason": "Request Tree Service (Right of Way/Public Property)",
    "date_created": "2022-06-28T16:37:54.000",
    "date_modified": "2022-06-28T16:37:54.000",
    "request_status": "Pending",
    "responsible_agency": "Department of Parks & Parkway",
    "final_address": "6478 Memphis St",
    "address_councildis": "A",
    "status": "Pending",
    "rowid": "895401",
    "final_x": "3669402.36321",
    "final_y": "550600.567956",
    "longitude": "-90.10562486910295",
    "latitude": "30.008322531724886",
    "geocoded_column": {
      "latitude": "30.008322531724886",
      "longitude": "-90.10562486910295"
    }
  },
  {
    "service_request": "2022-895400",
    "request_type": "Trash/Recycling",
    "request_reason": "Request a Large Item Pick Up",
    "date_created": "2022-06-28T16:30:28.000",
    "date_modified": "2022-06-28T16:30:29.000",
    "request_status": "Pending",
    "responsible_agency": "Department of Sanitation",
    "final_address": "1022 Louisiana Ave, New Orleans, Louisiana, 70115",
    "address_councildis": "B",
    "status": "Assigned to Contractor",
    "contractor": "Richards Disposal",
    "rowid": "895400",
    "final_x": "3675032.666",
    "final_y": "519443.423735",
    "longitude": "-90.08890600459388",
    "latitude": "29.92248383322545",
    "geocoded_column": {
      "latitude": "29.92248383322545",
      "longitude": "-90.08890600459388"
    }
  },
  {
    "service_request": "2022-895399",
    "request_type": "Health Related Questions",
    "request_reason": "Noise Ordinance Complaint",
    "date_created": "2022-06-28T16:29:35.000",
    "date_modified": "2022-06-28T16:29:35.000",
    "request_status": "Pending",
    "responsible_agency": "Health Department",
    "final_address": "4801 Bienville Ave",
    "address_councildis": "A",
    "status": "Pending",
    "rowid": "895399",
    "final_x": "3669308.25492",
    "final_y": "540804.395403",
    "longitude": "-90.10625362222925",
    "latitude": "29.981389207009062",
    "geocoded_column": {
      "latitude": "29.981389207009062",
      "longitude": "-90.10625362222925"
    }
  },
  {
    "service_request": "2022-895398",
    "request_type": "Trash/Recycling",
    "request_reason": "Return Trash Cart",
    "date_created": "2022-06-28T16:29:21.000",
    "date_modified": "2022-06-28T16:29:21.000",
    "request_status": "Pending",
    "responsible_agency": "Department of Sanitation",
    "final_address": "1342 Terry St",
    "address_councildis": "C",
    "status": "Assigned to Contractor",
    "contractor": "Richards Disposal",
    "rowid": "895398",
    "final_x": "3697012.64343",
    "final_y": "526219.554942",
    "longitude": "-90.01927918606488",
    "latitude": "29.94044119296276",
    "geocoded_column": {
      "latitude": "29.94044119296276",
      "longitude": "-90.01927918606488"
    }
  },
  {
    "service_request": "2022-895395",
    "request_type": "Trash/Recycling",
    "request_reason": "Repair Recycling Cart",
    "date_created": "2022-06-28T16:23:54.000",
    "date_modified": "2022-06-28T16:23:55.000",
    "request_status": "Pending",
    "responsible_agency": "Department of Sanitation",
    "final_address": "932 N Rocheblave St",
    "address_councildis": "D",
    "status": "Pending",
    "rowid": "895395",
    "final_x": "3678147.60782",
    "final_y": "537097.181064",
    "longitude": "-90.07846310766809",
    "latitude": "29.970932399269138",
    "geocoded_column": {
      "latitude": "29.970932399269138",
      "longitude": "-90.07846310766809"
    }
  },
  {
    "service_request": "2022-895394",
    "request_type": "Roads/Drainage",
    "request_reason": "Street Subsidence (Sinking)",
    "date_created": "2022-06-28T16:23:15.000",
    "date_modified": "2022-06-28T16:23:16.000",
    "request_status": "Pending",
    "responsible_agency": "Department of Public Works",
    "final_address": "CANAL ST & S GALVEZ ST",
    "address_councildis": "B",
    "status": "Pending",
    "rowid": "895394",
    "final_x": "3676994.9",
    "final_y": "533820.38",
    "longitude": "-90.0822165030091",
    "latitude": "29.961956970183454",
    "geocoded_column": {
      "latitude": "29.961956970183454",
      "longitude": "-90.0822165030091"
    }
  },
  {
    "service_request": "2022-895393",
    "request_type": "Trash/Recycling",
    "request_reason": "Request a Large Item Pick Up",
    "date_created": "2022-06-28T16:22:13.000",
    "date_modified": "2022-06-28T16:22:14.000",
    "request_status": "Pending",
    "responsible_agency": "Department of Sanitation",
    "final_address": "3138 Hudson Pl, New Orleans, Louisiana, 70131",
    "address_councildis": "C",
    "status": "Assigned to Contractor",
    "contractor": "Richards Disposal",
    "rowid": "895393",
    "final_x": "3702991.71818",
    "final_y": "519111.303479",
    "longitude": "-90.00066341805007",
    "latitude": "29.920706082952442",
    "geocoded_column": {
      "latitude": "29.920706082952442",
      "longitude": "-90.00066341805007"
    }
  },
  {
    "service_request": "2022-895392",
    "request_type": "Abandoned Vehicles",
    "request_reason": "Abandoned/Junk Vehicles",
    "date_created": "2022-06-28T16:21:30.000",
    "date_modified": "2022-06-28T16:21:30.000",
    "request_status": "Pending",
    "responsible_agency": "Department of Public Works",
    "final_address": "101 Marais St",
    "address_councildis": "C",
    "status": "Pending",
    "rowid": "895392",
    "final_x": "3679246.20955",
    "final_y": "532298.100483",
    "longitude": "-90.0751600017942",
    "latitude": "29.95770343444135",
    "geocoded_column": {
      "latitude": "29.95770343444135",
      "longitude": "-90.0751600017942"
    }
  },
  {
    "service_request": "2022-895391",
    "request_type": "Property Maintenance",
    "request_reason": "Property Maintenance",
    "date_created": "2022-06-28T16:20:40.000",
    "date_modified": "2022-06-28T16:20:40.000",
    "request_status": "Pending",
    "responsible_agency": "Department of Code Enforcement",
    "final_address": "2329 Alvar St",
    "address_councildis": "D",
    "status": "Pending",
    "rowid": "895391",
    "final_x": "3692735.11337",
    "final_y": "540177.917835",
    "longitude": "-90.03228361068493",
    "latitude": "29.978955992458",
    "geocoded_column": {
      "latitude": "29.978955992458",
      "longitude": "-90.03228361068493"
    }
  },
  {
    "service_request": "2022-895390",
    "request_type": "Trash/Recycling",
    "request_reason": "Missed Trash Pick-Up",
    "date_created": "2022-06-28T16:12:49.000",
    "date_modified": "2022-06-28T16:12:50.000",
    "request_status": "Pending",
    "responsible_agency": "Department of Sanitation",
    "final_address": "306 S Clark St",
    "address_councildis": "B",
    "status": "Assigned to Contractor",
    "contractor": "Richards Disposal",
    "rowid": "895390",
    "final_x": "3672364.3931",
    "final_y": "536276.611527",
    "longitude": "-90.09675524680925",
    "latitude": "29.968848992027976",
    "geocoded_column": {
      "latitude": "29.968848992027976",
      "longitude": "-90.09675524680925"
    }
  },
  {
    "service_request": "2022-895389",
    "request_type": "Trash/Recycling",
    "request_reason": "Order Trash Cart",
    "date_created": "2022-06-28T16:12:31.000",
    "date_modified": "2022-06-28T16:13:03.000",
    "request_status": "Pending",
    "responsible_agency": "Department of Sanitation",
    "final_address": "2615 Loyola Ave",
    "address_councildis": "B",
    "status": "Assigned to Contractor",
    "contractor": "Richards Disposal",
    "rowid": "895389",
    "final_x": "3675122.87214",
    "final_y": "524611.26214",
    "longitude": "-90.0884440309981",
    "latitude": "29.936691019589727",
    "geocoded_column": {
      "latitude": "29.936691019589727",
      "longitude": "-90.0884440309981"
    }
  },
  {
    "service_request": "2022-895388",
    "request_type": "Trash/Recycling",
    "request_reason": "Missed Trash Pick-Up",
    "date_created": "2022-06-28T16:06:32.000",
    "date_modified": "2022-06-28T16:06:33.000",
    "request_status": "Pending",
    "responsible_agency": "Department of Sanitation",
    "final_address": "2610 N Rampart St",
    "address_councildis": "C",
    "status": "Assigned to Contractor",
    "contractor": "Metro Disposal",
    "rowid": "895388",
    "final_x": "3687102.10722",
    "final_y": "535979.242695",
    "longitude": "-90.0502232520365",
    "latitude": "29.967585774481286",
    "geocoded_column": {
      "latitude": "29.967585774481286",
      "longitude": "-90.0502232520365"
    }
  },
  {
    "service_request": "2022-895386",
    "request_type": "Property Maintenance",
    "request_reason": "Property Maintenance",
    "date_created": "2022-06-28T16:01:09.000",
    "date_modified": "2022-06-28T16:01:09.000",
    "request_status": "Pending",
    "responsible_agency": "Department of Code Enforcement",
    "final_address": "3200 Tulane Ave",
    "address_councildis": "B",
    "status": "Pending",
    "rowid": "895386",
    "final_x": "3672536.10241",
    "final_y": "534535.061189",
    "longitude": "-90.09627235477807",
    "latitude": "29.96405521718449",
    "geocoded_column": {
      "latitude": "29.96405521718449",
      "longitude": "-90.09627235477807"
    }
  },
  {
    "service_request": "2022-895385",
    "request_type": "Trash/Recycling",
    "request_reason": "Dead Animal Pick Up",
    "date_created": "2022-06-28T16:00:29.000",
    "date_modified": "2022-06-28T16:00:30.000",
    "request_status": "Pending",
    "responsible_agency": "Department of Sanitation",
    "final_address": "5101 Pauline Dr",
    "address_councildis": "D",
    "status": "Assigned to Contractor",
    "contractor": "Metro Disposal",
    "rowid": "895385",
    "final_x": "3692615.35357",
    "final_y": "552858.496919",
    "longitude": "-90.03220707935954",
    "latitude": "30.013826695778313",
    "geocoded_column": {
      "latitude": "30.013826695778313",
      "longitude": "-90.03220707935954"
    }
  },
  {
    "service_request": "2022-895384",
    "request_type": "Traffic Signals/Signs/Striping/Streetlights",
    "request_reason": "Street Light Outage/Malfunction",
    "date_created": "2022-06-28T15:56:14.000",
    "date_modified": "2022-06-28T15:56:15.000",
    "request_status": "Pending",
    "responsible_agency": "Department of Public Works",
    "final_address": "3758 Preston Pl",
    "address_councildis": "C",
    "status": "Pending",
    "contractor": "Royal Engineering",
    "rowid": "895384",
    "final_x": "3708304.51345",
    "final_y": "517151.567861",
    "longitude": "-89.98396636992244",
    "latitude": "29.91514652050262",
    "geocoded_column": {
      "latitude": "29.91514652050262",
      "longitude": "-89.98396636992244"
    }
  },
  {
    "service_request": "2022-895383",
    "request_type": "Abandoned Vehicles",
    "request_reason": "Abandoned/Junk Vehicles",
    "date_created": "2022-06-28T15:51:21.000",
    "date_modified": "2022-06-28T15:51:21.000",
    "request_status": "Pending",
    "responsible_agency": "Department of Public Works",
    "final_address": "1724 Old Prieur St",
    "address_councildis": "D",
    "status": "Pending",
    "rowid": "895383",
    "final_x": "3681949.10645",
    "final_y": "539150.203338",
    "longitude": "-90.06638580702793",
    "latitude": "29.976462477155486",
    "geocoded_column": {
      "latitude": "29.976462477155486",
      "longitude": "-90.06638580702793"
    }
  },
  {
    "service_request": "2022-895382",
    "request_type": "Safety & Permits",
    "request_reason": "Construction permit",
    "date_created": "2022-06-28T15:49:06.000",
    "date_modified": "2022-06-28T15:49:06.000",
    "request_status": "Pending",
    "responsible_agency": "Department of Code Enforcement",
    "final_address": "2223 Franklin Ave",
    "address_councildis": "D",
    "status": "Pending",
    "rowid": "895382",
    "final_x": "3687669.14044",
    "final_y": "540782.706187",
    "longitude": "-90.0482624264193",
    "latitude": "29.980776138733003",
    "geocoded_column": {
      "latitude": "29.980776138733003",
      "longitude": "-90.0482624264193"
    }
  },
  {
    "service_request": "2022-895381",
    "request_type": "Trash/Recycling",
    "request_reason": "MIssed Recycling Pick-Up",
    "date_created": "2022-06-28T15:48:43.000",
    "date_modified": "2022-06-28T15:48:56.000",
    "request_status": "Pending",
    "responsible_agency": "Department of Sanitation",
    "final_address": "4315 State Street Dr",
    "address_councildis": "B",
    "status": "Assigned to Contractor",
    "contractor": "Richards Disposal",
    "rowid": "895381",
    "final_x": "3668566.84167",
    "final_y": "531273.914114",
    "longitude": "-90.10891701229157",
    "latitude": "29.955205372109024",
    "geocoded_column": {
      "latitude": "29.955205372109024",
      "longitude": "-90.10891701229157"
    }
  },
  {
    "service_request": "2022-895380",
    "request_type": "Trash/Recycling",
    "request_reason": "Missed Trash Pick-Up",
    "date_created": "2022-06-28T15:48:14.000",
    "date_modified": "2022-06-28T15:48:15.000",
    "request_status": "Pending",
    "responsible_agency": "Department of Sanitation",
    "final_address": "4315 State Street Dr",
    "address_councildis": "B",
    "status": "Assigned to Contractor",
    "contractor": "Richards Disposal",
    "rowid": "895380",
    "final_x": "3668566.84167",
    "final_y": "531273.914114",
    "longitude": "-90.10891701229157",
    "latitude": "29.955205372109024",
    "geocoded_column": {
      "latitude": "29.955205372109024",
      "longitude": "-90.10891701229157"
    }
  },
  {
    "service_request": "2022-895379",
    "request_type": "Roads/Drainage",
    "request_reason": "Debris in Roadway",
    "date_created": "2022-06-28T15:44:55.000",
    "date_modified": "2022-06-28T15:44:55.000",
    "request_status": "Pending",
    "responsible_agency": "Department of Public Works",
    "final_address": "4301 Baudin St",
    "address_councildis": "A",
    "status": "Pending",
    "rowid": "895379",
    "final_x": "3669309.05012",
    "final_y": "537726.148552",
    "longitude": "-90.10635522046991",
    "latitude": "29.972925043761933",
    "geocoded_column": {
      "latitude": "29.972925043761933",
      "longitude": "-90.10635522046991"
    }
  },
  {
    "service_request": "2022-895378",
    "request_type": "Trash/Recycling",
    "request_reason": "Replace Trash Cart",
    "date_created": "2022-06-28T15:44:08.000",
    "date_modified": "2022-06-28T15:44:09.000",
    "request_status": "Pending",
    "responsible_agency": "Department of Sanitation",
    "final_address": "2630 Cleveland Ave",
    "address_councildis": "B",
    "status": "Assigned to Contractor",
    "contractor": "Richards Disposal",
    "rowid": "895378",
    "final_x": "3675309.97358",
    "final_y": "534545.531589",
    "longitude": "-90.08751234738808",
    "latitude": "29.96400137163148",
    "geocoded_column": {
      "latitude": "29.96400137163148",
      "longitude": "-90.08751234738808"
    }
  },
  {
    "service_request": "2022-895377",
    "request_type": "Trash/Recycling",
    "request_reason": "MIssed Recycling Pick-Up",
    "date_created": "2022-06-28T15:41:55.000",
    "date_modified": "2022-06-28T15:41:56.000",
    "request_status": "Pending",
    "responsible_agency": "Department of Sanitation",
    "final_address": "2809 St Charles Ave",
    "address_councildis": "B",
    "status": "Assigned to Contractor",
    "contractor": "Richards Disposal",
    "rowid": "895377",
    "final_x": "3675795.02344",
    "final_y": "522531.79001",
    "longitude": "-90.08639345918574",
    "latitude": "29.93095305294322",
    "geocoded_column": {
      "latitude": "29.93095305294322",
      "longitude": "-90.08639345918574"
    }
  },
  {
    "service_request": "2022-895376",
    "request_type": "Abandoned Vehicles",
    "request_reason": "Abandoned/Junk Vehicles",
    "date_created": "2022-06-28T15:38:12.000",
    "date_modified": "2022-06-28T15:38:13.000",
    "request_status": "Pending",
    "responsible_agency": "Department of Public Works",
    "final_address": "ALVAR ST & N DERBIGNY ST",
    "address_councildis": "D",
    "status": "Pending",
    "rowid": "895376",
    "final_x": "3692049.0",
    "final_y": "537627.48",
    "longitude": "-90.03454191543885",
    "latitude": "29.971964599316028",
    "geocoded_column": {
      "latitude": "29.971964599316028",
      "longitude": "-90.03454191543885"
    }
  },
  {
    "service_request": "2022-895375",
    "request_type": "Property Maintenance",
    "request_reason": "Property Maintenance",
    "date_created": "2022-06-28T15:38:01.000",
    "date_modified": "2022-06-28T15:38:01.000",
    "request_status": "Pending",
    "responsible_agency": "Department of Code Enforcement",
    "final_address": "4338 Banks St",
    "address_councildis": "A",
    "status": "Pending",
    "rowid": "895375",
    "final_x": "3669257.57633",
    "final_y": "538133.189705",
    "longitude": "-90.10650402127477",
    "latitude": "29.974045785633553",
    "geocoded_column": {
      "latitude": "29.974045785633553",
      "longitude": "-90.10650402127477"
    }
  },
  {
    "service_request": "2022-895374",
    "request_type": "Trash/Recycling",
    "request_reason": "Request a Large Item Pick Up",
    "date_created": "2022-06-28T15:34:32.000",
    "date_modified": "2022-06-28T15:34:33.000",
    "request_status": "Pending",
    "responsible_agency": "Department of Sanitation",
    "final_address": "BERKLEY DR & SULLEN PL",
    "address_councildis": "C",
    "status": "Assigned to Contractor",
    "contractor": "Richards Disposal",
    "rowid": "895374",
    "final_x": "3707685.7",
    "final_y": "518075.28",
    "longitude": "-89.98588526734164",
    "latitude": "29.917706431137237",
    "geocoded_column": {
      "latitude": "29.917706431137237",
      "longitude": "-89.98588526734164"
    }
  },
  {
    "service_request": "2022-895373",
    "request_type": "Abandoned Vehicles",
    "request_reason": "Vehicle Blocking Your Driveway",
    "date_created": "2022-06-28T15:31:52.000",
    "date_modified": "2022-06-28T15:31:52.000",
    "request_status": "Pending",
    "responsible_agency": "Department of Public Works",
    "final_address": "5529 Camp St",
    "address_councildis": "A",
    "status": "Pending",
    "rowid": "895373",
    "final_x": "3666287.38375",
    "final_y": "519376.286583",
    "longitude": "-90.1165136819626",
    "latitude": "29.922557487079423",
    "geocoded_column": {
      "latitude": "29.922557487079423",
      "longitude": "-90.1165136819626"
    }
  },
  {
    "service_request": "2022-895372",
    "request_type": "Trash/Recycling",
    "request_reason": "Request a Large Item Pick Up",
    "date_created": "2022-06-28T15:30:59.000",
    "date_modified": "2022-06-28T15:31:00.000",
    "request_status": "Pending",
    "responsible_agency": "Department of Sanitation",
    "final_address": "4323 Palmyra St, New Orleans, Louisiana, 70119",
    "status": "Assigned to Contractor",
    "rowid": "895372",
    "longitude": "0.0",
    "latitude": "0.0",
    "geocoded_column": {
      "latitude": "0.0",
      "longitude": "0.0"
    }
  },
  {
    "service_request": "2022-895371",
    "request_type": "Trash/Recycling",
    "request_reason": "Missed Trash Pick-Up",
    "date_created": "2022-06-28T15:27:06.000",
    "date_modified": "2022-06-28T15:27:07.000",
    "request_status": "Pending",
    "responsible_agency": "Department of Sanitation",
    "final_address": "7520 W Sandy Cove Dr",
    "address_councildis": "E",
    "status": "Assigned to Contractor",
    "contractor": "Metro Disposal",
    "rowid": "895371",
    "final_x": "3715488.68344",
    "final_y": "569174.300518",
    "longitude": "-89.95932178538352",
    "latitude": "30.057954593928958",
    "geocoded_column": {
      "latitude": "30.057954593928958",
      "longitude": "-89.95932178538352"
    }
  },
  {
    "service_request": "2022-895370",
    "request_type": "Trash/Recycling",
    "request_reason": "Request a Large Item Pick Up",
    "date_created": "2022-06-28T15:22:36.000",
    "date_modified": "2022-06-28T15:22:37.000",
    "request_status": "Pending",
    "responsible_agency": "Department of Sanitation",
    "final_address": "1254 Granada Dr",
    "address_councildis": "D",
    "status": "Assigned to Contractor",
    "contractor": "Metro Disposal",
    "rowid": "895370",
    "final_x": "3677158.10146",
    "final_y": "550426.34338",
    "longitude": "-90.08112806979075",
    "latitude": "30.00761270436358",
    "geocoded_column": {
      "latitude": "30.00761270436358",
      "longitude": "-90.08112806979075"
    }
  },
  {
    "service_request": "2022-895369",
    "request_type": "Trash/Recycling",
    "request_reason": "Repair Trash Cart",
    "date_created": "2022-06-28T15:19:50.000",
    "date_modified": "2022-06-28T15:19:51.000",
    "request_status": "Pending",
    "responsible_agency": "Department of Sanitation",
    "final_address": "2734 Amelia St",
    "address_councildis": "B",
    "status": "Assigned to Contractor",
    "contractor": "Richards Disposal",
    "rowid": "895369",
    "final_x": "3672093.50401",
    "final_y": "525206.108541",
    "longitude": "-90.09798765641365",
    "latitude": "29.938416804582097",
    "geocoded_column": {
      "latitude": "29.938416804582097",
      "longitude": "-90.09798765641365"
    }
  },
  {
    "service_request": "2022-895368",
    "request_type": "Roads/Drainage",
    "request_reason": "Street Subsidence (Sinking)",
    "date_created": "2022-06-28T15:17:19.000",
    "date_modified": "2022-06-28T15:17:20.000",
    "request_status": "Pending",
    "responsible_agency": "Department of Public Works",
    "final_address": "1628 Pratt Dr",
    "address_councildis": "D",
    "status": "Pending",
    "rowid": "895368",
    "final_x": "3679670.31887",
    "final_y": "548511.995282",
    "longitude": "-90.07325775735524",
    "latitude": "30.002273203081312",
    "geocoded_column": {
      "latitude": "30.002273203081312",
      "longitude": "-90.07325775735524"
    }
  },
  {
    "service_request": "2022-895367",
    "request_type": "Trash/Recycling",
    "request_reason": "Illegal Dumping",
    "date_created": "2022-06-28T15:16:35.000",
    "date_modified": "2022-06-28T15:17:55.000",
    "request_status": "Pending",
    "responsible_agency": "Department of Sanitation",
    "final_address": "104 Brunswick Ct",
    "address_councildis": "C",
    "status": "Pending",
    "rowid": "895367",
    "final_x": "3705728.60164",
    "final_y": "517179.764533",
    "longitude": "-89.99209577540911",
    "latitude": "29.915307210191603",
    "geocoded_column": {
      "latitude": "29.915307210191603",
      "longitude": "-89.99209577540911"
    }
  },
  {
    "service_request": "2022-895366",
    "request_type": "Property Maintenance",
    "request_reason": "Property Maintenance",
    "date_created": "2022-06-28T15:16:06.000",
    "date_modified": "2022-06-28T15:16:06.000",
    "request_status": "Pending",
    "responsible_agency": "Department of Code Enforcement",
    "final_address": "1711 Audubon St",
    "address_councildis": "A",
    "status": "Pending",
    "rowid": "895366",
    "final_x": "3665508.98215",
    "final_y": "527875.705279",
    "longitude": "-90.1186863893367",
    "latitude": "29.945950891728756",
    "geocoded_column": {
      "latitude": "29.945950891728756",
      "longitude": "-90.1186863893367"
    }
  },
  {
    "service_request": "2022-895365",
    "request_type": "Trash/Recycling",
    "request_reason": "Request a Large Item Pick Up",
    "date_created": "2022-06-28T15:14:14.000",
    "date_modified": "2022-06-28T15:14:15.000",
    "request_status": "Pending",
    "responsible_agency": "Department of Sanitation",
    "final_address": "2664 Eton St",
    "address_councildis": "C",
    "status": "Assigned to Contractor",
    "contractor": "Richards Disposal",
    "rowid": "895365",
    "final_x": "3704018.48574",
    "final_y": "520920.572345",
    "longitude": "-89.99735582397109",
    "latitude": "29.92564806946015",
    "geocoded_column": {
      "latitude": "29.92564806946015",
      "longitude": "-89.99735582397109"
    }
  },
  {
    "service_request": "2022-895364",
    "request_type": "Property Maintenance",
    "request_reason": "Property Maintenance",
    "date_created": "2022-06-28T15:13:39.000",
    "date_modified": "2022-06-28T15:13:40.000",
    "request_status": "Pending",
    "responsible_agency": "Department of Code Enforcement",
    "final_address": "2011 Lauradale Dr",
    "address_councildis": "C",
    "status": "Pending",
    "rowid": "895364",
    "final_x": "3692662.45609",
    "final_y": "523854.193851",
    "longitude": "-90.0330981232581",
    "latitude": "29.934073716948518",
    "geocoded_column": {
      "latitude": "29.934073716948518",
      "longitude": "-90.0330981232581"
    }
  },
  {
    "service_request": "2022-895363",
    "request_type": "Abandoned Vehicles",
    "request_reason": "Abandoned/Junk Vehicles",
    "date_created": "2022-06-28T15:08:42.000",
    "date_modified": "2022-06-28T15:08:42.000",
    "request_status": "Pending",
    "responsible_agency": "Department of Public Works",
    "final_address": "7790 Hayne Blvd",
    "address_councildis": "E",
    "status": "Pending",
    "rowid": "895363",
    "final_x": "3700932.72337",
    "final_y": "562339.892831",
    "longitude": "-90.00558151813395",
    "latitude": "30.039634569624003",
    "geocoded_column": {
      "latitude": "30.039634569624003",
      "longitude": "-90.00558151813395"
    }
  },
  {
    "service_request": "2022-895362",
    "request_type": "Trash/Recycling",
    "request_reason": "Request a Large Item Pick Up",
    "date_created": "2022-06-28T15:07:20.000",
    "date_modified": "2022-06-28T16:44:34.000",
    "request_status": "Pending",
    "responsible_agency": "Department of Sanitation",
    "final_address": "New Orleans,LA",
    "address_councildis": "A",
    "status": "Assigned to Contractor",
    "contractor": "Richards Disposal",
    "rowid": "895362",
    "final_x": "3663346.54688",
    "final_y": "526592.984766",
    "longitude": "-90.12555664938164",
    "latitude": "29.94248667396038",
    "geocoded_column": {
      "latitude": "29.94248667396038",
      "longitude": "-90.12555664938164"
    }
  },
  {
    "service_request": "2022-895361",
    "request_type": "Property Maintenance",
    "request_reason": "Property Maintenance",
    "date_created": "2022-06-28T15:04:09.000",
    "date_modified": "2022-06-28T15:06:34.000",
    "request_status": "Pending",
    "responsible_agency": "Department of Code Enforcement",
    "final_address": "DINKINS ST & TRAPIER AVE",
    "address_councildis": "E",
    "status": "Pending",
    "rowid": "895361",
    "final_x": "3706196.9",
    "final_y": "564258.88",
    "longitude": "-89.98887410034702",
    "latitude": "30.044742247867433",
    "geocoded_column": {
      "latitude": "30.044742247867433",
      "longitude": "-89.98887410034702"
    }
  },
  {
    "service_request": "2022-895360",
    "request_type": "Trash/Recycling",
    "request_reason": "Missed Trash Pick-Up",
    "date_created": "2022-06-28T15:03:48.000",
    "date_modified": "2022-06-28T15:03:49.000",
    "request_status": "Pending",
    "responsible_agency": "Department of Sanitation",
    "final_address": "4401 St Roch Ave",
    "address_councildis": "D",
    "status": "Assigned to Contractor",
    "contractor": "Metro Disposal",
    "rowid": "895360",
    "final_x": "3685536.98601",
    "final_y": "548927.187923",
    "longitude": "-90.0547096471598",
    "latitude": "30.00323613364496",
    "geocoded_column": {
      "latitude": "30.00323613364496",
      "longitude": "-90.0547096471598"
    }
  },
  {
    "service_request": "2022-895359",
    "request_type": "Abandoned Vehicles",
    "request_reason": "Abandoned/Junk Vehicles",
    "date_created": "2022-06-28T14:58:39.000",
    "date_modified": "2022-06-28T14:58:39.000",
    "request_status": "Pending",
    "responsible_agency": "Department of Public Works",
    "final_address": "3351 Kabel Dr",
    "address_councildis": "C",
    "status": "Pending",
    "rowid": "895359",
    "final_x": "3700492.92356",
    "final_y": "518836.762551",
    "longitude": "-90.0085609291048",
    "latitude": "29.92003086445414",
    "geocoded_column": {
      "latitude": "29.92003086445414",
      "longitude": "-90.0085609291048"
    }
  },
  {
    "service_request": "2022-895358",
    "request_type": "Roads/Drainage",
    "request_reason": "Catch Basin - Broken/Damage",
    "date_created": "2022-06-28T14:58:21.000",
    "date_modified": "2022-06-28T14:58:21.000",
    "request_status": "Pending",
    "responsible_agency": "Department of Public Works",
    "final_address": "4912 Burgundy St",
    "address_councildis": "E",
    "status": "Pending",
    "rowid": "895358",
    "final_x": "3695286.40714",
    "final_y": "533578.540805",
    "longitude": "-90.02446377809854",
    "latitude": "29.960730156988788",
    "geocoded_column": {
      "latitude": "29.960730156988788",
      "longitude": "-90.02446377809854"
    }
  },
  {
    "service_request": "2022-895357",
    "request_type": "Roads/Drainage",
    "request_reason": "Pothole",
    "date_created": "2022-06-28T14:53:58.000",
    "date_modified": "2022-06-28T14:53:59.000",
    "request_status": "Pending",
    "responsible_agency": "Department of Public Works",
    "final_address": "LIVINGSTON ST & OLEANDER ST",
    "address_councildis": "A",
    "status": "Pending",
    "rowid": "895357",
    "final_x": "3663140.1",
    "final_y": "536974.28",
    "longitude": "-90.1258630618119",
    "latitude": "29.971037848070615",
    "geocoded_column": {
      "latitude": "29.971037848070615",
      "longitude": "-90.1258630618119"
    }
  },
  {
    "service_request": "2022-895356",
    "request_type": "Abandoned Vehicles",
    "request_reason": "Abandoned/Junk Vehicles",
    "date_created": "2022-06-28T14:53:45.000",
    "date_modified": "2022-06-28T14:53:45.000",
    "request_status": "Pending",
    "responsible_agency": "Department of Public Works",
    "final_address": "3351 Kabel Dr",
    "address_councildis": "C",
    "status": "Pending",
    "rowid": "895356",
    "final_x": "3700492.92356",
    "final_y": "518836.762551",
    "longitude": "-90.0085609291048",
    "latitude": "29.92003086445414",
    "geocoded_column": {
      "latitude": "29.92003086445414",
      "longitude": "-90.0085609291048"
    }
  },
  {
    "service_request": "2022-895355",
    "request_type": "Trash/Recycling",
    "request_reason": "Replace Trash Cart",
    "date_created": "2022-06-28T14:51:36.000",
    "date_modified": "2022-06-28T14:51:36.000",
    "request_status": "Pending",
    "responsible_agency": "Department of Sanitation",
    "final_address": "3131 Preston Pl",
    "address_councildis": "C",
    "status": "Assigned to Contractor",
    "contractor": "Richards Disposal",
    "rowid": "895355",
    "final_x": "3708533.11947",
    "final_y": "518662.288247",
    "longitude": "-89.98318862709078",
    "latitude": "29.91929307083374",
    "geocoded_column": {
      "latitude": "29.91929307083374",
      "longitude": "-89.98318862709078"
    }
  },
  {
    "service_request": "2022-895354",
    "request_type": "Traffic Signals/Signs/Striping/Streetlights",
    "request_reason": "Street Light Knocked Down/Leaning",
    "date_created": "2022-06-28T14:44:36.000",
    "date_modified": "2022-06-28T14:44:36.000",
    "request_status": "Pending",
    "responsible_agency": "Department of Public Works",
    "final_address": "MAGAZINE ST & ST JOSEPH ST",
    "address_councildis": "B",
    "status": "Pending",
    "contractor": "Royal Engineering",
    "rowid": "895354",
    "final_x": "3681047.5",
    "final_y": "527271.48",
    "longitude": "-90.06964710292928",
    "latitude": "29.943827413603504",
    "geocoded_column": {
      "latitude": "29.943827413603504",
      "longitude": "-90.06964710292928"
    }
  },
  {
    "service_request": "2022-895352",
    "request_type": "Trash/Recycling",
    "request_reason": "Request a Large Item Pick Up",
    "date_created": "2022-06-28T14:42:29.000",
    "date_modified": "2022-06-28T14:42:29.000",
    "request_status": "Pending",
    "responsible_agency": "Department of Sanitation",
    "final_address": "3014 Copernicus St",
    "address_councildis": "C",
    "status": "Assigned to Contractor",
    "contractor": "Richards Disposal",
    "rowid": "895352",
    "final_x": "3695233.69027",
    "final_y": "524215.829884",
    "longitude": "-90.02496783817737",
    "latitude": "29.93498761481423",
    "geocoded_column": {
      "latitude": "29.93498761481423",
      "longitude": "-90.02496783817737"
    }
  },
  {
    "service_request": "2022-895351",
    "request_type": "Roads/Drainage",
    "request_reason": "Street Subsidence (Sinking)",
    "date_created": "2022-06-28T14:41:49.000",
    "date_modified": "2022-06-28T14:41:49.000",
    "request_status": "Pending",
    "responsible_agency": "Department of Public Works",
    "final_address": "112 Royal St",
    "address_councildis": "C",
    "status": "Pending",
    "rowid": "895351",
    "final_x": "3681319.04252",
    "final_y": "530808.106562",
    "longitude": "-90.06866652989247",
    "latitude": "29.953543709922613",
    "geocoded_column": {
      "latitude": "29.953543709922613",
      "longitude": "-90.06866652989247"
    }
  },
  {
    "service_request": "2022-895350",
    "request_type": "Trash/Recycling",
    "request_reason": "Request a Large Item Pick Up",
    "date_created": "2022-06-28T14:41:27.000",
    "date_modified": "2022-06-28T14:41:28.000",
    "case_close_date": "2021-08-18T19:00:00.000",
    "request_status": "Pending",
    "responsible_agency": "Department of Sanitation",
    "final_address": "1938 Pace Blvd",
    "address_councildis": "C",
    "status": "Assigned to Contractor",
    "contractor": "Richards Disposal",
    "rowid": "895350",
    "final_x": "3694508.89763",
    "final_y": "523328.926715",
    "longitude": "-90.02728790546078",
    "latitude": "29.932571670681337",
    "geocoded_column": {
      "latitude": "29.932571670681337",
      "longitude": "-90.02728790546078"
    }
  },
  {
    "service_request": "2022-895349",
    "request_type": "Trash/Recycling",
    "request_reason": "Missed Trash Pick-Up",
    "date_created": "2022-06-28T14:41:10.000",
    "date_modified": "2022-06-28T14:41:11.000",
    "request_status": "Pending",
    "responsible_agency": "Department of Sanitation",
    "final_address": "6996 Pinebrook Dr, New Orleans, Louisiana, 70128",
    "address_councildis": "E",
    "status": "Assigned to Contractor",
    "contractor": "Metro Disposal",
    "rowid": "895349",
    "final_x": "3719702.37042",
    "final_y": "569458.386598",
    "longitude": "-89.94599210436107",
    "latitude": "30.058596107938545",
    "geocoded_column": {
      "latitude": "30.058596107938545",
      "longitude": "-89.94599210436107"
    }
  },
  {
    "service_request": "2022-895348",
    "request_type": "Property Maintenance",
    "request_reason": "Property Maintenance",
    "date_created": "2022-06-28T14:40:19.000",
    "date_modified": "2022-06-28T14:40:20.000",
    "request_status": "Pending",
    "responsible_agency": "Department of Code Enforcement",
    "final_address": "1301 Pelican Ave",
    "address_councildis": "C",
    "status": "Pending",
    "rowid": "895348",
    "final_x": "3689654.25878",
    "final_y": "530639.083522",
    "longitude": "-90.04235353033296",
    "latitude": "29.95282336489632",
    "geocoded_column": {
      "latitude": "29.95282336489632",
      "longitude": "-90.04235353033296"
    }
  },
  {
    "service_request": "2022-895347",
    "request_type": "Abandoned Vehicles",
    "request_reason": "Abandoned/Junk Vehicles",
    "date_created": "2022-06-28T14:39:01.000",
    "date_modified": "2022-06-28T14:39:01.000",
    "request_status": "Pending",
    "responsible_agency": "Department of Public Works",
    "final_address": "4906 Burgundy St",
    "address_councildis": "E",
    "status": "Pending",
    "rowid": "895347",
    "final_x": "3695244.3928",
    "final_y": "533588.743813",
    "longitude": "-90.02459608256262",
    "latitude": "29.960759531212037",
    "geocoded_column": {
      "latitude": "29.960759531212037",
      "longitude": "-90.02459608256262"
    }
  },
  {
    "service_request": "2022-895346",
    "request_type": "Trash/Recycling",
    "request_reason": "Replace Trash Cart",
    "date_created": "2022-06-28T14:38:32.000",
    "date_modified": "2022-06-28T14:38:33.000",
    "request_status": "Pending",
    "responsible_agency": "Department of Sanitation",
    "final_address": "3997 Dumaine St",
    "address_councildis": "A",
    "status": "Assigned to Contractor",
    "contractor": "Richards Disposal",
    "rowid": "895346",
    "final_x": "3673433.41076",
    "final_y": "540409.600779",
    "longitude": "-90.09323795742884",
    "latitude": "29.980181542583807",
    "geocoded_column": {
      "latitude": "29.980181542583807",
      "longitude": "-90.09323795742884"
    }
  },
  {
    "service_request": "2022-895345",
    "request_type": "Safety & Permits",
    "request_reason": "Licenses & Permits",
    "date_created": "2022-06-28T14:38:02.000",
    "date_modified": "2022-06-28T14:38:02.000",
    "request_status": "Pending",
    "responsible_agency": "Safety and Permits",
    "final_address": "3332 Gentilly Blvd",
    "address_councildis": "D",
    "status": "Pending",
    "rowid": "895345",
    "final_x": "3684860.6422",
    "final_y": "548156.149842",
    "longitude": "-90.05687345078192",
    "latitude": "30.001136791824806",
    "geocoded_column": {
      "latitude": "30.001136791824806",
      "longitude": "-90.05687345078192"
    }
  },
  {
    "service_request": "2022-895344",
    "request_type": "Trash/Recycling",
    "request_reason": "Request a Large Item Pick Up",
    "date_created": "2022-06-28T14:35:24.000",
    "date_modified": "2022-06-28T14:35:25.000",
    "request_status": "Pending",
    "responsible_agency": "Department of Sanitation",
    "final_address": "825 Chapelle St",
    "address_councildis": "A",
    "status": "Assigned to Contractor",
    "contractor": "Metro Disposal",
    "rowid": "895344",
    "final_x": "3669893.98535",
    "final_y": "552640.832214",
    "longitude": "-90.10400252184554",
    "latitude": "30.013918047176645",
    "geocoded_column": {
      "latitude": "30.013918047176645",
      "longitude": "-90.10400252184554"
    }
  },
  {
    "service_request": "2022-895343",
    "request_type": "Trash/Recycling",
    "request_reason": "Request a Large Item Pick Up",
    "date_created": "2022-06-28T14:28:32.000",
    "date_modified": "2022-06-28T14:28:32.000",
    "request_status": "Pending",
    "responsible_agency": "Department of Sanitation",
    "final_address": "3821 Dauphine St",
    "address_councildis": "C",
    "status": "Assigned to Contractor",
    "contractor": "Metro Disposal",
    "rowid": "895343",
    "final_x": "3691134.53091",
    "final_y": "534285.163717",
    "longitude": "-90.03754931408736",
    "latitude": "29.962802875033482",
    "geocoded_column": {
      "latitude": "29.962802875033482",
      "longitude": "-90.03754931408736"
    }
  },
  {
    "service_request": "2022-895342",
    "request_type": "Trash/Recycling",
    "request_reason": "Replace Trash Cart",
    "date_created": "2022-06-28T14:26:02.000",
    "date_modified": "2022-06-28T14:26:04.000",
    "request_status": "Pending",
    "responsible_agency": "Department of Sanitation",
    "final_address": "2177 N Dorgenois St",
    "address_councildis": "D",
    "status": "Assigned to Contractor",
    "contractor": "Metro Disposal",
    "rowid": "895342",
    "final_x": "3684279.74965",
    "final_y": "541467.351116",
    "longitude": "-90.0589435472821",
    "latitude": "29.98276275674445",
    "geocoded_column": {
      "latitude": "29.98276275674445",
      "longitude": "-90.0589435472821"
    }
  },
  {
    "service_request": "2022-895341",
    "request_type": "Trash/Recycling",
    "request_reason": "Order Recycling Cart",
    "date_created": "2022-06-28T14:20:43.000",
    "date_modified": "2022-06-28T14:20:44.000",
    "request_status": "Pending",
    "responsible_agency": "Department of Sanitation",
    "final_address": "4701 Venus St",
    "address_councildis": "D",
    "status": "Pending",
    "rowid": "895341",
    "final_x": "3686600.94876",
    "final_y": "550327.356564",
    "longitude": "-90.05129894461602",
    "latitude": "30.007053400287518",
    "geocoded_column": {
      "latitude": "30.007053400287518",
      "longitude": "-90.05129894461602"
    }
  },
  {
    "service_request": "2022-895340",
    "request_type": "Trash/Recycling",
    "request_reason": "Replace Trash Cart",
    "date_created": "2022-06-28T14:20:01.000",
    "date_modified": "2022-06-28T14:20:02.000",
    "request_status": "Pending",
    "responsible_agency": "Department of Sanitation",
    "final_address": "2916 Palmer Ave",
    "address_councildis": "A",
    "status": "Assigned to Contractor",
    "contractor": "Richards Disposal",
    "rowid": "895340",
    "final_x": "3667001.05709",
    "final_y": "527291.372223",
    "longitude": "-90.11399502020268",
    "latitude": "29.944300589590146",
    "geocoded_column": {
      "latitude": "29.944300589590146",
      "longitude": "-90.11399502020268"
    }
  },
  {
    "service_request": "2022-895339",
    "request_type": "Abandoned Vehicles",
    "request_reason": "Abandoned/Junk Vehicles",
    "date_created": "2022-06-28T14:19:42.000",
    "date_modified": "2022-06-28T14:19:42.000",
    "request_status": "Pending",
    "responsible_agency": "Department of Public Works",
    "final_address": "8730 Green St",
    "address_councildis": "A",
    "status": "Pending",
    "rowid": "895339",
    "final_x": "3661355.03514",
    "final_y": "531249.202434",
    "longitude": "-90.13169017279509",
    "latitude": "29.955347351544425",
    "geocoded_column": {
      "latitude": "29.955347351544425",
      "longitude": "-90.13169017279509"
    }
  },
  {
    "service_request": "2022-895338",
    "request_type": "Trash/Recycling",
    "request_reason": "MIssed Recycling Pick-Up",
    "date_created": "2022-06-28T14:12:52.000",
    "date_modified": "2022-06-28T14:12:53.000",
    "request_status": "Pending",
    "responsible_agency": "Department of Sanitation",
    "final_address": "1522 Simon Bolivar Ave",
    "address_councildis": "B",
    "status": "Assigned to Contractor",
    "contractor": "Richards Disposal",
    "rowid": "895338",
    "final_x": "3677250.9261",
    "final_y": "526494.983358",
    "longitude": "-90.08166070222862",
    "latitude": "29.941806888272563",
    "geocoded_column": {
      "latitude": "29.941806888272563",
      "longitude": "-90.08166070222862"
    }
  },
  {
    "service_request": "2022-895337",
    "request_type": "Trash/Recycling",
    "request_reason": "Repair Trash Cart",
    "date_created": "2022-06-28T14:03:33.000",
    "date_modified": "2022-06-28T14:04:14.000",
    "request_status": "Pending",
    "responsible_agency": "Department of Sanitation",
    "final_address": "609 Seventh St",
    "address_councildis": "B",
    "status": "Assigned to Contractor",
    "contractor": "Richards Disposal",
    "rowid": "895337",
    "final_x": "3677351.57755",
    "final_y": "518954.459575",
    "longitude": "-90.08160299519085",
    "latitude": "29.921069887532116",
    "geocoded_column": {
      "latitude": "29.921069887532116",
      "longitude": "-90.08160299519085"
    }
  },
  {
    "service_request": "2022-895336",
    "request_type": "Abandoned Vehicles",
    "request_reason": "Abandoned/Junk Vehicles",
    "date_created": "2022-06-28T13:58:22.000",
    "date_modified": "2022-06-28T16:43:05.000",
    "request_status": "Pending",
    "responsible_agency": "Department of Public Works",
    "final_address": "New Orleans,LA",
    "address_councildis": "B",
    "rowid": "895336",
    "final_x": "3679728.90709",
    "final_y": "522247.61657",
    "longitude": "-90.07398458690284",
    "latitude": "29.930053370261756",
    "geocoded_column": {
      "latitude": "29.930053370261756",
      "longitude": "-90.07398458690284"
    }
  },
  {
    "service_request": "2022-895335",
    "request_type": "Trash/Recycling",
    "request_reason": "Missed Trash Pick-Up",
    "date_created": "2022-06-28T13:55:23.000",
    "date_modified": "2022-06-28T13:55:24.000",
    "request_status": "Pending",
    "responsible_agency": "Department of Sanitation",
    "final_address": "2624 Clara St",
    "address_councildis": "B",
    "status": "Assigned to Contractor",
    "contractor": "Richards Disposal",
    "rowid": "895335",
    "final_x": "3673942.29748",
    "final_y": "526238.740862",
    "longitude": "-90.0921155071691",
    "latitude": "29.94120126974368",
    "geocoded_column": {
      "latitude": "29.94120126974368",
      "longitude": "-90.0921155071691"
    }
  },
  {
    "service_request": "2022-895334",
    "request_type": "Trash/Recycling",
    "request_reason": "Repair Trash Cart",
    "date_created": "2022-06-28T13:50:47.000",
    "date_modified": "2022-06-28T13:50:47.000",
    "request_status": "Pending",
    "responsible_agency": "Department of Sanitation",
    "final_address": "1618 Flanders St",
    "address_councildis": "C",
    "status": "Assigned to Contractor",
    "contractor": "Richards Disposal",
    "rowid": "895334",
    "final_x": "3696732.86339",
    "final_y": "525343.221821",
    "longitude": "-90.02019419942717",
    "latitude": "29.938040399453936",
    "geocoded_column": {
      "latitude": "29.938040399453936",
      "longitude": "-90.02019419942717"
    }
  },
  {
    "service_request": "2022-895332",
    "request_type": "Trash/Recycling",
    "request_reason": "Request a Large Item Pick Up",
    "date_created": "2022-06-28T13:41:00.000",
    "date_modified": "2022-06-28T13:41:00.000",
    "request_status": "Pending",
    "responsible_agency": "Department of Sanitation",
    "final_address": "4515 Walmsley Ave",
    "address_councildis": "B",
    "status": "Assigned to Contractor",
    "contractor": "Richards Disposal",
    "rowid": "895332",
    "final_x": "3669231.56474",
    "final_y": "530341.649026",
    "longitude": "-90.10684956535319",
    "latitude": "29.952622401448103",
    "geocoded_column": {
      "latitude": "29.952622401448103",
      "longitude": "-90.10684956535319"
    }
  },
  {
    "service_request": "2022-895331",
    "request_type": "Trash/Recycling",
    "request_reason": "Order Trash Cart",
    "date_created": "2022-06-28T13:40:49.000",
    "date_modified": "2022-06-28T13:40:50.000",
    "request_status": "Pending",
    "responsible_agency": "Department of Sanitation",
    "final_address": "2725 Third St",
    "address_councildis": "B",
    "status": "Assigned to Contractor",
    "contractor": "Richards Disposal",
    "rowid": "895331",
    "final_x": "3674177.01652",
    "final_y": "526374.483262",
    "longitude": "-90.09136980882762",
    "latitude": "29.94156752356045",
    "geocoded_column": {
      "latitude": "29.94156752356045",
      "longitude": "-90.09136980882762"
    }
  },
  {
    "service_request": "2022-895330",
    "request_type": "Trash/Recycling",
    "request_reason": "Request a Large Item Pick Up",
    "date_created": "2022-06-28T13:40:37.000",
    "date_modified": "2022-06-28T13:40:38.000",
    "request_status": "Pending",
    "responsible_agency": "Department of Sanitation",
    "final_address": "1733 Robert St",
    "address_councildis": "B",
    "status": "Assigned to Contractor",
    "contractor": "Richards Disposal",
    "rowid": "895330",
    "final_x": "3668849.26471",
    "final_y": "522094.295418",
    "longitude": "-90.10833510482976",
    "latitude": "29.929956091874406",
    "geocoded_column": {
      "latitude": "29.929956091874406",
      "longitude": "-90.10833510482976"
    }
  },
  {
    "service_request": "2022-895329",
    "request_type": "Trash/Recycling",
    "request_reason": "Request a Large Item Pick Up",
    "date_created": "2022-06-28T13:40:13.000",
    "date_modified": "2022-06-28T13:40:13.000",
    "request_status": "Pending",
    "responsible_agency": "Department of Sanitation",
    "final_address": "5854 General Diaz St",
    "address_councildis": "A",
    "status": "Assigned to Contractor",
    "contractor": "Metro Disposal",
    "rowid": "895329",
    "final_x": "3669330.75898",
    "final_y": "546335.306256",
    "longitude": "-90.10599542723206",
    "latitude": "29.996596655595326",
    "geocoded_column": {
      "latitude": "29.996596655595326",
      "longitude": "-90.10599542723206"
    }
  },
  {
    "service_request": "2022-895328",
    "request_type": "Traffic Signals/Signs/Striping/Streetlights",
    "request_reason": "Traffic Sign Missing/Damaged",
    "date_created": "2022-06-28T13:37:49.000",
    "date_modified": "2022-06-28T13:37:50.000",
    "request_status": "Pending",
    "responsible_agency": "Department of Public Works",
    "final_address": "127 Carondelet St",
    "address_councildis": "B",
    "status": "Pending",
    "rowid": "895328",
    "final_x": "3680694.85199",
    "final_y": "530693.797954",
    "longitude": "-90.07064143683955",
    "latitude": "29.953248328075144",
    "geocoded_column": {
      "latitude": "29.953248328075144",
      "longitude": "-90.07064143683955"
    }
  },
  {
    "service_request": "2022-895327",
    "request_type": "Trash/Recycling",
    "request_reason": "Request a Large Item Pick Up",
    "date_created": "2022-06-28T13:37:16.000",
    "date_modified": "2022-06-28T13:37:17.000",
    "request_status": "Pending",
    "responsible_agency": "Department of Sanitation",
    "final_address": "1512 General Pershing St",
    "address_councildis": "B",
    "status": "Assigned to Contractor",
    "contractor": "Richards Disposal",
    "rowid": "895327",
    "final_x": "3671215.61991",
    "final_y": "520705.571577",
    "longitude": "-90.10091205336771",
    "latitude": "29.92606777202637",
    "geocoded_column": {
      "latitude": "29.92606777202637",
      "longitude": "-90.10091205336771"
    }
  },
  {
    "service_request": "2022-895326",
    "request_type": "Abandoned Vehicles",
    "request_reason": "Abandoned/Junk Vehicles",
    "date_created": "2022-06-28T13:36:36.000",
    "date_modified": "2022-06-28T13:36:36.000",
    "request_status": "Pending",
    "responsible_agency": "Department of Public Works",
    "final_address": "319 26th St, New Orleans, Louisiana, 70124",
    "address_councildis": "A",
    "status": "Pending",
    "rowid": "895326",
    "final_x": "3665083.55239",
    "final_y": "549983.488596",
    "longitude": "-90.11929005450872",
    "latitude": "30.006752306943117",
    "geocoded_column": {
      "latitude": "30.006752306943117",
      "longitude": "-90.11929005450872"
    }
  },
  {
    "service_request": "2022-895325",
    "request_type": "Trash/Recycling",
    "request_reason": "Illegal Dumping",
    "date_created": "2022-06-28T13:36:07.000",
    "date_modified": "2022-06-28T13:36:08.000",
    "request_status": "Pending",
    "responsible_agency": "Department of Code Enforcement",
    "final_address": "MACARTHUR BLVD & WOODLAND DR",
    "address_councildis": "C",
    "status": "Pending",
    "rowid": "895325",
    "final_x": "3705527.7",
    "final_y": "519094.38",
    "longitude": "-89.99265918208509",
    "latitude": "29.920578204929388",
    "geocoded_column": {
      "latitude": "29.920578204929388",
      "longitude": "-89.99265918208509"
    }
  },
  {
    "service_request": "2022-895324",
    "request_type": "Traffic Signals/Signs/Striping/Streetlights",
    "request_reason": "Street Light Outage/Malfunction",
    "date_created": "2022-06-28T13:33:39.000",
    "date_modified": "2022-06-28T13:33:39.000",
    "request_status": "Pending",
    "responsible_agency": "Department of Public Works",
    "final_address": "1400 BLK de Armas St",
    "address_councildis": "C",
    "status": "Pending",
    "contractor": "Royal Engineering",
    "rowid": "895324",
    "final_x": "3689916.25202",
    "final_y": "527098.345853",
    "longitude": "-90.04165230530013",
    "latitude": "29.943079432931867",
    "geocoded_column": {
      "latitude": "29.943079432931867",
      "longitude": "-90.04165230530013"
    }
  },
  {
    "service_request": "2022-895323",
    "request_type": "Trash/Recycling",
    "request_reason": "Missed Trash Pick-Up",
    "date_created": "2022-06-28T13:30:39.000",
    "date_modified": "2022-06-28T13:30:40.000",
    "request_status": "Pending",
    "responsible_agency": "Department of Sanitation",
    "final_address": "809 N Rocheblave St",
    "address_councildis": "D",
    "status": "Assigned to Contractor",
    "contractor": "Richards Disposal",
    "rowid": "895323",
    "final_x": "3677765.29634",
    "final_y": "536713.153927",
    "longitude": "-90.07968376611245",
    "latitude": "29.969887962881344",
    "geocoded_column": {
      "latitude": "29.969887962881344",
      "longitude": "-90.07968376611245"
    }
  },
  {
    "service_request": "2022-895322",
    "request_type": "Traffic Signals/Signs/Striping/Streetlights",
    "request_reason": "Street Light Outage/Malfunction",
    "date_created": "2022-06-28T13:26:51.000",
    "date_modified": "2022-06-28T13:27:37.000",
    "request_status": "Pending",
    "responsible_agency": "Department of Public Works",
    "final_address": "525 General Pershing St",
    "address_councildis": "B",
    "status": "Pending",
    "contractor": "Royal Engineering",
    "rowid": "895322",
    "final_x": "3671596.98305",
    "final_y": "517713.025398",
    "longitude": "-90.09980989299521",
    "latitude": "29.917827939108797",
    "geocoded_column": {
      "latitude": "29.917827939108797",
      "longitude": "-90.09980989299521"
    }
  },
  {
    "service_request": "2022-895320",
    "request_type": "Property Maintenance",
    "request_reason": "Property Maintenance",
    "date_created": "2022-06-28T13:23:19.000",
    "date_modified": "2022-06-28T13:23:19.000",
    "request_status": "Pending",
    "responsible_agency": "Department of Code Enforcement",
    "final_address": "6045 Pines Blvd",
    "address_councildis": "D",
    "status": "Pending",
    "rowid": "895320",
    "final_x": "3696148.54659",
    "final_y": "556164.707098",
    "longitude": "-90.0209244177289",
    "latitude": "30.02280673734054",
    "geocoded_column": {
      "latitude": "30.02280673734054",
      "longitude": "-90.0209244177289"
    }
  },
  {
    "service_request": "2022-895318",
    "request_type": "Roads/Drainage",
    "request_reason": "Street Subsidence (Sinking)",
    "date_created": "2022-06-28T13:16:47.000",
    "date_modified": "2022-06-28T13:16:47.000",
    "request_status": "Pending",
    "responsible_agency": "Department of Public Works",
    "final_address": "15 Kristen Ct",
    "address_councildis": "E",
    "status": "Pending",
    "rowid": "895318",
    "final_x": "3713647.22136",
    "final_y": "567405.736932",
    "longitude": "-89.9652091188105",
    "latitude": "30.0531523555854",
    "geocoded_column": {
      "latitude": "30.0531523555854",
      "longitude": "-89.9652091188105"
    }
  },
  {
    "service_request": "2022-895317",
    "request_type": "Roads/Drainage",
    "request_reason": "Damaged Sidewalk",
    "date_created": "2022-06-28T13:16:07.000",
    "date_modified": "2022-06-28T13:16:08.000",
    "request_status": "Pending",
    "responsible_agency": "Department of Public Works",
    "final_address": "1620 Pratt Dr",
    "address_councildis": "D",
    "status": "Pending",
    "rowid": "895317",
    "final_x": "3679653.19407",
    "final_y": "548465.091154",
    "longitude": "-90.07331348606844",
    "latitude": "30.00214475124765",
    "geocoded_column": {
      "latitude": "30.00214475124765",
      "longitude": "-90.07331348606844"
    }
  },
  {
    "service_request": "2022-895316",
    "request_type": "Roads/Drainage",
    "request_reason": "Pothole",
    "date_created": "2022-06-28T13:08:14.000",
    "date_modified": "2022-06-28T13:08:15.000",
    "request_status": "Pending",
    "responsible_agency": "Department of Public Works",
    "final_address": "I 610 W & ST BERNARD AVE",
    "address_councildis": "D",
    "status": "Pending",
    "rowid": "895316",
    "final_x": "3678448.4",
    "final_y": "545129.68",
    "longitude": "-90.07723508061775",
    "latitude": "29.9930099229569",
    "geocoded_column": {
      "latitude": "29.9930099229569",
      "longitude": "-90.07723508061775"
    }
  },
  {
    "service_request": "2022-895315",
    "request_type": "Trash/Recycling",
    "request_reason": "Illegal Dumping",
    "date_created": "2022-06-28T13:03:47.000",
    "date_modified": "2022-06-28T13:03:48.000",
    "request_status": "Pending",
    "responsible_agency": "Department of Code Enforcement",
    "final_address": "2634 Myrtle St",
    "address_councildis": "D",
    "status": "Pending",
    "rowid": "895315",
    "final_x": "3687479.14396",
    "final_y": "546043.739216",
    "longitude": "-90.04867622015563",
    "latitude": "29.995247958828195",
    "geocoded_column": {
      "latitude": "29.995247958828195",
      "longitude": "-90.04867622015563"
    }
  },
  {
    "service_request": "2022-895314",
    "request_type": "Property Maintenance",
    "request_reason": "Property Maintenance",
    "date_created": "2022-06-28T13:03:36.000",
    "date_modified": "2022-06-28T13:03:36.000",
    "request_status": "Pending",
    "responsible_agency": "Department of Code Enforcement",
    "final_address": "2526 Touro St",
    "address_councildis": "D",
    "status": "Pending",
    "rowid": "895314",
    "final_x": "3683763.21685",
    "final_y": "541661.987148",
    "longitude": "-90.06056818681407",
    "latitude": "29.98331372347122",
    "geocoded_column": {
      "latitude": "29.98331372347122",
      "longitude": "-90.06056818681407"
    }
  },
  {
    "service_request": "2022-895313",
    "request_type": "Roads/Drainage",
    "request_reason": "Damaged Sidewalk",
    "date_created": "2022-06-28T13:03:20.000",
    "date_modified": "2022-06-28T13:03:20.000",
    "request_status": "Pending",
    "responsible_agency": "Department of Public Works",
    "final_address": "767 Topaz St",
    "address_councildis": "D",
    "status": "Pending",
    "rowid": "895313",
    "final_x": "3670217.17415",
    "final_y": "556539.172826",
    "longitude": "-90.10284914124024",
    "latitude": "30.024627558373464",
    "geocoded_column": {
      "latitude": "30.024627558373464",
      "longitude": "-90.10284914124024"
    }
  },
  {
    "service_request": "2022-895312",
    "request_type": "Health Related Questions",
    "request_reason": "Smoke-Free Ordinance Complaint",
    "date_created": "2022-06-28T13:02:40.000",
    "date_modified": "2022-06-28T13:02:40.000",
    "request_status": "Pending",
    "responsible_agency": "Health Department",
    "final_address": "4827 Downman Rd",
    "address_councildis": "D",
    "status": "Pending",
    "rowid": "895312",
    "final_x": "3696063.08739",
    "final_y": "554497.269464",
    "longitude": "-90.02125477878829",
    "latitude": "30.018224605600896",
    "geocoded_column": {
      "latitude": "30.018224605600896",
      "longitude": "-90.02125477878829"
    }
  },
  {
    "service_request": "2022-895311",
    "request_type": "Property Maintenance",
    "request_reason": "Property Maintenance",
    "date_created": "2022-06-28T12:57:55.000",
    "date_modified": "2022-06-28T12:57:56.000",
    "request_status": "Pending",
    "responsible_agency": "Department of Code Enforcement",
    "final_address": "1214 S Genois St",
    "address_councildis": "B",
    "status": "Pending",
    "rowid": "895311",
    "final_x": "3669421.09575",
    "final_y": "532666.818692",
    "longitude": "-90.10617248120384",
    "latitude": "29.959010272857622",
    "geocoded_column": {
      "latitude": "29.959010272857622",
      "longitude": "-90.10617248120384"
    }
  },
  {
    "service_request": "2022-895310",
    "request_type": "Traffic Signals/Signs/Striping/Streetlights",
    "request_reason": "Street Light Outage/Malfunction",
    "date_created": "2022-06-28T12:56:11.000",
    "date_modified": "2022-06-28T12:56:11.000",
    "request_status": "Pending",
    "responsible_agency": "Department of Public Works",
    "final_address": "4972 Miles Dr",
    "address_councildis": "D",
    "status": "Pending",
    "contractor": "Royal Engineering",
    "rowid": "895310",
    "final_x": "3680189.62018",
    "final_y": "549823.895444",
    "longitude": "-90.07157158501303",
    "latitude": "30.005864746699455",
    "geocoded_column": {
      "latitude": "30.005864746699455",
      "longitude": "-90.07157158501303"
    }
  },
  {
    "service_request": "2022-895309",
    "request_type": "Traffic Signals/Signs/Striping/Streetlights",
    "request_reason": "Street Light Outage/Malfunction",
    "date_created": "2022-06-28T12:50:03.000",
    "date_modified": "2022-06-28T12:50:03.000",
    "request_status": "Pending",
    "responsible_agency": "Department of Public Works",
    "final_address": "11041 Kinneil Rd",
    "address_councildis": "E",
    "status": "Pending",
    "contractor": "Royal Engineering",
    "rowid": "895309",
    "final_x": "3711680.70629",
    "final_y": "564566.614113",
    "longitude": "-89.97153133397583",
    "latitude": "30.04541033198751",
    "geocoded_column": {
      "latitude": "30.04541033198751",
      "longitude": "-89.97153133397583"
    }
  },
  {
    "service_request": "2022-895308",
    "request_type": "Trash/Recycling",
    "request_reason": "Request a Large Item Pick Up",
    "date_created": "2022-06-28T12:48:48.000",
    "date_modified": "2022-06-28T12:48:49.000",
    "request_status": "Pending",
    "responsible_agency": "Department of Sanitation",
    "final_address": "4510 Eden St",
    "address_councildis": "B",
    "status": "Assigned to Contractor",
    "contractor": "Richards Disposal",
    "rowid": "895308",
    "final_x": "3669561.45831",
    "final_y": "530836.02189",
    "longitude": "-90.10579118412008",
    "latitude": "29.953972050968808",
    "geocoded_column": {
      "latitude": "29.953972050968808",
      "longitude": "-90.10579118412008"
    }
  },
  {
    "service_request": "2022-895307",
    "request_type": "Trash/Recycling",
    "request_reason": "Replace Trash Cart",
    "date_created": "2022-06-28T12:46:28.000",
    "date_modified": "2022-06-28T12:46:29.000",
    "request_status": "Pending",
    "responsible_agency": "Department of Sanitation",
    "final_address": "6338 Catina St",
    "address_councildis": "A",
    "status": "Assigned to Contractor",
    "contractor": "Metro Disposal",
    "rowid": "895307",
    "final_x": "3666835.5401",
    "final_y": "549793.758164",
    "longitude": "-90.11376142470617",
    "latitude": "30.006179457020018",
    "geocoded_column": {
      "latitude": "30.006179457020018",
      "longitude": "-90.11376142470617"
    }
  },