[
  {
    "service_request": "2025-1239761",
    "request_type": "General Services",
    "request_reason": "General Service Request",
    "date_created": "2025-11-12T23:22:13.000",
    "date_modified": "2025-11-12T23:22:16.000",
    "request_status": "Pending",
    "responsible_agency": "Orleans Parish Communication District",
    "final_address": "2320 Annette St",
    "address_councildis": "D",
    "status": "Pending",
    "rowid": "1239761",
    "final_x": "3682739.34453",
    "final_y": "540764.748299",
    "longitude": "-90.06383350276255",
    "latitude": "29.98087786290694",
    "geocoded_column": {
      "latitude": "29.98087786290694",
      "longitude": "-90.06383350276255"
    }
  },
  {
    "service_request": "2025-1239760",
    "request_type": "Trash/Recycling",
    "request_reason": "Dead Animal Pick Up",
    "date_created": "2025-11-12T22:29:59.000",
    "date_modified": "2025-11-12T22:30:01.000",
    "request_status": "Pending",
    "responsible_agency": "Department of Sanitation",
    "final_address": "3025 Banks St",
    "address_councildis": "B",
    "status": "Assigned to Contractor",
    "contractor": "IV Waste",
    "rowid": "1239760",
    "final_x": "3673488.74868",
    "final_y": "535077.727942",
    "longitude": "-90.09324543122548",
    "latitude": "29.965519054117046",
    "geocoded_column": {
      "latitude": "29.965519054117046",
      "longitude": "-90.09324543122548"
    }
  },
  {
    "service_request": "2025-1239759",
    "request_type": "Trash/Recycling",
    "request_reason": "Order Recycling Cart",
    "date_created": "2025-11-12T22:18:30.000",
    "date_modified": "2025-11-12T22:18:31.000",
    "request_status": "Pending",
    "responsible_agency": "Department of Sanitation",
    "final_address": "4510 Coliseum St",
    "address_councildis": "B",
    "status": "Pending",
    "rowid": "1239759",
    "final_x": "3670461.76967",
    "final_y": "519739.218616",
    "longitude": "-90.10332449120754",
    "latitude": "29.923432882435627",
    "geocoded_column": {
      "latitude": "29.923432882435627",
      "longitude": "-90.10332449120754"
    }
  },
  {
    "service_request": "2025-1239758",
    "request_type": "Healthy Homes",
    "request_reason": "Healthy Homes",
    "date_created": "2025-11-12T22:15:50.000",
    "date_modified": "2025-11-12T22:15:52.000",
    "request_status": "Pending",
    "responsible_agency": "Department of Code Enforcement",
    "final_address": "3222 Prytania St",
    "address_councildis": "B",
    "status": "Pending",
    "rowid": "1239758",
    "final_x": "3674947.82657",
    "final_y": "521215.947833",
    "longitude": "-90.08911305338407",
    "latitude": "29.92736023641679",
    "geocoded_column": {
      "latitude": "29.92736023641679",
      "longitude": "-90.08911305338407"
    }
  },
  {
    "service_request": "2025-1239757",
    "request_type": "Streetlights",
    "request_reason": "Streetlight Outage/Malfunction",
    "date_created": "2025-11-12T22:15:05.000",
    "date_modified": "2025-11-12T22:15:08.000",
    "request_status": "Pending",
    "responsible_agency": "Department of Public Works",
    "final_address": "1000 BLK Octavia St",
    "address_councildis": "A",
    "status": "Pending",
    "rowid": "1239757",
    "final_x": "3666632.51414",
    "final_y": "519746.955701",
    "longitude": "-90.11541180338126",
    "latitude": "29.923566628089297",
    "geocoded_column": {
      "latitude": "29.923566628089297",
      "longitude": "-90.11541180338126"
    }
  },
  {
    "service_request": "2025-1239756",
    "request_type": "Streetlights",
    "request_reason": "Streetlight Outage/Malfunction",
    "date_created": "2025-11-12T22:03:14.000",
    "date_modified": "2025-11-12T22:03:15.000",
    "request_status": "Pending",
    "responsible_agency": "Department of Public Works",
    "final_address": "1300 BLK Arabella St",
    "address_councildis": "A",
    "status": "Pending",
    "rowid": "1239756",
    "final_x": "3666234.54348",
    "final_y": "520765.054714",
    "longitude": "-90.11663392927487",
    "latitude": "29.926377704710102",
    "geocoded_column": {
      "latitude": "29.926377704710102",
      "longitude": "-90.11663392927487"
    }
  },
  {
    "service_request": "2025-1239755",
    "request_type": "Healthy Homes",
    "request_reason": "Healthy Homes",
    "date_created": "2025-11-12T21:55:25.000",
    "date_modified": "2025-11-12T21:55:28.000",
    "request_status": "Pending",
    "responsible_agency": "Department of Code Enforcement",
    "final_address": "3222 Prytania St",
    "address_councildis": "B",
    "status": "Pending",
    "rowid": "1239755",
    "final_x": "3674947.82657",
    "final_y": "521215.947833",
    "longitude": "-90.08911305338407",
    "latitude": "29.92736023641679",
    "geocoded_column": {
      "latitude": "29.92736023641679",
      "longitude": "-90.08911305338407"
    }
  },
  {
    "service_request": "2025-1239754",
    "request_type": "Trash/Recycling",
    "request_reason": "Start Trash Service",
    "date_created": "2025-11-12T21:41:16.000",
    "date_modified": "2025-11-12T21:41:19.000",
    "request_status": "Pending",
    "responsible_agency": "Department of Sanitation",
    "final_address": "6821 Marshal Foch St",
    "address_councildis": "A",
    "status": "Assigned to Contractor",
    "contractor": "IV Waste",
    "rowid": "1239754",
    "final_x": "3670376.573",
    "final_y": "552699.955606",
    "longitude": "-90.1024757805828",
    "latitude": "30.014066370468644",
    "geocoded_column": {
      "latitude": "30.014066370468644",
      "longitude": "-90.1024757805828"
    }
  },
  {
    "service_request": "2025-1239753",
    "request_type": "Trash/Recycling",
    "request_reason": "Return Trash Cart",
    "date_created": "2025-11-12T20:38:20.000",
    "date_modified": "2025-11-12T20:38:21.000",
    "request_status": "Pending",
    "responsible_agency": "Department of Sanitation",
    "final_address": "754 Delachaise St",
    "address_councildis": "B",
    "status": "Assigned to Contractor",
    "contractor": "IV Waste",
    "rowid": "1239753",
    "final_x": "3675137.00693",
    "final_y": "518297.811894",
    "longitude": "-90.08861592492855",
    "latitude": "29.91933065216286",
    "geocoded_column": {
      "latitude": "29.91933065216286",
      "longitude": "-90.08861592492855"
    }
  },
  {
    "service_request": "2025-1239752",
    "request_type": "Trash/Recycling",
    "request_reason": "Order Recycling Cart",
    "date_created": "2025-11-12T20:30:08.000",
    "date_modified": "2025-11-12T20:30:11.000",
    "request_status": "Pending",
    "responsible_agency": "Department of Sanitation",
    "final_address": "25 Yosemite Dr",
    "address_councildis": "C",
    "status": "Pending",
    "rowid": "1239752",
    "final_x": "3699840.33092",
    "final_y": "517491.132022",
    "longitude": "-90.01066986605048",
    "latitude": "29.91635156957285",
    "geocoded_column": {
      "latitude": "29.91635156957285",
      "longitude": "-90.01066986605048"
    }
  },
  {
    "service_request": "2025-1239751",
    "request_type": "Healthy Homes",
    "request_reason": "Healthy Homes",
    "date_created": "2025-11-12T20:11:06.000",
    "date_modified": "2025-11-12T20:11:07.000",
    "request_status": "Pending",
    "responsible_agency": "Department of Code Enforcement",
    "final_address": "3710 Toledano St",
    "address_councildis": "B",
    "status": "Pending",
    "rowid": "1239751",
    "final_x": "3671457.01665",
    "final_y": "528866.420544",
    "longitude": "-90.0998727186333",
    "latitude": "29.948500321497214",
    "geocoded_column": {
      "latitude": "29.948500321497214",
      "longitude": "-90.0998727186333"
    }
  },
  {
    "service_request": "2025-1239750",
    "request_type": "Abandoned Vehicles",
    "request_reason": "Abandoned/Junk Vehicles",
    "date_created": "2025-11-12T20:10:32.000",
    "date_modified": "2025-11-12T20:10:34.000",
    "request_status": "Pending",
    "responsible_agency": "Department of Public Works",
    "final_address": "8219 Panola St",
    "address_councildis": "A",
    "status": "Pending",
    "rowid": "1239750",
    "final_x": "3663727.97575",
    "final_y": "531093.318978",
    "longitude": "-90.12420245167928",
    "latitude": "29.95485008370314",
    "geocoded_column": {
      "latitude": "29.95485008370314",
      "longitude": "-90.12420245167928"
    }
  },
  {
    "service_request": "2025-1239749",
    "request_type": "Streetlights",
    "request_reason": "Streetlight Outage/Malfunction",
    "date_created": "2025-11-12T20:02:59.000",
    "date_modified": "2025-11-12T20:03:00.000",
    "request_status": "Pending",
    "responsible_agency": "Department of Public Works",
    "final_address": "0 BLK Crane St",
    "address_councildis": "D",
    "status": "Pending",
    "rowid": "1239749",
    "final_x": "3673240.03439",
    "final_y": "554739.01006",
    "longitude": "-90.09335895819596",
    "latitude": "30.0195881540786",
    "geocoded_column": {
      "latitude": "30.0195881540786",
      "longitude": "-90.09335895819596"
    }
  },
  {
    "service_request": "2025-1239748",
    "request_type": "General Services",
    "request_reason": "General Service Request",
    "date_created": "2025-11-12T19:58:09.000",
    "date_modified": "2025-11-12T19:58:11.000",
    "request_status": "Pending",
    "responsible_agency": "Orleans Parish Communication District",
    "final_address": "0 BLK Architect St",
    "address_councildis": "C",
    "status": "Pending",
    "rowid": "1239748",
    "final_x": "3687142.46885",
    "final_y": "534686.498656",
    "longitude": "-90.05014150821198",
    "latitude": "29.964029935213947",
    "geocoded_column": {
      "latitude": "29.964029935213947",
      "longitude": "-90.05014150821198"
    }
  },
  {
    "service_request": "2025-1239747",
    "request_type": "Street and Traffic Signs",
    "request_reason": "Street Name Sign Damaged or Missing",
    "date_created": "2025-11-12T19:38:37.000",
    "date_modified": "2025-11-12T19:38:39.000",
    "request_status": "Pending",
    "responsible_agency": "Department of Public Works",
    "final_address": "FRERET ST & OCTAVIA ST",
    "address_councildis": "A",
    "status": "Pending",
    "rowid": "1239747",
    "final_x": "3667588.2",
    "final_y": "524069.58",
    "longitude": "-90.11224963681607",
    "latitude": "29.93542450449843",
    "geocoded_column": {
      "latitude": "29.93542450449843",
      "longitude": "-90.11224963681607"
    }
  },
  {
    "service_request": "2025-1239746",
    "request_type": "Street and Traffic Signs",
    "request_reason": "Street Name Sign Damaged or Missing",
    "date_created": "2025-11-12T19:37:40.000",
    "date_modified": "2025-11-12T19:37:41.000",
    "request_status": "Pending",
    "responsible_agency": "Department of Public Works",
    "final_address": "LOYOLA AVE & OCTAVIA ST",
    "address_councildis": "A",
    "status": "Pending",
    "rowid": "1239746",
    "final_x": "3667358.7",
    "final_y": "523037.98",
    "longitude": "-90.11300885673894",
    "latitude": "29.932594656909128",
    "geocoded_column": {
      "latitude": "29.932594656909128",
      "longitude": "-90.11300885673894"
    }
  },
  {
    "service_request": "2025-1239745",
    "request_type": "Street and Traffic Signs",
    "request_reason": "Street Name Sign Damaged or Missing",
    "date_created": "2025-11-12T19:36:52.000",
    "date_modified": "2025-11-12T19:36:54.000",
    "request_status": "Pending",
    "responsible_agency": "Department of Public Works",
    "final_address": "S SARATOGA ST & OCTAVIA ST",
    "address_councildis": "A",
    "status": "Pending",
    "rowid": "1239745",
    "final_x": "3667284.8",
    "final_y": "522681.18",
    "longitude": "-90.1132541472917",
    "latitude": "29.931615734501328",
    "geocoded_column": {
      "latitude": "29.931615734501328",
      "longitude": "-90.1132541472917"
    }
  },
  {
    "service_request": "2025-1239744",
    "request_type": "Roads and Streets",
    "request_reason": "Push-up/Pavement Expansion",
    "date_created": "2025-11-12T19:35:56.000",
    "date_modified": "2025-11-12T19:35:58.000",
    "request_status": "Pending",
    "responsible_agency": "Department of Public Works",
    "final_address": "5608 Catina St",
    "address_councildis": "A",
    "status": "Pending",
    "rowid": "1239744",
    "final_x": "3666570.70145",
    "final_y": "544816.670095",
    "longitude": "-90.11476533655129",
    "latitude": "29.99250192714446",
    "geocoded_column": {
      "latitude": "29.99250192714446",
      "longitude": "-90.11476533655129"
    }
  },
  {
    "service_request": "2025-1239743",
    "request_type": "Street and Traffic Signs",
    "request_reason": "Street Name Sign Damaged or Missing",
    "date_created": "2025-11-12T19:32:28.000",
    "date_modified": "2025-11-12T19:32:30.000",
    "request_status": "Pending",
    "responsible_agency": "Department of Public Works",
    "final_address": "JOSEPH ST & MAGAZINE ST",
    "address_councildis": "A",
    "status": "Pending",
    "rowid": "1239743",
    "final_x": "3666118.6",
    "final_y": "518878.78",
    "longitude": "-90.11706313606935",
    "latitude": "29.921194427641364",
    "geocoded_column": {
      "latitude": "29.921194427641364",
      "longitude": "-90.11706313606935"
    }
  },
  {
    "service_request": "2025-1239742",
    "request_type": "Street and Traffic Signs",
    "request_reason": "Street Name Sign Damaged or Missing",
    "date_created": "2025-11-12T19:31:27.000",
    "date_modified": "2025-11-12T19:31:29.000",
    "request_status": "Pending",
    "responsible_agency": "Department of Public Works",
    "final_address": "JOSEPH ST & PITT ST",
    "address_councildis": "A",
    "status": "Pending",
    "rowid": "1239742",
    "final_x": "3666523.7",
    "final_y": "520708.28",
    "longitude": "-90.11572304446989",
    "latitude": "29.926213146464654",
    "geocoded_column": {
      "latitude": "29.926213146464654",
      "longitude": "-90.11572304446989"
    }
  },
  {
    "service_request": "2025-1239741",
    "request_type": "Trash/Recycling",
    "request_reason": "Request a Large Item Pick Up",
    "date_created": "2025-11-12T19:22:39.000",
    "date_modified": "2025-11-12T19:22:43.000",
    "request_status": "Pending",
    "responsible_agency": "Department of Sanitation",
    "final_address": "428 Delery St",
    "address_councildis": "E",
    "status": "Assigned to Contractor",
    "contractor": "Waste Pro",
    "rowid": "1239741",
    "final_x": "3699539.8746",
    "final_y": "530814.071362",
    "longitude": "-90.01113297204942",
    "latitude": "29.952994565922367",
    "geocoded_column": {
      "latitude": "29.952994565922367",
      "longitude": "-90.01113297204942"
    }
  },
  {
    "service_request": "2025-1239740",
    "request_type": "Trash/Recycling",
    "request_reason": "Request a Large Item Pick Up",
    "date_created": "2025-11-12T18:37:24.000",
    "date_modified": "2025-11-12T18:37:26.000",
    "request_status": "Pending",
    "responsible_agency": "Department of Sanitation",
    "final_address": "1617 Patterson St",
    "address_councildis": "C",
    "status": "Assigned to Contractor",
    "contractor": "Richards Disposal",
    "rowid": "1239740",
    "final_x": "3690489.74435",
    "final_y": "530926.226178",
    "longitude": "-90.03970521146455",
    "latitude": "29.95358699853307",
    "geocoded_column": {
      "latitude": "29.95358699853307",
      "longitude": "-90.03970521146455"
    }
  },
  {
    "service_request": "2025-1239739",
    "request_type": "Trash/Recycling",
    "request_reason": "Replace Trash Cart",
    "date_created": "2025-11-12T18:31:54.000",
    "date_modified": "2025-11-12T18:31:57.000",
    "request_status": "Pending",
    "responsible_agency": "Department of Sanitation",
    "final_address": "1829 Frenchmen St",
    "address_councildis": "D",
    "status": "Assigned to Contractor",
    "contractor": "IV Waste",
    "rowid": "1239739",
    "final_x": "3684400.49781",
    "final_y": "539092.539402",
    "longitude": "-90.0586456074656",
    "latitude": "29.976229164807595",
    "geocoded_column": {
      "latitude": "29.976229164807595",
      "longitude": "-90.0586456074656"
    }
  },
  {
    "service_request": "2025-1239738",
    "request_type": "Trash/Recycling",
    "request_reason": "Replace Trash Cart",
    "date_created": "2025-11-12T18:25:23.000",
    "date_modified": "2025-11-12T18:25:26.000",
    "request_status": "Pending",
    "responsible_agency": "Department of Sanitation",
    "final_address": "1827 Frenchmen St",
    "address_councildis": "D",
    "status": "Assigned to Contractor",
    "contractor": "IV Waste",
    "rowid": "1239738",
    "final_x": "3684402.1645",
    "final_y": "539075.872714",
    "longitude": "-90.05864092914933",
    "latitude": "29.97618328626132",
    "geocoded_column": {
      "latitude": "29.97618328626132",
      "longitude": "-90.05864092914933"
    }
  },
  {
    "service_request": "2025-1239737",
    "request_type": "Trash/Recycling",
    "request_reason": "Request a Large Item Pick Up",
    "date_created": "2025-11-12T18:13:08.000",
    "date_modified": "2025-11-12T18:13:10.000",
    "request_status": "Pending",
    "responsible_agency": "Department of Sanitation",
    "final_address": "4908 Pecan St",
    "address_councildis": "E",
    "status": "Assigned to Contractor",
    "contractor": "Waste Pro",
    "rowid": "1239737",
    "final_x": "3701654.75191",
    "final_y": "555115.490969",
    "longitude": "-90.00356466494442",
    "latitude": "30.019747236825854",
    "geocoded_column": {
      "latitude": "30.019747236825854",
      "longitude": "-90.00356466494442"
    }
  },
  {
    "service_request": "2025-1239736",
    "request_type": "Property Maintenance",
    "request_reason": "Property Maintenance",
    "date_created": "2025-11-12T18:12:51.000",
    "date_modified": "2025-11-12T18:12:53.000",
    "request_status": "Pending",
    "responsible_agency": "Department of Code Enforcement",
    "final_address": "4500 Annette St",
    "address_councildis": "D",
    "status": "Pending",
    "rowid": "1239736",
    "final_x": "3682061.91189",
    "final_y": "549086.365331",
    "longitude": "-90.06568235894706",
    "latitude": "30.003779981597706",
    "geocoded_column": {
      "latitude": "30.003779981597706",
      "longitude": "-90.06568235894706"
    }
  },
  {
    "service_request": "2025-1239735",
    "request_type": "Roads and Streets",
    "request_reason": "Sidewalk Damaged or Missing",
    "date_created": "2025-11-12T18:03:00.000",
    "date_modified": "2025-11-12T18:03:02.000",
    "request_status": "Pending",
    "responsible_agency": "Department of Public Works",
    "final_address": "1000 BLK Poland Ave",
    "address_councildis": "C",
    "status": "Pending",
    "rowid": "1239735",
    "final_x": "3692940.15936",
    "final_y": "534719.354562",
    "longitude": "-90.03183182244169",
    "latitude": "29.963940478024863",
    "geocoded_column": {
      "latitude": "29.963940478024863",
      "longitude": "-90.03183182244169"
    }
  },
  {
    "service_request": "2025-1239734",
    "request_type": "Trash/Recycling",
    "request_reason": "Order Recycling Cart",
    "date_created": "2025-11-12T17:37:09.000",
    "date_modified": "2025-11-12T17:37:10.000",
    "request_status": "Pending",
    "responsible_agency": "Department of Sanitation",
    "final_address": "419 Cherokee St",
    "address_councildis": "A",
    "status": "Pending",
    "rowid": "1239734",
    "final_x": "3661829.64294",
    "final_y": "524944.463997",
    "longitude": "-90.130400527098",
    "latitude": "29.937997642174842",
    "geocoded_column": {
      "latitude": "29.937997642174842",
      "longitude": "-90.130400527098"
    }
  },
  {
    "service_request": "2025-1239733",
    "request_type": "Abandoned Vehicles",
    "request_reason": "Abandoned/Junk Vehicles",
    "date_created": "2025-11-12T17:36:09.000",
    "date_modified": "2025-11-12T17:36:10.000",
    "request_status": "Pending",
    "responsible_agency": "Department of Public Works",
    "final_address": "826 Milan St",
    "address_councildis": "B",
    "status": "Pending",
    "rowid": "1239733",
    "final_x": "3671777.66574",
    "final_y": "518783.574327",
    "longitude": "-90.09920318106973",
    "latitude": "29.920766258909858",
    "geocoded_column": {
      "latitude": "29.920766258909858",
      "longitude": "-90.09920318106973"
    }
  },
  {
    "service_request": "2025-1239732",
    "request_type": "General Services",
    "request_reason": "General Service Request",
    "date_created": "2025-11-12T17:27:20.000",
    "date_modified": "2025-11-12T17:27:27.000",
    "request_status": "Pending",
    "responsible_agency": "Orleans Parish Communication District",
    "final_address": "3529 Republic St",
    "address_councildis": "D",
    "status": "Pending",
    "rowid": "1239732",
    "final_x": "3680513.52104",
    "final_y": "545451.437712",
    "longitude": "-90.07070052266663",
    "latitude": "29.9938322338053",
    "geocoded_column": {
      "latitude": "29.9938322338053",
      "longitude": "-90.07070052266663"
    }
  },
  {
    "service_request": "2025-1239731",
    "request_type": "Abandoned Vehicles",
    "request_reason": "Abandoned/Junk Vehicles",
    "date_created": "2025-11-12T17:25:26.000",
    "date_modified": "2025-11-12T17:25:28.000",
    "request_status": "Pending",
    "responsible_agency": "Department of Public Works",
    "final_address": "4216 Constance St",
    "address_councildis": "B",
    "status": "Pending",
    "rowid": "1239731",
    "final_x": "3671770.62081",
    "final_y": "518445.52479",
    "longitude": "-90.09923691130055",
    "latitude": "29.919836938846203",
    "geocoded_column": {
      "latitude": "29.919836938846203",
      "longitude": "-90.09923691130055"
    }
  },
  {
    "service_request": "2025-1239730",
    "request_type": "Abandoned Vehicles",
    "request_reason": "Abandoned/Junk Vehicles",
    "date_created": "2025-11-12T17:24:29.000",
    "date_modified": "2025-11-12T17:24:32.000",
    "request_status": "Pending",
    "responsible_agency": "Department of Public Works",
    "final_address": "930 Webster St",
    "address_councildis": "A",
    "status": "Pending",
    "rowid": "1239730",
    "final_x": "3664287.20621",
    "final_y": "520002.275064",
    "longitude": "-90.12280659093442",
    "latitude": "29.9243370131837",
    "geocoded_column": {
      "latitude": "29.9243370131837",
      "longitude": "-90.12280659093442"
    }
  },
  {
    "service_request": "2025-1239729",
    "request_type": "Roads and Streets",
    "request_reason": "Pothole",
    "date_created": "2025-11-12T17:11:31.000",
    "date_modified": "2025-11-12T17:11:33.000",
    "request_status": "Pending",
    "responsible_agency": "Department of Public Works",
    "final_address": "1212 Pine St",
    "address_councildis": "A",
    "status": "Pending",
    "rowid": "1239729",
    "final_x": "3663958.12295",
    "final_y": "526777.07763",
    "longitude": "-90.12361961911388",
    "latitude": "29.94297513096555",
    "geocoded_column": {
      "latitude": "29.94297513096555",
      "longitude": "-90.12361961911388"
    }
  },
  {
    "service_request": "2025-1239728",
    "request_type": "Mosquito, Termite & Rodent Control",
    "request_reason": "Non-Rodent Complaint (Possums & Snakes)",
    "date_created": "2025-11-12T17:05:26.000",
    "date_modified": "2025-11-12T17:05:28.000",
    "request_status": "Pending",
    "responsible_agency": "Mosquito, Termite & Rodent Control Board",
    "final_address": "7920 Pompano St",
    "address_councildis": "E",
    "status": "Pending",
    "rowid": "1239728",
    "final_x": "3700124.51837",
    "final_y": "561565.625183",
    "longitude": "-90.0081639740403",
    "latitude": "30.037531361232844",
    "geocoded_column": {
      "latitude": "30.037531361232844",
      "longitude": "-90.0081639740403"
    }
  },
  {
    "service_request": "2025-1239727",
    "request_type": "Property Maintenance",
    "request_reason": "Property Maintenance",
    "date_created": "2025-11-12T16:57:33.000",
    "date_modified": "2025-11-12T16:57:35.000",
    "request_status": "Pending",
    "responsible_agency": "Department of Code Enforcement",
    "final_address": "1901 St Ann St",
    "address_councildis": "D",
    "status": "Pending",
    "rowid": "1239727",
    "final_x": "3679408.00795",
    "final_y": "535372.975366",
    "longitude": "-90.07454242268761",
    "latitude": "29.96615340941629",
    "geocoded_column": {
      "latitude": "29.96615340941629",
      "longitude": "-90.07454242268761"
    }
  },
  {
    "service_request": "2025-1239726",
    "request_type": "Streetlights",
    "request_reason": "Streetlight Outage/Malfunction",
    "date_created": "2025-11-12T16:53:32.000",
    "date_modified": "2025-11-12T16:54:07.000",
    "request_status": "Pending",
    "responsible_agency": "Department of Public Works",
    "final_address": "8600 Lake Forest Blvd",
    "address_councildis": "E",
    "status": "Pending",
    "rowid": "1239726",
    "final_x": "3706233.01867",
    "final_y": "557882.382491",
    "longitude": "-89.98899638685525",
    "latitude": "30.027208226926486",
    "geocoded_column": {
      "latitude": "30.027208226926486",
      "longitude": "-89.98899638685525"
    }
  },
  {
    "service_request": "2025-1239725",
    "request_type": "Abandoned Vehicles",
    "request_reason": "Abandoned/Junk Vehicles",
    "date_created": "2025-11-12T16:51:36.000",
    "date_modified": "2025-11-12T16:51:38.000",
    "request_status": "Pending",
    "responsible_agency": "Department of Public Works",
    "final_address": "0 BLK N Roadway St",
    "address_councildis": "A",
    "status": "Pending",
    "rowid": "1239725",
    "final_x": "3665664.54003",
    "final_y": "556707.680992",
    "longitude": "-90.1172290927843",
    "latitude": "30.025224538358877",
    "geocoded_column": {
      "latitude": "30.025224538358877",
      "longitude": "-90.1172290927843"
    }
  },
  {
    "service_request": "2025-1239724",
    "request_type": "Mosquito, Termite & Rodent Control",
    "request_reason": "Non-Rodent Complaint (Possums & Snakes)",
    "date_created": "2025-11-12T16:50:19.000",
    "date_modified": "2025-11-12T16:50:20.000",
    "request_status": "Pending",
    "responsible_agency": "Mosquito, Termite & Rodent Control Board",
    "final_address": "7920 Pompano St",
    "address_councildis": "E",
    "status": "Pending",
    "rowid": "1239724",
    "final_x": "3700124.51837",
    "final_y": "561565.625183",
    "longitude": "-90.0081639740403",
    "latitude": "30.037531361232844",
    "geocoded_column": {
      "latitude": "30.037531361232844",
      "longitude": "-90.0081639740403"
    }
  },
  {
    "service_request": "2025-1239723",
    "request_type": "Trash/Recycling",
    "request_reason": "Request a Large Item Pick Up",
    "date_created": "2025-11-12T16:46:11.000",
    "date_modified": "2025-11-12T16:46:13.000",
    "request_status": "Pending",
    "responsible_agency": "Department of Sanitation",
    "final_address": "2163 Timoleon St",
    "address_councildis": "D",
    "status": "Assigned to Contractor",
    "contractor": "IV Waste",
    "rowid": "1239723",
    "final_x": "3683594.40354",
    "final_y": "551145.417109",
    "longitude": "-90.06076872326982",
    "latitude": "30.00939492300142",
    "geocoded_column": {
      "latitude": "30.00939492300142",
      "longitude": "-90.06076872326982"
    }
  },
  {
    "service_request": "2025-1239722",
    "request_type": "Trash/Recycling",
    "request_reason": "Request a Large Item Pick Up",
    "date_created": "2025-11-12T16:43:11.000",
    "date_modified": "2025-11-12T16:43:12.000",
    "request_status": "Pending",
    "responsible_agency": "Department of Sanitation",
    "final_address": "40 Killdeer St",
    "address_councildis": "D",
    "status": "Assigned to Contractor",
    "contractor": "IV Waste",
    "rowid": "1239722",
    "final_x": "3675526.83259",
    "final_y": "555836.056153",
    "longitude": "-90.08609569400075",
    "latitude": "30.022536392181493",
    "geocoded_column": {
      "latitude": "30.022536392181493",
      "longitude": "-90.08609569400075"
    }
  },
  {
    "service_request": "2025-1239721",
    "request_type": "Drainage",
    "request_reason": "Catch Basin Not Draining",
    "date_created": "2025-11-12T16:40:37.000",
    "date_modified": "2025-11-12T16:40:39.000",
    "request_status": "Pending",
    "responsible_agency": "Sewerage & Water Board",
    "final_address": "Metairie Road & Pontchartrain Expressway",
    "address_councildis": "A",
    "status": "Pending",
    "rowid": "1239721",
    "final_x": "3666906.15137",
    "final_y": "540636.335115",
    "longitude": "-90.1138462459168",
    "latitude": "29.980997611667295",
    "geocoded_column": {
      "latitude": "29.980997611667295",
      "longitude": "-90.1138462459168"
    }
  },
  {
    "service_request": "2025-1239720",
    "request_type": "General Services",
    "request_reason": "General Service Request",
    "date_created": "2025-11-12T16:34:41.000",
    "date_modified": "2025-11-12T16:37:39.000",
    "case_close_date": "2025-11-12T10:37:38.000",
    "request_status": "Closed",
    "responsible_agency": "Orleans Parish Communication District",
    "final_address": "5080 Pontchartrain Blvd",
    "address_councildis": "A",
    "status": "Question Answered.",
    "rowid": "1239720",
    "final_x": "3666841.38119",
    "final_y": "540528.132811",
    "longitude": "-90.1140544564024",
    "latitude": "29.980701987063558",
    "geocoded_column": {
      "latitude": "29.980701987063558",
      "longitude": "-90.1140544564024"
    }
  },
  {
    "service_request": "2025-1239719",
    "request_type": "Trash/Recycling",
    "request_reason": "Replace Trash Cart",
    "date_created": "2025-11-12T16:34:22.000",
    "date_modified": "2025-11-12T16:34:24.000",
    "request_status": "Pending",
    "responsible_agency": "Department of Sanitation",
    "final_address": "1663 N Villere St",
    "address_councildis": "C",
    "status": "Assigned to Contractor",
    "contractor": "IV Waste",
    "rowid": "1239719",
    "final_x": "3683017.88424",
    "final_y": "537282.116296",
    "longitude": "-90.0630756924655",
    "latitude": "29.971293349975696",
    "geocoded_column": {
      "latitude": "29.971293349975696",
      "longitude": "-90.0630756924655"
    }
  },
  {
    "service_request": "2025-1239718",
    "request_type": "Trash/Recycling",
    "request_reason": "Request a Large Item Pick Up",
    "date_created": "2025-11-12T16:29:25.000",
    "date_modified": "2025-11-12T16:29:26.000",
    "request_status": "Pending",
    "responsible_agency": "Department of Sanitation",
    "final_address": "5413 Burgundy St",
    "address_councildis": "E",
    "status": "Assigned to Contractor",
    "contractor": "Waste Pro",
    "rowid": "1239718",
    "final_x": "3697069.76682",
    "final_y": "533200.837316",
    "longitude": "-90.0188459887216",
    "latitude": "29.95963547257295",
    "geocoded_column": {
      "latitude": "29.95963547257295",
      "longitude": "-90.0188459887216"
    }
  },
  {
    "service_request": "2025-1239717",
    "request_type": "Trash/Recycling",
    "request_reason": "Request a Large Item Pick Up",
    "date_created": "2025-11-12T16:14:55.000",
    "date_modified": "2025-11-12T16:14:57.000",
    "request_status": "Pending",
    "responsible_agency": "Department of Sanitation",
    "final_address": "4548 Bonita Dr",
    "address_councildis": "E",
    "status": "Assigned to Contractor",
    "contractor": "Waste Pro",
    "rowid": "1239717",
    "final_x": "3704551.75012",
    "final_y": "554012.02364",
    "longitude": "-89.9944519066638",
    "latitude": "30.016620364830267",
    "geocoded_column": {
      "latitude": "30.016620364830267",
      "longitude": "-89.9944519066638"
    }
  },
  {
    "service_request": "2025-1239716",
    "request_type": "Trash/Recycling",
    "request_reason": "Request a Large Item Pick Up",
    "date_created": "2025-11-12T16:13:54.000",
    "date_modified": "2025-11-12T16:13:56.000",
    "request_status": "Pending",
    "responsible_agency": "Department of Sanitation",
    "final_address": "857 Hidalgo St",
    "address_councildis": "A",
    "status": "Assigned to Contractor",
    "contractor": "IV Waste",
    "rowid": "1239716",
    "final_x": "3669203.61223",
    "final_y": "544128.185166",
    "longitude": "-90.10647172917818",
    "latitude": "29.990531576298995",
    "geocoded_column": {
      "latitude": "29.990531576298995",
      "longitude": "-90.10647172917818"
    }
  },
  {
    "service_request": "2025-1239715",
    "request_type": "Trash/Recycling",
    "request_reason": "Request a Large Item Pick Up",
    "date_created": "2025-11-12T16:00:31.000",
    "date_modified": "2025-11-12T16:00:33.000",
    "request_status": "Pending",
    "responsible_agency": "Department of Sanitation",
    "final_address": "9743 W Rockton Cir",
    "address_councildis": "E",
    "status": "Assigned to Contractor",
    "contractor": "Waste Pro",
    "rowid": "1239715",
    "final_x": "3708009.57105",
    "final_y": "562542.67824",
    "longitude": "-89.98320917620073",
    "latitude": "30.039964771321085",
    "geocoded_column": {
      "latitude": "30.039964771321085",
      "longitude": "-89.98320917620073"
    }
  },
  {
    "service_request": "2025-1239714",
    "request_type": "Trash/Recycling",
    "request_reason": "Replace Trash Cart",
    "date_created": "2025-11-12T15:52:17.000",
    "date_modified": "2025-11-12T15:52:18.000",
    "request_status": "Pending",
    "responsible_agency": "Department of Sanitation",
    "final_address": "1920 Sixth St",
    "address_councildis": "B",
    "status": "Assigned to Contractor",
    "contractor": "IV Waste",
    "rowid": "1239714",
    "final_x": "3674767.05678",
    "final_y": "523298.163963",
    "longitude": "-90.08961235392695",
    "latitude": "29.93309105206992",
    "geocoded_column": {
      "latitude": "29.93309105206992",
      "longitude": "-90.08961235392695"
    }
  },
  {
    "service_request": "2025-1239713",
    "request_type": "Roads and Streets",
    "request_reason": "Push-up/Pavement Expansion",
    "date_created": "2025-11-12T15:51:13.000",
    "date_modified": "2025-11-12T15:51:14.000",
    "request_status": "Pending",
    "responsible_agency": "Department of Public Works",
    "final_address": "5632 Catina St",
    "address_councildis": "A",
    "status": "Pending",
    "rowid": "1239713",
    "final_x": "3666577.64404",
    "final_y": "544982.263503",
    "longitude": "-90.11473784321895",
    "latitude": "29.992957049422746",
    "geocoded_column": {
      "latitude": "29.992957049422746",
      "longitude": "-90.11473784321895"
    }
  },
  {
    "service_request": "2025-1239712",
    "request_type": "Trash/Recycling",
    "request_reason": "Request a Large Item Pick Up",
    "date_created": "2025-11-12T15:50:15.000",
    "date_modified": "2025-11-12T15:50:18.000",
    "request_status": "Pending",
    "responsible_agency": "Department of Sanitation",
    "final_address": "721 Robert St",
    "address_councildis": "B",
    "status": "Assigned to Contractor",
    "contractor": "IV Waste",
    "rowid": "1239712",
    "final_x": "3668672.36884",
    "final_y": "518036.655094",
    "longitude": "-90.10903040144262",
    "latitude": "29.918804066209976",
    "geocoded_column": {
      "latitude": "29.918804066209976",
      "longitude": "-90.10903040144262"
    }
  },
  {
    "service_request": "2025-1239711",
    "request_type": "Trash/Recycling",
    "request_reason": "Request a Large Item Pick Up",
    "date_created": "2025-11-12T15:43:17.000",
    "date_modified": "2025-11-12T15:43:20.000",
    "request_status": "Pending",
    "responsible_agency": "Department of Sanitation",
    "final_address": "1709 Tupelo St",
    "address_councildis": "E",
    "status": "Assigned to Contractor",
    "contractor": "Waste Pro",
    "rowid": "1239711",
    "final_x": "3700414.10999",
    "final_y": "535502.819782",
    "longitude": "-90.00820132357286",
    "latitude": "29.96585918387198",
    "geocoded_column": {
      "latitude": "29.96585918387198",
      "longitude": "-90.00820132357286"
    }
  },
  {
    "service_request": "2025-1239710",
    "request_type": "Trash/Recycling",
    "request_reason": "Replace Trash Cart",
    "date_created": "2025-11-12T15:33:25.000",
    "date_modified": "2025-11-12T15:33:27.000",
    "request_status": "Pending",
    "responsible_agency": "Department of Sanitation",
    "final_address": "5322 Warrington Dr",
    "address_councildis": "D",
    "status": "Assigned to Contractor",
    "contractor": "IV Waste",
    "rowid": "1239710",
    "final_x": "3680812.98671",
    "final_y": "552558.461014",
    "longitude": "-90.06950693803246",
    "latitude": "30.013364927150477",
    "geocoded_column": {
      "latitude": "30.013364927150477",
      "longitude": "-90.06950693803246"
    }
  },
  {
    "service_request": "2025-1239709",
    "request_type": "Trash/Recycling",
    "request_reason": "Request a Large Item Pick Up",
    "date_created": "2025-11-12T15:32:12.000",
    "date_modified": "2025-11-12T15:32:40.000",
    "request_status": "Pending",
    "responsible_agency": "Department of Sanitation",
    "final_address": "1834 Elysian Fields Ave",
    "address_councildis": "D",
    "status": "Assigned to Contractor",
    "contractor": "IV Waste",
    "rowid": "1239709",
    "final_x": "3684670.35657",
    "final_y": "539165.081354",
    "longitude": "-90.057790764599",
    "latitude": "29.97642037246964",
    "geocoded_column": {
      "latitude": "29.97642037246964",
      "longitude": "-90.057790764599"
    }
  },
  {
    "service_request": "2025-1239708",
    "request_type": "Trash/Recycling",
    "request_reason": "Stop Trash Service",
    "date_created": "2025-11-12T15:25:53.000",
    "date_modified": "2025-11-12T15:34:02.000",
    "case_close_date": "2025-11-12T09:34:00.000",
    "request_status": "Closed",
    "responsible_agency": "Department of Sanitation",
    "final_address": "1011 Kerlerec St",
    "address_councildis": "C",
    "status": "Invalid Request",
    "contractor": "IV Waste",
    "contractor_action": "Invalid",
    "rowid": "1239708",
    "final_x": "3683321.51215",
    "final_y": "535451.15399",
    "longitude": "-90.06218094239891",
    "latitude": "29.96624957799421",
    "geocoded_column": {
      "latitude": "29.96624957799421",
      "longitude": "-90.06218094239891"
    }
  },
  {
    "service_request": "2025-1239707",
    "request_type": "Trash/Recycling",
    "request_reason": "Request a Large Item Pick Up",
    "date_created": "2025-11-12T15:25:05.000",
    "date_modified": "2025-11-12T15:25:07.000",
    "request_status": "Pending",
    "responsible_agency": "Department of Sanitation",
    "final_address": "1633 Constantinople St",
    "address_councildis": "B",
    "status": "Assigned to Contractor",
    "contractor": "IV Waste",
    "rowid": "1239707",
    "final_x": "3672326.07796",
    "final_y": "521292.084217",
    "longitude": "-90.09738668272621",
    "latitude": "29.927647605718374",
    "geocoded_column": {
      "latitude": "29.927647605718374",
      "longitude": "-90.09738668272621"
    }
  },
  {
    "service_request": "2025-1239706",
    "request_type": "Streetlights",
    "request_reason": "Streetlight Knocked Down/Leaning",
    "date_created": "2025-11-12T15:21:13.000",
    "date_modified": "2025-11-12T15:23:41.000",
    "request_status": "Pending",
    "responsible_agency": "Department of Public Works",
    "final_address": "6951 Ridgefield Dr",
    "address_councildis": "E",
    "status": "Pending",
    "rowid": "1239706",
    "final_x": "3719779.18047",
    "final_y": "569187.312294",
    "longitude": "-89.9457596941881",
    "latitude": "30.057848209186254",
    "geocoded_column": {
      "latitude": "30.057848209186254",
      "longitude": "-89.9457596941881"
    }
  },
  {
    "service_request": "2025-1239705",
    "request_type": "Abandoned Vehicles",
    "request_reason": "Abandoned/Junk Vehicles",
    "date_created": "2025-11-12T15:20:15.000",
    "date_modified": "2025-11-12T15:21:42.000",
    "request_status": "Pending",
    "responsible_agency": "Department of Public Works",
    "final_address": "9003 S Claiborne Ave",
    "address_councildis": "A",
    "status": "Inspected",
    "rowid": "1239705",
    "final_x": "3662526.76877",
    "final_y": "533782.210053",
    "longitude": "-90.12790610456258",
    "latitude": "29.962278459787747",
    "geocoded_column": {
      "latitude": "29.962278459787747",
      "longitude": "-90.12790610456258"
    }
  },
  {
    "service_request": "2025-1239704",
    "request_type": "Trash/Recycling",
    "request_reason": "Return Trash Cart",
    "date_created": "2025-11-12T15:18:34.000",
    "date_modified": "2025-11-12T15:18:35.000",
    "request_status": "Pending",
    "responsible_agency": "Department of Sanitation",
    "final_address": "208 Brunswick Ct",
    "address_councildis": "C",
    "status": "Assigned to Contractor",
    "contractor": "Richards Disposal",
    "rowid": "1239704",
    "final_x": "3706333.81892",
    "final_y": "517246.127349",
    "longitude": "-89.99018304732537",
    "latitude": "29.91547019181327",
    "geocoded_column": {
      "latitude": "29.91547019181327",
      "longitude": "-89.99018304732537"
    }
  },
  {
    "service_request": "2025-1239703",
    "request_type": "Trash/Recycling",
    "request_reason": "Request a Large Item Pick Up",
    "date_created": "2025-11-12T15:18:22.000",
    "date_modified": "2025-11-12T15:18:23.000",
    "request_status": "Pending",
    "responsible_agency": "Department of Sanitation",
    "final_address": "7843 Buffalo St",
    "address_councildis": "E",
    "status": "Assigned to Contractor",
    "contractor": "Waste Pro",
    "rowid": "1239703",
    "final_x": "3719665.70329",
    "final_y": "573818.759146",
    "longitude": "-89.94594112262995",
    "latitude": "30.070586524189814",
    "geocoded_column": {
      "latitude": "30.070586524189814",
      "longitude": "-89.94594112262995"
    }
  },
  {
    "service_request": "2025-1239702",
    "request_type": "Roads and Streets",
    "request_reason": "Sidewalk Damaged or Missing",
    "date_created": "2025-11-12T15:17:44.000",
    "date_modified": "2025-11-12T15:19:18.000",
    "request_status": "Pending",
    "responsible_agency": "Department of Public Works",
    "final_address": "80 Marywood Ct",
    "address_councildis": "E",
    "status": "Pending",
    "rowid": "1239702",
    "final_x": "3712482.37502",
    "final_y": "566438.272611",
    "longitude": "-89.96892725998198",
    "latitude": "30.050530412978304",
    "geocoded_column": {
      "latitude": "30.050530412978304",
      "longitude": "-89.96892725998198"
    }
  },
  {
    "service_request": "2025-1239701",
    "request_type": "Roads and Streets",
    "request_reason": "Road Shoulder Damage",
    "date_created": "2025-11-12T15:17:30.000",
    "date_modified": "2025-11-12T15:17:33.000",
    "request_status": "Pending",
    "responsible_agency": "Department of Public Works",
    "final_address": "3731 Elysian Fields Ave",
    "address_councildis": "D",
    "status": "Pending",
    "rowid": "1239701",
    "final_x": "3684342.83241",
    "final_y": "546511.526737",
    "longitude": "-90.05856705401689",
    "latitude": "29.99663051933429",
    "geocoded_column": {
      "latitude": "29.99663051933429",
      "longitude": "-90.05856705401689"
    }
  },
  {
    "service_request": "2025-1239700",
    "request_type": "Trash/Recycling",
    "request_reason": "Request a Large Item Pick Up",
    "date_created": "2025-11-12T15:17:13.000",
    "date_modified": "2025-11-12T15:17:15.000",
    "request_status": "Pending",
    "responsible_agency": "Department of Sanitation",
    "final_address": "1707 Second St",
    "address_councildis": "B",
    "status": "Assigned to Contractor",
    "contractor": "IV Waste",
    "rowid": "1239700",
    "final_x": "3676472.56641",
    "final_y": "523445.595643",
    "longitude": "-90.08422309921652",
    "latitude": "29.933445428973386",
    "geocoded_column": {
      "latitude": "29.933445428973386",
      "longitude": "-90.08422309921652"
    }
  },
  {
    "service_request": "2025-1239699",
    "request_type": "Trash/Recycling",
    "request_reason": "Request a Large Item Pick Up",
    "date_created": "2025-11-12T15:16:15.000",
    "date_modified": "2025-11-12T15:16:18.000",
    "request_status": "Pending",
    "responsible_agency": "Department of Sanitation",
    "final_address": "13195 Sevres St",
    "address_councildis": "E",
    "status": "Assigned to Contractor",
    "contractor": "Waste Pro",
    "rowid": "1239699",
    "final_x": "3724674.78502",
    "final_y": "560848.487518",
    "longitude": "-89.93060816245425",
    "latitude": "30.034755988745573",
    "geocoded_column": {
      "latitude": "30.034755988745573",
      "longitude": "-89.93060816245425"
    }
  },
  {
    "service_request": "2025-1239698",
    "request_type": "Trash/Recycling",
    "request_reason": "Order Second Trash Cart",
    "date_created": "2025-11-12T15:13:25.000",
    "date_modified": "2025-11-12T15:13:27.000",
    "request_status": "Pending",
    "responsible_agency": "Department of Sanitation",
    "final_address": "4601 Flake Ave",
    "address_councildis": "E",
    "status": "Assigned to Contractor",
    "contractor": "Waste Pro",
    "rowid": "1239698",
    "final_x": "3706243.09099",
    "final_y": "554521.40988",
    "longitude": "-89.98908915218836",
    "latitude": "30.017966531584463",
    "geocoded_column": {
      "latitude": "30.017966531584463",
      "longitude": "-89.98908915218836"
    }
  },
  {
    "service_request": "2025-1239697",
    "request_type": "Trash/Recycling",
    "request_reason": "Request a Large Item Pick Up",
    "date_created": "2025-11-12T15:12:09.000",
    "date_modified": "2025-11-12T15:18:07.000",
    "request_status": "Pending",
    "responsible_agency": "Department of Sanitation",
    "final_address": "4828 Shalimar Dr",
    "address_councildis": "D",
    "status": "Assigned to Contractor",
    "contractor": "Waste Pro",
    "rowid": "1239697",
    "final_x": "3697078.70813",
    "final_y": "554681.533464",
    "longitude": "-90.01803913184729",
    "latitude": "30.018699245506404",
    "geocoded_column": {
      "latitude": "30.018699245506404",
      "longitude": "-90.01803913184729"
    }
  },
  {
    "service_request": "2025-1239696",
    "request_type": "Abandoned Vehicles",
    "request_reason": "Abandoned/Junk Vehicles",
    "date_created": "2025-11-12T15:08:21.000",
    "date_modified": "2025-11-12T15:08:22.000",
    "request_status": "Pending",
    "responsible_agency": "Department of Public Works",
    "final_address": "1829 Marigny St",
    "address_councildis": "D",
    "status": "Pending",
    "rowid": "1239696",
    "final_x": "3685239.69935",
    "final_y": "539175.253258",
    "longitude": "-90.05599225327035",
    "latitude": "29.976430902362036",
    "geocoded_column": {
      "latitude": "29.976430902362036",
      "longitude": "-90.05599225327035"
    }
  },
  {
    "service_request": "2025-1239695",
    "request_type": "Trash/Recycling",
    "request_reason": "Illegal Dumping",
    "date_created": "2025-11-12T15:06:37.000",
    "date_modified": "2025-11-12T15:06:40.000",
    "request_status": "Pending",
    "responsible_agency": "Department of Sanitation",
    "final_address": "3800 BLK Cherry St",
    "address_councildis": "A",
    "status": "Pending",
    "rowid": "1239695",
    "final_x": "3665181.28902",
    "final_y": "538182.931296",
    "longitude": "-90.11937625110883",
    "latitude": "29.974301934967727",
    "geocoded_column": {
      "latitude": "29.974301934967727",
      "longitude": "-90.11937625110883"
    }
  },
  {
    "service_request": "2025-1239694",
    "request_type": "Health Related Request",
    "request_reason": "Noise Ordinance Complaint",
    "date_created": "2025-11-12T15:01:04.000",
    "date_modified": "2025-11-12T15:07:02.000",
    "case_close_date": "2025-11-12T09:07:01.000",
    "request_status": "Closed",
    "responsible_agency": "Health Department",
    "final_address": "2130 N Claiborne Ave",
    "address_councildis": "C",
    "status": "Invalid Request",
    "rowid": "1239694",
    "final_x": "3684695.95586",
    "final_y": "537899.888777",
    "longitude": "-90.05775439735862",
    "latitude": "29.972940751190137",
    "geocoded_column": {
      "latitude": "29.972940751190137",
      "longitude": "-90.05775439735862"
    }
  },
  {
    "service_request": "2025-1239693",
    "request_type": "Trash/Recycling",
    "request_reason": "Replace Trash Cart",
    "date_created": "2025-11-12T14:51:25.000",
    "date_modified": "2025-11-12T14:51:28.000",
    "request_status": "Pending",
    "responsible_agency": "Department of Sanitation",
    "final_address": "3212 Hamilton St",
    "address_councildis": "A",
    "status": "Assigned to Contractor",
    "contractor": "IV Waste",
    "rowid": "1239693",
    "final_x": "3664206.856",
    "final_y": "536129.223047",
    "longitude": "-90.12252229210134",
    "latitude": "29.968683267799857",
    "geocoded_column": {
      "latitude": "29.968683267799857",
      "longitude": "-90.12252229210134"
    }
  },
  {
    "service_request": "2025-1239692",
    "request_type": "Trash/Recycling",
    "request_reason": "Request a Large Item Pick Up",
    "date_created": "2025-11-12T14:50:19.000",
    "date_modified": "2025-11-12T14:50:21.000",
    "request_status": "Pending",
    "responsible_agency": "Department of Sanitation",
    "final_address": "4566 Francisco Verrett Dr",
    "address_councildis": "E",
    "status": "Assigned to Contractor",
    "contractor": "Waste Pro",
    "rowid": "1239692",
    "final_x": "3704292.98737",
    "final_y": "554073.41564",
    "longitude": "-89.99526721548015",
    "latitude": "30.016797480427336",
    "geocoded_column": {
      "latitude": "30.016797480427336",
      "longitude": "-89.99526721548015"
    }
  },
  {
    "service_request": "2025-1239691",
    "request_type": "Trash/Recycling",
    "request_reason": "Replace Recycling Cart",
    "date_created": "2025-11-12T14:46:11.000",
    "date_modified": "2025-11-12T14:46:12.000",
    "request_status": "Pending",
    "responsible_agency": "Department of Sanitation",
    "final_address": "3649 Silver Maple Ct",
    "address_councildis": "C",
    "status": "Pending",
    "rowid": "1239691",
    "final_x": "3703029.49777",
    "final_y": "512813.348593",
    "longitude": "-90.000775357549",
    "latitude": "29.903387650893727",
    "geocoded_column": {
      "latitude": "29.903387650893727",
      "longitude": "-90.000775357549"
    }
  },
  {
    "service_request": "2025-1239690",
    "request_type": "Trash/Recycling",
    "request_reason": "Replace Trash Cart",
    "date_created": "2025-11-12T14:44:41.000",
    "date_modified": "2025-11-12T14:44:42.000",
    "request_status": "Pending",
    "responsible_agency": "Department of Sanitation",
    "final_address": "2160 Selma St",
    "address_councildis": "D",
    "status": "Assigned to Contractor",
    "contractor": "IV Waste",
    "rowid": "1239690",
    "final_x": "3683549.53141",
    "final_y": "551428.754069",
    "longitude": "-90.0609005491154",
    "latitude": "30.010175367032915",
    "geocoded_column": {
      "latitude": "30.010175367032915",
      "longitude": "-90.0609005491154"
    }
  },
  {
    "service_request": "2025-1239689",
    "request_type": "Trash/Recycling",
    "request_reason": "Request a Large Item Pick Up",
    "date_created": "2025-11-12T14:44:32.000",
    "date_modified": "2025-11-12T14:44:34.000",
    "request_status": "Pending",
    "responsible_agency": "Department of Sanitation",
    "final_address": "2622 Marais St",
    "address_councildis": "C",
    "status": "Assigned to Contractor",
    "contractor": "IV Waste",
    "rowid": "1239689",
    "final_x": "3687390.19484",
    "final_y": "536735.159303",
    "longitude": "-90.04928671580195",
    "latitude": "29.96965540769153",
    "geocoded_column": {
      "latitude": "29.96965540769153",
      "longitude": "-90.04928671580195"
    }
  },
  {
    "service_request": "2025-1239688",
    "request_type": "Trash/Recycling",
    "request_reason": "Repair Trash Cart",
    "date_created": "2025-11-12T14:43:28.000",
    "date_modified": "2025-11-12T14:43:31.000",
    "request_status": "Pending",
    "responsible_agency": "Department of Sanitation",
    "final_address": "2728 State St",
    "address_councildis": "A",
    "status": "Assigned to Contractor",
    "contractor": "IV Waste",
    "rowid": "1239688",
    "final_x": "3667042.09357",
    "final_y": "526629.513662",
    "longitude": "-90.11388769497545",
    "latitude": "29.942479491271758",
    "geocoded_column": {
      "latitude": "29.942479491271758",
      "longitude": "-90.11388769497545"
    }
  },
  {
    "service_request": "2025-1239687",
    "request_type": "Trash/Recycling",
    "request_reason": "Order Recycling Cart",
    "date_created": "2025-11-12T14:36:18.000",
    "date_modified": "2025-11-12T14:36:20.000",
    "request_status": "Pending",
    "responsible_agency": "Department of Sanitation",
    "final_address": "9 Chatham Dr",
    "address_councildis": "D",
    "status": "Pending",
    "rowid": "1239687",
    "final_x": "3680223.18018",
    "final_y": "551165.928981",
    "longitude": "-90.07141886822639",
    "latitude": "30.00955384072852",
    "geocoded_column": {
      "latitude": "30.00955384072852",
      "longitude": "-90.07141886822639"
    }
  },
  {
    "service_request": "2025-1239686",
    "request_type": "Trash/Recycling",
    "request_reason": "Request a Large Item Pick Up",
    "date_created": "2025-11-12T14:35:16.000",
    "date_modified": "2025-11-12T14:35:31.000",
    "request_status": "Pending",
    "responsible_agency": "Department of Sanitation",
    "final_address": "6501 Wales St",
    "address_councildis": "E",
    "status": "Assigned to Contractor",
    "contractor": "Waste Pro",
    "rowid": "1239686",
    "final_x": "3696926.26973",
    "final_y": "560269.432733",
    "longitude": "-90.01831815522675",
    "latitude": "30.034068646920286",
    "geocoded_column": {
      "latitude": "30.034068646920286",
      "longitude": "-90.01831815522675"
    }
  },
  {
    "service_request": "2025-1239685",
    "request_type": "Trash/Recycling",
    "request_reason": "Request a Large Item Pick Up",
    "date_created": "2025-11-12T14:33:09.000",
    "date_modified": "2025-11-12T14:33:10.000",
    "request_status": "Pending",
    "responsible_agency": "Department of Sanitation",
    "final_address": "3931 Annunciation St",
    "address_councildis": "B",
    "status": "Assigned to Contractor",
    "contractor": "IV Waste",
    "rowid": "1239685",
    "final_x": "3673078.34414",
    "final_y": "517973.81759",
    "longitude": "-90.09512514905492",
    "latitude": "29.91850110184861",
    "geocoded_column": {
      "latitude": "29.91850110184861",
      "longitude": "-90.09512514905492"
    }
  },
  {
    "service_request": "2025-1239684",
    "request_type": "Property Maintenance",
    "request_reason": "Property Maintenance",
    "date_created": "2025-11-12T14:31:22.000",
    "date_modified": "2025-11-12T14:31:23.000",
    "request_status": "Pending",
    "responsible_agency": "Department of Code Enforcement",
    "final_address": "6600 Morrison Rd",
    "address_councildis": "E",
    "status": "Pending",
    "rowid": "1239684",
    "final_x": "3698428.45098",
    "final_y": "558152.841243",
    "longitude": "-90.0136481332858",
    "latitude": "30.02820134692633",
    "geocoded_column": {
      "latitude": "30.02820134692633",
      "longitude": "-90.0136481332858"
    }
  },
  {
    "service_request": "2025-1239683",
    "request_type": "Parks & Parkways",
    "request_reason": "Request Tree Service (Right of Way/Public Property)",
    "date_created": "2025-11-12T14:29:57.000",
    "date_modified": "2025-11-12T14:29:59.000",
    "request_status": "Pending",
    "responsible_agency": "Department of Parks & Parkway",
    "final_address": "9038 Olive St",
    "address_councildis": "A",
    "status": "Pending",
    "rowid": "1239683",
    "final_x": "3664646.88634",
    "final_y": "536492.852551",
    "longitude": "-90.12112049626633",
    "latitude": "29.969670335992358",
    "geocoded_column": {
      "latitude": "29.969670335992358",
      "longitude": "-90.12112049626633"
    }
  },
  {
    "service_request": "2025-1239682",
    "request_type": "Safety & Permits",
    "request_reason": "Licenses & Permits",
    "date_created": "2025-11-12T14:27:44.000",
    "date_modified": "2025-11-12T14:35:24.000",
    "request_status": "Pending",
    "responsible_agency": "Safety and Permits",
    "final_address": "377 Audubon St",
    "address_councildis": "A",
    "status": "Pending",
    "rowid": "1239682",
    "final_x": "3662014.62695",
    "final_y": "522660.248314",
    "longitude": "-90.12989225357455",
    "latitude": "29.93171142840921",
    "geocoded_column": {
      "latitude": "29.93171142840921",
      "longitude": "-90.12989225357455"
    }
  },
  {
    "service_request": "2025-1239681",
    "request_type": "Streetlights",
    "request_reason": "Streetlight Outage/Malfunction",
    "date_created": "2025-11-12T14:26:27.000",
    "date_modified": "2025-11-12T14:26:29.000",
    "request_status": "Pending",
    "responsible_agency": "Department of Public Works",
    "final_address": "3401 Hamilton St",
    "address_councildis": "A",
    "status": "Pending",
    "rowid": "1239681",
    "final_x": "3664696.51386",
    "final_y": "536560.030919",
    "longitude": "-90.1209615227521",
    "latitude": "29.96985361055211",
    "geocoded_column": {
      "latitude": "29.96985361055211",
      "longitude": "-90.1209615227521"
    }
  },
  {
    "service_request": "2025-1239680",
    "request_type": "Property Maintenance",
    "request_reason": "Property Maintenance",
    "date_created": "2025-11-12T14:24:18.000",
    "date_modified": "2025-11-12T14:24:20.000",
    "request_status": "Pending",
    "responsible_agency": "Department of Code Enforcement",
    "final_address": "5207 Sandhurst Dr",
    "address_councildis": "E",
    "status": "Pending",
    "rowid": "1239680",
    "final_x": "3704997.92932",
    "final_y": "557058.525018",
    "longitude": "-89.99292958081962",
    "latitude": "30.02498272447879",
    "geocoded_column": {
      "latitude": "30.02498272447879",
      "longitude": "-89.99292958081962"
    }
  },
  {
    "service_request": "2025-1239679",
    "request_type": "Abandoned Vehicles",
    "request_reason": "Abandoned/Junk Vehicles",
    "date_created": "2025-11-12T14:18:38.000",
    "date_modified": "2025-11-12T14:21:29.000",
    "request_status": "Pending",
    "responsible_agency": "Department of Public Works",
    "final_address": "3500 Rue Mignon",
    "address_councildis": "C",
    "status": "Inspected",
    "rowid": "1239679",
    "final_x": "3703388.43326",
    "final_y": "517841.333558",
    "longitude": "-89.9994578460243",
    "latitude": "29.91720141017811",
    "geocoded_column": {
      "latitude": "29.91720141017811",
      "longitude": "-89.9994578460243"
    }
  },
  {
    "service_request": "2025-1239678",
    "request_type": "Roads and Streets",
    "request_reason": "Street Subsidence (Sinking)",
    "date_created": "2025-11-12T14:18:06.000",
    "date_modified": "2025-11-12T14:18:07.000",
    "request_status": "Pending",
    "responsible_agency": "Sewerage & Water Board",
    "final_address": "5615 West End Blvd",
    "address_councildis": "A",
    "status": "Pending",
    "rowid": "1239678",
    "final_x": "3666392.78791",
    "final_y": "544901.210511",
    "longitude": "-90.11532449531944",
    "latitude": "29.99273958572246",
    "geocoded_column": {
      "latitude": "29.99273958572246",
      "longitude": "-90.11532449531944"
    }
  },
  {
    "service_request": "2025-1239677",
    "request_type": "Abandoned Vehicles",
    "request_reason": "Abandoned/Junk Vehicles",
    "date_created": "2025-11-12T14:14:50.000",
    "date_modified": "2025-11-12T14:14:51.000",
    "request_status": "Pending",
    "responsible_agency": "Department of Public Works",
    "final_address": "6222 St Anthony Ave",
    "address_councildis": "D",
    "status": "Pending",
    "rowid": "1239677",
    "final_x": "3681840.16437",
    "final_y": "555940.053209",
    "longitude": "-90.06614344629757",
    "latitude": "30.022631879647307",
    "geocoded_column": {
      "latitude": "30.022631879647307",
      "longitude": "-90.06614344629757"
    }
  },
  {
    "service_request": "2025-1239676",
    "request_type": "Abandoned Vehicles",
    "request_reason": "Abandoned/Junk Vehicles",
    "date_created": "2025-11-12T14:13:15.000",
    "date_modified": "2025-11-12T14:16:34.000",
    "request_status": "Pending",
    "responsible_agency": "Department of Public Works",
    "final_address": "5600 BLK Carlisle Ct",
    "address_councildis": "C",
    "status": "Inspected",
    "rowid": "1239676",
    "final_x": "3704622.75771",
    "final_y": "516573.192035",
    "longitude": "-89.9956085507963",
    "latitude": "29.91367489044592",
    "geocoded_column": {
      "latitude": "29.91367489044592",
      "longitude": "-89.9956085507963"
    }
  },
  {
    "service_request": "2025-1239675",
    "request_type": "Roads and Streets",
    "request_reason": "Pothole",
    "date_created": "2025-11-12T14:10:32.000",
    "date_modified": "2025-11-12T14:10:34.000",
    "request_status": "Pending",
    "responsible_agency": "Department of Public Works",
    "final_address": "2832 Burdette St",
    "address_councildis": "B",
    "status": "Pending",
    "rowid": "1239675",
    "final_x": "3666873.01044",
    "final_y": "532168.408707",
    "longitude": "-90.11423547478664",
    "latitude": "29.95771459919882",
    "geocoded_column": {
      "latitude": "29.95771459919882",
      "longitude": "-90.11423547478664"
    }
  },
  {
    "service_request": "2025-1239674",
    "request_type": "Abandoned Vehicles",
    "request_reason": "Abandoned/Junk Vehicles",
    "date_created": "2025-11-12T14:06:59.000",
    "date_modified": "2025-11-12T14:10:56.000",
    "request_status": "Pending",
    "responsible_agency": "Department of Public Works",
    "final_address": "LACOUR MONIQUE ST & RUE MIGNON",
    "address_councildis": "C",
    "status": "Inspected",
    "rowid": "1239674",
    "final_x": "3703333.6",
    "final_y": "517900.48",
    "longitude": "-89.99962874900241",
    "latitude": "29.917365797601065",
    "geocoded_column": {
      "latitude": "29.917365797601065",
      "longitude": "-89.99962874900241"
    }
  },
  {
    "service_request": "2025-1239673",
    "request_type": "Roads and Streets",
    "request_reason": "Abandoned Service Cut",
    "date_created": "2025-11-12T14:01:14.000",
    "date_modified": "2025-11-12T14:01:51.000",
    "request_status": "Pending",
    "responsible_agency": "Department of Public Works",
    "final_address": "1000 BLK Numa St",
    "address_councildis": "C",
    "status": "Pending",
    "rowid": "1239673",
    "final_x": "3691839.71569",
    "final_y": "527580.402632",
    "longitude": "-90.03556224108479",
    "latitude": "29.94434516301101",
    "geocoded_column": {
      "latitude": "29.94434516301101",
      "longitude": "-90.03556224108479"
    }
  },
  {
    "service_request": "2025-1239672",
    "request_type": "Trash/Recycling",
    "request_reason": "Request a Large Item Pick Up",
    "date_created": "2025-11-12T13:59:40.000",
    "date_modified": "2025-11-12T13:59:42.000",
    "request_status": "Pending",
    "responsible_agency": "Department of Sanitation",
    "final_address": "6013 Beechcraft St",
    "address_councildis": "D",
    "status": "Assigned to Contractor",
    "contractor": "Waste Pro",
    "rowid": "1239672",
    "final_x": "3696530.00771",
    "final_y": "553203.736087",
    "longitude": "-90.01982634433101",
    "latitude": "30.014653166775418",
    "geocoded_column": {
      "latitude": "30.014653166775418",
      "longitude": "-90.01982634433101"
    }
  },
  {
    "service_request": "2025-1239671",
    "request_type": "Trash/Recycling",
    "request_reason": "Request a Large Item Pick Up",
    "date_created": "2025-11-12T13:49:04.000",
    "date_modified": "2025-11-12T13:49:05.000",
    "request_status": "Pending",
    "responsible_agency": "Department of Sanitation",
    "final_address": "933 Pleasant St",
    "address_councildis": "B",
    "status": "Assigned to Contractor",
    "contractor": "IV Waste",
    "rowid": "1239671",
    "final_x": "3675793.66312",
    "final_y": "519473.507895",
    "longitude": "-90.08650280854377",
    "latitude": "29.922543807724495",
    "geocoded_column": {
      "latitude": "29.922543807724495",
      "longitude": "-90.08650280854377"
    }
  },
  {
    "service_request": "2025-1239670",
    "request_type": "Trash/Recycling",
    "request_reason": "Request a Large Item Pick Up",
    "date_created": "2025-11-12T13:45:05.000",
    "date_modified": "2025-11-12T13:45:07.000",
    "request_status": "Pending",
    "responsible_agency": "Department of Sanitation",
    "final_address": "7035 Walmsley Ave",
    "address_councildis": "B",
    "status": "Assigned to Contractor",
    "contractor": "IV Waste",
    "rowid": "1239670",
    "final_x": "3667654.24045",
    "final_y": "531034.71757",
    "longitude": "-90.11180673170965",
    "latitude": "29.95457444265618",
    "geocoded_column": {
      "latitude": "29.95457444265618",
      "longitude": "-90.11180673170965"
    }
  },
  {
    "service_request": "2025-1239669",
    "request_type": "Street and Traffic Signs",
    "request_reason": "Stop Sign Missing or Damaged",
    "date_created": "2025-11-12T13:42:34.000",
    "date_modified": "2025-11-12T13:43:51.000",
    "request_status": "Pending",
    "responsible_agency": "Department of Public Works",
    "final_address": "SKYVIEW DR & AIRWAY ST",
    "address_councildis": "D",
    "status": "Pending",
    "rowid": "1239669",
    "final_x": "3696806.8",
    "final_y": "552758.38",
    "longitude": "-90.01896796086842",
    "latitude": "30.013419877666454",
    "geocoded_column": {
      "latitude": "30.013419877666454",
      "longitude": "-90.01896796086842"
    }
  },
  {
    "service_request": "2025-1239668",
    "request_type": "Trash/Recycling",
    "request_reason": "Repair Trash Cart",
    "date_created": "2025-11-12T13:42:08.000",
    "date_modified": "2025-11-12T13:42:10.000",
    "request_status": "Pending",
    "responsible_agency": "Department of Sanitation",
    "final_address": "3558 Pin Oak Ave",
    "address_councildis": "C",
    "status": "Assigned to Contractor",
    "contractor": "Richards Disposal",
    "rowid": "1239668",
    "final_x": "3703635.07114",
    "final_y": "514998.399155",
    "longitude": "-89.99878387052063",
    "latitude": "29.9093764178415",
    "geocoded_column": {
      "latitude": "29.9093764178415",
      "longitude": "-89.99878387052063"
    }
  },
  {
    "service_request": "2025-1239667",
    "request_type": "Parks & Parkways",
    "request_reason": "Request Tree Service (Right of Way/Public Property)",
    "date_created": "2025-11-12T13:41:21.000",
    "date_modified": "2025-11-12T13:41:23.000",
    "request_status": "Pending",
    "responsible_agency": "Department of Parks & Parkway",
    "final_address": "1201 St Mary St",
    "address_councildis": "B",
    "status": "Pending",
    "rowid": "1239667",
    "final_x": "3679461.71765",
    "final_y": "523174.647995",
    "longitude": "-90.07479591669288",
    "latitude": "29.932610474188653",
    "geocoded_column": {
      "latitude": "29.932610474188653",
      "longitude": "-90.07479591669288"
    }
  },
  {
    "service_request": "2025-1239666",
    "request_type": "Trash/Recycling",
    "request_reason": "Order Trash Cart",
    "date_created": "2025-11-12T13:38:43.000",
    "date_modified": "2025-11-12T13:38:45.000",
    "request_status": "Pending",
    "responsible_agency": "Department of Sanitation",
    "final_address": "1614 State St",
    "address_councildis": "A",
    "status": "Assigned to Contractor",
    "contractor": "IV Waste",
    "rowid": "1239666",
    "final_x": "3665762.42842",
    "final_y": "522719.192634",
    "longitude": "-90.1180588450045",
    "latitude": "29.931764741786097",
    "geocoded_column": {
      "latitude": "29.931764741786097",
      "longitude": "-90.1180588450045"
    }
  },
  {
    "service_request": "2025-1239665",
    "request_type": "Roads and Streets",
    "request_reason": "Street Subsidence (Sinking)",
    "date_created": "2025-11-12T13:35:58.000",
    "date_modified": "2025-11-12T13:36:00.000",
    "request_status": "Pending",
    "responsible_agency": "Sewerage & Water Board",
    "final_address": "2600 S Claiborne Ave",
    "address_councildis": "B",
    "status": "Pending",
    "rowid": "1239665",
    "final_x": "3673710.2011",
    "final_y": "526917.390654",
    "longitude": "-90.09282508374005",
    "latitude": "29.94307424541376",
    "geocoded_column": {
      "latitude": "29.94307424541376",
      "longitude": "-90.09282508374005"
    }
  },
  {
    "service_request": "2025-1239664",
    "request_type": "Trash/Recycling",
    "request_reason": "Request a Large Item Pick Up",
    "date_created": "2025-11-12T13:33:34.000",
    "date_modified": "2025-11-12T13:33:36.000",
    "request_status": "Pending",
    "responsible_agency": "Department of Sanitation",
    "final_address": "962 Harding Dr",
    "address_councildis": "A",
    "status": "Assigned to Contractor",
    "contractor": "IV Waste",
    "rowid": "1239664",
    "final_x": "3674434.52788",
    "final_y": "540143.869707",
    "longitude": "-90.09008510975781",
    "latitude": "29.97942104363167",
    "geocoded_column": {
      "latitude": "29.97942104363167",
      "longitude": "-90.09008510975781"
    }
  },
  {
    "service_request": "2025-1239663",
    "request_type": "Parks & Parkways",
    "request_reason": "Request Tree Service (Right of Way/Public Property)",
    "date_created": "2025-11-12T13:31:58.000",
    "date_modified": "2025-11-12T13:31:59.000",
    "request_status": "Pending",
    "responsible_agency": "Department of Parks & Parkway",
    "final_address": "1520 Andry St",
    "address_councildis": "E",
    "status": "Pending",
    "rowid": "1239663",
    "final_x": "3697586.60752",
    "final_y": "535643.74567",
    "longitude": "-90.0171253225645",
    "latitude": "29.96633628847291",
    "geocoded_column": {
      "latitude": "29.96633628847291",
      "longitude": "-90.0171253225645"
    }
  },
  {
    "service_request": "2025-1239662",
    "request_type": "Streetlights",
    "request_reason": "Streetlight Outage/Malfunction",
    "date_created": "2025-11-12T13:29:55.000",
    "date_modified": "2025-11-12T13:29:57.000",
    "request_status": "Pending",
    "responsible_agency": "Department of Public Works",
    "final_address": "5207 Sandhurst Dr",
    "address_councildis": "E",
    "status": "Pending",
    "rowid": "1239662",
    "final_x": "3704997.92932",
    "final_y": "557058.525018",
    "longitude": "-89.99292958081962",
    "latitude": "30.02498272447879",
    "geocoded_column": {
      "latitude": "30.02498272447879",
      "longitude": "-89.99292958081962"
    }
  },
  {
    "service_request": "2025-1239661",
    "request_type": "General Services",
    "request_reason": "General Service Request",
    "date_created": "2025-11-12T13:29:24.000",
    "date_modified": "2025-11-12T14:25:43.000",
    "case_close_date": "2025-11-12T08:25:42.000",
    "request_status": "Closed",
    "responsible_agency": "Orleans Parish Communication District",
    "final_address": "13751 Explorers Ave",
    "address_councildis": "E",
    "status": "Duplicate Request",
    "rowid": "1239661",
    "final_x": "3725963.69734",
    "final_y": "569611.32311",
    "longitude": "-89.92619500201383",
    "latitude": "30.058806684751236",
    "geocoded_column": {
      "latitude": "30.058806684751236",
      "longitude": "-89.92619500201383"
    }
  },
  {
    "service_request": "2025-1239660",
    "request_type": "Streetlights",
    "request_reason": "Streetlight Knocked Down/Leaning",
    "date_created": "2025-11-12T13:28:08.000",
    "date_modified": "2025-11-12T13:28:09.000",
    "request_status": "Pending",
    "responsible_agency": "Department of Public Works",
    "final_address": "6941 Ridgefield Dr",
    "address_councildis": "E",
    "status": "Pending",
    "rowid": "1239660",
    "final_x": "3719810.48825",
    "final_y": "569145.393894",
    "longitude": "-89.94566233990125",
    "latitude": "30.057731908552565",
    "geocoded_column": {
      "latitude": "30.057731908552565",
      "longitude": "-89.94566233990125"
    }
  },
  {
    "service_request": "2025-1239659",
    "request_type": "Trash/Recycling",
    "request_reason": "Request a Large Item Pick Up",
    "date_created": "2025-11-12T13:27:41.000",
    "date_modified": "2025-11-12T13:27:43.000",
    "request_status": "Pending",
    "responsible_agency": "Department of Sanitation",
    "final_address": "1035 Lamanche St",
    "address_councildis": "E",
    "status": "Assigned to Contractor",
    "contractor": "Waste Pro",
    "rowid": "1239659",
    "final_x": "3698358.31453",
    "final_y": "533508.521284",
    "longitude": "-90.01476589387907",
    "latitude": "29.960440785905803",
    "geocoded_column": {
      "latitude": "29.960440785905803",
      "longitude": "-90.01476589387907"
    }
  },
  {
    "service_request": "2025-1239658",
    "request_type": "Trash/Recycling",
    "request_reason": "Request a Large Item Pick Up",
    "date_created": "2025-11-12T13:27:25.000",
    "date_modified": "2025-11-12T13:27:26.000",
    "request_status": "Pending",
    "responsible_agency": "Department of Sanitation",
    "final_address": "2125 Willow St",
    "address_councildis": "B",
    "status": "Assigned to Contractor",
    "contractor": "IV Waste",
    "rowid": "1239658",
    "final_x": "3674955.18568",
    "final_y": "527465.695295",
    "longitude": "-90.08887555373869",
    "latitude": "29.94454478271209",
    "geocoded_column": {
      "latitude": "29.94454478271209",
      "longitude": "-90.08887555373869"
    }
  },
  {
    "service_request": "2025-1239657",
    "request_type": "Trash/Recycling",
    "request_reason": "Request a Large Item Pick Up",
    "date_created": "2025-11-12T13:27:11.000",
    "date_modified": "2025-11-12T13:27:14.000",
    "request_status": "Pending",
    "responsible_agency": "Department of Sanitation",
    "final_address": "821 Leontine St",
    "address_councildis": "B",
    "status": "Assigned to Contractor",
    "contractor": "IV Waste",
    "rowid": "1239657",
    "final_x": "3667180.40877",
    "final_y": "518490.85951",
    "longitude": "-90.11372449959464",
    "latitude": "29.920096734682936",
    "geocoded_column": {
      "latitude": "29.920096734682936",
      "longitude": "-90.11372449959464"
    }
  },
  {
    "service_request": "2025-1239656",
    "request_type": "Streetlights",
    "request_reason": "Streetlight Outage/Malfunction",
    "date_created": "2025-11-12T13:26:32.000",
    "date_modified": "2025-11-12T13:26:34.000",
    "request_status": "Pending",
    "responsible_agency": "Department of Public Works",
    "final_address": "5427 Crowder Blvd",
    "address_councildis": "E",
    "status": "Pending",
    "rowid": "1239656",
    "final_x": "3706397.2691",
    "final_y": "557043.012442",
    "longitude": "-89.98850850384686",
    "latitude": "30.02489498675801",
    "geocoded_column": {
      "latitude": "30.02489498675801",
      "longitude": "-89.98850850384686"
    }
  },
  {
    "service_request": "2025-1239655",
    "request_type": "Streetlights",
    "request_reason": "Streetlight Outage/Malfunction",
    "date_created": "2025-11-12T13:26:08.000",
    "date_modified": "2025-11-12T13:28:54.000",
    "request_status": "Pending",
    "responsible_agency": "Department of Public Works",
    "final_address": "214 Chartres St",
    "address_councildis": "C",
    "status": "Pending",
    "rowid": "1239655",
    "final_x": "3681824.41308",
    "final_y": "530883.364994",
    "longitude": "-90.0670681580384",
    "latitude": "29.953735298415854",
    "geocoded_column": {
      "latitude": "29.953735298415854",
      "longitude": "-90.0670681580384"
    }
  },
  {
    "service_request": "2025-1239654",
    "request_type": "Trash/Recycling",
    "request_reason": "Request a Large Item Pick Up",
    "date_created": "2025-11-12T13:19:41.000",
    "date_modified": "2025-11-12T13:19:43.000",
    "request_status": "Pending",
    "responsible_agency": "Department of Sanitation",
    "final_address": "7500 Malvern Dr",
    "address_councildis": "E",
    "status": "Assigned to Contractor",
    "contractor": "Waste Pro",
    "rowid": "1239654",
    "final_x": "3702508.01751",
    "final_y": "561186.909534",
    "longitude": "-90.00064552471571",
    "latitude": "30.036414031842614",
    "geocoded_column": {
      "latitude": "30.036414031842614",
      "longitude": "-90.00064552471571"
    }
  },
  {
    "service_request": "2025-1239653",
    "request_type": "Abandoned Vehicles",
    "request_reason": "Abandoned/Junk Vehicles",
    "date_created": "2025-11-12T13:16:59.000",
    "date_modified": "2025-11-12T13:17:01.000",
    "request_status": "Pending",
    "responsible_agency": "Department of Public Works",
    "final_address": "7138 Crowder Blvd",
    "address_councildis": "E",
    "status": "Pending",
    "rowid": "1239653",
    "final_x": "3704105.60004",
    "final_y": "559967.415133",
    "longitude": "-89.99564187090485",
    "latitude": "30.03300971240452",
    "geocoded_column": {
      "latitude": "30.03300971240452",
      "longitude": "-89.99564187090485"
    }
  },
  {
    "service_request": "2025-1239652",
    "request_type": "Streetlights",
    "request_reason": "Streetlight Outage/Malfunction",
    "date_created": "2025-11-12T13:16:12.000",
    "date_modified": "2025-11-12T13:16:14.000",
    "request_status": "Pending",
    "responsible_agency": "Department of Public Works",
    "final_address": "3036 Ursulines Ave",
    "address_councildis": "A",
    "status": "Pending",
    "rowid": "1239652",
    "final_x": "3676216.03272",
    "final_y": "539150.98337",
    "longitude": "-90.08449258313757",
    "latitude": "29.976637677557903",
    "geocoded_column": {
      "latitude": "29.976637677557903",
      "longitude": "-90.08449258313757"
    }
  },
  {
    "service_request": "2025-1239651",
    "request_type": "Streetlights",
    "request_reason": "Streetlight Outage/Malfunction",
    "date_created": "2025-11-12T13:10:54.000",
    "date_modified": "2025-11-12T13:10:55.000",
    "request_status": "Pending",
    "responsible_agency": "Department of Public Works",
    "final_address": "8501 Lake Forest Blvd",
    "address_councildis": "E",
    "status": "Pending",
    "rowid": "1239651",
    "final_x": "3705934.16228",
    "final_y": "558213.466524",
    "longitude": "-89.98992847266243",
    "latitude": "30.028128216452462",
    "geocoded_column": {
      "latitude": "30.028128216452462",
      "longitude": "-89.98992847266243"
    }
  },
  {
    "service_request": "2025-1239650",
    "request_type": "Trash/Recycling",
    "request_reason": "Repair Trash Cart",
    "date_created": "2025-11-12T13:03:56.000",
    "date_modified": "2025-11-12T13:03:57.000",
    "request_status": "Pending",
    "responsible_agency": "Department of Sanitation",
    "final_address": "1437 Calhoun St",
    "address_councildis": "A",
    "status": "Assigned to Contractor",
    "contractor": "IV Waste",
    "rowid": "1239650",
    "final_x": "3664406.91764",
    "final_y": "521847.104314",
    "longitude": "-90.12236715683007",
    "latitude": "29.92940623543677",
    "geocoded_column": {
      "latitude": "29.92940623543677",
      "longitude": "-90.12236715683007"
    }
  },
  {
    "service_request": "2025-1239649",
    "request_type": "Trash/Recycling",
    "request_reason": "Request a Large Item Pick Up",
    "date_created": "2025-11-12T12:59:14.000",
    "date_modified": "2025-11-12T12:59:15.000",
    "request_status": "Pending",
    "responsible_agency": "Department of Sanitation",
    "final_address": "7001 Curran Rd",
    "address_councildis": "E",
    "status": "Assigned to Contractor",
    "contractor": "Waste Pro",
    "rowid": "1239649",
    "final_x": "3698827.46877",
    "final_y": "560416.924638",
    "longitude": "-90.01230478595913",
    "latitude": "30.034414061597346",
    "geocoded_column": {
      "latitude": "30.034414061597346",
      "longitude": "-90.01230478595913"
    }
  },
  {
    "service_request": "2025-1239648",
    "request_type": "Trash/Recycling",
    "request_reason": "Repair Trash Cart",
    "date_created": "2025-11-12T12:58:18.000",
    "date_modified": "2025-11-12T12:58:19.000",
    "request_status": "Pending",
    "responsible_agency": "Department of Sanitation",
    "final_address": "203 S Dupre St",
    "address_councildis": "B",
    "status": "Assigned to Contractor",
    "contractor": "IV Waste",
    "rowid": "1239648",
    "final_x": "3674294.93006",
    "final_y": "535310.99879",
    "longitude": "-90.09069155233556",
    "latitude": "29.96613645513948",
    "geocoded_column": {
      "latitude": "29.96613645513948",
      "longitude": "-90.09069155233556"
    }
  },
  {
    "service_request": "2025-1239647",
    "request_type": "Roads and Streets",
    "request_reason": "Sidewalk Damaged or Missing",
    "date_created": "2025-11-12T12:53:29.000",
    "date_modified": "2025-11-12T12:53:30.000",
    "request_status": "Pending",
    "responsible_agency": "Department of Public Works",
    "final_address": "537 S Peters St",
    "address_councildis": "B",
    "status": "Pending",
    "rowid": "1239647",
    "final_x": "3682176.74504",
    "final_y": "528664.377024",
    "longitude": "-90.06603313467254",
    "latitude": "29.947623120277534",
    "geocoded_column": {
      "latitude": "29.947623120277534",
      "longitude": "-90.06603313467254"
    }
  },
  {
    "service_request": "2025-1239646",
    "request_type": "Healthy Homes",
    "request_reason": "Healthy Homes",
    "date_created": "2025-11-12T12:49:05.000",
    "date_modified": "2025-11-12T12:49:07.000",
    "request_status": "Pending",
    "responsible_agency": "Department of Code Enforcement",
    "final_address": "1806 Wilton Dr",
    "address_councildis": "D",
    "status": "Pending",
    "rowid": "1239646",
    "final_x": "3681216.07535",
    "final_y": "550810.928469",
    "longitude": "-90.06829434794605",
    "latitude": "30.00854761329899",
    "geocoded_column": {
      "latitude": "30.00854761329899",
      "longitude": "-90.06829434794605"
    }
  },
  {
    "service_request": "2025-1239645",
    "request_type": "Roads and Streets",
    "request_reason": "Pothole",
    "date_created": "2025-11-12T12:47:27.000",
    "date_modified": "2025-11-12T12:47:28.000",
    "request_status": "Pending",
    "responsible_agency": "Department of Public Works",
    "final_address": "7635 Shorewood Blvd",
    "address_councildis": "E",
    "status": "Pending",
    "rowid": "1239645",
    "final_x": "3719775.85042",
    "final_y": "572837.602729",
    "longitude": "-89.9456304846369",
    "latitude": "30.06788509032561",
    "geocoded_column": {
      "latitude": "30.06788509032561",
      "longitude": "-89.9456304846369"
    }
  },
  {
    "service_request": "2025-1239644",
    "request_type": "Roads and Streets",
    "request_reason": "Sidewalk Damaged or Missing",
    "date_created": "2025-11-12T12:43:46.000",
    "date_modified": "2025-11-12T12:43:48.000",
    "request_status": "Pending",
    "responsible_agency": "Department of Public Works",
    "final_address": "840 Alvar St",
    "address_councildis": "C",
    "status": "Pending",
    "rowid": "1239644",
    "final_x": "3691241.01948",
    "final_y": "534512.441477",
    "longitude": "-90.03720491967127",
    "latitude": "29.96342449759948",
    "geocoded_column": {
      "latitude": "29.96342449759948",
      "longitude": "-90.03720491967127"
    }
  },
  {
    "service_request": "2025-1239643",
    "request_type": "Abandoned Vehicles",
    "request_reason": "Abandoned/Junk Vehicles",
    "date_created": "2025-11-12T12:39:59.000",
    "date_modified": "2025-11-12T13:07:16.000",
    "request_status": "Pending",
    "responsible_agency": "Department of Public Works",
    "final_address": "2900 Johnny Jackson Jr Blvd",
    "address_councildis": "D",
    "status": "Inspected",
    "rowid": "1239643",
    "final_x": "3691309.68291",
    "final_y": "543082.269069",
    "longitude": "-90.03668184475085",
    "latitude": "29.986986344259915",
    "geocoded_column": {
      "latitude": "29.986986344259915",
      "longitude": "-90.03668184475085"
    }
  },
  {
    "service_request": "2025-1239642",
    "request_type": "Roads and Streets",
    "request_reason": "Abandoned Service Cut",
    "date_created": "2025-11-12T12:36:50.000",
    "date_modified": "2025-11-12T12:37:34.000",
    "request_status": "Pending",
    "responsible_agency": "Department of Public Works",
    "final_address": "4025 Vincennes Pl",
    "address_councildis": "B",
    "status": "Pending",
    "rowid": "1239642",
    "final_x": "3668484.69441",
    "final_y": "530133.819521",
    "longitude": "-90.10921486318759",
    "latitude": "29.95207289895459",
    "geocoded_column": {
      "latitude": "29.95207289895459",
      "longitude": "-90.10921486318759"
    }
  },
  {
    "service_request": "2025-1239641",
    "request_type": "Trash/Recycling",
    "request_reason": "Request a Large Item Pick Up",
    "date_created": "2025-11-12T12:30:03.000",
    "date_modified": "2025-11-12T12:30:40.000",
    "request_status": "Pending",
    "responsible_agency": "Department of Sanitation",
    "final_address": "7940 Parry St",
    "address_councildis": "E",
    "status": "Assigned to Contractor",
    "contractor": "Waste Pro",
    "rowid": "1239641",
    "final_x": "3713665.7532",
    "final_y": "569354.983014",
    "longitude": "-89.96507697601739",
    "latitude": "30.058511375046216",
    "geocoded_column": {
      "latitude": "30.058511375046216",
      "longitude": "-89.96507697601739"
    }
  },
  {
    "service_request": "2025-1239640",
    "request_type": "Trash/Recycling",
    "request_reason": "Request a Large Item Pick Up",
    "date_created": "2025-11-12T12:26:04.000",
    "date_modified": "2025-11-12T12:26:05.000",
    "request_status": "Pending",
    "responsible_agency": "Department of Sanitation",
    "final_address": "1901 St Louis St",
    "address_councildis": "D",
    "status": "Assigned to Contractor",
    "contractor": "IV Waste",
    "rowid": "1239640",
    "final_x": "3678703.57122",
    "final_y": "534488.270789",
    "longitude": "-90.07679765596215",
    "latitude": "29.963742033144197",
    "geocoded_column": {
      "latitude": "29.963742033144197",
      "longitude": "-90.07679765596215"
    }
  },
  {
    "service_request": "2025-1239639",
    "request_type": "Property Maintenance",
    "request_reason": "Property Maintenance",
    "date_created": "2025-11-12T12:24:24.000",
    "date_modified": "2025-11-12T12:24:26.000",
    "request_status": "Pending",
    "responsible_agency": "Department of Code Enforcement",
    "final_address": "2440 St Roch Ave",
    "address_councildis": "D",
    "status": "Pending",
    "rowid": "1239639",
    "final_x": "3686004.32386",
    "final_y": "541541.460108",
    "longitude": "-90.05349387147895",
    "latitude": "29.982913677870307",
    "geocoded_column": {
      "latitude": "29.982913677870307",
      "longitude": "-90.05349387147895"
    }
  },
  {
    "service_request": "2025-1239638",
    "request_type": "Roads and Streets",
    "request_reason": "Street Subsidence (Sinking)",
    "date_created": "2025-11-12T12:24:21.000",
    "date_modified": "2025-11-12T12:24:22.000",
    "request_status": "Pending",
    "responsible_agency": "Sewerage & Water Board",
    "final_address": "3700 BLK MacArthur Blvd",
    "address_councildis": "C",
    "status": "Pending",
    "rowid": "1239638",
    "final_x": "3697254.60841",
    "final_y": "520510.597218",
    "longitude": "-90.01872205574158",
    "latitude": "29.92473589075402",
    "geocoded_column": {
      "latitude": "29.92473589075402",
      "longitude": "-90.01872205574158"
    }
  },
  {
    "service_request": "2025-1239637",
    "request_type": "Trash/Recycling",
    "request_reason": "Repair Trash Cart",
    "date_created": "2025-11-12T12:19:05.000",
    "date_modified": "2025-11-12T12:19:07.000",
    "request_status": "Pending",
    "responsible_agency": "Department of Sanitation",
    "final_address": "3443 Audubon St",
    "address_councildis": "B",
    "status": "Assigned to Contractor",
    "contractor": "IV Waste",
    "rowid": "1239637",
    "final_x": "3668947.67905",
    "final_y": "533007.044292",
    "longitude": "-90.107655925847",
    "latitude": "29.959959713609653",
    "geocoded_column": {
      "latitude": "29.959959713609653",
      "longitude": "-90.107655925847"
    }
  },
  {
    "service_request": "2025-1239636",
    "request_type": "Trash/Recycling",
    "request_reason": "Request a Large Item Pick Up",
    "date_created": "2025-11-12T12:18:43.000",
    "date_modified": "2025-11-12T12:18:45.000",
    "request_status": "Pending",
    "responsible_agency": "Department of Sanitation",
    "final_address": "2001 Arts St",
    "address_councildis": "D",
    "status": "Assigned to Contractor",
    "contractor": "IV Waste",
    "rowid": "1239636",
    "final_x": "3686974.65442",
    "final_y": "539833.10177",
    "longitude": "-90.05048949240754",
    "latitude": "29.978186459923215",
    "geocoded_column": {
      "latitude": "29.978186459923215",
      "longitude": "-90.05048949240754"
    }
  },
  {
    "service_request": "2025-1239635",
    "request_type": "Parks & Parkways",
    "request_reason": "Request Tree Service (Right of Way/Public Property)",
    "date_created": "2025-11-12T12:16:45.000",
    "date_modified": "2025-11-12T12:22:32.000",
    "request_status": "Pending",
    "responsible_agency": "Department of Parks & Parkway",
    "final_address": "4921 Perrier St",
    "address_councildis": "B",
    "status": "Pending",
    "rowid": "1239635",
    "final_x": "3668849.62362",
    "final_y": "519926.110008",
    "longitude": "-90.10840714198238",
    "latitude": "29.923994261107154",
    "geocoded_column": {
      "latitude": "29.923994261107154",
      "longitude": "-90.10840714198238"
    }
  },
  {
    "service_request": "2025-1239634",
    "request_type": "Parks & Parkways",
    "request_reason": "Request Tree Service (Right of Way/Public Property)",
    "date_created": "2025-11-12T12:16:11.000",
    "date_modified": "2025-11-12T12:16:12.000",
    "request_status": "Pending",
    "responsible_agency": "Department of Parks & Parkway",
    "final_address": "2400 BLK Saint Roch Ave",
    "address_councildis": "D",
    "status": "Pending",
    "rowid": "1239634",
    "final_x": "3686130.89575",
    "final_y": "541397.203411",
    "longitude": "-90.05309918480089",
    "latitude": "29.982513135091317",
    "geocoded_column": {
      "latitude": "29.982513135091317",
      "longitude": "-90.05309918480089"
    }
  },
  {
    "service_request": "2025-1239633",
    "request_type": "Trash/Recycling",
    "request_reason": "Order Second Trash Cart",
    "date_created": "2025-11-12T12:16:05.000",
    "date_modified": "2025-11-12T12:16:07.000",
    "request_status": "Pending",
    "responsible_agency": "Department of Sanitation",
    "final_address": "1237 Delery St",
    "address_councildis": "E",
    "status": "Assigned to Contractor",
    "contractor": "Waste Pro",
    "rowid": "1239633",
    "final_x": "3700700.75863",
    "final_y": "533511.911876",
    "longitude": "-90.00736885789401",
    "latitude": "29.96037578259133",
    "geocoded_column": {
      "latitude": "29.96037578259133",
      "longitude": "-90.00736885789401"
    }
  },
  {
    "service_request": "2025-1239632",
    "request_type": "Trash/Recycling",
    "request_reason": "Order Second Trash Cart",
    "date_created": "2025-11-12T12:15:20.000",
    "date_modified": "2025-11-12T12:15:22.000",
    "request_status": "Pending",
    "responsible_agency": "Department of Sanitation",
    "final_address": "6417 Marque St",
    "address_councildis": "E",
    "status": "Assigned to Contractor",
    "contractor": "Waste Pro",
    "rowid": "1239632",
    "final_x": "3700791.46532",
    "final_y": "533415.409092",
    "longitude": "-90.00708595388829",
    "latitude": "29.960107547925677",
    "geocoded_column": {
      "latitude": "29.960107547925677",
      "longitude": "-90.00708595388829"
    }
  },
  {
    "service_request": "2025-1239631",
    "request_type": "Trash/Recycling",
    "request_reason": "Request a Large Item Pick Up",
    "date_created": "2025-11-12T12:08:58.000",
    "date_modified": "2025-11-12T12:09:00.000",
    "request_status": "Pending",
    "responsible_agency": "Department of Sanitation",
    "final_address": "2615 Ap Tureaud Ave",
    "address_councildis": "D",
    "status": "Assigned to Contractor",
    "contractor": "IV Waste",
    "rowid": "1239631",
    "final_x": "3681667.1709",
    "final_y": "541722.23022",
    "longitude": "-90.0671864830669",
    "latitude": "29.983543222375598",
    "geocoded_column": {
      "latitude": "29.983543222375598",
      "longitude": "-90.0671864830669"
    }
  },
  {
    "service_request": "2025-1239630",
    "request_type": "Trash/Recycling",
    "request_reason": "Replace Recycling Cart",
    "date_created": "2025-11-12T12:07:37.000",
    "date_modified": "2025-11-12T12:07:38.000",
    "request_status": "Pending",
    "responsible_agency": "Department of Sanitation",
    "final_address": "4037 Vincennes Pl",
    "address_councildis": "B",
    "status": "Pending",
    "rowid": "1239630",
    "final_x": "3668559.24673",
    "final_y": "530417.239874",
    "longitude": "-90.10896989876645",
    "latitude": "29.952850021977994",
    "geocoded_column": {
      "latitude": "29.952850021977994",
      "longitude": "-90.10896989876645"
    }
  },
  {
    "service_request": "2025-1239629",
    "request_type": "Trash/Recycling",
    "request_reason": "Request a Large Item Pick Up",
    "date_created": "2025-11-12T12:05:58.000",
    "date_modified": "2025-11-12T12:06:00.000",
    "request_status": "Pending",
    "responsible_agency": "Department of Sanitation",
    "final_address": "5541 Bentley Dr",
    "address_councildis": "E",
    "status": "Assigned to Contractor",
    "contractor": "Waste Pro",
    "rowid": "1239629",
    "final_x": "3703999.2483",
    "final_y": "556597.480986",
    "longitude": "-89.99610223026448",
    "latitude": "30.023747116639893",
    "geocoded_column": {
      "latitude": "30.023747116639893",
      "longitude": "-89.99610223026448"
    }
  },
  {
    "service_request": "2025-1239628",
    "request_type": "Trash/Recycling",
    "request_reason": "Repair Trash Cart",
    "date_created": "2025-11-12T12:03:08.000",
    "date_modified": "2025-11-12T12:03:11.000",
    "request_status": "Pending",
    "responsible_agency": "Department of Sanitation",
    "final_address": "2622 General Ogden St",
    "address_councildis": "A",
    "status": "Assigned to Contractor",
    "contractor": "IV Waste",
    "rowid": "1239628",
    "final_x": "3663349.63251",
    "final_y": "534160.205061",
    "longitude": "-90.1252950238719",
    "latitude": "29.96329399417698",
    "geocoded_column": {
      "latitude": "29.96329399417698",
      "longitude": "-90.1252950238719"
    }
  },
  {
    "service_request": "2025-1239627",
    "request_type": "Streetlights",
    "request_reason": "Streetlight Outage/Malfunction",
    "date_created": "2025-11-12T11:56:03.000",
    "date_modified": "2025-11-12T11:56:05.000",
    "request_status": "Pending",
    "responsible_agency": "Department of Public Works",
    "final_address": "1464 N Broad St",
    "address_councildis": "D",
    "status": "Pending",
    "rowid": "1239627",
    "final_x": "3678574.65538",
    "final_y": "539336.562442",
    "longitude": "-90.0770368963787",
    "latitude": "29.977077061415976",
    "geocoded_column": {
      "latitude": "29.977077061415976",
      "longitude": "-90.0770368963787"
    }
  },
  {
    "service_request": "2025-1239626",
    "request_type": "Trash/Recycling",
    "request_reason": "Request a Large Item Pick Up",
    "date_created": "2025-11-12T11:53:44.000",
    "date_modified": "2025-11-12T11:53:46.000",
    "request_status": "Pending",
    "responsible_agency": "Department of Sanitation",
    "final_address": "6940 Bundy Rd",
    "address_councildis": "E",
    "status": "Assigned to Contractor",
    "contractor": "Waste Pro",
    "rowid": "1239626",
    "final_x": "3707076.93988",
    "final_y": "560551.857118",
    "longitude": "-89.98623052560575",
    "latitude": "30.034520982988756",
    "geocoded_column": {
      "latitude": "30.034520982988756",
      "longitude": "-89.98623052560575"
    }
  },
  {
    "service_request": "2025-1239625",
    "request_type": "Drainage",
    "request_reason": "Catch Basin Not Draining",
    "date_created": "2025-11-12T11:53:41.000",
    "date_modified": "2025-11-12T11:53:43.000",
    "request_status": "Pending",
    "responsible_agency": "Sewerage & Water Board",
    "final_address": "1373 Magazine St",
    "address_councildis": "B",
    "status": "Pending",
    "rowid": "1239625",
    "final_x": "3680350.98754",
    "final_y": "524640.560444",
    "longitude": "-90.071937622773",
    "latitude": "29.936614362355204",
    "geocoded_column": {
      "latitude": "29.936614362355204",
      "longitude": "-90.071937622773"
    }
  },
  {
    "service_request": "2025-1239624",
    "request_type": "General Services",
    "request_reason": "General Service Request",
    "date_created": "2025-11-12T11:53:26.000",
    "date_modified": "2025-11-12T12:16:58.000",
    "case_close_date": "2025-11-12T06:16:57.000",
    "request_status": "Closed",
    "responsible_agency": "Orleans Parish Communication District",
    "final_address": "4203 S Broad St",
    "address_councildis": "B",
    "status": "Question Answered.",
    "rowid": "1239624",
    "final_x": "3670563.56199",
    "final_y": "529410.792257",
    "longitude": "-90.10267527585485",
    "latitude": "29.950023580708798",
    "geocoded_column": {
      "latitude": "29.950023580708798",
      "longitude": "-90.10267527585485"
    }
  },
  {
    "service_request": "2025-1239623",
    "request_type": "Trash/Recycling",
    "request_reason": "Request a Large Item Pick Up",
    "date_created": "2025-11-12T11:52:02.000",
    "date_modified": "2025-11-12T15:23:26.000",
    "case_close_date": "2025-11-12T09:23:25.000",
    "request_status": "Closed",
    "responsible_agency": "Department of Sanitation",
    "final_address": "4858 Charmes Ct",
    "address_councildis": "E",
    "status": "Assigned to Contractor",
    "contractor": "Waste Pro",
    "contractor_action": "Duplicate",
    "rowid": "1239623",
    "final_x": "3726234.74419",
    "final_y": "561557.201247",
    "longitude": "-89.92565101802914",
    "latitude": "30.036652058167455",
    "geocoded_column": {
      "latitude": "30.036652058167455",
      "longitude": "-89.92565101802914"
    }
  },