[
  {
    "service_request": "2022-870967",
    "request_type": "Health Related Questions",
    "request_reason": "Noise Ordinance Complaint",
    "date_created": "2022-03-31T00:00:27.000",
    "date_modified": "2022-03-31T00:00:27.000",
    "request_status": "Pending",
    "responsible_agency": "Health Department",
    "final_address": "718 Bourbon St, New Orleans, Louisiana, 70116",
    "address_councildis": "C",
    "status": "Pending",
    "rowid": "870967",
    "final_x": "3682364.17781",
    "final_y": "532746.008004",
    "longitude": "-90.06529872053143",
    "latitude": "29.95884052062511",
    "geocoded_column": {
      "latitude": "29.95884052062511",
      "longitude": "-90.06529872053143"
    }
  },
  {
    "service_request": "2022-870966",
    "request_type": "Health Related Questions",
    "request_reason": "Noise Ordinance Complaint",
    "date_created": "2022-03-30T23:18:35.000",
    "date_modified": "2022-03-30T23:18:35.000",
    "request_status": "Pending",
    "responsible_agency": "Health Department",
    "final_address": "718 Bourbon St, New Orleans, Louisiana, 70116",
    "address_councildis": "C",
    "status": "Pending",
    "rowid": "870966",
    "final_x": "3682364.17781",
    "final_y": "532746.008004",
    "longitude": "-90.06529872053143",
    "latitude": "29.95884052062511",
    "geocoded_column": {
      "latitude": "29.95884052062511",
      "longitude": "-90.06529872053143"
    }
  },
  {
    "service_request": "2022-870965",
    "request_type": "Health Related Questions",
    "request_reason": "Noise Ordinance Complaint",
    "date_created": "2022-03-30T22:44:01.000",
    "date_modified": "2022-03-30T22:44:01.000",
    "request_status": "Pending",
    "responsible_agency": "Health Department",
    "final_address": "718 Bourbon St, New Orleans, Louisiana, 70116",
    "address_councildis": "C",
    "status": "Pending",
    "rowid": "870965",
    "final_x": "3682364.17781",
    "final_y": "532746.008004",
    "longitude": "-90.06529872053143",
    "latitude": "29.95884052062511",
    "geocoded_column": {
      "latitude": "29.95884052062511",
      "longitude": "-90.06529872053143"
    }
  },
  {
    "service_request": "2022-870964",
    "request_type": "Health Related Questions",
    "request_reason": "Noise Ordinance Complaint",
    "date_created": "2022-03-30T22:41:42.000",
    "date_modified": "2022-03-30T22:41:42.000",
    "request_status": "Pending",
    "responsible_agency": "Health Department",
    "final_address": "718 Bourbon St, New Orleans, Louisiana, 70116",
    "address_councildis": "C",
    "status": "Pending",
    "rowid": "870964",
    "final_x": "3682364.17781",
    "final_y": "532746.008004",
    "longitude": "-90.06529872053143",
    "latitude": "29.95884052062511",
    "geocoded_column": {
      "latitude": "29.95884052062511",
      "longitude": "-90.06529872053143"
    }
  },
  {
    "service_request": "2022-870963",
    "request_type": "Mosquito, Termite & Rodent Control",
    "request_reason": "Mosquito Complaint",
    "date_created": "2022-03-30T22:38:09.000",
    "date_modified": "2022-03-30T22:38:09.000",
    "request_status": "Pending",
    "responsible_agency": "Mosquito, Termite & Rodent Control Board",
    "final_address": "4721 Werner Dr",
    "address_councildis": "E",
    "status": "Pending",
    "rowid": "870963",
    "final_x": "3704868.08337",
    "final_y": "555165.642905",
    "longitude": "-89.99340981282836",
    "latitude": "30.019782206613698",
    "geocoded_column": {
      "latitude": "30.019782206613698",
      "longitude": "-89.99340981282836"
    }
  },
  {
    "service_request": "2022-870962",
    "request_type": "Traffic Signals/Signs/Striping/Streetlights",
    "request_reason": "Street Light Outage/Malfunction",
    "date_created": "2022-03-30T22:36:50.000",
    "date_modified": "2022-03-30T22:36:51.000",
    "request_status": "Pending",
    "responsible_agency": "Department of Public Works",
    "final_address": "4721 Werner Dr",
    "address_councildis": "E",
    "status": "Pending",
    "contractor": "Royal Engineering",
    "rowid": "870962",
    "final_x": "3704868.08337",
    "final_y": "555165.642905",
    "longitude": "-89.99340981282836",
    "latitude": "30.019782206613698",
    "geocoded_column": {
      "latitude": "30.019782206613698",
      "longitude": "-89.99340981282836"
    }
  },
  {
    "service_request": "2022-870961",
    "request_type": "Traffic Signals/Signs/Striping/Streetlights",
    "request_reason": "Traffic Sign Missing/Damaged",
    "date_created": "2022-03-30T22:36:24.000",
    "date_modified": "2022-03-30T22:36:24.000",
    "request_status": "Pending",
    "responsible_agency": "Department of Public Works",
    "final_address": "700 Valence St",
    "address_councildis": "B",
    "status": "Pending",
    "rowid": "870961",
    "final_x": "3669930.61793",
    "final_y": "517972.332278",
    "longitude": "-90.105060929543",
    "latitude": "29.918590171905134",
    "geocoded_column": {
      "latitude": "29.918590171905134",
      "longitude": "-90.105060929543"
    }
  },
  {
    "service_request": "2022-870960",
    "request_type": "Roads/Drainage",
    "request_reason": "Pothole",
    "date_created": "2022-03-30T21:51:52.000",
    "date_modified": "2022-03-30T21:51:52.000",
    "request_status": "Pending",
    "responsible_agency": "Department of Public Works",
    "final_address": "1600 Canal St",
    "address_councildis": "B",
    "status": "Pending",
    "rowid": "870960",
    "final_x": "3678593.30325",
    "final_y": "532525.416708",
    "longitude": "-90.07721382195156",
    "latitude": "29.958348173876995",
    "geocoded_column": {
      "latitude": "29.958348173876995",
      "longitude": "-90.07721382195156"
    }
  },
  {
    "service_request": "2022-870959",
    "request_type": "Property Maintenance",
    "request_reason": "Property Maintenance",
    "date_created": "2022-03-30T21:45:15.000",
    "date_modified": "2022-03-30T21:45:15.000",
    "request_status": "Pending",
    "responsible_agency": "Department of Code Enforcement",
    "final_address": "5301 Magazine St",
    "address_councildis": "B",
    "status": "Pending",
    "rowid": "870959",
    "final_x": "3667468.00762",
    "final_y": "518695.941815",
    "longitude": "-90.11280978943341",
    "latitude": "29.92065222620848",
    "geocoded_column": {
      "latitude": "29.92065222620848",
      "longitude": "-90.11280978943341"
    }
  },
  {
    "service_request": "2022-870958",
    "request_type": "Traffic Signals/Signs/Striping/Streetlights",
    "request_reason": "Street Light Outage/Malfunction",
    "date_created": "2022-03-30T21:44:15.000",
    "date_modified": "2022-03-30T21:44:16.000",
    "request_status": "Pending",
    "responsible_agency": "Department of Public Works",
    "final_address": "7411 Chadbourne Dr",
    "address_councildis": "E",
    "status": "Pending",
    "contractor": "Royal Engineering",
    "rowid": "870958",
    "final_x": "3701462.77521",
    "final_y": "557645.086363",
    "longitude": "-90.00407852391213",
    "latitude": "30.02670877707106",
    "geocoded_column": {
      "latitude": "30.02670877707106",
      "longitude": "-90.00407852391213"
    }
  },
  {
    "service_request": "2022-870957",
    "request_type": "Traffic Signals/Signs/Striping/Streetlights",
    "request_reason": "Street Light Outage/Malfunction",
    "date_created": "2022-03-30T21:42:55.000",
    "date_modified": "2022-03-30T21:42:56.000",
    "request_status": "Pending",
    "responsible_agency": "Department of Public Works",
    "final_address": "7321 Chadbourne Dr",
    "address_councildis": "E",
    "status": "Pending",
    "contractor": "Royal Engineering",
    "rowid": "870957",
    "final_x": "3701253.53143",
    "final_y": "557600.469915",
    "longitude": "-90.0047413423868",
    "latitude": "30.02659277174911",
    "geocoded_column": {
      "latitude": "30.02659277174911",
      "longitude": "-90.0047413423868"
    }
  },
  {
    "service_request": "2022-870956",
    "request_type": "Traffic Signals/Signs/Striping/Streetlights",
    "request_reason": "Street Light Outage/Malfunction",
    "date_created": "2022-03-30T21:40:51.000",
    "date_modified": "2022-03-30T21:40:52.000",
    "request_status": "Pending",
    "responsible_agency": "Department of Public Works",
    "final_address": "7201 Chadbourne Dr",
    "address_councildis": "E",
    "status": "Pending",
    "contractor": "Royal Engineering",
    "rowid": "870956",
    "final_x": "3700757.52273",
    "final_y": "557495.488987",
    "longitude": "-90.00631250715918",
    "latitude": "30.026319918874247",
    "geocoded_column": {
      "latitude": "30.026319918874247",
      "longitude": "-90.00631250715918"
    }
  },
  {
    "service_request": "2022-870955",
    "request_type": "Traffic Signals/Signs/Striping/Streetlights",
    "request_reason": "Street Light Outage/Malfunction",
    "date_created": "2022-03-30T21:32:49.000",
    "date_modified": "2022-03-30T21:32:50.000",
    "request_status": "Pending",
    "responsible_agency": "Department of Public Works",
    "final_address": "331 Eliza St",
    "address_councildis": "C",
    "status": "Pending",
    "contractor": "Royal Engineering",
    "rowid": "870955",
    "final_x": "3686575.18332",
    "final_y": "529562.404289",
    "longitude": "-90.05211387305478",
    "latitude": "29.949957894077688",
    "geocoded_column": {
      "latitude": "29.949957894077688",
      "longitude": "-90.05211387305478"
    }
  },
  {
    "service_request": "2022-870954",
    "request_type": "Property Maintenance",
    "request_reason": "Property Maintenance",
    "date_created": "2022-03-30T21:29:07.000",
    "date_modified": "2022-03-30T21:29:07.000",
    "request_status": "Pending",
    "responsible_agency": "Department of Code Enforcement",
    "final_address": "6800 S Interstate 10 Service Rd",
    "address_councildis": "E",
    "status": "Pending",
    "rowid": "870954",
    "final_x": "3699572.72151",
    "final_y": "556889.258906",
    "longitude": "-90.01007843819505",
    "latitude": "30.02469069419991",
    "geocoded_column": {
      "latitude": "30.02469069419991",
      "longitude": "-90.01007843819505"
    }
  },
  {
    "service_request": "2022-870953",
    "request_type": "Traffic Signals/Signs/Striping/Streetlights",
    "request_reason": "Street Light Outage/Malfunction",
    "date_created": "2022-03-30T21:26:36.000",
    "date_modified": "2022-03-30T21:26:37.000",
    "request_status": "Pending",
    "responsible_agency": "Department of Public Works",
    "final_address": "6888 Farwood Rd",
    "address_councildis": "E",
    "status": "Pending",
    "contractor": "Royal Engineering",
    "rowid": "870953",
    "final_x": "3700605.85597",
    "final_y": "557482.428379",
    "longitude": "-90.00679223088521",
    "latitude": "30.026288836029426",
    "geocoded_column": {
      "latitude": "30.026288836029426",
      "longitude": "-90.00679223088521"
    }
  },
  {
    "service_request": "2022-870952",
    "request_type": "Roads/Drainage",
    "request_reason": "Catch Basin - Clogged",
    "date_created": "2022-03-30T21:23:13.000",
    "date_modified": "2022-03-30T21:23:13.000",
    "request_status": "Pending",
    "responsible_agency": "Department of Public Works",
    "final_address": "2020 N Rampart St",
    "address_councildis": "C",
    "status": "Pending",
    "rowid": "870952",
    "final_x": "3684448.49423",
    "final_y": "535866.982151",
    "longitude": "-90.05860735214893",
    "latitude": "29.967358536375563",
    "geocoded_column": {
      "latitude": "29.967358536375563",
      "longitude": "-90.05860735214893"
    }
  },
  {
    "service_request": "2022-870951",
    "request_type": "Traffic Signals/Signs/Striping/Streetlights",
    "request_reason": "Street Light Outage/Malfunction",
    "date_created": "2022-03-30T21:16:16.000",
    "date_modified": "2022-03-30T21:16:16.000",
    "request_status": "Pending",
    "responsible_agency": "Department of Public Works",
    "final_address": "6901 Bundy Rd",
    "address_councildis": "E",
    "status": "Pending",
    "contractor": "Royal Engineering",
    "rowid": "870951",
    "final_x": "3707837.15224",
    "final_y": "560896.339294",
    "longitude": "-89.98381534679261",
    "latitude": "30.035443576501855",
    "geocoded_column": {
      "latitude": "30.035443576501855",
      "longitude": "-89.98381534679261"
    }
  },
  {
    "service_request": "2022-870950",
    "request_type": "Traffic Signals/Signs/Striping/Streetlights",
    "request_reason": "Street Light Outage/Malfunction",
    "date_created": "2022-03-30T21:06:04.000",
    "date_modified": "2022-03-30T21:06:05.000",
    "request_status": "Pending",
    "responsible_agency": "Department of Public Works",
    "final_address": "11831 N Interstate 10 Service Rd",
    "address_councildis": "E",
    "status": "Pending",
    "contractor": "Royal Engineering",
    "rowid": "870950",
    "final_x": "3714480.95128",
    "final_y": "565222.087266",
    "longitude": "-89.96265651259479",
    "latitude": "30.04712081189509",
    "geocoded_column": {
      "latitude": "30.04712081189509",
      "longitude": "-89.96265651259479"
    }
  },
  {
    "service_request": "2022-870949",
    "request_type": "Traffic Signals/Signs/Striping/Streetlights",
    "request_reason": "Street Light Outage/Malfunction",
    "date_created": "2022-03-30T21:02:08.000",
    "date_modified": "2022-03-30T21:02:10.000",
    "request_status": "Pending",
    "responsible_agency": "Department of Public Works",
    "final_address": "11831 N Interstate 10 Service Rd",
    "address_councildis": "E",
    "status": "Pending",
    "contractor": "Royal Engineering",
    "rowid": "870949",
    "final_x": "3714480.95128",
    "final_y": "565222.087266",
    "longitude": "-89.96265651259479",
    "latitude": "30.04712081189509",
    "geocoded_column": {
      "latitude": "30.04712081189509",
      "longitude": "-89.96265651259479"
    }
  },
  {
    "service_request": "2022-870948",
    "request_type": "Traffic Signals/Signs/Striping/Streetlights",
    "request_reason": "Street Light Outage/Malfunction",
    "date_created": "2022-03-30T20:57:50.000",
    "date_modified": "2022-03-30T20:57:51.000",
    "request_status": "Pending",
    "responsible_agency": "Department of Public Works",
    "final_address": "11831 N Interstate 10 Service Rd",
    "address_councildis": "E",
    "status": "Pending",
    "contractor": "Royal Engineering",
    "rowid": "870948",
    "final_x": "3714480.95128",
    "final_y": "565222.087266",
    "longitude": "-89.96265651259479",
    "latitude": "30.04712081189509",
    "geocoded_column": {
      "latitude": "30.04712081189509",
      "longitude": "-89.96265651259479"
    }
  },
  {
    "service_request": "2022-870947",
    "request_type": "Roads/Drainage",
    "request_reason": "Street Flooding / Drainage",
    "date_created": "2022-03-30T20:39:20.000",
    "date_modified": "2022-03-30T20:39:20.000",
    "request_status": "Pending",
    "responsible_agency": "Department of Public Works",
    "final_address": "5230 Marigny St",
    "address_councildis": "D",
    "status": "Pending",
    "rowid": "870947",
    "final_x": "3684174.41737",
    "final_y": "552290.557206",
    "longitude": "-90.05889602226841",
    "latitude": "30.0125259167349",
    "geocoded_column": {
      "latitude": "30.0125259167349",
      "longitude": "-90.05889602226841"
    }
  },
  {
    "service_request": "2022-870945",
    "request_type": "Trash/Recycling",
    "request_reason": "Replace Trash Cart",
    "date_created": "2022-03-30T20:38:39.000",
    "date_modified": "2022-03-30T20:38:40.000",
    "request_status": "Pending",
    "responsible_agency": "Department of Sanitation",
    "final_address": "2725 N Robertson St",
    "address_councildis": "C",
    "status": "Assigned to Contractor",
    "contractor": "Metro Disposal",
    "rowid": "870945",
    "final_x": "3688009.79823",
    "final_y": "537865.350729",
    "longitude": "-90.04728989938761",
    "latitude": "29.972743931338748",
    "geocoded_column": {
      "latitude": "29.972743931338748",
      "longitude": "-90.04728989938761"
    }
  },
  {
    "service_request": "2022-870946",
    "request_type": "Trash/Recycling",
    "request_reason": "Replace Trash Cart",
    "date_created": "2022-03-30T20:38:39.000",
    "date_modified": "2022-03-30T20:38:40.000",
    "request_status": "Pending",
    "responsible_agency": "Department of Sanitation",
    "final_address": "2725 N Robertson St",
    "address_councildis": "C",
    "status": "Assigned to Contractor",
    "contractor": "Metro Disposal",
    "rowid": "870946",
    "final_x": "3688009.79823",
    "final_y": "537865.350729",
    "longitude": "-90.04728989938761",
    "latitude": "29.972743931338748",
    "geocoded_column": {
      "latitude": "29.972743931338748",
      "longitude": "-90.04728989938761"
    }
  },
  {
    "service_request": "2022-870944",
    "request_type": "Traffic Signals/Signs/Striping/Streetlights",
    "request_reason": "Street Light Outage/Malfunction",
    "date_created": "2022-03-30T20:38:08.000",
    "date_modified": "2022-03-30T20:38:09.000",
    "request_status": "Pending",
    "responsible_agency": "Department of Public Works",
    "final_address": "11831 N Interstate 10 Service Rd",
    "address_councildis": "E",
    "status": "Pending",
    "contractor": "Royal Engineering",
    "rowid": "870944",
    "final_x": "3714480.95128",
    "final_y": "565222.087266",
    "longitude": "-89.96265651259479",
    "latitude": "30.04712081189509",
    "geocoded_column": {
      "latitude": "30.04712081189509",
      "longitude": "-89.96265651259479"
    }
  },
  {
    "service_request": "2022-870943",
    "request_type": "Roads/Drainage",
    "request_reason": "Catch Basin - Clogged",
    "date_created": "2022-03-30T20:36:56.000",
    "date_modified": "2022-03-30T20:36:56.000",
    "request_status": "Pending",
    "responsible_agency": "Department of Public Works",
    "final_address": "928 Camp St",
    "address_councildis": "B",
    "status": "Pending",
    "rowid": "870943",
    "final_x": "3680621.71656",
    "final_y": "527065.767998",
    "longitude": "-90.07099857115308",
    "latitude": "29.943274679118385",
    "geocoded_column": {
      "latitude": "29.943274679118385",
      "longitude": "-90.07099857115308"
    }
  },
  {
    "service_request": "2022-870942",
    "request_type": "Traffic Signals/Signs/Striping/Streetlights",
    "request_reason": "Street Light Outage/Malfunction",
    "date_created": "2022-03-30T20:36:05.000",
    "date_modified": "2022-03-30T20:36:06.000",
    "request_status": "Pending",
    "responsible_agency": "Department of Public Works",
    "final_address": "11831 N Interstate 10 Service Rd",
    "address_councildis": "E",
    "status": "Pending",
    "contractor": "Royal Engineering",
    "rowid": "870942",
    "final_x": "3714480.95128",
    "final_y": "565222.087266",
    "longitude": "-89.96265651259479",
    "latitude": "30.04712081189509",
    "geocoded_column": {
      "latitude": "30.04712081189509",
      "longitude": "-89.96265651259479"
    }
  },
  {
    "service_request": "2022-870941",
    "request_type": "Traffic Signals/Signs/Striping/Streetlights",
    "request_reason": "Street Light Outage/Malfunction",
    "date_created": "2022-03-30T20:16:45.000",
    "date_modified": "2022-03-30T20:16:45.000",
    "request_status": "Pending",
    "responsible_agency": "Department of Public Works",
    "final_address": "7717 Gannon Rd",
    "address_councildis": "E",
    "status": "Pending",
    "contractor": "Royal Engineering",
    "rowid": "870941",
    "final_x": "3716131.41797",
    "final_y": "570315.421159",
    "longitude": "-89.9572468819668",
    "latitude": "30.061070995998048",
    "geocoded_column": {
      "latitude": "30.061070995998048",
      "longitude": "-89.9572468819668"
    }
  },
  {
    "service_request": "2022-870940",
    "request_type": "Trash/Recycling",
    "request_reason": "MIssed Recycling Pick-Up",
    "date_created": "2022-03-30T19:58:28.000",
    "date_modified": "2022-03-30T19:58:29.000",
    "request_status": "Pending",
    "responsible_agency": "Department of Sanitation",
    "final_address": "939 Seventh St",
    "address_councildis": "B",
    "status": "Assigned to Contractor",
    "contractor": "Richards Disposal",
    "rowid": "870940",
    "final_x": "3676639.38568",
    "final_y": "520053.925048",
    "longitude": "-90.08381322144345",
    "latitude": "29.924114436043542",
    "geocoded_column": {
      "latitude": "29.924114436043542",
      "longitude": "-90.08381322144345"
    }
  },
  {
    "service_request": "2022-870939",
    "request_type": "Trash/Recycling",
    "request_reason": "MIssed Recycling Pick-Up",
    "date_created": "2022-03-30T19:57:51.000",
    "date_modified": "2022-03-30T19:57:51.000",
    "request_status": "Pending",
    "responsible_agency": "Department of Sanitation",
    "final_address": "2540 Palmyra St",
    "address_councildis": "B",
    "status": "Assigned to Contractor",
    "contractor": "Richards Disposal",
    "rowid": "870939",
    "final_x": "3675347.49729",
    "final_y": "534023.596549",
    "longitude": "-90.08741177263461",
    "latitude": "29.96256510429831",
    "geocoded_column": {
      "latitude": "29.96256510429831",
      "longitude": "-90.08741177263461"
    }
  },
  {
    "service_request": "2022-870937",
    "request_type": "Property Maintenance",
    "request_reason": "Property Maintenance",
    "date_created": "2022-03-30T19:10:36.000",
    "date_modified": "2022-03-30T19:10:36.000",
    "request_status": "Pending",
    "responsible_agency": "Department of Code Enforcement",
    "final_address": "4779 Camelot Dr",
    "address_councildis": "E",
    "status": "Pending",
    "rowid": "870937",
    "final_x": "3708413.18206",
    "final_y": "555930.389593",
    "longitude": "-89.98218006169371",
    "latitude": "30.021770498171605",
    "geocoded_column": {
      "latitude": "30.021770498171605",
      "longitude": "-89.98218006169371"
    }
  },
  {
    "service_request": "2022-870936",
    "request_type": "Trash/Recycling",
    "request_reason": "MIssed Recycling Pick-Up",
    "date_created": "2022-03-30T19:05:15.000",
    "date_modified": "2022-03-30T19:05:16.000",
    "request_status": "Pending",
    "responsible_agency": "Department of Sanitation",
    "final_address": "2026 Philip St",
    "address_councildis": "B",
    "status": "Assigned to Contractor",
    "contractor": "Richards Disposal",
    "rowid": "870936",
    "final_x": "3676203.36949",
    "final_y": "524710.893308",
    "longitude": "-90.08502942247196",
    "latitude": "29.93693265010777",
    "geocoded_column": {
      "latitude": "29.93693265010777",
      "longitude": "-90.08502942247196"
    }
  },
  {
    "service_request": "2022-870935",
    "request_type": "Roads/Drainage",
    "request_reason": "Catch Basin - Clogged",
    "date_created": "2022-03-30T19:01:03.000",
    "date_modified": "2022-03-30T19:01:03.000",
    "request_status": "Pending",
    "responsible_agency": "Department of Public Works",
    "final_address": "7136 Washington Ave",
    "address_councildis": "B",
    "status": "Pending",
    "rowid": "870935",
    "final_x": "3669210.07681",
    "final_y": "533645.078597",
    "longitude": "-90.10680576217341",
    "latitude": "29.961706376375147",
    "geocoded_column": {
      "latitude": "29.961706376375147",
      "longitude": "-90.10680576217341"
    }
  },
  {
    "service_request": "2022-870934",
    "request_type": "Roads/Drainage",
    "request_reason": "Catch Basin - Broken/Damage",
    "date_created": "2022-03-30T18:53:43.000",
    "date_modified": "2022-03-30T18:53:43.000",
    "request_status": "Pending",
    "responsible_agency": "Department of Public Works",
    "final_address": "3300 S Carrollton Ave",
    "address_councildis": "A",
    "status": "Pending",
    "rowid": "870934",
    "final_x": "3666951.31207",
    "final_y": "534162.308933",
    "longitude": "-90.11392121575463",
    "latitude": "29.963194877834457",
    "geocoded_column": {
      "latitude": "29.963194877834457",
      "longitude": "-90.11392121575463"
    }
  },
  {
    "service_request": "2022-870933",
    "request_type": "Roads/Drainage",
    "request_reason": "Street Flooding / Drainage",
    "date_created": "2022-03-30T18:51:10.000",
    "date_modified": "2022-03-30T18:51:10.000",
    "request_status": "Pending",
    "responsible_agency": "Department of Public Works",
    "final_address": "3235 S Carrollton Ave",
    "address_councildis": "B",
    "status": "Pending",
    "rowid": "870933",
    "final_x": "3667067.56634",
    "final_y": "533729.792581",
    "longitude": "-90.11356863653498",
    "latitude": "29.96200219822192",
    "geocoded_column": {
      "latitude": "29.96200219822192",
      "longitude": "-90.11356863653498"
    }
  },
  {
    "service_request": "2022-870932",
    "request_type": "Property Maintenance",
    "request_reason": "Property Maintenance",
    "date_created": "2022-03-30T18:46:34.000",
    "date_modified": "2022-03-30T18:46:34.000",
    "request_status": "Pending",
    "responsible_agency": "Department of Code Enforcement",
    "final_address": "2731 Martin Luther King, Jr. Blvd",
    "address_councildis": "B",
    "status": "Pending",
    "rowid": "870932",
    "final_x": "3675700.30657",
    "final_y": "527818.647103",
    "longitude": "-90.0865108601432",
    "latitude": "29.945493010883844",
    "geocoded_column": {
      "latitude": "29.945493010883844",
      "longitude": "-90.0865108601432"
    }
  },
  {
    "service_request": "2022-870931",
    "request_type": "Trash/Recycling",
    "request_reason": "Replace Trash Cart",
    "date_created": "2022-03-30T18:37:39.000",
    "date_modified": "2022-03-30T18:37:40.000",
    "request_status": "Pending",
    "responsible_agency": "Department of Sanitation",
    "final_address": "3606 S Saratoga St, New Orleans, Louisiana, 70115",
    "address_councildis": "B",
    "status": "Assigned to Contractor",
    "contractor": "Richards Disposal",
    "rowid": "870931",
    "final_x": "3672859.618",
    "final_y": "522909.541307",
    "longitude": "-90.09564727026171",
    "latitude": "29.932079256212518",
    "geocoded_column": {
      "latitude": "29.932079256212518",
      "longitude": "-90.09564727026171"
    }
  },
  {
    "service_request": "2022-870930",
    "request_type": "Trash/Recycling",
    "request_reason": "Illegal Dumping",
    "date_created": "2022-03-30T18:34:16.000",
    "date_modified": "2022-03-30T18:34:16.000",
    "request_status": "Pending",
    "responsible_agency": "Department of Sanitation",
    "final_address": "3000 BLK Clio St",
    "address_councildis": "B",
    "status": "Pending",
    "rowid": "870930",
    "final_x": "3675132.38133",
    "final_y": "529249.815632",
    "longitude": "-90.08825488588064",
    "latitude": "29.949445231046575",
    "geocoded_column": {
      "latitude": "29.949445231046575",
      "longitude": "-90.08825488588064"
    }
  },
  {
    "service_request": "2022-870929",
    "request_type": "Roads/Drainage",
    "request_reason": "Catch Basin - Broken/Damage",
    "date_created": "2022-03-30T18:32:11.000",
    "date_modified": "2022-03-30T18:32:11.000",
    "request_status": "Pending",
    "responsible_agency": "Department of Public Works",
    "final_address": "3000 BLK Clio St",
    "address_councildis": "B",
    "status": "Pending",
    "rowid": "870929",
    "final_x": "3675132.38133",
    "final_y": "529249.815632",
    "longitude": "-90.08825488588064",
    "latitude": "29.949445231046575",
    "geocoded_column": {
      "latitude": "29.949445231046575",
      "longitude": "-90.08825488588064"
    }
  },
  {
    "service_request": "2022-870928",
    "request_type": "Roads/Drainage",
    "request_reason": "Damaged Sidewalk",
    "date_created": "2022-03-30T18:19:01.000",
    "date_modified": "2022-03-30T18:19:01.000",
    "request_status": "Pending",
    "responsible_agency": "Department of Public Works",
    "final_address": "1412 S Derbigny St",
    "address_councildis": "B",
    "status": "Pending",
    "rowid": "870928",
    "final_x": "3674892.68763",
    "final_y": "528471.20608",
    "longitude": "-90.08903840393435",
    "latitude": "29.947311471824445",
    "geocoded_column": {
      "latitude": "29.947311471824445",
      "longitude": "-90.08903840393435"
    }
  },
  {
    "service_request": "2022-870927",
    "request_type": "Roads/Drainage",
    "request_reason": "Man hole cover issue",
    "date_created": "2022-03-30T18:16:11.000",
    "date_modified": "2022-03-30T18:16:11.000",
    "request_status": "Pending",
    "responsible_agency": "Department of Public Works",
    "final_address": "1412 S Derbigny St",
    "address_councildis": "B",
    "status": "Pending",
    "rowid": "870927",
    "final_x": "3674892.68763",
    "final_y": "528471.20608",
    "longitude": "-90.08903840393435",
    "latitude": "29.947311471824445",
    "geocoded_column": {
      "latitude": "29.947311471824445",
      "longitude": "-90.08903840393435"
    }
  },
  {
    "service_request": "2022-870926",
    "request_type": "Abandoned Vehicles",
    "request_reason": "Abandoned/Junk Vehicles",
    "date_created": "2022-03-30T17:58:27.000",
    "date_modified": "2022-03-30T17:58:27.000",
    "request_status": "Pending",
    "responsible_agency": "Department of Public Works",
    "final_address": "4611 LaSalle St",
    "address_councildis": "B",
    "status": "Pending",
    "rowid": "870926",
    "final_x": "3669707.3138",
    "final_y": "523653.736571",
    "longitude": "-90.1055736318272",
    "latitude": "29.93421880370339",
    "geocoded_column": {
      "latitude": "29.93421880370339",
      "longitude": "-90.1055736318272"
    }
  },
  {
    "service_request": "2022-870925",
    "request_type": "Roads/Drainage",
    "request_reason": "Catch Basin - Broken/Damage",
    "date_created": "2022-03-30T17:56:18.000",
    "date_modified": "2022-03-30T17:56:18.000",
    "request_status": "Pending",
    "responsible_agency": "Department of Public Works",
    "final_address": "1412 S Derbigny St",
    "address_councildis": "B",
    "status": "Pending",
    "rowid": "870925",
    "final_x": "3674892.68763",
    "final_y": "528471.20608",
    "longitude": "-90.08903840393435",
    "latitude": "29.947311471824445",
    "geocoded_column": {
      "latitude": "29.947311471824445",
      "longitude": "-90.08903840393435"
    }
  },
  {
    "service_request": "2022-870923",
    "request_type": "Roads/Drainage",
    "request_reason": "Street Flooding / Drainage",
    "date_created": "2022-03-30T17:56:16.000",
    "date_modified": "2022-03-30T17:56:16.000",
    "request_status": "Pending",
    "responsible_agency": "Department of Public Works",
    "final_address": "2524 Cadiz St",
    "address_councildis": "B",
    "status": "Pending",
    "rowid": "870923",
    "final_x": "3669720.3547",
    "final_y": "524182.247292",
    "longitude": "-90.10551458338828",
    "latitude": "29.935671653952756",
    "geocoded_column": {
      "latitude": "29.935671653952756",
      "longitude": "-90.10551458338828"
    }
  },
  {
    "service_request": "2022-870924",
    "request_type": "Roads/Drainage",
    "request_reason": "Street Flooding / Drainage",
    "date_created": "2022-03-30T17:56:16.000",
    "date_modified": "2022-03-30T17:56:16.000",
    "request_status": "Pending",
    "responsible_agency": "Department of Public Works",
    "final_address": "2524 Cadiz St",
    "address_councildis": "B",
    "status": "Pending",
    "rowid": "870924",
    "final_x": "3669720.3547",
    "final_y": "524182.247292",
    "longitude": "-90.10551458338828",
    "latitude": "29.935671653952756",
    "geocoded_column": {
      "latitude": "29.935671653952756",
      "longitude": "-90.10551458338828"
    }
  },
  {
    "service_request": "2022-870922",
    "request_type": "Trash/Recycling",
    "request_reason": "Illegal Dumping",
    "date_created": "2022-03-30T17:55:42.000",
    "date_modified": "2022-03-30T17:55:42.000",
    "request_status": "Pending",
    "responsible_agency": "Department of Code Enforcement",
    "final_address": "2844 St Anthony St",
    "address_councildis": "D",
    "status": "Pending",
    "rowid": "870922",
    "final_x": "3682923.96796",
    "final_y": "542904.360013",
    "longitude": "-90.06317547052258",
    "latitude": "29.986755417467037",
    "geocoded_column": {
      "latitude": "29.986755417467037",
      "longitude": "-90.06317547052258"
    }
  },
  {
    "service_request": "2022-870921",
    "request_type": "Traffic Signals/Signs/Striping/Streetlights",
    "request_reason": "Additional signage",
    "date_created": "2022-03-30T17:53:20.000",
    "date_modified": "2022-03-30T17:53:20.000",
    "request_status": "Pending",
    "responsible_agency": "Department of Public Works",
    "final_address": "4536 Magazine St",
    "address_councildis": "B",
    "status": "Pending",
    "rowid": "870921",
    "final_x": "3670361.23559",
    "final_y": "518680.656631",
    "longitude": "-90.10367769958795",
    "latitude": "29.92052514013413",
    "geocoded_column": {
      "latitude": "29.92052514013413",
      "longitude": "-90.10367769958795"
    }
  },
  {
    "service_request": "2022-870920",
    "request_type": "Trash/Recycling",
    "request_reason": "Illegal Dumping",
    "date_created": "2022-03-30T17:48:52.000",
    "date_modified": "2022-03-30T17:48:52.000",
    "request_status": "Pending",
    "responsible_agency": "Department of Sanitation",
    "final_address": "1432 S Derbigny St",
    "address_councildis": "B",
    "status": "Pending",
    "rowid": "870920",
    "final_x": "3674834.19777",
    "final_y": "528376.386304",
    "longitude": "-90.08922632951905",
    "latitude": "29.947052495103694",
    "geocoded_column": {
      "latitude": "29.947052495103694",
      "longitude": "-90.08922632951905"
    }
  },
  {
    "service_request": "2022-870919",
    "request_type": "Property Maintenance",
    "request_reason": "Property Maintenance",
    "date_created": "2022-03-30T17:46:51.000",
    "date_modified": "2022-03-30T17:46:51.000",
    "request_status": "Pending",
    "responsible_agency": "Department of Code Enforcement",
    "final_address": "1400 S Derbigny St",
    "address_councildis": "B",
    "status": "Pending",
    "rowid": "870919",
    "final_x": "3674939.35176",
    "final_y": "528545.511616",
    "longitude": "-90.0888885193071",
    "latitude": "29.9475143940458",
    "geocoded_column": {
      "latitude": "29.9475143940458",
      "longitude": "-90.0888885193071"
    }
  },
  {
    "service_request": "2022-870918",
    "request_type": "Traffic Signals/Signs/Striping/Streetlights",
    "request_reason": "Request for Stop Sign",
    "date_created": "2022-03-30T17:40:23.000",
    "date_modified": "2022-03-30T17:40:23.000",
    "request_status": "Pending",
    "responsible_agency": "Department of Public Works",
    "final_address": "BENEFIT ST & FRENCHMEN ST",
    "address_councildis": "D",
    "status": "Pending",
    "rowid": "870918",
    "final_x": "3683940.2",
    "final_y": "544373.88",
    "longitude": "-90.05991399012376",
    "latitude": "29.990765063124663",
    "geocoded_column": {
      "latitude": "29.990765063124663",
      "longitude": "-90.05991399012376"
    }
  },
  {
    "service_request": "2022-870917",
    "request_type": "Parks & Parkways",
    "request_reason": "Request Tree Service (Right of Way/Public Property)",
    "date_created": "2022-03-30T17:40:07.000",
    "date_modified": "2022-03-30T19:53:15.000",
    "request_status": "Pending",
    "responsible_agency": "Department of Parks & Parkway",
    "final_address": "1216 Southlawn Blvd",
    "address_councildis": "C",
    "status": "Pending",
    "rowid": "870917",
    "final_x": "3695256.15702",
    "final_y": "527212.979007",
    "longitude": "-90.02478885608616",
    "latitude": "29.94322803662055",
    "geocoded_column": {
      "latitude": "29.94322803662055",
      "longitude": "-90.02478885608616"
    }
  },
  {
    "service_request": "2022-870916",
    "request_type": "Traffic Signals/Signs/Striping/Streetlights",
    "request_reason": "Request for Stop Sign",
    "date_created": "2022-03-30T17:39:50.000",
    "date_modified": "2022-03-30T17:39:50.000",
    "request_status": "Pending",
    "responsible_agency": "Department of Public Works",
    "final_address": "TOURO ST & BENEFIT ST",
    "address_councildis": "D",
    "status": "Pending",
    "rowid": "870916",
    "final_x": "3683584.4",
    "final_y": "544352.98",
    "longitude": "-90.06103860713995",
    "latitude": "29.990718463264717",
    "geocoded_column": {
      "latitude": "29.990718463264717",
      "longitude": "-90.06103860713995"
    }
  },
  {
    "service_request": "2022-870915",
    "request_type": "Traffic Signals/Signs/Striping/Streetlights",
    "request_reason": "Request for Stop Sign",
    "date_created": "2022-03-30T17:36:33.000",
    "date_modified": "2022-03-30T17:36:33.000",
    "request_status": "Pending",
    "responsible_agency": "Department of Public Works",
    "final_address": "VALENCE ST & LAUREL ST",
    "address_councildis": "B",
    "status": "Pending",
    "rowid": "870915",
    "final_x": "3670025.8",
    "final_y": "517947.98",
    "longitude": "-90.10476131329551",
    "latitude": "29.918520405010735",
    "geocoded_column": {
      "latitude": "29.918520405010735",
      "longitude": "-90.10476131329551"
    }
  },
  {
    "service_request": "2022-870914",
    "request_type": "Traffic Signals/Signs/Striping/Streetlights",
    "request_reason": "Street Name Sign Damaged or Missing",
    "date_created": "2022-03-30T17:28:02.000",
    "date_modified": "2022-03-30T17:28:02.000",
    "request_status": "Pending",
    "responsible_agency": "Department of Public Works",
    "final_address": "3494 Esplanade Ave",
    "address_councildis": "A",
    "status": "Pending",
    "rowid": "870914",
    "final_x": "3674769.03925",
    "final_y": "541478.8203",
    "longitude": "-90.08898280070932",
    "latitude": "29.983081714956555",
    "geocoded_column": {
      "latitude": "29.983081714956555",
      "longitude": "-90.08898280070932"
    }
  },
  {
    "service_request": "2022-870912",
    "request_type": "Traffic Signals/Signs/Striping/Streetlights",
    "request_reason": "Street Light Outage/Malfunction",
    "date_created": "2022-03-30T17:23:39.000",
    "date_modified": "2022-03-30T17:23:40.000",
    "request_status": "Pending",
    "responsible_agency": "Department of Public Works",
    "final_address": "815 Baronne St",
    "address_councildis": "B",
    "status": "Pending",
    "contractor": "Royal Engineering",
    "rowid": "870912",
    "final_x": "3679532.94907",
    "final_y": "528097.815615",
    "longitude": "-90.07440028513275",
    "latitude": "29.946145402253663",
    "geocoded_column": {
      "latitude": "29.946145402253663",
      "longitude": "-90.07440028513275"
    }
  },
  {
    "service_request": "2022-870911",
    "request_type": "Trash/Recycling",
    "request_reason": "Replace Trash Cart",
    "date_created": "2022-03-30T17:22:40.000",
    "date_modified": "2022-03-30T17:22:41.000",
    "request_status": "Pending",
    "responsible_agency": "Department of Sanitation",
    "final_address": "5958 Vienna Ct",
    "address_councildis": "D",
    "status": "Assigned to Contractor",
    "contractor": "Metro Disposal",
    "rowid": "870911",
    "final_x": "3688390.37475",
    "final_y": "555401.874393",
    "longitude": "-90.04546548790701",
    "latitude": "30.020951280676186",
    "geocoded_column": {
      "latitude": "30.020951280676186",
      "longitude": "-90.04546548790701"
    }
  },
  {
    "service_request": "2022-870910",
    "request_type": "Property Maintenance",
    "request_reason": "Property Maintenance",
    "date_created": "2022-03-30T17:21:10.000",
    "date_modified": "2022-03-30T17:21:10.000",
    "request_status": "Pending",
    "responsible_agency": "Department of Code Enforcement",
    "final_address": "1939 Fern St",
    "address_councildis": "A",
    "status": "Pending",
    "rowid": "870910",
    "final_x": "3664428.62644",
    "final_y": "529872.842049",
    "longitude": "-90.12203079346006",
    "latitude": "29.95147381954102",
    "geocoded_column": {
      "latitude": "29.95147381954102",
      "longitude": "-90.12203079346006"
    }
  },
  {
    "service_request": "2022-870909",
    "request_type": "Trash/Recycling",
    "request_reason": "Illegal Dumping",
    "date_created": "2022-03-30T17:10:36.000",
    "date_modified": "2022-03-30T17:10:36.000",
    "request_status": "Pending",
    "responsible_agency": "Department of Sanitation",
    "final_address": "4137 S Carrollton Ave",
    "address_councildis": "A",
    "status": "Pending",
    "rowid": "870909",
    "final_x": "3670703.34401",
    "final_y": "538001.254665",
    "longitude": "-90.10194242509863",
    "latitude": "29.97364036608441",
    "geocoded_column": {
      "latitude": "29.97364036608441",
      "longitude": "-90.10194242509863"
    }
  },
  {
    "service_request": "2022-870908",
    "request_type": "Trash/Recycling",
    "request_reason": "Request a Large Item Pick Up",
    "date_created": "2022-03-30T16:59:19.000",
    "date_modified": "2022-03-30T16:59:20.000",
    "request_status": "Pending",
    "responsible_agency": "Department of Sanitation",
    "final_address": "8637 Willow St",
    "address_councildis": "A",
    "status": "Assigned to Contractor",
    "contractor": "Richards Disposal",
    "rowid": "870908",
    "final_x": "3660940.69786",
    "final_y": "530308.681026",
    "longitude": "-90.1330296157325",
    "latitude": "29.952773161537934",
    "geocoded_column": {
      "latitude": "29.952773161537934",
      "longitude": "-90.1330296157325"
    }
  },
  {
    "service_request": "2022-870907",
    "request_type": "Abandoned Vehicles",
    "request_reason": "Abandoned/Junk Vehicles",
    "date_created": "2022-03-30T16:56:49.000",
    "date_modified": "2022-03-30T16:56:49.000",
    "request_status": "Pending",
    "responsible_agency": "Department of Public Works",
    "final_address": "1725 St Philip St",
    "address_councildis": "D",
    "status": "Pending",
    "rowid": "870907",
    "final_x": "3680251.29141",
    "final_y": "535692.631303",
    "longitude": "-90.07186824033445",
    "latitude": "29.967006853769792",
    "geocoded_column": {
      "latitude": "29.967006853769792",
      "longitude": "-90.07186824033445"
    }
  },
  {
    "service_request": "2022-870906",
    "request_type": "Trash/Recycling",
    "request_reason": "Return Trash Cart",
    "date_created": "2022-03-30T16:51:37.000",
    "date_modified": "2022-03-30T16:51:40.000",
    "request_status": "Pending",
    "responsible_agency": "Department of Sanitation",
    "final_address": "7529 Oak St",
    "address_councildis": "A",
    "status": "Assigned to Contractor",
    "contractor": "Richards Disposal",
    "rowid": "870906",
    "final_x": "3663512.38317",
    "final_y": "527023.656062",
    "longitude": "-90.12501872525556",
    "latitude": "29.943666074873793",
    "geocoded_column": {
      "latitude": "29.943666074873793",
      "longitude": "-90.12501872525556"
    }
  },
  {
    "service_request": "2022-870904",
    "request_type": "Property Maintenance",
    "request_reason": "Property Maintenance",
    "date_created": "2022-03-30T16:44:28.000",
    "date_modified": "2022-03-30T16:44:28.000",
    "request_status": "Pending",
    "responsible_agency": "Department of Code Enforcement",
    "final_address": "1110 Touro St",
    "address_councildis": "C",
    "status": "Pending",
    "rowid": "870904",
    "final_x": "3684194.76757",
    "final_y": "536348.636359",
    "longitude": "-90.05939171239207",
    "latitude": "29.96869067760316",
    "geocoded_column": {
      "latitude": "29.96869067760316",
      "longitude": "-90.05939171239207"
    }
  },
  {
    "service_request": "2022-870903",
    "request_type": "Traffic Signals/Signs/Striping/Streetlights",
    "request_reason": "Traffic Signal Malfunctioning/Damaged",
    "date_created": "2022-03-30T16:41:32.000",
    "date_modified": "2022-03-30T16:41:32.000",
    "request_status": "Pending",
    "responsible_agency": "Department of Public Works",
    "final_address": "JOSEPH ST & MAGAZINE ST",
    "address_councildis": "A",
    "status": "Pending",
    "rowid": "870903",
    "final_x": "3666118.6",
    "final_y": "518878.78",
    "longitude": "-90.11706313606935",
    "latitude": "29.921194427641364",
    "geocoded_column": {
      "latitude": "29.921194427641364",
      "longitude": "-90.11706313606935"
    }
  },
  {
    "service_request": "2022-870902",
    "request_type": "Roads/Drainage",
    "request_reason": "Catch Basin - Clogged",
    "date_created": "2022-03-30T16:39:01.000",
    "date_modified": "2022-03-30T16:39:01.000",
    "request_status": "Pending",
    "responsible_agency": "Department of Public Works",
    "final_address": "7840 Exeter St",
    "address_councildis": "E",
    "status": "Pending",
    "rowid": "870902",
    "final_x": "3697407.0312",
    "final_y": "560196.007261",
    "longitude": "-90.0168015619961",
    "latitude": "30.033851575557527",
    "geocoded_column": {
      "latitude": "30.033851575557527",
      "longitude": "-90.0168015619961"
    }
  },
  {
    "service_request": "2022-870901",
    "request_type": "Trash/Recycling",
    "request_reason": "Illegal Dumping",
    "date_created": "2022-03-30T16:38:04.000",
    "date_modified": "2022-03-30T16:38:04.000",
    "request_status": "Pending",
    "responsible_agency": "Department of Sanitation",
    "final_address": "521 Pacific Ave",
    "address_councildis": "C",
    "status": "Pending",
    "rowid": "870901",
    "final_x": "3688450.63753",
    "final_y": "529722.522049",
    "longitude": "-90.04618653024033",
    "latitude": "29.95034036835285",
    "geocoded_column": {
      "latitude": "29.95034036835285",
      "longitude": "-90.04618653024033"
    }
  },
  {
    "service_request": "2022-870900",
    "request_type": "Trash/Recycling",
    "request_reason": "Request a Large Item Pick Up",
    "date_created": "2022-03-30T16:37:56.000",
    "date_modified": "2022-03-30T16:37:57.000",
    "request_status": "Pending",
    "responsible_agency": "Department of Sanitation",
    "final_address": "1431 Monroe St",
    "address_councildis": "A",
    "status": "Assigned to Contractor",
    "contractor": "Richards Disposal",
    "rowid": "870900",
    "final_x": "3661018.61024",
    "final_y": "530441.257474",
    "longitude": "-90.13277921581202",
    "latitude": "29.95313545976836",
    "geocoded_column": {
      "latitude": "29.95313545976836",
      "longitude": "-90.13277921581202"
    }
  },
  {
    "service_request": "2022-870899",
    "request_type": "Roads/Drainage",
    "request_reason": "Damaged Sidewalk",
    "date_created": "2022-03-30T16:36:36.000",
    "date_modified": "2022-03-30T16:37:16.000",
    "request_status": "Pending",
    "responsible_agency": "Department of Public Works",
    "final_address": "342 Baronne St",
    "address_councildis": "B",
    "status": "Pending",
    "rowid": "870899",
    "final_x": "3680084.92034",
    "final_y": "530003.295041",
    "longitude": "-90.07259132692941",
    "latitude": "29.951368144812903",
    "geocoded_column": {
      "latitude": "29.951368144812903",
      "longitude": "-90.07259132692941"
    }
  },
  {
    "service_request": "2022-870898",
    "request_type": "Traffic Signals/Signs/Striping/Streetlights",
    "request_reason": "Street Light Knocked Down/Leaning",
    "date_created": "2022-03-30T16:34:21.000",
    "date_modified": "2022-03-30T16:34:23.000",
    "request_status": "Pending",
    "responsible_agency": "Department of Public Works",
    "final_address": "4224 N Roman St",
    "address_councildis": "D",
    "status": "Pending",
    "contractor": "Royal Engineering",
    "rowid": "870898",
    "final_x": "3693170.05104",
    "final_y": "537707.801864",
    "longitude": "-90.03099858775883",
    "latitude": "29.972150468625774",
    "geocoded_column": {
      "latitude": "29.972150468625774",
      "longitude": "-90.03099858775883"
    }
  },
  {
    "service_request": "2022-870897",
    "request_type": "Roads/Drainage",
    "request_reason": "Debris in Roadway",
    "date_created": "2022-03-30T16:32:50.000",
    "date_modified": "2022-03-30T16:32:50.000",
    "request_status": "Pending",
    "responsible_agency": "Department of Public Works",
    "final_address": "1212 Southlawn Blvd",
    "address_councildis": "C",
    "status": "Pending",
    "rowid": "870897",
    "final_x": "3695262.23766",
    "final_y": "527262.209151",
    "longitude": "-90.02476788301854",
    "latitude": "29.943363211534365",
    "geocoded_column": {
      "latitude": "29.943363211534365",
      "longitude": "-90.02476788301854"
    }
  },
  {
    "service_request": "2022-870896",
    "request_type": "Parks & Parkways",
    "request_reason": "Request Tree Service (Right of Way/Public Property)",
    "date_created": "2022-03-30T16:31:25.000",
    "date_modified": "2022-03-30T16:31:25.000",
    "request_status": "Pending",
    "responsible_agency": "Department of Parks & Parkway",
    "final_address": "211 W Brooks St",
    "address_councildis": "A",
    "status": "Pending",
    "rowid": "870896",
    "final_x": "3665502.09261",
    "final_y": "546650.909265",
    "longitude": "-90.11807943375858",
    "latitude": "29.997576662679382",
    "geocoded_column": {
      "latitude": "29.997576662679382",
      "longitude": "-90.11807943375858"
    }
  },
  {
    "service_request": "2022-870895",
    "request_type": "Traffic Signals/Signs/Striping/Streetlights",
    "request_reason": "Street Light Knocked Down/Leaning",
    "date_created": "2022-03-30T16:27:16.000",
    "date_modified": "2022-03-30T16:27:17.000",
    "request_status": "Pending",
    "responsible_agency": "Department of Public Works",
    "final_address": "2327 Leon C Simon Dr",
    "address_councildis": "D",
    "status": "Pending",
    "contractor": "Royal Engineering",
    "rowid": "870895",
    "final_x": "3684364.11804",
    "final_y": "557105.974106",
    "longitude": "-90.05812735724179",
    "latitude": "30.02576074025902",
    "geocoded_column": {
      "latitude": "30.02576074025902",
      "longitude": "-90.05812735724179"
    }
  },
  {
    "service_request": "2022-870893",
    "request_type": "Traffic Signals/Signs/Striping/Streetlights",
    "request_reason": "Traffic Sign Missing/Damaged",
    "date_created": "2022-03-30T16:21:07.000",
    "date_modified": "2022-03-30T16:21:07.000",
    "request_status": "Pending",
    "responsible_agency": "Department of Public Works",
    "final_address": "1716 Sixth St",
    "address_councildis": "B",
    "status": "Pending",
    "rowid": "870893",
    "final_x": "3675170.3803",
    "final_y": "522679.201146",
    "longitude": "-90.08836031855692",
    "latitude": "29.931377061994297",
    "geocoded_column": {
      "latitude": "29.931377061994297",
      "longitude": "-90.08836031855692"
    }
  },
  {
    "service_request": "2022-870892",
    "request_type": "Traffic Signals/Signs/Striping/Streetlights",
    "request_reason": "Traffic Signal Malfunctioning/Damaged",
    "date_created": "2022-03-30T16:16:10.000",
    "date_modified": "2022-03-30T16:16:10.000",
    "request_status": "Pending",
    "responsible_agency": "Department of Public Works",
    "final_address": "869 Magazine St",
    "address_councildis": "B",
    "status": "Pending",
    "rowid": "870892",
    "final_x": "3681011.26427",
    "final_y": "527338.701375",
    "longitude": "-90.06975916844665",
    "latitude": "29.944013348697567",
    "geocoded_column": {
      "latitude": "29.944013348697567",
      "longitude": "-90.06975916844665"
    }
  },
  {
    "service_request": "2022-870891",
    "request_type": "Roads/Drainage",
    "request_reason": "Damaged Sidewalk",
    "date_created": "2022-03-30T16:14:06.000",
    "date_modified": "2022-03-30T16:14:40.000",
    "request_status": "Pending",
    "responsible_agency": "Department of Public Works",
    "final_address": "COMMON ST & CARONDELET ST",
    "address_councildis": "B",
    "status": "Pending",
    "rowid": "870891",
    "final_x": "3680610.3",
    "final_y": "530506.58",
    "longitude": "-90.07091492842618",
    "latitude": "29.952736103579674",
    "geocoded_column": {
      "latitude": "29.952736103579674",
      "longitude": "-90.07091492842618"
    }
  },
  {
    "service_request": "2022-870890",
    "request_type": "Roads/Drainage",
    "request_reason": "Debris in Roadway",
    "date_created": "2022-03-30T16:13:23.000",
    "date_modified": "2022-03-30T17:25:37.000",
    "request_status": "Pending",
    "responsible_agency": "Department of Public Works",
    "final_address": "601 6th St, New Orleans, Louisiana, 70115",
    "address_councildis": "B",
    "rowid": "870890",
    "final_x": "3677608.21704",
    "final_y": "519113.642359",
    "longitude": "-90.08078740655355",
    "latitude": "29.921499877356183",
    "geocoded_column": {
      "latitude": "29.921499877356183",
      "longitude": "-90.08078740655355"
    }
  },
  {
    "service_request": "2022-870889",
    "request_type": "Property Maintenance",
    "request_reason": "Property Maintenance",
    "date_created": "2022-03-30T16:08:50.000",
    "date_modified": "2022-03-30T16:08:50.000",
    "request_status": "Pending",
    "responsible_agency": "Department of Code Enforcement",
    "final_address": "414 38Th St",
    "address_councildis": "A",
    "status": "Pending",
    "rowid": "870889",
    "final_x": "3664863.24429",
    "final_y": "552647.602966",
    "longitude": "-90.1198969369261",
    "latitude": "30.014084111419965",
    "geocoded_column": {
      "latitude": "30.014084111419965",
      "longitude": "-90.1198969369261"
    }
  },
  {
    "service_request": "2022-870888",
    "request_type": "Traffic Signals/Signs/Striping/Streetlights",
    "request_reason": "Traffic Signal Malfunctioning/Damaged",
    "date_created": "2022-03-30T16:06:06.000",
    "date_modified": "2022-03-30T16:06:06.000",
    "request_status": "Pending",
    "responsible_agency": "Department of Public Works",
    "final_address": "GENERAL DE GAULLE DR & HOV",
    "address_councildis": "C",
    "status": "Pending",
    "rowid": "870888",
    "final_x": "3691123.06",
    "final_y": "522510.33",
    "longitude": "-90.03800588086021",
    "latitude": "29.93042648830266",
    "geocoded_column": {
      "latitude": "29.93042648830266",
      "longitude": "-90.03800588086021"
    }
  },
  {
    "service_request": "2022-870887",
    "request_type": "Property Maintenance",
    "request_reason": "Property Maintenance",
    "date_created": "2022-03-30T16:04:48.000",
    "date_modified": "2022-03-30T16:04:48.000",
    "request_status": "Pending",
    "responsible_agency": "Department of Code Enforcement",
    "final_address": "2117 Piety St",
    "address_councildis": "D",
    "status": "Pending",
    "rowid": "870887",
    "final_x": "3690844.19446",
    "final_y": "539700.951882",
    "longitude": "-90.0382728605188",
    "latitude": "29.977703406806896",
    "geocoded_column": {
      "latitude": "29.977703406806896",
      "longitude": "-90.0382728605188"
    }
  },
  {
    "service_request": "2022-870885",
    "request_type": "Trash/Recycling",
    "request_reason": "Request a Large Item Pick Up",
    "date_created": "2022-03-30T15:58:14.000",
    "date_modified": "2022-03-30T15:58:14.000",
    "request_status": "Pending",
    "responsible_agency": "Department of Sanitation",
    "final_address": "1837 Dublin St",
    "address_councildis": "A",
    "status": "Assigned to Contractor",
    "contractor": "Richards Disposal",
    "rowid": "870885",
    "final_x": "3663324.06208",
    "final_y": "530338.03469",
    "longitude": "-90.1255030026309",
    "latitude": "29.952785009860396",
    "geocoded_column": {
      "latitude": "29.952785009860396",
      "longitude": "-90.1255030026309"
    }
  },
  {
    "service_request": "2022-870884",
    "request_type": "Trash/Recycling",
    "request_reason": "Return Recycling Cart",
    "date_created": "2022-03-30T15:50:10.000",
    "date_modified": "2022-03-30T15:50:10.000",
    "request_status": "Pending",
    "responsible_agency": "Department of Sanitation",
    "final_address": "1840 Euterpe St",
    "address_councildis": "B",
    "status": "Pending",
    "rowid": "870884",
    "final_x": "3677849.43208",
    "final_y": "525626.742013",
    "longitude": "-90.07980108279143",
    "latitude": "29.93940152096696",
    "geocoded_column": {
      "latitude": "29.93940152096696",
      "longitude": "-90.07980108279143"
    }
  },
  {
    "service_request": "2022-870882",
    "request_type": "Trash/Recycling",
    "request_reason": "Request a Large Item Pick Up",
    "date_created": "2022-03-30T15:40:59.000",
    "date_modified": "2022-03-30T15:41:00.000",
    "request_status": "Pending",
    "responsible_agency": "Department of Sanitation",
    "final_address": "3315 Annunciation St",
    "address_councildis": "B",
    "status": "Assigned to Contractor",
    "contractor": "Richards Disposal",
    "rowid": "870882",
    "final_x": "3675695.80513",
    "final_y": "518754.355703",
    "longitude": "-90.08683640206618",
    "latitude": "29.920569298147313",
    "geocoded_column": {
      "latitude": "29.920569298147313",
      "longitude": "-90.08683640206618"
    }
  },
  {
    "service_request": "2022-870881",
    "request_type": "Trash/Recycling",
    "request_reason": "Missed Trash Pick-Up",
    "date_created": "2022-03-30T15:31:07.000",
    "date_modified": "2022-03-30T15:31:08.000",
    "request_status": "Pending",
    "responsible_agency": "Department of Sanitation",
    "final_address": "6322 Pritchard Pl",
    "address_councildis": "B",
    "status": "Assigned to Contractor",
    "contractor": "Richards Disposal",
    "rowid": "870881",
    "final_x": "3668229.58951",
    "final_y": "530973.204418",
    "longitude": "-90.10999207110272",
    "latitude": "29.954388423960513",
    "geocoded_column": {
      "latitude": "29.954388423960513",
      "longitude": "-90.10999207110272"
    }
  },
  {
    "service_request": "2022-870880",
    "request_type": "Trash/Recycling",
    "request_reason": "Repair Trash Cart",
    "date_created": "2022-03-30T15:30:27.000",
    "date_modified": "2022-03-30T15:30:27.000",
    "request_status": "Pending",
    "responsible_agency": "Department of Sanitation",
    "final_address": "4964 Redwood St",
    "address_councildis": "E",
    "status": "Assigned to Contractor",
    "contractor": "Metro Disposal",
    "rowid": "870880",
    "final_x": "3712271.46379",
    "final_y": "557581.842523",
    "longitude": "-89.96992693901",
    "latitude": "30.026185681260735",
    "geocoded_column": {
      "latitude": "30.026185681260735",
      "longitude": "-89.96992693901"
    }
  },
  {
    "service_request": "2022-870879",
    "request_type": "Trash/Recycling",
    "request_reason": "Request a Large Item Pick Up",
    "date_created": "2022-03-30T15:30:15.000",
    "date_modified": "2022-03-30T15:30:16.000",
    "request_status": "Pending",
    "responsible_agency": "Department of Sanitation",
    "final_address": "6322 Pritchard Pl",
    "address_councildis": "B",
    "status": "Assigned to Contractor",
    "contractor": "Richards Disposal",
    "rowid": "870879",
    "final_x": "3668229.58951",
    "final_y": "530973.204418",
    "longitude": "-90.10999207110272",
    "latitude": "29.954388423960513",
    "geocoded_column": {
      "latitude": "29.954388423960513",
      "longitude": "-90.10999207110272"
    }
  },
  {
    "service_request": "2022-870878",
    "request_type": "Trash/Recycling",
    "request_reason": "Replace Trash Cart",
    "date_created": "2022-03-30T15:29:43.000",
    "date_modified": "2022-03-30T15:29:44.000",
    "request_status": "Pending",
    "responsible_agency": "Department of Sanitation",
    "final_address": "2226 Iberville St, New Orleans, Louisiana, 70119",
    "address_councildis": "B",
    "status": "Assigned to Contractor",
    "contractor": "Richards Disposal",
    "rowid": "870878",
    "final_x": "3677005.68501",
    "final_y": "534333.318661",
    "longitude": "-90.08216475885824",
    "latitude": "29.963367054270083",
    "geocoded_column": {
      "latitude": "29.963367054270083",
      "longitude": "-90.08216475885824"
    }
  },
  {
    "service_request": "2022-870877",
    "request_type": "Roads/Drainage",
    "request_reason": "Man hole cover issue",
    "date_created": "2022-03-30T15:27:39.000",
    "date_modified": "2022-03-30T15:27:39.000",
    "request_status": "Pending",
    "responsible_agency": "Department of Public Works",
    "final_address": "2222 Lakeshore Dr",
    "address_councildis": "D",
    "status": "Pending",
    "rowid": "870877",
    "final_x": "3684233.25916",
    "final_y": "558810.595804",
    "longitude": "-90.0584809246529",
    "latitude": "30.030451820504528",
    "geocoded_column": {
      "latitude": "30.030451820504528",
      "longitude": "-90.0584809246529"
    }
  },
  {
    "service_request": "2022-870876",
    "request_type": "Trash/Recycling",
    "request_reason": "Repair Trash Cart",
    "date_created": "2022-03-30T15:27:19.000",
    "date_modified": "2022-03-30T15:27:20.000",
    "request_status": "Pending",
    "responsible_agency": "Department of Sanitation",
    "final_address": "3524 Republic St",
    "address_councildis": "D",
    "status": "Assigned to Contractor",
    "contractor": "Metro Disposal",
    "rowid": "870876",
    "final_x": "3680432.32181",
    "final_y": "545448.418512",
    "longitude": "-90.07095712410522",
    "latitude": "29.993826392087247",
    "geocoded_column": {
      "latitude": "29.993826392087247",
      "longitude": "-90.07095712410522"
    }
  },
  {
    "service_request": "2022-870875",
    "request_type": "Roads/Drainage",
    "request_reason": "Street Flooding / Drainage",
    "date_created": "2022-03-30T15:25:14.000",
    "date_modified": "2022-03-30T15:25:14.000",
    "request_status": "Pending",
    "responsible_agency": "Department of Public Works",
    "final_address": "130 Baronne St",
    "address_councildis": "B",
    "status": "Pending",
    "rowid": "870875",
    "final_x": "3680426.27157",
    "final_y": "530856.204162",
    "longitude": "-90.07148385040512",
    "latitude": "29.953703025792713",
    "geocoded_column": {
      "latitude": "29.953703025792713",
      "longitude": "-90.07148385040512"
    }
  },
  {
    "service_request": "2022-870874",
    "request_type": "Traffic Signals/Signs/Striping/Streetlights",
    "request_reason": "Street Light Knocked Down/Leaning",
    "date_created": "2022-03-30T15:24:19.000",
    "date_modified": "2022-03-30T15:24:20.000",
    "request_status": "Pending",
    "responsible_agency": "Department of Public Works",
    "final_address": "2222 Lakeshore Dr",
    "address_councildis": "D",
    "status": "Pending",
    "contractor": "Royal Engineering",
    "rowid": "870874",
    "final_x": "3684233.25916",
    "final_y": "558810.595804",
    "longitude": "-90.0584809246529",
    "latitude": "30.030451820504528",
    "geocoded_column": {
      "latitude": "30.030451820504528",
      "longitude": "-90.0584809246529"
    }
  },
  {
    "service_request": "2022-870873",
    "request_type": "Trash/Recycling",
    "request_reason": "Missed Trash Pick-Up",
    "date_created": "2022-03-30T15:23:30.000",
    "date_modified": "2022-03-30T15:23:31.000",
    "request_status": "Pending",
    "responsible_agency": "Department of Sanitation",
    "final_address": "7801 Weaver Ave",
    "address_councildis": "E",
    "status": "Assigned to Contractor",
    "contractor": "Metro Disposal",
    "rowid": "870873",
    "final_x": "3707189.60484",
    "final_y": "564873.237346",
    "longitude": "-89.9857138820135",
    "latitude": "30.04639942095281",
    "geocoded_column": {
      "latitude": "30.04639942095281",
      "longitude": "-89.9857138820135"
    }
  },
  {
    "service_request": "2022-870872",
    "request_type": "Trash/Recycling",
    "request_reason": "Request a Large Item Pick Up",
    "date_created": "2022-03-30T15:22:35.000",
    "date_modified": "2022-03-30T15:22:36.000",
    "request_status": "Pending",
    "responsible_agency": "Department of Sanitation",
    "final_address": "4840 Lafon Dr, New Orleans, Louisiana, 70126",
    "address_councildis": "E",
    "status": "Assigned to Contractor",
    "contractor": "Metro Disposal",
    "rowid": "870872",
    "final_x": "3701026.97188",
    "final_y": "554739.141144",
    "longitude": "-90.00556201130497",
    "latitude": "30.01873243606088",
    "geocoded_column": {
      "latitude": "30.01873243606088",
      "longitude": "-90.00556201130497"
    }
  },
  {
    "service_request": "2022-870871",
    "request_type": "Roads/Drainage",
    "request_reason": "Catch Basin - Clogged",
    "date_created": "2022-03-30T15:19:26.000",
    "date_modified": "2022-03-30T15:19:26.000",
    "request_status": "Pending",
    "responsible_agency": "Department of Public Works",
    "final_address": "2233 Canal St, New Orleans, Louisiana, 70119",
    "address_councildis": "B",
    "status": "Pending",
    "rowid": "870871",
    "final_x": "3676835.54427",
    "final_y": "534168.493317",
    "longitude": "-90.08270772580175",
    "latitude": "29.962918947545308",
    "geocoded_column": {
      "latitude": "29.962918947545308",
      "longitude": "-90.08270772580175"
    }
  },
  {
    "service_request": "2022-870870",
    "request_type": "Roads/Drainage",
    "request_reason": "Damaged Sidewalk",
    "date_created": "2022-03-30T15:16:54.000",
    "date_modified": "2022-03-30T15:16:54.000",
    "request_status": "Pending",
    "responsible_agency": "Department of Public Works",
    "final_address": "1300 S Peters St",
    "address_councildis": "B",
    "status": "Pending",
    "rowid": "870870",
    "final_x": "3682444.69192",
    "final_y": "524680.562364",
    "longitude": "-90.06532631785419",
    "latitude": "29.93666081253798",
    "geocoded_column": {
      "latitude": "29.93666081253798",
      "longitude": "-90.06532631785419"
    }
  },
  {
    "service_request": "2022-870869",
    "request_type": "Roads/Drainage",
    "request_reason": "Catch Basin - Clogged",
    "date_created": "2022-03-30T15:15:10.000",
    "date_modified": "2022-03-30T15:15:10.000",
    "request_status": "Pending",
    "responsible_agency": "Department of Public Works",
    "final_address": "2229 Iberville St",
    "address_councildis": "B",
    "status": "Pending",
    "rowid": "870869",
    "final_x": "3677039.21243",
    "final_y": "534409.555781",
    "longitude": "-90.08205625390569",
    "latitude": "29.963575673872576",
    "geocoded_column": {
      "latitude": "29.963575673872576",
      "longitude": "-90.08205625390569"
    }
  },
  {
    "service_request": "2022-870867",
    "request_type": "Roads/Drainage",
    "request_reason": "Damaged Sidewalk",
    "date_created": "2022-03-30T15:12:00.000",
    "date_modified": "2022-03-30T15:12:00.000",
    "request_status": "Pending",
    "responsible_agency": "Department of Public Works",
    "final_address": "137 Royal St",
    "address_councildis": "C",
    "status": "Pending",
    "rowid": "870867",
    "final_x": "3681393.50108",
    "final_y": "530983.685058",
    "longitude": "-90.06842530120464",
    "latitude": "29.954024231496472",
    "geocoded_column": {
      "latitude": "29.954024231496472",
      "longitude": "-90.06842530120464"
    }
  },
  {
    "service_request": "2022-870866",
    "request_type": "Trash/Recycling",
    "request_reason": "Order Trash Cart",
    "date_created": "2022-03-30T15:11:43.000",
    "date_modified": "2022-03-30T15:11:43.000",
    "request_status": "Pending",
    "responsible_agency": "Department of Sanitation",
    "final_address": "5701 N Villere St",
    "address_councildis": "E",
    "status": "Assigned to Contractor",
    "contractor": "Metro Disposal",
    "rowid": "870866",
    "final_x": "3698734.72989",
    "final_y": "534835.644614",
    "longitude": "-90.01352898772915",
    "latitude": "29.964077986345256",
    "geocoded_column": {
      "latitude": "29.964077986345256",
      "longitude": "-90.01352898772915"
    }
  },
  {
    "service_request": "2022-870863",
    "request_type": "Parks & Parkways",
    "request_reason": "Request Tree Service (Right of Way/Public Property)",
    "date_created": "2022-03-30T15:11:09.000",
    "date_modified": "2022-03-30T15:13:34.000",
    "request_status": "Pending",
    "responsible_agency": "Department of Parks & Parkway",
    "final_address": "8422 Pritchard Pl",
    "address_councildis": "A",
    "status": "Pending",
    "rowid": "870863",
    "final_x": "3665096.33261",
    "final_y": "533713.202181",
    "longitude": "-90.11979406962979",
    "latitude": "29.962014132016293",
    "geocoded_column": {
      "latitude": "29.962014132016293",
      "longitude": "-90.11979406962979"
    }
  },
  {
    "service_request": "2022-870862",
    "request_type": "Traffic Signals/Signs/Striping/Streetlights",
    "request_reason": "Street Name Sign Damaged or Missing",
    "date_created": "2022-03-30T15:10:16.000",
    "date_modified": "2022-03-30T15:11:51.000",
    "request_status": "Pending",
    "responsible_agency": "Department of Public Works",
    "final_address": "PORT ST & N MIRO ST",
    "address_councildis": "D",
    "status": "Pending",
    "rowid": "870862",
    "final_x": "3688471.0",
    "final_y": "540526.28",
    "longitude": "-90.0457389092978",
    "latitude": "29.980046305909536",
    "geocoded_column": {
      "latitude": "29.980046305909536",
      "longitude": "-90.0457389092978"
    }
  },
  {
    "service_request": "2022-870861",
    "request_type": "Abandoned Vehicles",
    "request_reason": "Abandoned/Junk Vehicles",
    "date_created": "2022-03-30T15:09:12.000",
    "date_modified": "2022-03-30T15:09:12.000",
    "request_status": "Pending",
    "responsible_agency": "Department of Public Works",
    "final_address": "2800 Dumaine St, New Orleans, Louisiana, 70119",
    "address_councildis": "A",
    "status": "Pending",
    "rowid": "870861",
    "final_x": "3676658.38709",
    "final_y": "537857.241673",
    "longitude": "-90.08314007183475",
    "latitude": "29.973067067166607",
    "geocoded_column": {
      "latitude": "29.973067067166607",
      "longitude": "-90.08314007183475"
    }
  },
  {
    "service_request": "2022-870860",
    "request_type": "Trash/Recycling",
    "request_reason": "Request a Large Item Pick Up",
    "date_created": "2022-03-30T15:08:48.000",
    "date_modified": "2022-03-30T15:08:48.000",
    "request_status": "Pending",
    "responsible_agency": "Department of Sanitation",
    "final_address": "3434 Broadway St",
    "address_councildis": "B",
    "status": "Assigned to Contractor",
    "contractor": "Richards Disposal",
    "rowid": "870860",
    "final_x": "3668661.1577",
    "final_y": "533234.594628",
    "longitude": "-90.10855301983457",
    "latitude": "29.96059382605482",
    "geocoded_column": {
      "latitude": "29.96059382605482",
      "longitude": "-90.10855301983457"
    }
  },
  {
    "service_request": "2022-870859",
    "request_type": "Trash/Recycling",
    "request_reason": "Order Trash Cart",
    "date_created": "2022-03-30T15:06:45.000",
    "date_modified": "2022-03-30T15:06:47.000",
    "request_status": "Pending",
    "responsible_agency": "Department of Sanitation",
    "final_address": "6526 Baccich St",
    "address_councildis": "D",
    "status": "Assigned to Contractor",
    "contractor": "Metro Disposal",
    "rowid": "870859",
    "final_x": "3687283.48086",
    "final_y": "557408.082651",
    "longitude": "-90.04889188747457",
    "latitude": "30.02650176849077",
    "geocoded_column": {
      "latitude": "30.02650176849077",
      "longitude": "-90.04889188747457"
    }
  },
  {
    "service_request": "2022-870858",
    "request_type": "Trash/Recycling",
    "request_reason": "Request a Large Item Pick Up",
    "date_created": "2022-03-30T15:05:49.000",
    "date_modified": "2022-03-30T15:05:50.000",
    "request_status": "Pending",
    "responsible_agency": "Department of Sanitation",
    "final_address": "4670 Venus St",
    "address_councildis": "D",
    "status": "Assigned to Contractor",
    "contractor": "Metro Disposal",
    "rowid": "870858",
    "final_x": "3686449.67778",
    "final_y": "550118.569236",
    "longitude": "-90.05178422712068",
    "latitude": "30.006483964060948",
    "geocoded_column": {
      "latitude": "30.006483964060948",
      "longitude": "-90.05178422712068"
    }
  },
  {
    "service_request": "2022-870857",
    "request_type": "Trash/Recycling",
    "request_reason": "Request a Large Item Pick Up",
    "date_created": "2022-03-30T15:02:44.000",
    "date_modified": "2022-03-30T15:02:45.000",
    "request_status": "Pending",
    "responsible_agency": "Department of Sanitation",
    "final_address": "3500 Rue Nichole",
    "address_councildis": "C",
    "status": "Assigned to Contractor",
    "contractor": "Richards Disposal",
    "rowid": "870857",
    "final_x": "3704067.89182",
    "final_y": "517809.413046",
    "longitude": "-89.9973143749232",
    "latitude": "29.917091873511758",
    "geocoded_column": {
      "latitude": "29.917091873511758",
      "longitude": "-89.9973143749232"
    }
  },
  {
    "service_request": "2022-870856",
    "request_type": "Trash/Recycling",
    "request_reason": "Request a Large Item Pick Up",
    "date_created": "2022-03-30T14:59:49.000",
    "date_modified": "2022-03-30T14:59:50.000",
    "request_status": "Pending",
    "responsible_agency": "Department of Sanitation",
    "final_address": "2027 Socrates St",
    "address_councildis": "C",
    "status": "Assigned to Contractor",
    "contractor": "Richards Disposal",
    "rowid": "870856",
    "final_x": "3691615.88502",
    "final_y": "526200.907134",
    "longitude": "-90.03631823696804",
    "latitude": "29.940558991928366",
    "geocoded_column": {
      "latitude": "29.940558991928366",
      "longitude": "-90.03631823696804"
    }
  },
  {
    "service_request": "2022-870855",
    "request_type": "Trash/Recycling",
    "request_reason": "Order Trash Cart",
    "date_created": "2022-03-30T14:56:57.000",
    "date_modified": "2022-03-30T14:56:58.000",
    "request_status": "Pending",
    "responsible_agency": "Department of Sanitation",
    "final_address": "1947 N Dorgenois St",
    "address_councildis": "D",
    "status": "Assigned to Contractor",
    "contractor": "Metro Disposal",
    "rowid": "870855",
    "final_x": "3681780.59855",
    "final_y": "541267.44334",
    "longitude": "-90.06684409603385",
    "latitude": "29.982289270880703",
    "geocoded_column": {
      "latitude": "29.982289270880703",
      "longitude": "-90.06684409603385"
    }
  },
  {
    "service_request": "2022-870854",
    "request_type": "Traffic Signals/Signs/Striping/Streetlights",
    "request_reason": "Street Light Outage/Malfunction",
    "date_created": "2022-03-30T14:56:20.000",
    "date_modified": "2022-03-30T16:28:13.000",
    "request_status": "Pending",
    "responsible_agency": "Department of Public Works",
    "final_address": "New Orleans,LA",
    "address_councildis": "B",
    "status": "Pending",
    "contractor": "Royal Engineering",
    "rowid": "870854",
    "final_x": "3681234.5",
    "final_y": "526823.68",
    "longitude": "-90.06907229308081",
    "latitude": "29.94259044123831",
    "geocoded_column": {
      "latitude": "29.94259044123831",
      "longitude": "-90.06907229308081"
    }
  },
  {
    "service_request": "2022-870853",
    "request_type": "Trash/Recycling",
    "request_reason": "Replace Recycling Cart",
    "date_created": "2022-03-30T14:50:47.000",
    "date_modified": "2022-03-30T14:50:47.000",
    "request_status": "Pending",
    "responsible_agency": "Department of Sanitation",
    "final_address": "6501 Vicksburg St",
    "address_councildis": "A",
    "status": "Pending",
    "rowid": "870853",
    "final_x": "3669272.69191",
    "final_y": "550716.028693",
    "longitude": "-90.10603063534911",
    "latitude": "30.008643827894204",
    "geocoded_column": {
      "latitude": "30.008643827894204",
      "longitude": "-90.10603063534911"
    }
  },
  {
    "service_request": "2022-870852",
    "request_type": "Abandoned Vehicles",
    "request_reason": "Abandoned/Junk Vehicles",
    "date_created": "2022-03-30T14:45:32.000",
    "date_modified": "2022-03-30T14:45:32.000",
    "request_status": "Pending",
    "responsible_agency": "Department of Public Works",
    "final_address": "316 S Bernadotte St",
    "address_councildis": "A",
    "status": "Pending",
    "rowid": "870852",
    "final_x": "3668341.39169",
    "final_y": "539230.23681",
    "longitude": "-90.10936053988168",
    "latitude": "29.977089237164645",
    "geocoded_column": {
      "latitude": "29.977089237164645",
      "longitude": "-90.10936053988168"
    }
  },
  {
    "service_request": "2022-870851",
    "request_type": "Abandoned Vehicles",
    "request_reason": "Abandoned/Junk Vehicles",
    "date_created": "2022-03-30T14:42:26.000",
    "date_modified": "2022-03-30T14:42:26.000",
    "request_status": "Pending",
    "responsible_agency": "Department of Public Works",
    "final_address": "328 S Bernadotte St",
    "address_councildis": "A",
    "status": "Pending",
    "rowid": "870851",
    "final_x": "3668265.03527",
    "final_y": "539209.672522",
    "longitude": "-90.10960239256676",
    "latitude": "29.977034934777535",
    "geocoded_column": {
      "latitude": "29.977034934777535",
      "longitude": "-90.10960239256676"
    }
  },
  {
    "service_request": "2022-870850",
    "request_type": "Trash/Recycling",
    "request_reason": "Request a Large Item Pick Up",
    "date_created": "2022-03-30T14:41:01.000",
    "date_modified": "2022-03-30T14:41:02.000",
    "request_status": "Pending",
    "responsible_agency": "Department of Sanitation",
    "final_address": "2604 S Carrollton Ave",
    "address_councildis": "A",
    "status": "Assigned to Contractor",
    "contractor": "Richards Disposal",
    "rowid": "870850",
    "final_x": "3665388.1504",
    "final_y": "532153.551427",
    "longitude": "-90.11892474883905",
    "latitude": "29.957717101996074",
    "geocoded_column": {
      "latitude": "29.957717101996074",
      "longitude": "-90.11892474883905"
    }
  },
  {
    "service_request": "2022-870849",
    "request_type": "Abandoned Vehicles",
    "request_reason": "Abandoned/Junk Vehicles",
    "date_created": "2022-03-30T14:39:56.000",
    "date_modified": "2022-03-30T14:39:56.000",
    "request_status": "Pending",
    "responsible_agency": "Department of Public Works",
    "final_address": "4735 Banks St",
    "address_councildis": "A",
    "status": "Pending",
    "rowid": "870849",
    "final_x": "3668188.73901",
    "final_y": "539120.448906",
    "longitude": "-90.10984637041167",
    "latitude": "29.97679184013206",
    "geocoded_column": {
      "latitude": "29.97679184013206",
      "longitude": "-90.10984637041167"
    }
  },
  {
    "service_request": "2022-870848",
    "request_type": "Traffic Signals/Signs/Striping/Streetlights",
    "request_reason": "Street Light Outage/Malfunction",
    "date_created": "2022-03-30T14:38:31.000",
    "date_modified": "2022-03-30T14:38:32.000",
    "request_status": "Pending",
    "responsible_agency": "Department of Public Works",
    "final_address": "743 Louisiana Ave",
    "address_councildis": "B",
    "status": "Pending",
    "contractor": "Royal Engineering",
    "rowid": "870848",
    "final_x": "3675653.75649",
    "final_y": "518558.968631",
    "longitude": "-90.08697583871421",
    "latitude": "29.920033304171024",
    "geocoded_column": {
      "latitude": "29.920033304171024",
      "longitude": "-90.08697583871421"
    }
  },
  {
    "service_request": "2022-870847",
    "request_type": "Traffic Signals/Signs/Striping/Streetlights",
    "request_reason": "Street Light Outage/Malfunction",
    "date_created": "2022-03-30T14:30:46.000",
    "date_modified": "2022-03-30T14:30:47.000",
    "request_status": "Pending",
    "responsible_agency": "Department of Public Works",
    "final_address": "ROYAL ST & BARRACKS ST",
    "address_councildis": "C",
    "status": "Pending",
    "contractor": "Royal Engineering",
    "rowid": "870847",
    "final_x": "3683877.6",
    "final_y": "534190.68",
    "longitude": "-90.06046904866474",
    "latitude": "29.96276673439766",
    "geocoded_column": {
      "latitude": "29.96276673439766",
      "longitude": "-90.06046904866474"
    }
  },
  {
    "service_request": "2022-870846",
    "request_type": "Trash/Recycling",
    "request_reason": "Replace Trash Cart",
    "date_created": "2022-03-30T14:28:12.000",
    "date_modified": "2022-03-30T14:28:13.000",
    "request_status": "Pending",
    "responsible_agency": "Department of Sanitation",
    "final_address": "732 Pleasant St",
    "address_councildis": "B",
    "status": "Assigned to Contractor",
    "contractor": "Richards Disposal",
    "rowid": "870846",
    "final_x": "3676109.51797",
    "final_y": "518719.079095",
    "longitude": "-90.08553171431812",
    "latitude": "29.92045991727176",
    "geocoded_column": {
      "latitude": "29.92045991727176",
      "longitude": "-90.08553171431812"
    }
  },
  {
    "service_request": "2022-870845",
    "request_type": "Traffic Signals/Signs/Striping/Streetlights",
    "request_reason": "Traffic Sign Missing/Damaged",
    "date_created": "2022-03-30T14:26:04.000",
    "date_modified": "2022-03-30T14:26:04.000",
    "request_status": "Pending",
    "responsible_agency": "Department of Public Works",
    "final_address": "MAYO RD & WALES ST",
    "address_councildis": "E",
    "status": "Pending",
    "rowid": "870845",
    "final_x": "3700534.8",
    "final_y": "561540.38",
    "longitude": "-90.00686831871812",
    "latitude": "30.03744889368205",
    "geocoded_column": {
      "latitude": "30.03744889368205",
      "longitude": "-90.00686831871812"
    }
  },
  {
    "service_request": "2022-870844",
    "request_type": "Traffic Signals/Signs/Striping/Streetlights",
    "request_reason": "Traffic Sign Missing/Damaged",
    "date_created": "2022-03-30T14:19:19.000",
    "date_modified": "2022-03-30T14:19:19.000",
    "request_status": "Pending",
    "responsible_agency": "Department of Public Works",
    "final_address": "PIETY ST & ROYAL ST",
    "address_councildis": "C",
    "status": "Pending",
    "rowid": "870844",
    "final_x": "3689461.0",
    "final_y": "534300.38",
    "longitude": "-90.04283355124153",
    "latitude": "29.96289664640253",
    "geocoded_column": {
      "latitude": "29.96289664640253",
      "longitude": "-90.04283355124153"
    }
  },
  {
    "service_request": "2022-870843",
    "request_type": "Property Maintenance",
    "request_reason": "Property Maintenance",
    "date_created": "2022-03-30T14:13:51.000",
    "date_modified": "2022-03-30T14:13:51.000",
    "request_status": "Pending",
    "responsible_agency": "Department of Code Enforcement",
    "final_address": "10714 Curran Rd",
    "address_councildis": "E",
    "status": "Pending",
    "rowid": "870843",
    "final_x": "3709716.81841",
    "final_y": "565529.733346",
    "longitude": "-89.97770210517513",
    "latitude": "30.048122553260445",
    "geocoded_column": {
      "latitude": "30.048122553260445",
      "longitude": "-89.97770210517513"
    }
  },
  {
    "service_request": "2022-870842",
    "request_type": "Trash/Recycling",
    "request_reason": "Request a Large Item Pick Up",
    "date_created": "2022-03-30T14:13:11.000",
    "date_modified": "2022-03-30T14:13:12.000",
    "request_status": "Pending",
    "responsible_agency": "Department of Sanitation",
    "final_address": "11666 Pressburg St",
    "address_councildis": "E",
    "status": "Assigned to Contractor",
    "contractor": "Metro Disposal",
    "rowid": "870842",
    "final_x": "3718919.60997",
    "final_y": "557766.132699",
    "longitude": "-89.94891283623912",
    "latitude": "30.026473221821476",
    "geocoded_column": {
      "latitude": "30.026473221821476",
      "longitude": "-89.94891283623912"
    }
  },
  {
    "service_request": "2022-870841",
    "request_type": "Trash/Recycling",
    "request_reason": "Missed Trash Pick-Up",
    "date_created": "2022-03-30T14:12:41.000",
    "date_modified": "2022-03-30T14:12:41.000",
    "request_status": "Pending",
    "responsible_agency": "Department of Sanitation",
    "final_address": "1451 Annunciation St",
    "address_councildis": "B",
    "status": "Assigned to Contractor",
    "contractor": "Richards Disposal",
    "rowid": "870841",
    "final_x": "3681008.45506",
    "final_y": "523910.087356",
    "longitude": "-90.06988739922647",
    "latitude": "29.9345858856034",
    "geocoded_column": {
      "latitude": "29.9345858856034",
      "longitude": "-90.06988739922647"
    }
  },
  {
    "service_request": "2022-870840",
    "request_type": "Trash/Recycling",
    "request_reason": "MIssed Recycling Pick-Up",
    "date_created": "2022-03-30T14:10:19.000",
    "date_modified": "2022-03-30T14:10:20.000",
    "request_status": "Pending",
    "responsible_agency": "Department of Sanitation",
    "final_address": "2026 Philip St",
    "address_councildis": "B",
    "status": "Assigned to Contractor",
    "contractor": "Richards Disposal",
    "rowid": "870840",
    "final_x": "3676203.36949",
    "final_y": "524710.893308",
    "longitude": "-90.08502942247196",
    "latitude": "29.93693265010777",
    "geocoded_column": {
      "latitude": "29.93693265010777",
      "longitude": "-90.08502942247196"
    }
  },
  {
    "service_request": "2022-870839",
    "request_type": "Trash/Recycling",
    "request_reason": "Repair Recycling Cart",
    "date_created": "2022-03-30T14:07:03.000",
    "date_modified": "2022-03-30T14:07:04.000",
    "request_status": "Pending",
    "responsible_agency": "Department of Sanitation",
    "final_address": "1400 Cabrini Ct",
    "address_councildis": "D",
    "status": "Pending",
    "rowid": "870839",
    "final_x": "3677746.39176",
    "final_y": "553256.683863",
    "longitude": "-90.0791716176299",
    "latitude": "30.015377434806958",
    "geocoded_column": {
      "latitude": "30.015377434806958",
      "longitude": "-90.0791716176299"
    }
  },
  {
    "service_request": "2022-870838",
    "request_type": "Trash/Recycling",
    "request_reason": "Dead Animal Pick Up",
    "date_created": "2022-03-30T13:59:27.000",
    "date_modified": "2022-03-30T13:59:28.000",
    "request_status": "Pending",
    "responsible_agency": "Department of Sanitation",
    "final_address": "2200 BLK Annette St",
    "address_councildis": "D",
    "status": "Assigned to Contractor",
    "contractor": "Metro Disposal",
    "rowid": "870838",
    "final_x": "3682807.75935",
    "final_y": "540391.491511",
    "longitude": "-90.06363048214486",
    "latitude": "29.979849453004945",
    "geocoded_column": {
      "latitude": "29.979849453004945",
      "longitude": "-90.06363048214486"
    }
  },
  {
    "service_request": "2022-870837",
    "request_type": "Trash/Recycling",
    "request_reason": "Order Recycling Cart",
    "date_created": "2022-03-30T13:58:03.000",
    "date_modified": "2022-03-30T16:20:25.000",
    "request_status": "Pending",
    "responsible_agency": "Department of Sanitation",
    "final_address": "222 S Murat St, New Orleans, Louisiana, 70119",
    "address_councildis": "A",
    "rowid": "870837",
    "final_x": "3669352.6811",
    "final_y": "538879.784329",
    "longitude": "-90.10617840547233",
    "latitude": "29.97609586921586",
    "geocoded_column": {
      "latitude": "29.97609586921586",
      "longitude": "-90.10617840547233"
    }
  },
  {
    "service_request": "2022-870836",
    "request_type": "Trash/Recycling",
    "request_reason": "Replace Trash Cart",
    "date_created": "2022-03-30T13:48:40.000",
    "date_modified": "2022-03-30T13:48:40.000",
    "request_status": "Pending",
    "responsible_agency": "Department of Sanitation",
    "final_address": "7610 Wave Dr",
    "address_councildis": "E",
    "status": "Assigned to Contractor",
    "contractor": "Metro Disposal",
    "rowid": "870836",
    "final_x": "3714968.40639",
    "final_y": "568644.317989",
    "longitude": "-89.96098636634729",
    "latitude": "30.056514504138242",
    "geocoded_column": {
      "latitude": "30.056514504138242",
      "longitude": "-89.96098636634729"
    }
  },
  {
    "service_request": "2022-870835",
    "request_type": "Trash/Recycling",
    "request_reason": "Repair Trash Cart",
    "date_created": "2022-03-30T13:46:52.000",
    "date_modified": "2022-03-30T13:46:52.000",
    "request_status": "Pending",
    "responsible_agency": "Department of Sanitation",
    "final_address": "2828 Josephine St",
    "address_councildis": "B",
    "status": "Assigned to Contractor",
    "contractor": "Richards Disposal",
    "rowid": "870835",
    "final_x": "3675157.36974",
    "final_y": "527452.189439",
    "longitude": "-90.08823766191155",
    "latitude": "29.94450160664963",
    "geocoded_column": {
      "latitude": "29.94450160664963",
      "longitude": "-90.08823766191155"
    }
  },
  {
    "service_request": "2022-870834",
    "request_type": "Abandoned Vehicles",
    "request_reason": "Abandoned/Junk Vehicles",
    "date_created": "2022-03-30T13:46:47.000",
    "date_modified": "2022-03-30T13:46:47.000",
    "request_status": "Pending",
    "responsible_agency": "Department of Public Works",
    "final_address": "2487 Gladiolus St",
    "address_councildis": "D",
    "status": "Pending",
    "rowid": "870834",
    "final_x": "3686259.5199",
    "final_y": "547490.400658",
    "longitude": "-90.05247779688099",
    "latitude": "29.99926329893208",
    "geocoded_column": {
      "latitude": "29.99926329893208",
      "longitude": "-90.05247779688099"
    }
  },
  {
    "service_request": "2022-870833",
    "request_type": "Trash/Recycling",
    "request_reason": "Repair Trash Cart",
    "date_created": "2022-03-30T13:44:08.000",
    "date_modified": "2022-03-30T13:44:09.000",
    "request_status": "Pending",
    "responsible_agency": "Department of Sanitation",
    "final_address": "2830 Josephine St",
    "address_councildis": "B",
    "status": "Assigned to Contractor",
    "contractor": "Richards Disposal",
    "rowid": "870833",
    "final_x": "3675150.43278",
    "final_y": "527461.440191",
    "longitude": "-90.0882592465792",
    "latitude": "29.94452725043225",
    "geocoded_column": {
      "latitude": "29.94452725043225",
      "longitude": "-90.0882592465792"
    }
  },
  {
    "service_request": "2022-870832",
    "request_type": "Abandoned Vehicles",
    "request_reason": "Abandoned/Junk Vehicles",
    "date_created": "2022-03-30T13:43:41.000",
    "date_modified": "2022-03-30T13:43:41.000",
    "request_status": "Pending",
    "responsible_agency": "Department of Public Works",
    "final_address": "6900 Downman Rd",
    "address_councildis": "D",
    "status": "Pending",
    "rowid": "870832",
    "final_x": "3695300.06608",
    "final_y": "556167.19561",
    "longitude": "-90.0236053187468",
    "latitude": "30.022840274037925",
    "geocoded_column": {
      "latitude": "30.022840274037925",
      "longitude": "-90.0236053187468"
    }
  },
  {
    "service_request": "2022-870831",
    "request_type": "Trash/Recycling",
    "request_reason": "Return Trash Cart",
    "date_created": "2022-03-30T13:42:26.000",
    "date_modified": "2022-03-30T13:42:27.000",
    "request_status": "Pending",
    "responsible_agency": "Department of Sanitation",
    "final_address": "816 Upperline St",
    "address_councildis": "B",
    "status": "Assigned to Contractor",
    "contractor": "Richards Disposal",
    "rowid": "870831",
    "final_x": "3668889.7986",
    "final_y": "518356.503542",
    "longitude": "-90.10833329334672",
    "latitude": "29.91967715877183",
    "geocoded_column": {
      "latitude": "29.91967715877183",
      "longitude": "-90.10833329334672"
    }
  },
  {
    "service_request": "2022-870830",
    "request_type": "Roads/Drainage",
    "request_reason": "Damaged Sidewalk",
    "date_created": "2022-03-30T13:38:43.000",
    "date_modified": "2022-03-30T13:38:43.000",
    "request_status": "Pending",
    "responsible_agency": "Department of Public Works",
    "final_address": "3300 Baronne St",
    "address_councildis": "B",
    "status": "Pending",
    "rowid": "870830",
    "final_x": "3674217.05172",
    "final_y": "522302.045178",
    "longitude": "-90.0913827691189",
    "latitude": "29.930368452082973",
    "geocoded_column": {
      "latitude": "29.930368452082973",
      "longitude": "-90.0913827691189"
    }
  },
  {
    "service_request": "2022-870829",
    "request_type": "Traffic Signals/Signs/Striping/Streetlights",
    "request_reason": "Traffic Sign Missing/Damaged",
    "date_created": "2022-03-30T13:35:37.000",
    "date_modified": "2022-03-30T13:35:37.000",
    "request_status": "Pending",
    "responsible_agency": "Department of Public Works",
    "final_address": "3300 St Charles Ave",
    "address_councildis": "B",
    "status": "Pending",
    "rowid": "870829",
    "final_x": "3674536.35496",
    "final_y": "521606.228537",
    "longitude": "-90.09039860401785",
    "latitude": "29.92844566139807",
    "geocoded_column": {
      "latitude": "29.92844566139807",
      "longitude": "-90.09039860401785"
    }
  },
  {
    "service_request": "2022-870828",
    "request_type": "Trash/Recycling",
    "request_reason": "Illegal Dumping",
    "date_created": "2022-03-30T13:33:13.000",
    "date_modified": "2022-03-30T13:33:13.000",
    "request_status": "Pending",
    "responsible_agency": "Department of Sanitation",
    "final_address": "1600 Canal St",
    "address_councildis": "B",
    "status": "Pending",
    "rowid": "870828",
    "final_x": "3678593.30325",
    "final_y": "532525.416708",
    "longitude": "-90.07721382195156",
    "latitude": "29.958348173876995",
    "geocoded_column": {
      "latitude": "29.958348173876995",
      "longitude": "-90.07721382195156"
    }
  },
  {
    "service_request": "2022-870827",
    "request_type": "Trash/Recycling",
    "request_reason": "Illegal Dumping",
    "date_created": "2022-03-30T13:33:12.000",
    "date_modified": "2022-03-30T13:33:12.000",
    "request_status": "Pending",
    "responsible_agency": "Department of Sanitation",
    "final_address": "1600 Canal St",
    "address_councildis": "B",
    "status": "Pending",
    "rowid": "870827",
    "final_x": "3678593.30325",
    "final_y": "532525.416708",
    "longitude": "-90.07721382195156",
    "latitude": "29.958348173876995",
    "geocoded_column": {
      "latitude": "29.958348173876995",
      "longitude": "-90.07721382195156"
    }
  },
  {
    "service_request": "2022-870826",
    "request_type": "Roads/Drainage",
    "request_reason": "Catch Basin - Clogged",
    "date_created": "2022-03-30T13:33:06.000",
    "date_modified": "2022-03-30T13:33:06.000",
    "request_status": "Pending",
    "responsible_agency": "Department of Public Works",
    "final_address": "2720 Annunciation St",
    "address_councildis": "B",
    "status": "Pending",
    "rowid": "870826",
    "final_x": "3677793.15758",
    "final_y": "519968.04108",
    "longitude": "-90.08017413393189",
    "latitude": "29.923843637004087",
    "geocoded_column": {
      "latitude": "29.923843637004087",
      "longitude": "-90.08017413393189"
    }
  },
  {
    "service_request": "2022-870825",
    "request_type": "Trash/Recycling",
    "request_reason": "Replace Trash Cart",
    "date_created": "2022-03-30T13:30:56.000",
    "date_modified": "2022-03-30T13:30:56.000",
    "request_status": "Pending",
    "responsible_agency": "Department of Sanitation",
    "final_address": "2724 S Carrollton Ave",
    "address_councildis": "A",
    "status": "Assigned to Contractor",
    "contractor": "Richards Disposal",
    "rowid": "870825",
    "final_x": "3665726.52941",
    "final_y": "532521.66586",
    "longitude": "-90.11784391115",
    "latitude": "29.95871943083798",
    "geocoded_column": {
      "latitude": "29.95871943083798",
      "longitude": "-90.11784391115"
    }
  },
  {
    "service_request": "2022-870824",
    "request_type": "Trash/Recycling",
    "request_reason": "Repair Trash Cart",
    "date_created": "2022-03-30T13:27:07.000",
    "date_modified": "2022-03-30T13:27:08.000",
    "request_status": "Pending",
    "responsible_agency": "Department of Sanitation",
    "final_address": "2724 S Carrollton Ave",
    "address_councildis": "A",
    "status": "Assigned to Contractor",
    "contractor": "Richards Disposal",
    "rowid": "870824",
    "final_x": "3665726.52941",
    "final_y": "532521.66586",
    "longitude": "-90.11784391115",
    "latitude": "29.95871943083798",
    "geocoded_column": {
      "latitude": "29.95871943083798",
      "longitude": "-90.11784391115"
    }
  },
  {
    "service_request": "2022-870823",
    "request_type": "Trash/Recycling",
    "request_reason": "Missed Trash Pick-Up",
    "date_created": "2022-03-30T13:20:57.000",
    "date_modified": "2022-03-30T16:17:02.000",
    "request_status": "Pending",
    "responsible_agency": "Department of Sanitation",
    "final_address": "New Orleans,LA",
    "address_councildis": "A",
    "status": "Assigned to Contractor",
    "contractor": "Richards Disposal",
    "rowid": "870823",
    "final_x": "3664916.19802",
    "final_y": "528427.712448",
    "longitude": "-90.12053956994609",
    "latitude": "29.947485998676203",
    "geocoded_column": {
      "latitude": "29.947485998676203",
      "longitude": "-90.12053956994609"
    }
  },
  {
    "service_request": "2022-870822",
    "request_type": "Abandoned Vehicles",
    "request_reason": "Abandoned/Junk Vehicles",
    "date_created": "2022-03-30T13:18:31.000",
    "date_modified": "2022-03-30T13:23:42.000",
    "request_status": "Pending",
    "responsible_agency": "Department of Public Works",
    "final_address": "2134 Fourth St",
    "address_councildis": "B",
    "status": "Pending",
    "rowid": "870822",
    "final_x": "3675020.41089",
    "final_y": "524413.695292",
    "longitude": "-90.08877428082634",
    "latitude": "29.936150835759864",
    "geocoded_column": {
      "latitude": "29.936150835759864",
      "longitude": "-90.08877428082634"
    }
  },
  {
    "service_request": "2022-870821",
    "request_type": "Property Maintenance",
    "request_reason": "Property Maintenance",
    "date_created": "2022-03-30T13:18:14.000",
    "date_modified": "2022-03-30T13:18:14.000",
    "request_status": "Pending",
    "responsible_agency": "Department of Code Enforcement",
    "final_address": "1228 St Denis St",
    "address_councildis": "D",
    "status": "Pending",
    "rowid": "870821",
    "final_x": "3676854.04449",
    "final_y": "545609.97512",
    "longitude": "-90.08225481284586",
    "latitude": "29.99437852742884",
    "geocoded_column": {
      "latitude": "29.99437852742884",
      "longitude": "-90.08225481284586"
    }
  },