[
  {
    "service_request": "2021-839646",
    "request_type": "Trash/Recycling",
    "request_reason": "Missed Trash Pick-Up",
    "date_created": "2021-11-04T00:05:44.000",
    "date_modified": "2021-11-04T00:05:45.000",
    "request_status": "Pending",
    "responsible_agency": "Department of Sanitation",
    "final_address": "6065 Cameron Blvd",
    "address_councildis": "D",
    "status": "Assigned to Contractor",
    "contractor": "Metro Disposal",
    "rowid": "839646",
    "final_x": "3682439.19528",
    "final_y": "555561.372121",
    "longitude": "-90.06426390314003",
    "latitude": "30.021572416597635",
    "geocoded_column": {
      "latitude": "30.021572416597635",
      "longitude": "-90.06426390314003"
    }
  },
  {
    "service_request": "2021-839645",
    "request_type": "Traffic Signals/Signs/Striping/Streetlights",
    "request_reason": "Street Light Outage/Malfunction",
    "date_created": "2021-11-03T23:46:47.000",
    "date_modified": "2021-11-03T23:46:47.000",
    "request_status": "Pending",
    "responsible_agency": "Department of Public Works",
    "final_address": "338 36Th St",
    "address_councildis": "A",
    "status": "Pending",
    "contractor": "Royal Engineering",
    "rowid": "839645",
    "final_x": "3665085.3552",
    "final_y": "551877.471382",
    "longitude": "-90.11922095778962",
    "latitude": "30.01196004896911",
    "geocoded_column": {
      "latitude": "30.01196004896911",
      "longitude": "-90.11922095778962"
    }
  },
  {
    "service_request": "2021-839644",
    "request_type": "Traffic Signals/Signs/Striping/Streetlights",
    "request_reason": "Street Light Outage/Malfunction",
    "date_created": "2021-11-03T23:02:53.000",
    "date_modified": "2021-11-03T23:02:54.000",
    "request_status": "Pending",
    "responsible_agency": "Department of Public Works",
    "final_address": "1111 Julia St",
    "address_councildis": "B",
    "status": "Pending",
    "contractor": "Royal Engineering",
    "rowid": "839644",
    "final_x": "3678927.67483",
    "final_y": "528452.965696",
    "longitude": "-90.07629904286273",
    "latitude": "29.947140218287814",
    "geocoded_column": {
      "latitude": "29.947140218287814",
      "longitude": "-90.07629904286273"
    }
  },
  {
    "service_request": "2021-839643",
    "request_type": "Trash/Recycling",
    "request_reason": "Missed Trash Pick-Up",
    "date_created": "2021-11-03T22:10:59.000",
    "date_modified": "2021-11-03T22:10:59.000",
    "request_status": "Pending",
    "responsible_agency": "Department of Sanitation",
    "final_address": "1735 Feliciana St",
    "address_councildis": "D",
    "status": "Assigned to Contractor",
    "contractor": "Metro Disposal",
    "rowid": "839643",
    "final_x": "3689393.39516",
    "final_y": "538520.101641",
    "longitude": "-90.04289696927974",
    "latitude": "29.974501493659407",
    "geocoded_column": {
      "latitude": "29.974501493659407",
      "longitude": "-90.04289696927974"
    }
  },
  {
    "service_request": "2021-839642",
    "request_type": "Parks & Parkways",
    "request_reason": "Request Tree Service (Right of Way/Public Property)",
    "date_created": "2021-11-03T21:56:24.000",
    "date_modified": "2021-11-03T21:59:13.000",
    "request_status": "Pending",
    "responsible_agency": "Department of Parks & Parkway",
    "final_address": "FRANCE ST & N DORGENOIS ST & ALVAR ST OVERPASS",
    "address_councildis": "D",
    "status": "Pending",
    "rowid": "839642",
    "final_x": "3693694.4",
    "final_y": "540433.88",
    "longitude": "-90.02924462948002",
    "latitude": "29.979629811792094",
    "geocoded_column": {
      "latitude": "29.979629811792094",
      "longitude": "-90.02924462948002"
    }
  },
  {
    "service_request": "2021-839641",
    "request_type": "Traffic Signals/Signs/Striping/Streetlights",
    "request_reason": "Street Light Outage/Malfunction",
    "date_created": "2021-11-03T21:46:35.000",
    "date_modified": "2021-11-03T21:46:36.000",
    "request_status": "Pending",
    "responsible_agency": "Department of Public Works",
    "final_address": "2715 Marengo St",
    "address_councildis": "B",
    "status": "Pending",
    "contractor": "Royal Engineering",
    "rowid": "839641",
    "final_x": "3671607.02081",
    "final_y": "525003.553469",
    "longitude": "-90.09953042161025",
    "latitude": "29.93787425645938",
    "geocoded_column": {
      "latitude": "29.93787425645938",
      "longitude": "-90.09953042161025"
    }
  },
  {
    "service_request": "2021-839640",
    "request_type": "Traffic Signals/Signs/Striping/Streetlights",
    "request_reason": "Street Light Outage/Malfunction",
    "date_created": "2021-11-03T21:43:10.000",
    "date_modified": "2021-11-03T21:43:11.000",
    "request_status": "Pending",
    "responsible_agency": "Department of Public Works",
    "final_address": "2820 Napoleon Ave",
    "address_councildis": "B",
    "status": "Pending",
    "contractor": "Royal Engineering",
    "rowid": "839640",
    "final_x": "3670304.62554",
    "final_y": "525274.278781",
    "longitude": "-90.10363302923435",
    "latitude": "29.938657160000645",
    "geocoded_column": {
      "latitude": "29.938657160000645",
      "longitude": "-90.10363302923435"
    }
  },
  {
    "service_request": "2021-839639",
    "request_type": "Roads/Drainage",
    "request_reason": "Pothole",
    "date_created": "2021-11-03T21:21:47.000",
    "date_modified": "2021-11-03T21:21:47.000",
    "request_status": "Pending",
    "responsible_agency": "Department of Public Works",
    "final_address": "220 Hay Pl",
    "address_councildis": "A",
    "status": "Pending",
    "rowid": "839639",
    "final_x": "3665941.35181",
    "final_y": "554126.601368",
    "longitude": "-90.11644102184513",
    "latitude": "30.018119400853024",
    "geocoded_column": {
      "latitude": "30.018119400853024",
      "longitude": "-90.11644102184513"
    }
  },
  {
    "service_request": "2021-839638",
    "request_type": "Abandoned Vehicles",
    "request_reason": "Abandoned/Junk Vehicles",
    "date_created": "2021-11-03T21:00:13.000",
    "date_modified": "2021-11-03T21:00:13.000",
    "request_status": "Pending",
    "responsible_agency": "Department of Public Works",
    "final_address": "1410 Peniston St",
    "address_councildis": "B",
    "status": "Pending",
    "rowid": "839638",
    "final_x": "3672958.77377",
    "final_y": "520647.251769",
    "longitude": "-90.09541140242618",
    "latitude": "29.925855743393594",
    "geocoded_column": {
      "latitude": "29.925855743393594",
      "longitude": "-90.09541140242618"
    }
  },
  {
    "service_request": "2021-839637",
    "request_type": "Traffic Signals/Signs/Striping/Streetlights",
    "request_reason": "Street Light Outage/Malfunction",
    "date_created": "2021-11-03T19:55:42.000",
    "date_modified": "2021-11-03T22:45:42.000",
    "request_status": "Pending",
    "responsible_agency": "Department of Public Works",
    "final_address": "2460 Lark St, New Orleans, Louisiana, 70122",
    "address_councildis": "D",
    "status": "Pending",
    "contractor": "Royal Engineering",
    "rowid": "839637",
    "final_x": "3685106.42505",
    "final_y": "557891.214491",
    "longitude": "-90.05575410647495",
    "latitude": "30.027897123552254",
    "geocoded_column": {
      "latitude": "30.027897123552254",
      "longitude": "-90.05575410647495"
    }
  },
  {
    "service_request": "2021-839636",
    "request_type": "Trash/Recycling",
    "request_reason": "Replace Trash Cart",
    "date_created": "2021-11-03T19:34:40.000",
    "date_modified": "2021-11-03T19:34:41.000",
    "request_status": "Pending",
    "responsible_agency": "Department of Sanitation",
    "final_address": "7 Grand Teton Ct",
    "address_councildis": "C",
    "status": "Assigned to Contractor",
    "contractor": "Richards Disposal",
    "rowid": "839636",
    "final_x": "3699216.4858",
    "final_y": "516472.769141",
    "longitude": "-90.01267600730823",
    "latitude": "29.913571203326647",
    "geocoded_column": {
      "latitude": "29.913571203326647",
      "longitude": "-90.01267600730823"
    }
  },
  {
    "service_request": "2021-839635",
    "request_type": "Trash/Recycling",
    "request_reason": "Replace Recycling Cart",
    "date_created": "2021-11-03T19:28:01.000",
    "date_modified": "2021-11-03T20:01:16.000",
    "request_status": "Pending",
    "responsible_agency": "Department of Sanitation",
    "final_address": "3633 Gentilly Blvd",
    "address_councildis": "D",
    "status": "Pending",
    "rowid": "839635",
    "final_x": "3686258.44412",
    "final_y": "548970.597075",
    "longitude": "-90.05242892381821",
    "latitude": "30.003333337013014",
    "geocoded_column": {
      "latitude": "30.003333337013014",
      "longitude": "-90.05242892381821"
    }
  },
  {
    "service_request": "2021-839634",
    "request_type": "Traffic Signals/Signs/Striping/Streetlights",
    "request_reason": "Street Light Outage/Malfunction",
    "date_created": "2021-11-03T19:25:15.000",
    "date_modified": "2021-11-03T19:25:16.000",
    "request_status": "Pending",
    "responsible_agency": "Department of Public Works",
    "final_address": "711 Caffin Ave",
    "address_councildis": "E",
    "status": "Pending",
    "contractor": "Royal Engineering",
    "rowid": "839634",
    "final_x": "3697701.49994",
    "final_y": "532359.551299",
    "longitude": "-90.0168816530648",
    "latitude": "29.95730229165712",
    "geocoded_column": {
      "latitude": "29.95730229165712",
      "longitude": "-90.0168816530648"
    }
  },
  {
    "service_request": "2021-839633",
    "request_type": "Abandoned Vehicles",
    "request_reason": "Abandoned/Junk Vehicles",
    "date_created": "2021-11-03T19:23:12.000",
    "date_modified": "2021-11-03T19:23:12.000",
    "request_status": "Pending",
    "responsible_agency": "Department of Public Works",
    "final_address": "7640 Trapier Ave",
    "address_councildis": "E",
    "status": "Pending",
    "rowid": "839633",
    "final_x": "3706464.53399",
    "final_y": "563619.039329",
    "longitude": "-89.98805200100726",
    "latitude": "30.042974303342636",
    "geocoded_column": {
      "latitude": "30.042974303342636",
      "longitude": "-89.98805200100726"
    }
  },
  {
    "service_request": "2021-839632",
    "request_type": "COVID-19",
    "request_reason": "COVID-19 Business Non-Compliance",
    "date_created": "2021-11-03T19:05:03.000",
    "date_modified": "2021-11-03T19:05:04.000",
    "request_status": "Pending",
    "responsible_agency": "Safety and Permits",
    "final_address": "301 N Peters St",
    "address_councildis": "C",
    "status": "Pending",
    "rowid": "839632",
    "final_x": "3682420.31522",
    "final_y": "530780.516226",
    "longitude": "-90.06519014285749",
    "latitude": "29.95343437837939",
    "geocoded_column": {
      "latitude": "29.95343437837939",
      "longitude": "-90.06519014285749"
    }
  },
  {
    "service_request": "2021-839631",
    "request_type": "Abandoned Vehicles",
    "request_reason": "Abandoned/Junk Vehicles",
    "date_created": "2021-11-03T18:59:14.000",
    "date_modified": "2021-11-03T18:59:14.000",
    "request_status": "Pending",
    "responsible_agency": "Department of Public Works",
    "final_address": "1600 River Oaks Dr",
    "address_councildis": "C",
    "status": "Pending",
    "rowid": "839631",
    "final_x": "3701758.70474",
    "final_y": "524710.41798",
    "longitude": "-90.00435046004053",
    "latitude": "29.936141082515473",
    "geocoded_column": {
      "latitude": "29.936141082515473",
      "longitude": "-90.00435046004053"
    }
  },
  {
    "service_request": "2021-839629",
    "request_type": "Trash/Recycling",
    "request_reason": "Replace Trash Cart",
    "date_created": "2021-11-03T18:44:14.000",
    "date_modified": "2021-11-03T19:01:15.000",
    "request_status": "Pending",
    "responsible_agency": "Department of Sanitation",
    "final_address": "4208 S Galvez St",
    "address_councildis": "B",
    "status": "Assigned to Contractor",
    "contractor": "Richards Disposal",
    "rowid": "839629",
    "final_x": "3670837.86471",
    "final_y": "527558.090687",
    "longitude": "-90.10187204163434",
    "latitude": "29.94492115408491",
    "geocoded_column": {
      "latitude": "29.94492115408491",
      "longitude": "-90.10187204163434"
    }
  },
  {
    "service_request": "2021-839628",
    "request_type": "Roads/Drainage",
    "request_reason": "Pothole",
    "date_created": "2021-11-03T18:42:37.000",
    "date_modified": "2021-11-03T19:01:16.000",
    "request_status": "Pending",
    "responsible_agency": "Department of Public Works",
    "final_address": "117 W Harrison Ave, New Orleans, Louisiana, 70124",
    "address_councildis": "A",
    "status": "Pending",
    "rowid": "839628",
    "final_x": "3666070.82535",
    "final_y": "549629.694676",
    "longitude": "-90.11618286070382",
    "latitude": "30.005750697132058",
    "geocoded_column": {
      "latitude": "30.005750697132058",
      "longitude": "-90.11618286070382"
    }
  },
  {
    "service_request": "2021-839627",
    "request_type": "Safety & Permits",
    "request_reason": "Licenses & Permits",
    "date_created": "2021-11-03T18:39:50.000",
    "date_modified": "2021-11-03T18:45:49.000",
    "request_status": "Pending",
    "responsible_agency": "Safety and Permits",
    "final_address": "2405 Dumaine St",
    "address_councildis": "D",
    "status": "Pending",
    "rowid": "839627",
    "final_x": "3678233.13128",
    "final_y": "536800.91796",
    "longitude": "-90.07820326229498",
    "latitude": "29.970115201477658",
    "geocoded_column": {
      "latitude": "29.970115201477658",
      "longitude": "-90.07820326229498"
    }
  },
  {
    "service_request": "2021-839625",
    "request_type": "Trash/Recycling",
    "request_reason": "Illegal Dumping",
    "date_created": "2021-11-03T18:16:38.000",
    "date_modified": "2021-11-03T18:16:39.000",
    "request_status": "Pending",
    "responsible_agency": "Department of Code Enforcement",
    "final_address": "4927 Corsica Pl",
    "address_councildis": "E",
    "status": "Pending",
    "rowid": "839625",
    "final_x": "3727358.97504",
    "final_y": "562093.726175",
    "longitude": "-89.92207738494233",
    "latitude": "30.03808925583976",
    "geocoded_column": {
      "latitude": "30.03808925583976",
      "longitude": "-89.92207738494233"
    }
  },
  {
    "service_request": "2021-839621",
    "request_type": "Abandoned Vehicles",
    "request_reason": "Abandoned/Junk Vehicles",
    "date_created": "2021-11-03T17:57:22.000",
    "date_modified": "2021-11-03T18:00:57.000",
    "request_status": "Pending",
    "responsible_agency": "Department of Public Works",
    "final_address": "PALMYRA ST & S CORTEZ ST",
    "address_councildis": "A",
    "status": "Pending",
    "rowid": "839621",
    "final_x": "3671593.8",
    "final_y": "536967.38",
    "longitude": "-90.09916533697928",
    "latitude": "29.970771216998013",
    "geocoded_column": {
      "latitude": "29.970771216998013",
      "longitude": "-90.09916533697928"
    }
  },
  {
    "service_request": "2021-839620",
    "request_type": "Abandoned Vehicles",
    "request_reason": "Abandoned/Junk Vehicles",
    "date_created": "2021-11-03T17:56:20.000",
    "date_modified": "2021-11-03T17:56:20.000",
    "request_status": "Pending",
    "responsible_agency": "Department of Public Works",
    "final_address": "4822 N Rampart St",
    "address_councildis": "E",
    "status": "Pending",
    "rowid": "839620",
    "final_x": "3695110.61558",
    "final_y": "533969.263429",
    "longitude": "-90.02500480304583",
    "latitude": "29.961810026543294",
    "geocoded_column": {
      "latitude": "29.961810026543294",
      "longitude": "-90.02500480304583"
    }
  },
  {
    "service_request": "2021-839619",
    "request_type": "Abandoned Vehicles",
    "request_reason": "Abandoned/Junk Vehicles",
    "date_created": "2021-11-03T17:53:19.000",
    "date_modified": "2021-11-03T18:00:59.000",
    "request_status": "Pending",
    "responsible_agency": "Department of Public Works",
    "final_address": "PALMYRA ST & S CORTEZ ST",
    "address_councildis": "A",
    "status": "Pending",
    "rowid": "839619",
    "final_x": "3671593.8",
    "final_y": "536967.38",
    "longitude": "-90.09916533697928",
    "latitude": "29.970771216998013",
    "geocoded_column": {
      "latitude": "29.970771216998013",
      "longitude": "-90.09916533697928"
    }
  },
  {
    "service_request": "2021-839617",
    "request_type": "Trash/Recycling",
    "request_reason": "Missed Trash Pick-Up",
    "date_created": "2021-11-03T17:50:42.000",
    "date_modified": "2021-11-03T22:46:59.000",
    "request_status": "Pending",
    "responsible_agency": "Department of Sanitation",
    "final_address": "New Orleans,LA",
    "address_councildis": "D",
    "status": "Assigned to Contractor",
    "contractor": "Metro Disposal",
    "rowid": "839617",
    "final_x": "3685565.14441",
    "final_y": "556405.019546",
    "longitude": "-90.05435700645194",
    "latitude": "30.023796568432",
    "geocoded_column": {
      "latitude": "30.023796568432",
      "longitude": "-90.05435700645194"
    }
  },
  {
    "service_request": "2021-839616",
    "request_type": "Traffic Signals/Signs/Striping/Streetlights",
    "request_reason": "Street Light Outage/Malfunction",
    "date_created": "2021-11-03T17:41:45.000",
    "date_modified": "2021-11-03T18:01:05.000",
    "request_status": "Pending",
    "responsible_agency": "Department of Public Works",
    "final_address": "3701 Metropolitan St",
    "address_councildis": "D",
    "status": "Pending",
    "contractor": "Royal Engineering",
    "rowid": "839616",
    "final_x": "3691698.59651",
    "final_y": "546302.647568",
    "longitude": "-90.03533818556211",
    "latitude": "29.995829112286543",
    "geocoded_column": {
      "latitude": "29.995829112286543",
      "longitude": "-90.03533818556211"
    }
  },
  {
    "service_request": "2021-839615",
    "request_type": "Traffic Signals/Signs/Striping/Streetlights",
    "request_reason": "Street Light Outage/Malfunction",
    "date_created": "2021-11-03T17:40:53.000",
    "date_modified": "2021-11-03T18:01:06.000",
    "request_status": "Pending",
    "responsible_agency": "Department of Public Works",
    "final_address": "3701 Metropolitan St",
    "address_councildis": "D",
    "status": "Pending",
    "contractor": "Royal Engineering",
    "rowid": "839615",
    "final_x": "3691698.59651",
    "final_y": "546302.647568",
    "longitude": "-90.03533818556211",
    "latitude": "29.995829112286543",
    "geocoded_column": {
      "latitude": "29.995829112286543",
      "longitude": "-90.03533818556211"
    }
  },
  {
    "service_request": "2021-839614",
    "request_type": "Abandoned Vehicles",
    "request_reason": "Abandoned/Junk Vehicles",
    "date_created": "2021-11-03T17:40:20.000",
    "date_modified": "2021-11-03T17:40:22.000",
    "request_status": "Pending",
    "responsible_agency": "Department of Public Works",
    "final_address": "3705 Louisiana Avenue Prkwy",
    "address_councildis": "B",
    "status": "Pending",
    "rowid": "839614",
    "final_x": "3671456.79188",
    "final_y": "528482.46176",
    "longitude": "-90.09988647841429",
    "latitude": "29.94744456740378",
    "geocoded_column": {
      "latitude": "29.94744456740378",
      "longitude": "-90.09988647841429"
    }
  },
  {
    "service_request": "2021-839613",
    "request_type": "Trash/Recycling",
    "request_reason": "Repair Trash Cart",
    "date_created": "2021-11-03T17:32:10.000",
    "date_modified": "2021-11-03T17:32:11.000",
    "request_status": "Pending",
    "responsible_agency": "Department of Code Enforcement",
    "final_address": "3723 Louisiana Avenue Prkwy",
    "address_councildis": "B",
    "status": "Assigned to Contractor",
    "contractor": "Richards Disposal",
    "rowid": "839613",
    "final_x": "3671388.11655",
    "final_y": "528664.175168",
    "longitude": "-90.10009713839054",
    "latitude": "29.94794625225669",
    "geocoded_column": {
      "latitude": "29.94794625225669",
      "longitude": "-90.10009713839054"
    }
  },
  {
    "service_request": "2021-839612",
    "request_type": "Roads/Drainage",
    "request_reason": "Catch Basin - Clogged",
    "date_created": "2021-11-03T17:30:02.000",
    "date_modified": "2021-11-03T17:30:02.000",
    "request_status": "Pending",
    "responsible_agency": "Department of Public Works",
    "final_address": "823 Charbonnet St",
    "address_councildis": "E",
    "status": "Pending",
    "rowid": "839612",
    "final_x": "3698428.66135",
    "final_y": "532665.152708",
    "longitude": "-90.01457440507677",
    "latitude": "29.958119595657116",
    "geocoded_column": {
      "latitude": "29.958119595657116",
      "longitude": "-90.01457440507677"
    }
  },
  {
    "service_request": "2021-839611",
    "request_type": "Traffic Signals/Signs/Striping/Streetlights",
    "request_reason": "Street Light Outage/Malfunction",
    "date_created": "2021-11-03T17:23:27.000",
    "date_modified": "2021-11-03T18:01:09.000",
    "request_status": "Pending",
    "responsible_agency": "Department of Public Works",
    "final_address": "11416 S Easterlyn Cir",
    "address_councildis": "E",
    "status": "Pending",
    "contractor": "Royal Engineering",
    "rowid": "839611",
    "final_x": "3718773.96882",
    "final_y": "560362.997981",
    "longitude": "-89.94927392269032",
    "latitude": "30.03361839321954",
    "geocoded_column": {
      "latitude": "30.03361839321954",
      "longitude": "-89.94927392269032"
    }
  },
  {
    "service_request": "2021-839609",
    "request_type": "Traffic Signals/Signs/Striping/Streetlights",
    "request_reason": "Street Light Outage/Malfunction",
    "date_created": "2021-11-03T17:20:28.000",
    "date_modified": "2021-11-03T17:20:29.000",
    "request_status": "Pending",
    "responsible_agency": "Department of Public Works",
    "final_address": "4588 Marque Dr",
    "address_councildis": "E",
    "status": "Pending",
    "contractor": "Royal Engineering",
    "rowid": "839609",
    "final_x": "3710094.82443",
    "final_y": "554808.125592",
    "longitude": "-89.97690854097513",
    "latitude": "30.018630079114928",
    "geocoded_column": {
      "latitude": "30.018630079114928",
      "longitude": "-89.97690854097513"
    }
  },
  {
    "service_request": "2021-839608",
    "request_type": "Traffic Signals/Signs/Striping/Streetlights",
    "request_reason": "Street Light Outage/Malfunction",
    "date_created": "2021-11-03T17:19:35.000",
    "date_modified": "2021-11-03T17:19:35.000",
    "request_status": "Pending",
    "responsible_agency": "Department of Public Works",
    "final_address": "4572 Marque Dr",
    "address_councildis": "E",
    "status": "Pending",
    "contractor": "Royal Engineering",
    "rowid": "839608",
    "final_x": "3710106.22289",
    "final_y": "554687.681688",
    "longitude": "-89.9768770313889",
    "latitude": "30.01829853429637",
    "geocoded_column": {
      "latitude": "30.01829853429637",
      "longitude": "-89.9768770313889"
    }
  },
  {
    "service_request": "2021-839607",
    "request_type": "Trash/Recycling",
    "request_reason": "Illegal Dumping",
    "date_created": "2021-11-03T17:18:56.000",
    "date_modified": "2021-11-03T17:25:41.000",
    "request_status": "Pending",
    "responsible_agency": "Department of Code Enforcement",
    "final_address": "3723 Louisiana Avenue Prkwy",
    "address_councildis": "B",
    "status": "Pending",
    "rowid": "839607",
    "final_x": "3671388.11655",
    "final_y": "528664.175168",
    "longitude": "-90.10009713839054",
    "latitude": "29.94794625225669",
    "geocoded_column": {
      "latitude": "29.94794625225669",
      "longitude": "-90.10009713839054"
    }
  },
  {
    "service_request": "2021-839606",
    "request_type": "Traffic Signals/Signs/Striping/Streetlights",
    "request_reason": "Street Light Outage/Malfunction",
    "date_created": "2021-11-03T17:18:26.000",
    "date_modified": "2021-11-03T17:18:27.000",
    "request_status": "Pending",
    "responsible_agency": "Department of Public Works",
    "final_address": "4556 Marque Dr",
    "address_councildis": "E",
    "status": "Pending",
    "contractor": "Royal Engineering",
    "rowid": "839606",
    "final_x": "3710118.04331",
    "final_y": "554568.90812",
    "longitude": "-89.97684412631453",
    "latitude": "30.017971568491106",
    "geocoded_column": {
      "latitude": "30.017971568491106",
      "longitude": "-89.97684412631453"
    }
  },
  {
    "service_request": "2021-839605",
    "request_type": "Traffic Signals/Signs/Striping/Streetlights",
    "request_reason": "Street Light Outage/Malfunction",
    "date_created": "2021-11-03T17:17:36.000",
    "date_modified": "2021-11-03T17:17:37.000",
    "request_status": "Pending",
    "responsible_agency": "Department of Public Works",
    "final_address": "4524 Marque Dr",
    "address_councildis": "E",
    "status": "Pending",
    "contractor": "Royal Engineering",
    "rowid": "839605",
    "final_x": "3710141.86917",
    "final_y": "554330.764312",
    "longitude": "-89.9767777545494",
    "latitude": "30.017315990166807",
    "geocoded_column": {
      "latitude": "30.017315990166807",
      "longitude": "-89.9767777545494"
    }
  },
  {
    "service_request": "2021-839603",
    "request_type": "Parks & Parkways",
    "request_reason": "Request Tree Service (Right of Way/Public Property)",
    "date_created": "2021-11-03T17:16:26.000",
    "date_modified": "2021-11-03T18:01:15.000",
    "request_status": "Pending",
    "responsible_agency": "Department of Parks & Parkway",
    "final_address": "1942 Wilton Dr",
    "address_councildis": "D",
    "status": "Pending",
    "rowid": "839603",
    "final_x": "3681807.66671",
    "final_y": "550993.684885",
    "longitude": "-90.06641893940545",
    "latitude": "30.009032155400305",
    "geocoded_column": {
      "latitude": "30.009032155400305",
      "longitude": "-90.06641893940545"
    }
  },
  {
    "service_request": "2021-839602",
    "request_type": "Traffic Signals/Signs/Striping/Streetlights",
    "request_reason": "Street Light Outage/Malfunction",
    "date_created": "2021-11-03T17:16:15.000",
    "date_modified": "2021-11-03T17:16:16.000",
    "request_status": "Pending",
    "responsible_agency": "Department of Public Works",
    "final_address": "4500 Marque Dr",
    "address_councildis": "E",
    "status": "Pending",
    "contractor": "Royal Engineering",
    "rowid": "839602",
    "final_x": "3710156.76741",
    "final_y": "554148.746584",
    "longitude": "-89.97673749136706",
    "latitude": "30.01681502725831",
    "geocoded_column": {
      "latitude": "30.01681502725831",
      "longitude": "-89.97673749136706"
    }
  },
  {
    "service_request": "2021-839601",
    "request_type": "Property Maintenance",
    "request_reason": "Property Maintenance",
    "date_created": "2021-11-03T17:12:11.000",
    "date_modified": "2021-11-03T18:01:18.000",
    "request_status": "Pending",
    "responsible_agency": "Department of Code Enforcement",
    "final_address": "4021 Danneel St, New Orleans, Louisiana, 70115",
    "address_councildis": "B",
    "status": "Pending",
    "rowid": "839601",
    "final_x": "3672003.86759",
    "final_y": "522469.089914",
    "longitude": "-90.09836378002711",
    "latitude": "29.930893545522622",
    "geocoded_column": {
      "latitude": "29.930893545522622",
      "longitude": "-90.09836378002711"
    }
  },
  {
    "service_request": "2021-839600",
    "request_type": "Traffic Signals/Signs/Striping/Streetlights",
    "request_reason": "Street Name Sign Damaged or Missing",
    "date_created": "2021-11-03T17:09:04.000",
    "date_modified": "2021-11-03T17:09:04.000",
    "request_status": "Pending",
    "responsible_agency": "Department of Public Works",
    "final_address": "5156 Westlake Dr",
    "address_councildis": "E",
    "status": "Pending",
    "rowid": "839600",
    "final_x": "3699324.72868",
    "final_y": "556456.861594",
    "longitude": "-90.01087781764345",
    "latitude": "30.023509639378787",
    "geocoded_column": {
      "latitude": "30.023509639378787",
      "longitude": "-90.01087781764345"
    }
  },
  {
    "service_request": "2021-839599",
    "request_type": "Abandoned Vehicles",
    "request_reason": "Abandoned/Junk Vehicles",
    "date_created": "2021-11-03T17:08:06.000",
    "date_modified": "2021-11-03T18:01:19.000",
    "request_status": "Pending",
    "responsible_agency": "Department of Public Works",
    "final_address": "536 S Telemachus St, New Orleans, Louisiana, 70119",
    "address_councildis": "B",
    "status": "Pending",
    "rowid": "839599",
    "final_x": "3671253.35521",
    "final_y": "535826.854471",
    "longitude": "-90.1002792669434",
    "latitude": "29.9676452332348",
    "geocoded_column": {
      "latitude": "29.9676452332348",
      "longitude": "-90.1002792669434"
    }
  },
  {
    "service_request": "2021-839598",
    "request_type": "Trash/Recycling",
    "request_reason": "Request a Large Item Pick Up",
    "date_created": "2021-11-03T17:01:48.000",
    "date_modified": "2021-11-03T18:01:21.000",
    "request_status": "Pending",
    "responsible_agency": "Department of Sanitation",
    "final_address": "4858 Ken Ct",
    "address_councildis": "C",
    "status": "Assigned to Contractor",
    "contractor": "Richards Disposal",
    "rowid": "839598",
    "final_x": "3702215.20765",
    "final_y": "518558.344887",
    "longitude": "-90.00313474927131",
    "latitude": "29.919210446905453",
    "geocoded_column": {
      "latitude": "29.919210446905453",
      "longitude": "-90.00313474927131"
    }
  },
  {
    "service_request": "2021-839597",
    "request_type": "Trash/Recycling",
    "request_reason": "Request a Large Item Pick Up",
    "date_created": "2021-11-03T16:59:15.000",
    "date_modified": "2021-11-03T16:59:16.000",
    "request_status": "Pending",
    "responsible_agency": "Department of Sanitation",
    "final_address": "2931 Bienville Ave",
    "address_councildis": "B",
    "status": "Assigned to Contractor",
    "contractor": "Richards Disposal",
    "rowid": "839597",
    "final_x": "3674941.28341",
    "final_y": "536514.007367",
    "longitude": "-90.08860911168183",
    "latitude": "29.96942503183946",
    "geocoded_column": {
      "latitude": "29.96942503183946",
      "longitude": "-90.08860911168183"
    }
  },
  {
    "service_request": "2021-839596",
    "request_type": "Trash/Recycling",
    "request_reason": "Illegal Dumping",
    "date_created": "2021-11-03T16:58:39.000",
    "date_modified": "2021-11-03T17:01:15.000",
    "request_status": "Pending",
    "responsible_agency": "Department of Sanitation",
    "final_address": "S GENOIS ST & CLIO ST",
    "address_councildis": "B",
    "status": "Pending",
    "rowid": "839596",
    "final_x": "3669473.7",
    "final_y": "532809.38",
    "longitude": "-90.10600154769614",
    "latitude": "29.95940072012548",
    "geocoded_column": {
      "latitude": "29.95940072012548",
      "longitude": "-90.10600154769614"
    }
  },
  {
    "service_request": "2021-839595",
    "request_type": "Safety & Permits",
    "request_reason": "Licenses & Permits",
    "date_created": "2021-11-03T16:50:53.000",
    "date_modified": "2021-11-03T17:01:17.000",
    "request_status": "Pending",
    "responsible_agency": "Safety and Permits",
    "final_address": "2633 St Claude Ave",
    "address_councildis": "C",
    "status": "Pending",
    "rowid": "839595",
    "final_x": "3687415.58908",
    "final_y": "536511.318279",
    "longitude": "-90.04921444093738",
    "latitude": "29.969039140599943",
    "geocoded_column": {
      "latitude": "29.969039140599943",
      "longitude": "-90.04921444093738"
    }
  },
  {
    "service_request": "2021-839594",
    "request_type": "Trash/Recycling",
    "request_reason": "Illegal Dumping",
    "date_created": "2021-11-03T16:50:16.000",
    "date_modified": "2021-11-03T16:50:16.000",
    "request_status": "Pending",
    "responsible_agency": "Department of Sanitation",
    "final_address": "3015 Carondelet St",
    "address_councildis": "B",
    "status": "Pending",
    "rowid": "839594",
    "final_x": "3674871.98971",
    "final_y": "522343.308602",
    "longitude": "-90.08931381443753",
    "latitude": "29.93046237769801",
    "geocoded_column": {
      "latitude": "29.93046237769801",
      "longitude": "-90.08931381443753"
    }
  },
  {
    "service_request": "2021-839593",
    "request_type": "Trash/Recycling",
    "request_reason": "Request a Large Item Pick Up",
    "date_created": "2021-11-03T16:50:07.000",
    "date_modified": "2021-11-03T17:01:19.000",
    "request_status": "Pending",
    "responsible_agency": "Department of Sanitation",
    "final_address": "3626 Elysian Fields Ave",
    "address_councildis": "D",
    "status": "Assigned to Contractor",
    "contractor": "Metro Disposal",
    "rowid": "839593",
    "final_x": "3684064.61525",
    "final_y": "546071.943888",
    "longitude": "-90.05946136233048",
    "latitude": "29.995430331433518",
    "geocoded_column": {
      "latitude": "29.995430331433518",
      "longitude": "-90.05946136233048"
    }
  },
  {
    "service_request": "2021-839592",
    "request_type": "Traffic Signals/Signs/Striping/Streetlights",
    "request_reason": "Street Light Knocked Down/Leaning",
    "date_created": "2021-11-03T16:49:58.000",
    "date_modified": "2021-11-03T16:49:59.000",
    "request_status": "Pending",
    "responsible_agency": "Department of Public Works",
    "final_address": "1817 S Carrollton Ave",
    "address_councildis": "A",
    "status": "Pending",
    "contractor": "Royal Engineering",
    "rowid": "839592",
    "final_x": "3663611.65747",
    "final_y": "529925.938241",
    "longitude": "-90.12460862671952",
    "latitude": "29.95164353894241",
    "geocoded_column": {
      "latitude": "29.95164353894241",
      "longitude": "-90.12460862671952"
    }
  },
  {
    "service_request": "2021-839591",
    "request_type": "Trash/Recycling",
    "request_reason": "Illegal Dumping",
    "date_created": "2021-11-03T16:48:54.000",
    "date_modified": "2021-11-03T16:48:54.000",
    "request_status": "Pending",
    "responsible_agency": "Department of Sanitation",
    "final_address": "1720 Harmony St",
    "address_councildis": "B",
    "status": "Pending",
    "rowid": "839591",
    "final_x": "3674576.82216",
    "final_y": "522334.125562",
    "longitude": "-90.09024592932789",
    "latitude": "29.930445935572298",
    "geocoded_column": {
      "latitude": "29.930445935572298",
      "longitude": "-90.09024592932789"
    }
  },
  {
    "service_request": "2021-839590",
    "request_type": "Traffic Signals/Signs/Striping/Streetlights",
    "request_reason": "Street Light Outage/Malfunction",
    "date_created": "2021-11-03T16:41:15.000",
    "date_modified": "2021-11-03T16:41:16.000",
    "request_status": "Pending",
    "responsible_agency": "Department of Public Works",
    "final_address": "5449 Sutton Pl",
    "address_councildis": "C",
    "status": "Pending",
    "contractor": "Royal Engineering",
    "rowid": "839590",
    "final_x": "3704234.5729",
    "final_y": "518454.317878",
    "longitude": "-89.99676451848511",
    "latitude": "29.91885979449415",
    "geocoded_column": {
      "latitude": "29.91885979449415",
      "longitude": "-89.99676451848511"
    }
  },
  {
    "service_request": "2021-839588",
    "request_type": "Trash/Recycling",
    "request_reason": "Order Recycling Cart",
    "date_created": "2021-11-03T16:34:36.000",
    "date_modified": "2021-11-03T17:01:20.000",
    "request_status": "Pending",
    "responsible_agency": "Department of Sanitation",
    "final_address": "2603 Danneel St",
    "address_councildis": "B",
    "status": "Pending",
    "rowid": "839588",
    "final_x": "3675586.96001",
    "final_y": "524073.64966",
    "longitude": "-90.08699734435952",
    "latitude": "29.935198888856274",
    "geocoded_column": {
      "latitude": "29.935198888856274",
      "longitude": "-90.08699734435952"
    }
  },
  {
    "service_request": "2021-839587",
    "request_type": "Roads/Drainage",
    "request_reason": "Man hole cover issue",
    "date_created": "2021-11-03T16:34:25.000",
    "date_modified": "2021-11-03T17:01:22.000",
    "request_status": "Pending",
    "responsible_agency": "Department of Public Works",
    "final_address": "Leonidas St & Oak St, New Orleans, Louisiana, 70118",
    "status": "Pending",
    "rowid": "839587",
    "longitude": "0.0",
    "latitude": "0.0",
    "geocoded_column": {
      "latitude": "0.0",
      "longitude": "0.0"
    }
  },
  {
    "service_request": "2021-839586",
    "request_type": "Trash/Recycling",
    "request_reason": "Order Trash Cart",
    "date_created": "2021-11-03T16:34:17.000",
    "date_modified": "2021-11-03T17:01:23.000",
    "request_status": "Pending",
    "responsible_agency": "Department of Sanitation",
    "final_address": "2603 Danneel St",
    "address_councildis": "B",
    "status": "Assigned to Contractor",
    "contractor": "Richards Disposal",
    "rowid": "839586",
    "final_x": "3675586.96001",
    "final_y": "524073.64966",
    "longitude": "-90.08699734435952",
    "latitude": "29.935198888856274",
    "geocoded_column": {
      "latitude": "29.935198888856274",
      "longitude": "-90.08699734435952"
    }
  },
  {
    "service_request": "2021-839585",
    "request_type": "Trash/Recycling",
    "request_reason": "Start Trash Service",
    "date_created": "2021-11-03T16:33:57.000",
    "date_modified": "2021-11-03T17:01:24.000",
    "request_status": "Pending",
    "responsible_agency": "Department of Sanitation",
    "final_address": "2603 Danneel St",
    "address_councildis": "B",
    "status": "Assigned to Contractor",
    "contractor": "Richards Disposal",
    "rowid": "839585",
    "final_x": "3675586.96001",
    "final_y": "524073.64966",
    "longitude": "-90.08699734435952",
    "latitude": "29.935198888856274",
    "geocoded_column": {
      "latitude": "29.935198888856274",
      "longitude": "-90.08699734435952"
    }
  },
  {
    "service_request": "2021-839584",
    "request_type": "Roads/Drainage",
    "request_reason": "Pothole",
    "date_created": "2021-11-03T16:31:14.000",
    "date_modified": "2021-11-03T17:01:26.000",
    "request_status": "Pending",
    "responsible_agency": "Department of Public Works",
    "final_address": "7200 Leake Ave, New Orleans, Louisiana, 70118",
    "status": "Pending",
    "rowid": "839584",
    "longitude": "0.0",
    "latitude": "0.0",
    "geocoded_column": {
      "latitude": "0.0",
      "longitude": "0.0"
    }
  },
  {
    "service_request": "2021-839583",
    "request_type": "Traffic Signals/Signs/Striping/Streetlights",
    "request_reason": "Traffic Sign Missing/Damaged",
    "date_created": "2021-11-03T16:31:09.000",
    "date_modified": "2021-11-03T16:31:09.000",
    "request_status": "Pending",
    "responsible_agency": "Department of Public Works",
    "final_address": "JOLIET ST & PALMETTO ST",
    "address_councildis": "A",
    "status": "Pending",
    "rowid": "839583",
    "final_x": "3667145.3",
    "final_y": "536172.68",
    "longitude": "-90.11324102309332",
    "latitude": "29.968717054233263",
    "geocoded_column": {
      "latitude": "29.968717054233263",
      "longitude": "-90.11324102309332"
    }
  },
  {
    "service_request": "2021-839582",
    "request_type": "Property Maintenance",
    "request_reason": "Property Maintenance",
    "date_created": "2021-11-03T16:27:00.000",
    "date_modified": "2021-11-03T17:01:27.000",
    "request_status": "Pending",
    "responsible_agency": "Department of Code Enforcement",
    "final_address": "4817 Chestnut St",
    "address_councildis": "B",
    "status": "Pending",
    "rowid": "839582",
    "final_x": "3669348.02887",
    "final_y": "519446.178551",
    "longitude": "-90.10685006562575",
    "latitude": "29.92265994199539",
    "geocoded_column": {
      "latitude": "29.92265994199539",
      "longitude": "-90.10685006562575"
    }
  },
  {
    "service_request": "2021-839580",
    "request_type": "Trash/Recycling",
    "request_reason": "Illegal Dumping",
    "date_created": "2021-11-03T16:19:55.000",
    "date_modified": "2021-11-03T16:19:55.000",
    "request_status": "Pending",
    "responsible_agency": "Department of Sanitation",
    "final_address": "1542 N Villere St",
    "address_councildis": "C",
    "status": "Pending",
    "rowid": "839580",
    "final_x": "3682554.06466",
    "final_y": "537048.736072",
    "longitude": "-90.06454865936257",
    "latitude": "29.970665765188432",
    "geocoded_column": {
      "latitude": "29.970665765188432",
      "longitude": "-90.06454865936257"
    }
  },
  {
    "service_request": "2021-839579",
    "request_type": "Property Maintenance",
    "request_reason": "Property Maintenance",
    "date_created": "2021-11-03T16:19:26.000",
    "date_modified": "2021-11-03T16:19:26.000",
    "request_status": "Pending",
    "responsible_agency": "Department of Code Enforcement",
    "final_address": "1542 N Villere St",
    "address_councildis": "C",
    "status": "Pending",
    "rowid": "839579",
    "final_x": "3682554.06466",
    "final_y": "537048.736072",
    "longitude": "-90.06454865936257",
    "latitude": "29.970665765188432",
    "geocoded_column": {
      "latitude": "29.970665765188432",
      "longitude": "-90.06454865936257"
    }
  },
  {
    "service_request": "2021-839577",
    "request_type": "Abandoned Vehicles",
    "request_reason": "Abandoned/Junk Vehicles",
    "date_created": "2021-11-03T16:14:02.000",
    "date_modified": "2021-11-03T16:16:36.000",
    "request_status": "Pending",
    "responsible_agency": "Department of Public Works",
    "final_address": "3300 BLK Cleveland Ave",
    "address_councildis": "B",
    "status": "Pending",
    "rowid": "839577",
    "final_x": "3673180.01056",
    "final_y": "536224.082523",
    "longitude": "-90.09418126524753",
    "latitude": "29.96868032713654",
    "geocoded_column": {
      "latitude": "29.96868032713654",
      "longitude": "-90.09418126524753"
    }
  },
  {
    "service_request": "2021-839576",
    "request_type": "Tax and Revenue",
    "request_reason": "Sales Tax Question",
    "date_created": "2021-11-03T16:07:41.000",
    "date_modified": "2021-11-03T22:47:48.000",
    "request_status": "Pending",
    "responsible_agency": "Bureau of Revenue",
    "final_address": "New Orleans,LA",
    "rowid": "839576",
    "longitude": "0.0",
    "latitude": "0.0",
    "geocoded_column": {
      "latitude": "0.0",
      "longitude": "0.0"
    }
  },
  {
    "service_request": "2021-839575",
    "request_type": "Trash/Recycling",
    "request_reason": "Missed Trash Pick-Up",
    "date_created": "2021-11-03T16:01:31.000",
    "date_modified": "2021-11-03T16:01:32.000",
    "request_status": "Pending",
    "responsible_agency": "Department of Sanitation",
    "final_address": "34 Swallow St",
    "address_councildis": "D",
    "status": "Assigned to Contractor",
    "contractor": "Metro Disposal",
    "rowid": "839575",
    "final_x": "3673385.96417",
    "final_y": "557140.48681",
    "longitude": "-90.0928157191764",
    "latitude": "30.02618700740203",
    "geocoded_column": {
      "latitude": "30.02618700740203",
      "longitude": "-90.0928157191764"
    }
  },
  {
    "service_request": "2021-839574",
    "request_type": "Trash/Recycling",
    "request_reason": "Request a Large Item Pick Up",
    "date_created": "2021-11-03T16:01:01.000",
    "date_modified": "2021-11-03T16:01:22.000",
    "request_status": "Pending",
    "responsible_agency": "Department of Sanitation",
    "final_address": "3123 Royal St",
    "address_councildis": "C",
    "status": "Assigned to Contractor",
    "contractor": "Metro Disposal",
    "rowid": "839574",
    "final_x": "3688826.26998",
    "final_y": "534487.408837",
    "longitude": "-90.04483130135513",
    "latitude": "29.96343055159097",
    "geocoded_column": {
      "latitude": "29.96343055159097",
      "longitude": "-90.04483130135513"
    }
  },
  {
    "service_request": "2021-839571",
    "request_type": "Roads/Drainage",
    "request_reason": "Debris in Roadway",
    "date_created": "2021-11-03T15:41:28.000",
    "date_modified": "2021-11-03T15:41:28.000",
    "request_status": "Pending",
    "responsible_agency": "Department of Public Works",
    "final_address": "1027 N Rocheblave St",
    "address_councildis": "D",
    "status": "Pending",
    "rowid": "839571",
    "final_x": "3678301.94581",
    "final_y": "537412.715336",
    "longitude": "-90.07796477083768",
    "latitude": "29.97179536194093",
    "geocoded_column": {
      "latitude": "29.97179536194093",
      "longitude": "-90.07796477083768"
    }
  },
  {
    "service_request": "2021-839570",
    "request_type": "Traffic Signals/Signs/Striping/Streetlights",
    "request_reason": "Street Light Outage/Malfunction",
    "date_created": "2021-11-03T15:39:23.000",
    "date_modified": "2021-11-03T16:01:26.000",
    "request_status": "Pending",
    "responsible_agency": "Department of Public Works",
    "final_address": "BIENVILLE ST & EXCHANGE PL",
    "address_councildis": "C",
    "status": "Pending",
    "contractor": "Royal Engineering",
    "rowid": "839570",
    "final_x": "3681811.93",
    "final_y": "531192.64",
    "longitude": "-90.0670967826716",
    "latitude": "29.954586079200734",
    "geocoded_column": {
      "latitude": "29.954586079200734",
      "longitude": "-90.0670967826716"
    }
  },
  {
    "service_request": "2021-839569",
    "request_type": "Trash/Recycling",
    "request_reason": "Order Trash Cart",
    "date_created": "2021-11-03T15:38:39.000",
    "date_modified": "2021-11-03T16:01:30.000",
    "request_status": "Pending",
    "responsible_agency": "Department of Sanitation",
    "final_address": "1927 Painters St",
    "address_councildis": "D",
    "status": "Assigned to Contractor",
    "contractor": "Metro Disposal",
    "rowid": "839569",
    "final_x": "3687397.97967",
    "final_y": "539671.29313",
    "longitude": "-90.04915821052504",
    "latitude": "29.97772850475735",
    "geocoded_column": {
      "latitude": "29.97772850475735",
      "longitude": "-90.04915821052504"
    }
  },
  {
    "service_request": "2021-839568",
    "request_type": "Traffic Signals/Signs/Striping/Streetlights",
    "request_reason": "Street Name Sign Damaged or Missing",
    "date_created": "2021-11-03T15:37:22.000",
    "date_modified": "2021-11-03T16:01:32.000",
    "request_status": "Pending",
    "responsible_agency": "Department of Public Works",
    "final_address": "BIENVILLE ST & EXCHANGE PL",
    "address_councildis": "C",
    "status": "Pending",
    "rowid": "839568",
    "final_x": "3681811.93",
    "final_y": "531192.64",
    "longitude": "-90.0670967826716",
    "latitude": "29.954586079200734",
    "geocoded_column": {
      "latitude": "29.954586079200734",
      "longitude": "-90.0670967826716"
    }
  },
  {
    "service_request": "2021-839566",
    "request_type": "Parks & Parkways",
    "request_reason": "Request Tree Service (Right of Way/Public Property)",
    "date_created": "2021-11-03T15:30:43.000",
    "date_modified": "2021-11-03T16:01:34.000",
    "request_status": "Pending",
    "responsible_agency": "Department of Parks & Parkway",
    "final_address": "1498 Mirabeau Ave",
    "address_councildis": "D",
    "rowid": "839566",
    "final_x": "3678616.91374",
    "final_y": "550174.195348",
    "longitude": "-90.0765279957296",
    "latitude": "30.006875471179367",
    "geocoded_column": {
      "latitude": "30.006875471179367",
      "longitude": "-90.0765279957296"
    }
  },
  {
    "service_request": "2021-839565",
    "request_type": "Traffic Signals/Signs/Striping/Streetlights",
    "request_reason": "Traffic Sign Missing/Damaged",
    "date_created": "2021-11-03T15:29:48.000",
    "date_modified": "2021-11-03T16:01:35.000",
    "request_status": "Pending",
    "responsible_agency": "Department of Public Works",
    "final_address": "3209 Lafitte Ave",
    "address_councildis": "A",
    "status": "Pending",
    "rowid": "839565",
    "final_x": "3674725.8164",
    "final_y": "537512.82772",
    "longitude": "-90.0892553268786",
    "latitude": "29.972177882915556",
    "geocoded_column": {
      "latitude": "29.972177882915556",
      "longitude": "-90.0892553268786"
    }
  },
  {
    "service_request": "2021-839564",
    "request_type": "Trash/Recycling",
    "request_reason": "Missed Trash Pick-Up",
    "date_created": "2021-11-03T15:27:46.000",
    "date_modified": "2021-11-03T16:01:38.000",
    "request_status": "Pending",
    "responsible_agency": "Department of Sanitation",
    "final_address": "7708 Sycamore St",
    "address_councildis": "A",
    "status": "Assigned to Contractor",
    "contractor": "Richards Disposal",
    "rowid": "839564",
    "final_x": "3665300.57895",
    "final_y": "530023.838017",
    "longitude": "-90.11927252941898",
    "latitude": "29.951863635131957",
    "geocoded_column": {
      "latitude": "29.951863635131957",
      "longitude": "-90.11927252941898"
    }
  },
  {
    "service_request": "2021-839563",
    "request_type": "Abandoned Vehicles",
    "request_reason": "Abandoned/Junk Vehicles",
    "date_created": "2021-11-03T15:22:43.000",
    "date_modified": "2021-11-03T15:22:43.000",
    "request_status": "Pending",
    "responsible_agency": "Department of Public Works",
    "final_address": "4651 St Roch Ave",
    "address_councildis": "D",
    "status": "Pending",
    "rowid": "839563",
    "final_x": "3685464.43983",
    "final_y": "549984.31266",
    "longitude": "-90.05490157047741",
    "latitude": "30.006145069403953",
    "geocoded_column": {
      "latitude": "30.006145069403953",
      "longitude": "-90.05490157047741"
    }
  },
  {
    "service_request": "2021-839558",
    "request_type": "Trash/Recycling",
    "request_reason": "Order Recycling Cart",
    "date_created": "2021-11-03T15:08:54.000",
    "date_modified": "2021-11-03T16:01:42.000",
    "request_status": "Pending",
    "responsible_agency": "Department of Sanitation",
    "final_address": "8922 Forshey St",
    "address_councildis": "A",
    "status": "Pending",
    "rowid": "839558",
    "final_x": "3664733.51469",
    "final_y": "535941.347783",
    "longitude": "-90.12086534488321",
    "latitude": "29.96815135993842",
    "geocoded_column": {
      "latitude": "29.96815135993842",
      "longitude": "-90.12086534488321"
    }
  },
  {
    "service_request": "2021-839557",
    "request_type": "Trash/Recycling",
    "request_reason": "Order Trash Cart",
    "date_created": "2021-11-03T15:08:21.000",
    "date_modified": "2021-11-03T16:01:43.000",
    "request_status": "Pending",
    "responsible_agency": "Department of Sanitation",
    "final_address": "8922 Forshey St",
    "address_councildis": "A",
    "status": "Assigned to Contractor",
    "contractor": "Richards Disposal",
    "rowid": "839557",
    "final_x": "3664733.51469",
    "final_y": "535941.347783",
    "longitude": "-90.12086534488321",
    "latitude": "29.96815135993842",
    "geocoded_column": {
      "latitude": "29.96815135993842",
      "longitude": "-90.12086534488321"
    }
  },
  {
    "service_request": "2021-839556",
    "request_type": "Trash/Recycling",
    "request_reason": "Repair Trash Cart",
    "date_created": "2021-11-03T15:08:14.000",
    "date_modified": "2021-11-03T16:01:45.000",
    "request_status": "Pending",
    "responsible_agency": "Department of Sanitation",
    "final_address": "1112 N Roman St",
    "address_councildis": "D",
    "status": "Assigned to Contractor",
    "contractor": "Richards Disposal",
    "rowid": "839556",
    "final_x": "3680214.70287",
    "final_y": "536329.047495",
    "longitude": "-90.0719616625949",
    "latitude": "29.968757887650703",
    "geocoded_column": {
      "latitude": "29.968757887650703",
      "longitude": "-90.0719616625949"
    }
  },
  {
    "service_request": "2021-839555",
    "request_type": "Trash/Recycling",
    "request_reason": "Start Trash Service",
    "date_created": "2021-11-03T15:06:35.000",
    "date_modified": "2021-11-03T16:01:46.000",
    "request_status": "Pending",
    "responsible_agency": "Department of Sanitation",
    "final_address": "8922 Forshey St",
    "address_councildis": "A",
    "status": "Assigned to Contractor",
    "contractor": "Richards Disposal",
    "rowid": "839555",
    "final_x": "3664733.51469",
    "final_y": "535941.347783",
    "longitude": "-90.12086534488321",
    "latitude": "29.96815135993842",
    "geocoded_column": {
      "latitude": "29.96815135993842",
      "longitude": "-90.12086534488321"
    }
  },
  {
    "service_request": "2021-839553",
    "request_type": "Roads/Drainage",
    "request_reason": "Pothole",
    "date_created": "2021-11-03T15:00:29.000",
    "date_modified": "2021-11-03T15:00:29.000",
    "request_status": "Pending",
    "responsible_agency": "Department of Public Works",
    "final_address": "GRAVIER ST & OKEEFE AVE",
    "address_councildis": "B",
    "status": "Pending",
    "rowid": "839553",
    "final_x": "3679777.7",
    "final_y": "530544.38",
    "longitude": "-90.07354259400458",
    "latitude": "29.952865237498823",
    "geocoded_column": {
      "latitude": "29.952865237498823",
      "longitude": "-90.07354259400458"
    }
  },
  {
    "service_request": "2021-839552",
    "request_type": "Property Maintenance",
    "request_reason": "Property Maintenance",
    "date_created": "2021-11-03T14:51:36.000",
    "date_modified": "2021-11-03T14:51:36.000",
    "request_status": "Pending",
    "responsible_agency": "Department of Code Enforcement",
    "final_address": "4319 Hamilton St",
    "address_councildis": "A",
    "status": "Pending",
    "rowid": "839552",
    "final_x": "3666972.37133",
    "final_y": "538941.40737",
    "longitude": "-90.11369407424505",
    "latitude": "29.976335192264305",
    "geocoded_column": {
      "latitude": "29.976335192264305",
      "longitude": "-90.11369407424505"
    }
  },
  {
    "service_request": "2021-839551",
    "request_type": "Trash/Recycling",
    "request_reason": "Missed Trash Pick-Up",
    "date_created": "2021-11-03T14:49:56.000",
    "date_modified": "2021-11-03T14:49:56.000",
    "request_status": "Pending",
    "responsible_agency": "Department of Sanitation",
    "final_address": "819 Deslonde St",
    "address_councildis": "E",
    "status": "Assigned to Contractor",
    "contractor": "Metro Disposal",
    "rowid": "839551",
    "final_x": "3695139.95811",
    "final_y": "533445.897924",
    "longitude": "-90.0249310162207",
    "latitude": "29.960370034809102",
    "geocoded_column": {
      "latitude": "29.960370034809102",
      "longitude": "-90.0249310162207"
    }
  },
  {
    "service_request": "2021-839549",
    "request_type": "Traffic Signals/Signs/Striping/Streetlights",
    "request_reason": "Traffic Signal Malfunctioning/Damaged",
    "date_created": "2021-11-03T14:47:47.000",
    "date_modified": "2021-11-03T14:47:47.000",
    "request_status": "Pending",
    "responsible_agency": "Department of Public Works",
    "final_address": "2549 Esplanade Ave",
    "address_councildis": "D",
    "status": "Pending",
    "rowid": "839549",
    "final_x": "3678324.98766",
    "final_y": "538921.00961",
    "longitude": "-90.07783980834142",
    "latitude": "29.97594195876407",
    "geocoded_column": {
      "latitude": "29.97594195876407",
      "longitude": "-90.07783980834142"
    }
  },
  {
    "service_request": "2021-839548",
    "request_type": "Traffic Signals/Signs/Striping/Streetlights",
    "request_reason": "Street Light Outage/Malfunction",
    "date_created": "2021-11-03T14:46:44.000",
    "date_modified": "2021-11-03T15:02:18.000",
    "request_status": "Pending",
    "responsible_agency": "Department of Public Works",
    "final_address": "2000 BLK Gentilly Blvd",
    "address_councildis": "D",
    "status": "Pending",
    "contractor": "Royal Engineering",
    "rowid": "839548",
    "final_x": "3679893.85245",
    "final_y": "543853.560374",
    "longitude": "-90.07271349515428",
    "latitude": "29.989457394668765",
    "geocoded_column": {
      "latitude": "29.989457394668765",
      "longitude": "-90.07271349515428"
    }
  },
  {
    "service_request": "2021-839547",
    "request_type": "Trash/Recycling",
    "request_reason": "Request a Large Item Pick Up",
    "date_created": "2021-11-03T14:46:40.000",
    "date_modified": "2021-11-03T15:02:22.000",
    "request_status": "Pending",
    "responsible_agency": "Department of Sanitation",
    "final_address": "1510 Pauger St, New Orleans, Louisiana, 70116",
    "address_councildis": "C",
    "status": "Assigned to Contractor",
    "contractor": "Metro Disposal",
    "rowid": "839547",
    "final_x": "3683922.55522",
    "final_y": "535247.97607",
    "longitude": "-90.060289991615",
    "latitude": "29.965672561138778",
    "geocoded_column": {
      "latitude": "29.965672561138778",
      "longitude": "-90.060289991615"
    }
  },
  {
    "service_request": "2021-839546",
    "request_type": "Traffic Signals/Signs/Striping/Streetlights",
    "request_reason": "Street Light Outage/Malfunction",
    "date_created": "2021-11-03T14:46:12.000",
    "date_modified": "2021-11-03T15:02:24.000",
    "request_status": "Pending",
    "responsible_agency": "Department of Public Works",
    "final_address": "2000 BLK Gentilly Blvd",
    "address_councildis": "D",
    "status": "Pending",
    "contractor": "Royal Engineering",
    "rowid": "839546",
    "final_x": "3679893.85245",
    "final_y": "543853.560374",
    "longitude": "-90.07271349515428",
    "latitude": "29.989457394668765",
    "geocoded_column": {
      "latitude": "29.989457394668765",
      "longitude": "-90.07271349515428"
    }
  },
  {
    "service_request": "2021-839545",
    "request_type": "Traffic Signals/Signs/Striping/Streetlights",
    "request_reason": "Street Light Outage/Malfunction",
    "date_created": "2021-11-03T14:45:45.000",
    "date_modified": "2021-11-03T15:02:25.000",
    "request_status": "Pending",
    "responsible_agency": "Department of Public Works",
    "final_address": "2000 BLK Gentilly Blvd",
    "address_councildis": "D",
    "status": "Pending",
    "contractor": "Royal Engineering",
    "rowid": "839545",
    "final_x": "3679893.85245",
    "final_y": "543853.560374",
    "longitude": "-90.07271349515428",
    "latitude": "29.989457394668765",
    "geocoded_column": {
      "latitude": "29.989457394668765",
      "longitude": "-90.07271349515428"
    }
  },
  {
    "service_request": "2021-839544",
    "request_type": "Traffic Signals/Signs/Striping/Streetlights",
    "request_reason": "Street Light Outage/Malfunction",
    "date_created": "2021-11-03T14:45:28.000",
    "date_modified": "2021-11-03T15:02:27.000",
    "request_status": "Pending",
    "responsible_agency": "Department of Public Works",
    "final_address": "2000 BLK Gentilly Blvd",
    "address_councildis": "D",
    "status": "Pending",
    "contractor": "Royal Engineering",
    "rowid": "839544",
    "final_x": "3679893.85245",
    "final_y": "543853.560374",
    "longitude": "-90.07271349515428",
    "latitude": "29.989457394668765",
    "geocoded_column": {
      "latitude": "29.989457394668765",
      "longitude": "-90.07271349515428"
    }
  },
  {
    "service_request": "2021-839543",
    "request_type": "Traffic Signals/Signs/Striping/Streetlights",
    "request_reason": "Street Light Outage/Malfunction",
    "date_created": "2021-11-03T14:45:08.000",
    "date_modified": "2021-11-03T16:55:25.000",
    "request_status": "Pending",
    "responsible_agency": "Department of Public Works",
    "final_address": "New Orleans,LA",
    "address_councildis": "A",
    "status": "Pending",
    "contractor": "Royal Engineering",
    "rowid": "839543",
    "final_x": "3667076.57473",
    "final_y": "553944.191128",
    "longitude": "-90.11286027170335",
    "latitude": "30.017584638060367",
    "geocoded_column": {
      "latitude": "30.017584638060367",
      "longitude": "-90.11286027170335"
    }
  },
  {
    "service_request": "2021-839542",
    "request_type": "Traffic Signals/Signs/Striping/Streetlights",
    "request_reason": "Street Light Outage/Malfunction",
    "date_created": "2021-11-03T14:45:06.000",
    "date_modified": "2021-11-03T15:02:31.000",
    "request_status": "Pending",
    "responsible_agency": "Department of Public Works",
    "final_address": "2000 BLK Gentilly Blvd",
    "address_councildis": "D",
    "status": "Pending",
    "contractor": "Royal Engineering",
    "rowid": "839542",
    "final_x": "3679893.85245",
    "final_y": "543853.560374",
    "longitude": "-90.07271349515428",
    "latitude": "29.989457394668765",
    "geocoded_column": {
      "latitude": "29.989457394668765",
      "longitude": "-90.07271349515428"
    }
  },
  {
    "service_request": "2021-839541",
    "request_type": "Traffic Signals/Signs/Striping/Streetlights",
    "request_reason": "Street Light Outage/Malfunction",
    "date_created": "2021-11-03T14:44:38.000",
    "date_modified": "2021-11-03T15:02:33.000",
    "request_status": "Pending",
    "responsible_agency": "Department of Public Works",
    "final_address": "2000 BLK Gentilly Blvd",
    "address_councildis": "D",
    "status": "Pending",
    "contractor": "Royal Engineering",
    "rowid": "839541",
    "final_x": "3679893.85245",
    "final_y": "543853.560374",
    "longitude": "-90.07271349515428",
    "latitude": "29.989457394668765",
    "geocoded_column": {
      "latitude": "29.989457394668765",
      "longitude": "-90.07271349515428"
    }
  },
  {
    "service_request": "2021-839540",
    "request_type": "Trash/Recycling",
    "request_reason": "Request a Large Item Pick Up",
    "date_created": "2021-11-03T14:43:18.000",
    "date_modified": "2021-11-03T15:02:36.000",
    "request_status": "Pending",
    "responsible_agency": "Department of Sanitation",
    "final_address": "1510 Pauger St, New Orleans, Louisiana, 70116",
    "address_councildis": "C",
    "status": "Assigned to Contractor",
    "contractor": "Metro Disposal",
    "rowid": "839540",
    "final_x": "3683922.55522",
    "final_y": "535247.97607",
    "longitude": "-90.060289991615",
    "latitude": "29.965672561138778",
    "geocoded_column": {
      "latitude": "29.965672561138778",
      "longitude": "-90.060289991615"
    }
  },
  {
    "service_request": "2021-839539",
    "request_type": "Traffic Signals/Signs/Striping/Streetlights",
    "request_reason": "Street Light Outage/Malfunction",
    "date_created": "2021-11-03T14:39:55.000",
    "date_modified": "2021-11-03T15:02:38.000",
    "request_status": "Pending",
    "responsible_agency": "Department of Public Works",
    "final_address": "2266 N Villere St",
    "address_councildis": "C",
    "status": "Pending",
    "contractor": "Royal Engineering",
    "rowid": "839539",
    "final_x": "3685568.72278",
    "final_y": "537427.514824",
    "longitude": "-90.05501468050754",
    "latitude": "29.971615143566847",
    "geocoded_column": {
      "latitude": "29.971615143566847",
      "longitude": "-90.05501468050754"
    }
  },
  {
    "service_request": "2021-839535",
    "request_type": "Trash/Recycling",
    "request_reason": "Request a Large Item Pick Up",
    "date_created": "2021-11-03T14:34:55.000",
    "date_modified": "2021-11-03T14:34:56.000",
    "request_status": "Pending",
    "responsible_agency": "Department of Sanitation",
    "final_address": "7622 Burthe St",
    "address_councildis": "A",
    "status": "Assigned to Contractor",
    "contractor": "Richards Disposal",
    "rowid": "839535",
    "final_x": "3662397.53549",
    "final_y": "526508.765758",
    "longitude": "-90.12855570570441",
    "latitude": "29.942282569598564",
    "geocoded_column": {
      "latitude": "29.942282569598564",
      "longitude": "-90.12855570570441"
    }
  },
  {
    "service_request": "2021-839534",
    "request_type": "Abandoned Vehicles",
    "request_reason": "Abandoned/Junk Vehicles",
    "date_created": "2021-11-03T14:34:30.000",
    "date_modified": "2021-11-03T14:34:30.000",
    "request_status": "Pending",
    "responsible_agency": "Department of Public Works",
    "final_address": "1525 N Broad St",
    "address_councildis": "D",
    "status": "Pending",
    "rowid": "839534",
    "final_x": "3678728.82914",
    "final_y": "539790.286538",
    "longitude": "-90.07653424805105",
    "latitude": "29.978319997126487",
    "geocoded_column": {
      "latitude": "29.978319997126487",
      "longitude": "-90.07653424805105"
    }
  },
  {
    "service_request": "2021-839533",
    "request_type": "Trash/Recycling",
    "request_reason": "Order Recycling Cart",
    "date_created": "2021-11-03T14:33:26.000",
    "date_modified": "2021-11-03T14:33:26.000",
    "request_status": "Pending",
    "responsible_agency": "Department of Sanitation",
    "final_address": "2164 Pleasure St",
    "address_councildis": "D",
    "status": "Pending",
    "rowid": "839533",
    "final_x": "3684078.98223",
    "final_y": "545074.243983",
    "longitude": "-90.05945101664864",
    "latitude": "29.992686573338062",
    "geocoded_column": {
      "latitude": "29.992686573338062",
      "longitude": "-90.05945101664864"
    }
  },
  {
    "service_request": "2021-839532",
    "request_type": "Roads/Drainage",
    "request_reason": "Pothole",
    "date_created": "2021-11-03T14:30:19.000",
    "date_modified": "2021-11-03T15:02:50.000",
    "request_status": "Pending",
    "responsible_agency": "Department of Public Works",
    "final_address": "2038 Pauger St",
    "address_councildis": "C",
    "status": "Pending",
    "rowid": "839532",
    "final_x": "3683719.50031",
    "final_y": "537244.744904",
    "longitude": "-90.06086120452254",
    "latitude": "29.971169186181296",
    "geocoded_column": {
      "latitude": "29.971169186181296",
      "longitude": "-90.06086120452254"
    }
  },
  {
    "service_request": "2021-839529",
    "request_type": "Traffic Signals/Signs/Striping/Streetlights",
    "request_reason": "Street Light Outage/Malfunction",
    "date_created": "2021-11-03T14:23:17.000",
    "date_modified": "2021-11-03T15:02:52.000",
    "request_status": "Pending",
    "responsible_agency": "Department of Public Works",
    "final_address": "6429 Argonne Blvd",
    "address_councildis": "A",
    "status": "Pending",
    "contractor": "Royal Engineering",
    "rowid": "839529",
    "final_x": "3670514.62267",
    "final_y": "550121.5581",
    "longitude": "-90.10212714584203",
    "latitude": "30.006972607637735",
    "geocoded_column": {
      "latitude": "30.006972607637735",
      "longitude": "-90.10212714584203"
    }
  },
  {
    "service_request": "2021-839527",
    "request_type": "Parks & Parkways",
    "request_reason": "Request Tree Service (Right of Way/Public Property)",
    "date_created": "2021-11-03T14:15:01.000",
    "date_modified": "2021-11-03T15:02:55.000",
    "request_status": "Pending",
    "responsible_agency": "Department of Parks & Parkway",
    "final_address": "614 S Carrollton Ave",
    "address_councildis": "A",
    "status": "Pending",
    "rowid": "839527",
    "final_x": "3660670.33875",
    "final_y": "526980.238718",
    "longitude": "-90.13399329841809",
    "latitude": "29.943628792647445",
    "geocoded_column": {
      "latitude": "29.943628792647445",
      "longitude": "-90.13399329841809"
    }
  },
  {
    "service_request": "2021-839526",
    "request_type": "Property Maintenance",
    "request_reason": "Property Maintenance",
    "date_created": "2021-11-03T14:14:59.000",
    "date_modified": "2021-11-03T14:14:59.000",
    "request_status": "Pending",
    "responsible_agency": "Department of Code Enforcement",
    "final_address": "7806 Parry St",
    "address_councildis": "E",
    "status": "Pending",
    "rowid": "839526",
    "final_x": "3714046.12632",
    "final_y": "568840.705893",
    "longitude": "-89.96389409468107",
    "latitude": "30.057084829992306",
    "geocoded_column": {
      "latitude": "30.057084829992306",
      "longitude": "-89.96389409468107"
    }
  },
  {
    "service_request": "2021-839525",
    "request_type": "Roads/Drainage",
    "request_reason": "Pothole",
    "date_created": "2021-11-03T14:14:30.000",
    "date_modified": "2021-11-03T14:14:30.000",
    "request_status": "Pending",
    "responsible_agency": "Department of Public Works",
    "final_address": "1741 N Broad St",
    "address_councildis": "D",
    "status": "Pending",
    "rowid": "839525",
    "final_x": "3679701.5453",
    "final_y": "541048.97102",
    "longitude": "-90.07341834700328",
    "latitude": "29.9817515702055",
    "geocoded_column": {
      "latitude": "29.9817515702055",
      "longitude": "-90.07341834700328"
    }
  },
  {
    "service_request": "2021-839524",
    "request_type": "Trash/Recycling",
    "request_reason": "Replace Trash Cart",
    "date_created": "2021-11-03T14:13:26.000",
    "date_modified": "2021-11-03T14:13:26.000",
    "request_status": "Pending",
    "responsible_agency": "Department of Sanitation",
    "final_address": "3123 N Galvez St",
    "address_councildis": "D",
    "status": "Assigned to Contractor",
    "contractor": "Metro Disposal",
    "rowid": "839524",
    "final_x": "3690171.94313",
    "final_y": "539739.269962",
    "longitude": "-90.04039468790063",
    "latitude": "29.977829642557012",
    "geocoded_column": {
      "latitude": "29.977829642557012",
      "longitude": "-90.04039468790063"
    }
  },
  {
    "service_request": "2021-839523",
    "request_type": "Roads/Drainage",
    "request_reason": "Debris in Roadway",
    "date_created": "2021-11-03T14:12:14.000",
    "date_modified": "2021-11-03T15:02:57.000",
    "request_status": "Pending",
    "responsible_agency": "Department of Public Works",
    "final_address": "10300 Flossmoor Dr",
    "address_councildis": "E",
    "status": "Pending",
    "rowid": "839523",
    "final_x": "3710000.05637",
    "final_y": "563748.001889",
    "longitude": "-89.97687358318537",
    "latitude": "30.04321429077089",
    "geocoded_column": {
      "latitude": "30.04321429077089",
      "longitude": "-89.97687358318537"
    }
  },
  {
    "service_request": "2021-839521",
    "request_type": "Trash/Recycling",
    "request_reason": "Request a Large Item Pick Up",
    "date_created": "2021-11-03T14:10:16.000",
    "date_modified": "2021-11-03T14:10:17.000",
    "request_status": "Pending",
    "responsible_agency": "Department of Sanitation",
    "final_address": "124 S Scott St",
    "address_councildis": "A",
    "status": "Assigned to Contractor",
    "contractor": "Richards Disposal",
    "rowid": "839521",
    "final_x": "3671649.10478",
    "final_y": "537581.232264",
    "longitude": "-90.09896979334015",
    "latitude": "29.97245746568673",
    "geocoded_column": {
      "latitude": "29.97245746568673",
      "longitude": "-90.09896979334015"
    }
  },
  {
    "service_request": "2021-839520",
    "request_type": "Safety & Permits",
    "request_reason": "Licenses & Permits",
    "date_created": "2021-11-03T14:10:01.000",
    "date_modified": "2021-11-03T14:10:01.000",
    "request_status": "Pending",
    "responsible_agency": "Safety and Permits",
    "final_address": "7841 Ebbtide Dr",
    "address_councildis": "E",
    "status": "Pending",
    "rowid": "839520",
    "final_x": "3702007.24548",
    "final_y": "562166.103007",
    "longitude": "-90.00219210576952",
    "latitude": "30.039122436079076",
    "geocoded_column": {
      "latitude": "30.039122436079076",
      "longitude": "-90.00219210576952"
    }
  },
  {
    "service_request": "2021-839519",
    "request_type": "Abandoned Vehicles",
    "request_reason": "Abandoned/Junk Vehicles",
    "date_created": "2021-11-03T14:09:00.000",
    "date_modified": "2021-11-03T14:09:00.000",
    "request_status": "Pending",
    "responsible_agency": "Department of Public Works",
    "final_address": "2319 Magazine St",
    "address_councildis": "B",
    "status": "Pending",
    "rowid": "839519",
    "final_x": "3678395.07771",
    "final_y": "521790.482042",
    "longitude": "-90.07821107462887",
    "latitude": "29.928836641412857",
    "geocoded_column": {
      "latitude": "29.928836641412857",
      "longitude": "-90.07821107462887"
    }
  },
  {
    "service_request": "2021-839518",
    "request_type": "Roads/Drainage",
    "request_reason": "Catch Basin - Broken/Damage",
    "date_created": "2021-11-03T14:07:04.000",
    "date_modified": "2021-11-03T14:07:04.000",
    "request_status": "Pending",
    "responsible_agency": "Department of Public Works",
    "final_address": "2219 St Philip St",
    "address_councildis": "D",
    "status": "Pending",
    "rowid": "839518",
    "final_x": "3678934.03637",
    "final_y": "536719.478599",
    "longitude": "-90.0759925541731",
    "latitude": "29.969870141832104",
    "geocoded_column": {
      "latitude": "29.969870141832104",
      "longitude": "-90.0759925541731"
    }
  },
  {
    "service_request": "2021-839516",
    "request_type": "Abandoned Vehicles",
    "request_reason": "Vehicle Blocking Your Driveway",
    "date_created": "2021-11-03T14:01:52.000",
    "date_modified": "2021-11-03T14:01:52.000",
    "request_status": "Pending",
    "responsible_agency": "Department of Public Works",
    "final_address": "800 Commerce St",
    "address_councildis": "B",
    "status": "Pending",
    "rowid": "839516",
    "final_x": "3682020.03151",
    "final_y": "527572.846207",
    "longitude": "-90.06656604115952",
    "latitude": "29.944626542178703",
    "geocoded_column": {
      "latitude": "29.944626542178703",
      "longitude": "-90.06656604115952"
    }
  },
  {
    "service_request": "2021-839515",
    "request_type": "Trash/Recycling",
    "request_reason": "Request a Large Item Pick Up",
    "date_created": "2021-11-03T14:01:07.000",
    "date_modified": "2021-11-03T14:01:08.000",
    "request_status": "Pending",
    "responsible_agency": "Department of Sanitation",
    "final_address": "4136 Iberville St",
    "address_councildis": "A",
    "status": "Assigned to Contractor",
    "contractor": "Richards Disposal",
    "rowid": "839515",
    "final_x": "3671055.01735",
    "final_y": "538852.077705",
    "longitude": "-90.10080285889754",
    "latitude": "29.97596944539439",
    "geocoded_column": {
      "latitude": "29.97596944539439",
      "longitude": "-90.10080285889754"
    }
  },
  {
    "service_request": "2021-839513",
    "request_type": "Abandoned Vehicles",
    "request_reason": "Abandoned/Junk Vehicles",
    "date_created": "2021-11-03T14:00:15.000",
    "date_modified": "2021-11-03T14:01:03.000",
    "request_status": "Pending",
    "responsible_agency": "Department of Public Works",
    "final_address": "MEYN ST & DINKINS ST",
    "address_councildis": "E",
    "status": "Pending",
    "rowid": "839513",
    "final_x": "3703447.6",
    "final_y": "562777.68",
    "longitude": "-89.99761767459474",
    "latitude": "30.040757944646767",
    "geocoded_column": {
      "latitude": "30.040757944646767",
      "longitude": "-89.99761767459474"
    }
  },
  {
    "service_request": "2021-839512",
    "request_type": "Trash/Recycling",
    "request_reason": "Request a Large Item Pick Up",
    "date_created": "2021-11-03T13:59:08.000",
    "date_modified": "2021-11-03T13:59:09.000",
    "request_status": "Pending",
    "responsible_agency": "Department of Sanitation",
    "final_address": "3819 Ulloa St",
    "address_councildis": "B",
    "status": "Assigned to Contractor",
    "contractor": "Richards Disposal",
    "rowid": "839512",
    "final_x": "3670563.35783",
    "final_y": "535890.015047",
    "longitude": "-90.10245615846803",
    "latitude": "29.967839302280982",
    "geocoded_column": {
      "latitude": "29.967839302280982",
      "longitude": "-90.10245615846803"
    }
  },
  {
    "service_request": "2021-839511",
    "request_type": "Trash/Recycling",
    "request_reason": "Change Size of Trash Cart",
    "date_created": "2021-11-03T13:54:20.000",
    "date_modified": "2021-11-03T14:01:13.000",
    "request_status": "Pending",
    "responsible_agency": "Department of Sanitation",
    "final_address": "137 N Scott St",
    "address_councildis": "A",
    "status": "Assigned to Contractor",
    "contractor": "Richards Disposal",
    "rowid": "839511",
    "final_x": "3671926.59086",
    "final_y": "538166.344521",
    "longitude": "-90.09807352040875",
    "latitude": "29.974058104272103",
    "geocoded_column": {
      "latitude": "29.974058104272103",
      "longitude": "-90.09807352040875"
    }
  },
  {
    "service_request": "2021-839510",
    "request_type": "Trash/Recycling",
    "request_reason": "Replace Trash Cart",
    "date_created": "2021-11-03T13:53:53.000",
    "date_modified": "2021-11-03T14:01:19.000",
    "request_status": "Pending",
    "responsible_agency": "Department of Sanitation",
    "final_address": "2500 S Carrollton Ave",
    "address_councildis": "A",
    "status": "Assigned to Contractor",
    "contractor": "Richards Disposal",
    "rowid": "839510",
    "final_x": "3665137.08698",
    "final_y": "531875.935363",
    "longitude": "-90.1197268224461",
    "latitude": "29.956961062550416",
    "geocoded_column": {
      "latitude": "29.956961062550416",
      "longitude": "-90.1197268224461"
    }
  },
  {
    "service_request": "2021-839509",
    "request_type": "Abandoned Vehicles",
    "request_reason": "Abandoned/Junk Vehicles",
    "date_created": "2021-11-03T13:53:12.000",
    "date_modified": "2021-11-03T13:53:12.000",
    "request_status": "Pending",
    "responsible_agency": "Department of Public Works",
    "final_address": "9400 BLK Fulton St",
    "address_councildis": "E",
    "status": "Pending",
    "rowid": "839509",
    "final_x": "3706397.25351",
    "final_y": "563635.885967",
    "longitude": "-89.9882640081205",
    "latitude": "30.043022796684628",
    "geocoded_column": {
      "latitude": "30.043022796684628",
      "longitude": "-89.9882640081205"
    }
  },
  {
    "service_request": "2021-839508",
    "request_type": "Traffic Signals/Signs/Striping/Streetlights",
    "request_reason": "Street Light Outage/Malfunction",
    "date_created": "2021-11-03T13:49:59.000",
    "date_modified": "2021-11-03T14:01:22.000",
    "request_status": "Pending",
    "responsible_agency": "Department of Public Works",
    "final_address": "4325 St Claude Ave",
    "address_councildis": "D",
    "status": "Pending",
    "contractor": "Royal Engineering",
    "rowid": "839508",
    "final_x": "3692962.5199",
    "final_y": "535185.670982",
    "longitude": "-90.03174448280637",
    "latitude": "29.96522198550151",
    "geocoded_column": {
      "latitude": "29.96522198550151",
      "longitude": "-90.03174448280637"
    }
  },
  {
    "service_request": "2021-839506",
    "request_type": "Trash/Recycling",
    "request_reason": "Request a Large Item Pick Up",
    "date_created": "2021-11-03T13:45:36.000",
    "date_modified": "2021-11-03T13:45:37.000",
    "request_status": "Pending",
    "responsible_agency": "Department of Sanitation",
    "final_address": "512 Arabella St",
    "address_councildis": "A",
    "status": "Assigned to Contractor",
    "contractor": "Richards Disposal",
    "rowid": "839506",
    "final_x": "3665596.27936",
    "final_y": "518056.338102",
    "longitude": "-90.1187393951275",
    "latitude": "29.918948204432873",
    "geocoded_column": {
      "latitude": "29.918948204432873",
      "longitude": "-90.1187393951275"
    }
  },
  {
    "service_request": "2021-839504",
    "request_type": "Trash/Recycling",
    "request_reason": "Return Recycling Cart",
    "date_created": "2021-11-03T13:37:50.000",
    "date_modified": "2021-11-03T13:37:50.000",
    "request_status": "Pending",
    "responsible_agency": "Department of Sanitation",
    "final_address": "11294 Midpoint Dr",
    "address_councildis": "E",
    "status": "Pending",
    "rowid": "839504",
    "final_x": "3718522.56185",
    "final_y": "559483.636253",
    "longitude": "-89.95010193325913",
    "latitude": "30.03120885078771",
    "geocoded_column": {
      "latitude": "30.03120885078771",
      "longitude": "-89.95010193325913"
    }
  },
  {
    "service_request": "2021-839503",
    "request_type": "Trash/Recycling",
    "request_reason": "Replace Trash Cart",
    "date_created": "2021-11-03T13:35:52.000",
    "date_modified": "2021-11-03T14:01:23.000",
    "request_status": "Pending",
    "responsible_agency": "Department of Sanitation",
    "final_address": "607 Clare Ct",
    "address_councildis": "A",
    "status": "Assigned to Contractor",
    "contractor": "Metro Disposal",
    "rowid": "839503",
    "final_x": "3667857.81044",
    "final_y": "543562.189262",
    "longitude": "-90.11074186941183",
    "latitude": "29.989014833639946",
    "geocoded_column": {
      "latitude": "29.989014833639946",
      "longitude": "-90.11074186941183"
    }
  },
  {
    "service_request": "2021-839502",
    "request_type": "Abandoned Vehicles",
    "request_reason": "Abandoned/Junk Vehicles",
    "date_created": "2021-11-03T13:33:56.000",
    "date_modified": "2021-11-03T14:01:25.000",
    "request_status": "Pending",
    "responsible_agency": "Department of Public Works",
    "final_address": "600 BLK S Murat St",
    "address_councildis": "A",
    "status": "Pending",
    "rowid": "839502",
    "final_x": "3668398.63331",
    "final_y": "537675.158361",
    "longitude": "-90.1092322207205",
    "latitude": "29.972811612397955",
    "geocoded_column": {
      "latitude": "29.972811612397955",
      "longitude": "-90.1092322207205"
    }
  },
  {
    "service_request": "2021-839500",
    "request_type": "Traffic Signals/Signs/Striping/Streetlights",
    "request_reason": "Street Name Sign Damaged or Missing",
    "date_created": "2021-11-03T13:30:42.000",
    "date_modified": "2021-11-03T14:01:27.000",
    "request_status": "Pending",
    "responsible_agency": "Department of Public Works",
    "final_address": "S MURAT ST & DHEMECOURT ST",
    "address_councildis": "A",
    "status": "Pending",
    "rowid": "839500",
    "final_x": "3668511.8",
    "final_y": "537821.78",
    "longitude": "-90.10886986958467",
    "latitude": "29.973211448042022",
    "geocoded_column": {
      "latitude": "29.973211448042022",
      "longitude": "-90.10886986958467"
    }
  },
  {
    "service_request": "2021-839499",
    "request_type": "Traffic Signals/Signs/Striping/Streetlights",
    "request_reason": "Street Light Outage/Malfunction",
    "date_created": "2021-11-03T13:28:04.000",
    "date_modified": "2021-11-03T13:28:04.000",
    "request_status": "Pending",
    "responsible_agency": "Department of Public Works",
    "final_address": "2658 New Orleans St",
    "address_councildis": "D",
    "status": "Pending",
    "contractor": "Royal Engineering",
    "rowid": "839499",
    "final_x": "3681886.95106",
    "final_y": "542135.847757",
    "longitude": "-90.06647785796527",
    "latitude": "29.984673846024172",
    "geocoded_column": {
      "latitude": "29.984673846024172",
      "longitude": "-90.06647785796527"
    }
  },
  {
    "service_request": "2021-839498",
    "request_type": "Abandoned Vehicles",
    "request_reason": "Abandoned/Junk Vehicles",
    "date_created": "2021-11-03T13:25:44.000",
    "date_modified": "2021-11-03T14:01:28.000",
    "request_status": "Pending",
    "responsible_agency": "Department of Public Works",
    "final_address": "4419 DHemecourt St",
    "address_councildis": "A",
    "status": "Pending",
    "rowid": "839498",
    "final_x": "3668697.98465",
    "final_y": "537720.929992",
    "longitude": "-90.10828526449458",
    "latitude": "29.972928672313174",
    "geocoded_column": {
      "latitude": "29.972928672313174",
      "longitude": "-90.10828526449458"
    }
  },
  {
    "service_request": "2021-839497",
    "request_type": "Abandoned Vehicles",
    "request_reason": "Abandoned/Junk Vehicles",
    "date_created": "2021-11-03T13:25:02.000",
    "date_modified": "2021-11-03T13:25:02.000",
    "request_status": "Pending",
    "responsible_agency": "Department of Public Works",
    "final_address": "4424 DHemecourt St",
    "address_councildis": "A",
    "status": "Pending",
    "rowid": "839497",
    "final_x": "3668610.17114",
    "final_y": "537689.811272",
    "longitude": "-90.10856364774921",
    "latitude": "29.97284568745601",
    "geocoded_column": {
      "latitude": "29.97284568745601",
      "longitude": "-90.10856364774921"
    }
  },
  {
    "service_request": "2021-839496",
    "request_type": "Trash/Recycling",
    "request_reason": "Illegal Dumping",
    "date_created": "2021-11-03T13:23:29.000",
    "date_modified": "2021-11-03T14:01:31.000",
    "request_status": "Pending",
    "responsible_agency": "Department of Code Enforcement",
    "final_address": "6128 Old Gentilly Rd",
    "address_councildis": "E",
    "status": "Pending",
    "rowid": "839496",
    "final_x": "3697481.07427",
    "final_y": "550723.020117",
    "longitude": "-90.01691150091783",
    "latitude": "30.00780211741916",
    "geocoded_column": {
      "latitude": "30.00780211741916",
      "longitude": "-90.01691150091783"
    }
  },
  {
    "service_request": "2021-839495",
    "request_type": "Trash/Recycling",
    "request_reason": "Request a Large Item Pick Up",
    "date_created": "2021-11-03T13:22:29.000",
    "date_modified": "2021-11-03T13:22:30.000",
    "request_status": "Pending",
    "responsible_agency": "Department of Sanitation",
    "final_address": "1208 Sumner St",
    "address_councildis": "C",
    "status": "Assigned to Contractor",
    "contractor": "Richards Disposal",
    "rowid": "839495",
    "final_x": "3691124.45065",
    "final_y": "526945.524222",
    "longitude": "-90.03784319275364",
    "latitude": "29.942621720712612",
    "geocoded_column": {
      "latitude": "29.942621720712612",
      "longitude": "-90.03784319275364"
    }
  },
  {
    "service_request": "2021-839494",
    "request_type": "Trash/Recycling",
    "request_reason": "Order Recycling Cart",
    "date_created": "2021-11-03T13:21:09.000",
    "date_modified": "2021-11-03T14:01:33.000",
    "request_status": "Pending",
    "responsible_agency": "Department of Sanitation",
    "final_address": "2830 Canal St",
    "address_councildis": "B",
    "status": "Pending",
    "rowid": "839494",
    "final_x": "3674588.4724",
    "final_y": "535556.39079",
    "longitude": "-90.08975614077269",
    "latitude": "29.966802443735233",
    "geocoded_column": {
      "latitude": "29.966802443735233",
      "longitude": "-90.08975614077269"
    }
  },
  {
    "service_request": "2021-839492",
    "request_type": "Roads/Drainage",
    "request_reason": "Pothole",
    "date_created": "2021-11-03T13:20:05.000",
    "date_modified": "2021-11-03T14:01:38.000",
    "request_status": "Pending",
    "responsible_agency": "Department of Public Works",
    "final_address": "8637 Green St, New Orleans, Louisiana, 70118",
    "address_councildis": "A",
    "status": "Pending",
    "rowid": "839492",
    "final_x": "3661622.30656",
    "final_y": "531110.278466",
    "longitude": "-90.13085082632534",
    "latitude": "29.954957645783107",
    "geocoded_column": {
      "latitude": "29.954957645783107",
      "longitude": "-90.13085082632534"
    }
  },
  {
    "service_request": "2021-839491",
    "request_type": "Trash/Recycling",
    "request_reason": "Order Trash Cart",
    "date_created": "2021-11-03T13:19:52.000",
    "date_modified": "2021-11-03T14:01:43.000",
    "request_status": "Pending",
    "responsible_agency": "Department of Sanitation",
    "final_address": "2830 Canal St",
    "address_councildis": "B",
    "status": "Assigned to Contractor",
    "contractor": "Richards Disposal",
    "rowid": "839491",
    "final_x": "3674588.4724",
    "final_y": "535556.39079",
    "longitude": "-90.08975614077269",
    "latitude": "29.966802443735233",
    "geocoded_column": {
      "latitude": "29.966802443735233",
      "longitude": "-90.08975614077269"
    }
  },
  {
    "service_request": "2021-839490",
    "request_type": "Roads/Drainage",
    "request_reason": "Pothole",
    "date_created": "2021-11-03T13:15:24.000",
    "date_modified": "2021-11-03T14:01:44.000",
    "request_status": "Pending",
    "responsible_agency": "Department of Public Works",
    "final_address": "8715 Cohn St, New Orleans, Louisiana, 70118",
    "address_councildis": "A",
    "status": "Pending",
    "rowid": "839490",
    "final_x": "3661963.54522",
    "final_y": "531742.938755",
    "longitude": "-90.129752334096",
    "latitude": "29.95668740590179",
    "geocoded_column": {
      "latitude": "29.95668740590179",
      "longitude": "-90.129752334096"
    }
  },
  {
    "service_request": "2021-839489",
    "request_type": "Trash/Recycling",
    "request_reason": "MIssed Recycling Pick-Up",
    "date_created": "2021-11-03T13:09:42.000",
    "date_modified": "2021-11-03T14:01:46.000",
    "request_status": "Pending",
    "responsible_agency": "Department of Sanitation",
    "final_address": "4660 Music St, New Orleans, Louisiana, 70122",
    "address_councildis": "D",
    "status": "Assigned to Contractor",
    "contractor": "Metro Disposal",
    "rowid": "839489",
    "final_x": "3685586.71401",
    "final_y": "550018.990228",
    "longitude": "-90.05451405465294",
    "latitude": "30.006236668413038",
    "geocoded_column": {
      "latitude": "30.006236668413038",
      "longitude": "-90.05451405465294"
    }
  },
  {
    "service_request": "2021-839487",
    "request_type": "Trash/Recycling",
    "request_reason": "Request a Large Item Pick Up",
    "date_created": "2021-11-03T13:06:16.000",
    "date_modified": "2021-11-03T13:06:17.000",
    "request_status": "Pending",
    "responsible_agency": "Department of Sanitation",
    "final_address": "5927 Tullis Dr",
    "address_councildis": "C",
    "status": "Assigned to Contractor",
    "contractor": "Richards Disposal",
    "rowid": "839487",
    "final_x": "3706184.41118",
    "final_y": "513439.946482",
    "longitude": "-89.99079538998875",
    "latitude": "29.905009318079344",
    "geocoded_column": {
      "latitude": "29.905009318079344",
      "longitude": "-89.99079538998875"
    }
  },
  {
    "service_request": "2021-839486",
    "request_type": "Abandoned Vehicles",
    "request_reason": "Abandoned/Junk Vehicles",
    "date_created": "2021-11-03T13:03:56.000",
    "date_modified": "2021-11-03T13:03:56.000",
    "request_status": "Pending",
    "responsible_agency": "Department of Public Works",
    "final_address": "528 Wilkinson St",
    "address_councildis": "C",
    "status": "Pending",
    "rowid": "839486",
    "final_x": "3682801.43663",
    "final_y": "531954.523011",
    "longitude": "-90.06394565774768",
    "latitude": "29.956650894275267",
    "geocoded_column": {
      "latitude": "29.956650894275267",
      "longitude": "-90.06394565774768"
    }
  },
  {
    "service_request": "2021-839484",
    "request_type": "Traffic Signals/Signs/Striping/Streetlights",
    "request_reason": "Street Light Outage/Malfunction",
    "date_created": "2021-11-03T13:01:30.000",
    "date_modified": "2021-11-03T13:01:54.000",
    "request_status": "Pending",
    "responsible_agency": "Department of Public Works",
    "final_address": "11605 N Adams Ct",
    "address_councildis": "E",
    "status": "Pending",
    "contractor": "Royal Engineering",
    "rowid": "839484",
    "final_x": "3718403.25925",
    "final_y": "557565.761947",
    "longitude": "-89.95055206670624",
    "latitude": "30.025939426273485",
    "geocoded_column": {
      "latitude": "30.025939426273485",
      "longitude": "-89.95055206670624"
    }
  },
  {
    "service_request": "2021-839482",
    "request_type": "Traffic Signals/Signs/Striping/Streetlights",
    "request_reason": "Street Light Outage/Malfunction",
    "date_created": "2021-11-03T13:01:02.000",
    "date_modified": "2021-11-03T13:01:03.000",
    "request_status": "Pending",
    "responsible_agency": "Department of Public Works",
    "final_address": "500 Warrington Dr",
    "address_councildis": "D",
    "status": "Pending",
    "contractor": "Royal Engineering",
    "rowid": "839482",
    "final_x": "3681335.85845",
    "final_y": "548310.027538",
    "longitude": "-90.06800316596143",
    "latitude": "30.001667396773477",
    "geocoded_column": {
      "latitude": "30.001667396773477",
      "longitude": "-90.06800316596143"
    }
  },
  {
    "service_request": "2021-839481",
    "request_type": "Roads/Drainage",
    "request_reason": "Pothole",
    "date_created": "2021-11-03T13:00:52.000",
    "date_modified": "2021-11-03T13:00:59.000",
    "request_status": "Pending",
    "responsible_agency": "Department of Public Works",
    "final_address": "N CLAIBORNE AVE & IBERVILLE ST",
    "address_councildis": "B",
    "status": "Pending",
    "rowid": "839481",
    "final_x": "3678715.5",
    "final_y": "533091.68",
    "longitude": "-90.07680834921078",
    "latitude": "29.959901522506023",
    "geocoded_column": {
      "latitude": "29.959901522506023",
      "longitude": "-90.07680834921078"
    }
  },
  {
    "service_request": "2021-839480",
    "request_type": "Trash/Recycling",
    "request_reason": "Illegal Dumping",
    "date_created": "2021-11-03T12:57:54.000",
    "date_modified": "2021-11-03T12:57:54.000",
    "request_status": "Pending",
    "responsible_agency": "Department of Sanitation",
    "final_address": "4951 Robin Hood Dr",
    "address_councildis": "E",
    "status": "Pending",
    "rowid": "839480",
    "final_x": "3717467.8908",
    "final_y": "558023.229019",
    "longitude": "-89.9534902665117",
    "latitude": "30.02722828197267",
    "geocoded_column": {
      "latitude": "30.02722828197267",
      "longitude": "-89.9534902665117"
    }
  },
  {
    "service_request": "2021-839478",
    "request_type": "Traffic Signals/Signs/Striping/Streetlights",
    "request_reason": "Street Light Outage/Malfunction",
    "date_created": "2021-11-03T12:57:19.000",
    "date_modified": "2021-11-03T13:01:57.000",
    "request_status": "Pending",
    "responsible_agency": "Department of Public Works",
    "final_address": "1425 Dauphine St",
    "address_councildis": "C",
    "status": "Pending",
    "contractor": "Royal Engineering",
    "rowid": "839478",
    "final_x": "3683583.24565",
    "final_y": "535070.006854",
    "longitude": "-90.06136775572159",
    "latitude": "29.965193568358856",
    "geocoded_column": {
      "latitude": "29.965193568358856",
      "longitude": "-90.06136775572159"
    }
  },
  {
    "service_request": "2021-839477",
    "request_type": "Trash/Recycling",
    "request_reason": "Replace Trash Cart",
    "date_created": "2021-11-03T12:54:44.000",
    "date_modified": "2021-11-03T12:54:45.000",
    "request_status": "Pending",
    "responsible_agency": "Department of Sanitation",
    "final_address": "132 Danny Dr",
    "address_councildis": "C",
    "status": "Assigned to Contractor",
    "contractor": "Richards Disposal",
    "rowid": "839477",
    "final_x": "3701991.04964",
    "final_y": "524196.215804",
    "longitude": "-90.00363578419694",
    "latitude": "29.934719794189178",
    "geocoded_column": {
      "latitude": "29.934719794189178",
      "longitude": "-90.00363578419694"
    }
  },
  {
    "service_request": "2021-839476",
    "request_type": "Traffic Signals/Signs/Striping/Streetlights",
    "request_reason": "Traffic Signal Malfunctioning/Damaged",
    "date_created": "2021-11-03T12:50:49.000",
    "date_modified": "2021-11-03T13:01:58.000",
    "request_status": "Pending",
    "responsible_agency": "Department of Public Works",
    "final_address": "PARIS AVE & MIRABEAU AVE",
    "address_councildis": "D",
    "status": "Pending",
    "rowid": "839476",
    "final_x": "3679251.1",
    "final_y": "550377.78",
    "longitude": "-90.07451736644796",
    "latitude": "30.007416114259573",
    "geocoded_column": {
      "latitude": "30.007416114259573",
      "longitude": "-90.07451736644796"
    }
  },
  {
    "service_request": "2021-839471",
    "request_type": "Trash/Recycling",
    "request_reason": "Order Recycling Cart",
    "date_created": "2021-11-03T12:39:40.000",
    "date_modified": "2021-11-03T12:39:41.000",
    "case_close_date": "2019-04-03T19:00:00.000",
    "request_status": "Pending",
    "responsible_agency": "Department of Sanitation",
    "final_address": "2529 Dumaine St",
    "address_councildis": "D",
    "status": "Pending",
    "contractor": "Richards Disposal",
    "rowid": "839471",
    "final_x": "3677818.4155",
    "final_y": "537074.200648",
    "longitude": "-90.07950353387201",
    "latitude": "29.97087911982831",
    "geocoded_column": {
      "latitude": "29.97087911982831",
      "longitude": "-90.07950353387201"
    }
  },
  {
    "service_request": "2021-839470",
    "request_type": "Trash/Recycling",
    "request_reason": "Replace Trash Cart",
    "date_created": "2021-11-03T12:39:28.000",
    "date_modified": "2021-11-03T13:02:08.000",
    "request_status": "Pending",
    "responsible_agency": "Department of Sanitation",
    "final_address": "2523 Gravier St",
    "address_councildis": "B",
    "status": "Assigned to Contractor",
    "contractor": "Richards Disposal",
    "rowid": "839470",
    "final_x": "3674753.67995",
    "final_y": "533009.331396",
    "longitude": "-90.08932174257129",
    "latitude": "29.959793956332224",
    "geocoded_column": {
      "latitude": "29.959793956332224",
      "longitude": "-90.08932174257129"
    }
  },
  {
    "service_request": "2021-839468",
    "request_type": "Trash/Recycling",
    "request_reason": "Replace Trash Cart",
    "date_created": "2021-11-03T12:36:48.000",
    "date_modified": "2021-11-03T13:02:10.000",
    "request_status": "Pending",
    "responsible_agency": "Department of Sanitation",
    "final_address": "2518 Gravier St",
    "address_councildis": "B",
    "status": "Assigned to Contractor",
    "contractor": "Richards Disposal",
    "rowid": "839468",
    "final_x": "3674726.84001",
    "final_y": "532928.519236",
    "longitude": "-90.08940926750867",
    "latitude": "29.959572551180297",
    "geocoded_column": {
      "latitude": "29.959572551180297",
      "longitude": "-90.08940926750867"
    }
  },
  {
    "service_request": "2021-839467",
    "request_type": "Trash/Recycling",
    "request_reason": "Replace Trash Cart",
    "date_created": "2021-11-03T12:35:56.000",
    "date_modified": "2021-11-03T13:02:12.000",
    "request_status": "Pending",
    "responsible_agency": "Department of Sanitation",
    "final_address": "2523 Gravier St",
    "address_councildis": "B",
    "status": "Assigned to Contractor",
    "contractor": "Richards Disposal",
    "rowid": "839467",
    "final_x": "3674753.67995",
    "final_y": "533009.331396",
    "longitude": "-90.08932174257129",
    "latitude": "29.959793956332224",
    "geocoded_column": {
      "latitude": "29.959793956332224",
      "longitude": "-90.08932174257129"
    }
  },