[
  {
    "service_request": "2025-1237247",
    "request_type": "Health Related Request",
    "request_reason": "Noise Ordinance Complaint",
    "date_created": "2025-11-01T23:18:25.000",
    "date_modified": "2025-11-01T23:18:28.000",
    "request_status": "Pending",
    "responsible_agency": "Health Department",
    "final_address": "7139 S Claiborne Ave, New Orleans, Louisiana, 70125",
    "address_councildis": "A",
    "status": "Pending",
    "rowid": "1237247",
    "final_x": "3666478.76743",
    "final_y": "529720.806785",
    "longitude": "-90.11556252470896",
    "latitude": "29.950996020138128",
    "geocoded_column": {
      "latitude": "29.950996020138128",
      "longitude": "-90.11556252470896"
    }
  },
  {
    "service_request": "2025-1237246",
    "request_type": "Abandoned Vehicles",
    "request_reason": "Abandoned/Junk Vehicles",
    "date_created": "2025-11-01T23:11:07.000",
    "date_modified": "2025-11-01T23:11:09.000",
    "request_status": "Pending",
    "responsible_agency": "Department of Public Works",
    "final_address": "7218 Green St",
    "address_councildis": "A",
    "status": "Pending",
    "rowid": "1237246",
    "final_x": "3664958.06516",
    "final_y": "528056.004287",
    "longitude": "-90.12041980192036",
    "latitude": "29.946462702490653",
    "geocoded_column": {
      "latitude": "29.946462702490653",
      "longitude": "-90.12041980192036"
    }
  },
  {
    "service_request": "2025-1237245",
    "request_type": "Street and Traffic Signs",
    "request_reason": "One Way Sign Missing or Damaged",
    "date_created": "2025-11-01T23:01:17.000",
    "date_modified": "2025-11-01T23:01:19.000",
    "request_status": "Pending",
    "responsible_agency": "Department of Public Works",
    "final_address": "8500 BLK Hickory St",
    "address_councildis": "A",
    "status": "Pending",
    "rowid": "1237245",
    "final_x": "3662193.90687",
    "final_y": "531012.085729",
    "longitude": "-90.12904917772335",
    "latitude": "29.954671141049932",
    "geocoded_column": {
      "latitude": "29.954671141049932",
      "longitude": "-90.12904917772335"
    }
  },
  {
    "service_request": "2025-1237244",
    "request_type": "Health Related Request",
    "request_reason": "Noise Ordinance Complaint",
    "date_created": "2025-11-01T22:53:35.000",
    "date_modified": "2025-11-01T22:53:37.000",
    "request_status": "Pending",
    "responsible_agency": "Health Department",
    "final_address": "619 S Lopez St, New Orleans, Louisiana, 70119",
    "address_councildis": "B",
    "status": "Pending",
    "rowid": "1237244",
    "final_x": "3672425.26311",
    "final_y": "534496.310469",
    "longitude": "-90.09662369686684",
    "latitude": "29.963951955548882",
    "geocoded_column": {
      "latitude": "29.963951955548882",
      "longitude": "-90.09662369686684"
    }
  },
  {
    "service_request": "2025-1237243",
    "request_type": "Health Related Request",
    "request_reason": "Noise Ordinance Complaint",
    "date_created": "2025-11-01T22:42:42.000",
    "date_modified": "2025-11-01T22:42:44.000",
    "request_status": "Pending",
    "responsible_agency": "Health Department",
    "final_address": "734 736 Dumaine Street, New Orleans",
    "status": "Pending",
    "rowid": "1237243",
    "longitude": "0.0",
    "latitude": "0.0",
    "geocoded_column": {
      "latitude": "0.0",
      "longitude": "0.0"
    }
  },
  {
    "service_request": "2025-1237242",
    "request_type": "Parks & Parkways",
    "request_reason": "Request Tree Service (Right of Way/Public Property)",
    "date_created": "2025-11-01T21:36:05.000",
    "date_modified": "2025-11-01T21:36:07.000",
    "request_status": "Pending",
    "responsible_agency": "Department of Parks & Parkway",
    "final_address": "625 S Alexander St",
    "address_councildis": "A",
    "status": "Pending",
    "rowid": "1237242",
    "final_x": "3668636.94478",
    "final_y": "537448.626184",
    "longitude": "-90.10848723355447",
    "latitude": "29.972181722370827",
    "geocoded_column": {
      "latitude": "29.972181722370827",
      "longitude": "-90.10848723355447"
    }
  },
  {
    "service_request": "2025-1237241",
    "request_type": "Safety & Permits",
    "request_reason": "Licenses & Permits",
    "date_created": "2025-11-01T21:16:44.000",
    "date_modified": "2025-11-01T21:16:46.000",
    "request_status": "Pending",
    "responsible_agency": "Safety and Permits",
    "final_address": "4258 Vendome Pl",
    "address_councildis": "B",
    "status": "Pending",
    "rowid": "1237241",
    "final_x": "3669138.33402",
    "final_y": "531517.219459",
    "longitude": "-90.10710422338153",
    "latitude": "29.955857577685023",
    "geocoded_column": {
      "latitude": "29.955857577685023",
      "longitude": "-90.10710422338153"
    }
  },
  {
    "service_request": "2025-1237240",
    "request_type": "Safety & Permits",
    "request_reason": "Zoning Enforcement",
    "date_created": "2025-11-01T20:59:33.000",
    "date_modified": "2025-11-01T20:59:35.000",
    "request_status": "Pending",
    "responsible_agency": "Safety and Permits",
    "final_address": "4258 Vendome Pl",
    "address_councildis": "B",
    "status": "Pending",
    "rowid": "1237240",
    "final_x": "3669138.33402",
    "final_y": "531517.219459",
    "longitude": "-90.10710422338153",
    "latitude": "29.955857577685023",
    "geocoded_column": {
      "latitude": "29.955857577685023",
      "longitude": "-90.10710422338153"
    }
  },
  {
    "service_request": "2025-1237239",
    "request_type": "Trash/Recycling",
    "request_reason": "Order Second Trash Cart",
    "date_created": "2025-11-01T20:52:27.000",
    "date_modified": "2025-11-01T20:52:29.000",
    "request_status": "Pending",
    "responsible_agency": "Department of Sanitation",
    "final_address": "4870 Brittany Ct",
    "address_councildis": "E",
    "status": "Assigned to Contractor",
    "contractor": "Waste Pro",
    "rowid": "1237239",
    "final_x": "3726754.51961",
    "final_y": "561863.054623",
    "longitude": "-89.92399655545256",
    "latitude": "30.037475460604487",
    "geocoded_column": {
      "latitude": "30.037475460604487",
      "longitude": "-89.92399655545256"
    }
  },
  {
    "service_request": "2025-1237238",
    "request_type": "Street and Traffic Signs",
    "request_reason": "Additional Signage Request",
    "date_created": "2025-11-01T20:36:07.000",
    "date_modified": "2025-11-01T20:36:12.000",
    "request_status": "Pending",
    "responsible_agency": "Department of Public Works",
    "final_address": "3800 BLK Pontchartrain Expy",
    "address_councildis": "A",
    "status": "Pending",
    "rowid": "1237238",
    "final_x": "3668624.31921",
    "final_y": "536309.168311",
    "longitude": "-90.1085655721574",
    "latitude": "29.969048965309423",
    "geocoded_column": {
      "latitude": "29.969048965309423",
      "longitude": "-90.1085655721574"
    }
  },
  {
    "service_request": "2025-1237237",
    "request_type": "Trash/Recycling",
    "request_reason": "Request a Large Item Pick Up",
    "date_created": "2025-11-01T19:40:43.000",
    "date_modified": "2025-11-01T19:40:47.000",
    "request_status": "Pending",
    "responsible_agency": "Department of Sanitation",
    "final_address": "13613 N Cavelier Dr",
    "address_councildis": "E",
    "status": "Assigned to Contractor",
    "contractor": "Waste Pro",
    "rowid": "1237237",
    "final_x": "3723936.34207",
    "final_y": "569645.314534",
    "longitude": "-89.93260188876606",
    "latitude": "30.058968447206233",
    "geocoded_column": {
      "latitude": "30.058968447206233",
      "longitude": "-89.93260188876606"
    }
  },
  {
    "service_request": "2025-1237236",
    "request_type": "Trash/Recycling",
    "request_reason": "Order Recycling Cart",
    "date_created": "2025-11-01T19:39:02.000",
    "date_modified": "2025-11-01T19:39:05.000",
    "request_status": "Pending",
    "responsible_agency": "Department of Sanitation",
    "final_address": "2529 Eagle St",
    "address_councildis": "A",
    "status": "Pending",
    "rowid": "1237236",
    "final_x": "3663482.67469",
    "final_y": "533660.441029",
    "longitude": "-90.12489153401856",
    "latitude": "29.96191594909852",
    "geocoded_column": {
      "latitude": "29.96191594909852",
      "longitude": "-90.12489153401856"
    }
  },
  {
    "service_request": "2025-1237235",
    "request_type": "Trash/Recycling",
    "request_reason": "Request a Large Item Pick Up",
    "date_created": "2025-11-01T19:34:27.000",
    "date_modified": "2025-11-01T19:34:31.000",
    "request_status": "Pending",
    "responsible_agency": "Department of Sanitation",
    "final_address": "5013 Iberville St",
    "address_councildis": "A",
    "status": "Assigned to Contractor",
    "contractor": "IV Waste",
    "rowid": "1237235",
    "final_x": "3668407.08372",
    "final_y": "541005.083211",
    "longitude": "-90.10909317172013",
    "latitude": "29.981967535670186",
    "geocoded_column": {
      "latitude": "29.981967535670186",
      "longitude": "-90.10909317172013"
    }
  },
  {
    "service_request": "2025-1237234",
    "request_type": "Utility Poles",
    "request_reason": "Wires Sagging/Hanging Low",
    "date_created": "2025-11-01T18:46:05.000",
    "date_modified": "2025-11-01T18:46:07.000",
    "request_status": "Pending",
    "responsible_agency": "Utility Company Collective",
    "final_address": "1320 Milan St",
    "address_councildis": "B",
    "status": "Pending",
    "rowid": "1237234",
    "final_x": "3671624.56468",
    "final_y": "520336.202616",
    "longitude": "-90.09963368473501",
    "latitude": "29.925040024870274",
    "geocoded_column": {
      "latitude": "29.925040024870274",
      "longitude": "-90.09963368473501"
    }
  },
  {
    "service_request": "2025-1237233",
    "request_type": "Streetlights",
    "request_reason": "Streetlight Outage/Malfunction",
    "date_created": "2025-11-01T18:37:51.000",
    "date_modified": "2025-11-01T18:37:52.000",
    "request_status": "Pending",
    "responsible_agency": "Department of Public Works",
    "final_address": "824 Olga St",
    "address_councildis": "A",
    "status": "Pending",
    "rowid": "1237233",
    "final_x": "3673356.44897",
    "final_y": "539952.301002",
    "longitude": "-90.09349666389991",
    "latitude": "29.978926414533582",
    "geocoded_column": {
      "latitude": "29.978926414533582",
      "longitude": "-90.09349666389991"
    }
  },
  {
    "service_request": "2025-1237232",
    "request_type": "Property Maintenance",
    "request_reason": "Property Maintenance",
    "date_created": "2025-11-01T17:31:05.000",
    "date_modified": "2025-11-01T17:31:07.000",
    "request_status": "Pending",
    "responsible_agency": "Department of Code Enforcement",
    "final_address": "7800 Swift St",
    "address_councildis": "E",
    "status": "Pending",
    "rowid": "1237232",
    "final_x": "3695248.98154",
    "final_y": "559192.218652",
    "longitude": "-90.02365748295563",
    "latitude": "30.031159542251142",
    "geocoded_column": {
      "latitude": "30.031159542251142",
      "longitude": "-90.02365748295563"
    }
  },
  {
    "service_request": "2025-1237231",
    "request_type": "Property Maintenance",
    "request_reason": "Property Maintenance",
    "date_created": "2025-11-01T17:06:04.000",
    "date_modified": "2025-11-01T17:06:06.000",
    "request_status": "Pending",
    "responsible_agency": "Department of Code Enforcement",
    "final_address": "1603 Hollygrove St",
    "address_councildis": "A",
    "status": "Pending",
    "rowid": "1237231",
    "final_x": "3660614.9767",
    "final_y": "531553.883587",
    "longitude": "-90.13401695048411",
    "latitude": "29.956206445962014",
    "geocoded_column": {
      "latitude": "29.956206445962014",
      "longitude": "-90.13401695048411"
    }
  },
  {
    "service_request": "2025-1237230",
    "request_type": "Parks & Parkways",
    "request_reason": "Request Tree Service (Right of Way/Public Property)",
    "date_created": "2025-11-01T16:35:23.000",
    "date_modified": "2025-11-01T16:35:25.000",
    "request_status": "Pending",
    "responsible_agency": "Department of Parks & Parkway",
    "final_address": "1503 De Battista Pl",
    "address_councildis": "C",
    "status": "Pending",
    "rowid": "1237230",
    "final_x": "3699717.75818",
    "final_y": "525657.375997",
    "longitude": "-90.01075923692801",
    "latitude": "29.93880981865351",
    "geocoded_column": {
      "latitude": "29.93880981865351",
      "longitude": "-90.01075923692801"
    }
  },
  {
    "service_request": "2025-1237229",
    "request_type": "Trash/Recycling",
    "request_reason": "Order Recycling Cart",
    "date_created": "2025-11-01T16:21:37.000",
    "date_modified": "2025-11-01T16:21:40.000",
    "request_status": "Pending",
    "responsible_agency": "Department of Sanitation",
    "final_address": "7005 Pritchard Pl",
    "address_councildis": "B",
    "status": "Pending",
    "rowid": "1237229",
    "final_x": "3667992.64775",
    "final_y": "531176.692738",
    "longitude": "-90.11073338626198",
    "latitude": "29.954954903807145",
    "geocoded_column": {
      "latitude": "29.954954903807145",
      "longitude": "-90.11073338626198"
    }
  },
  {
    "service_request": "2025-1237228",
    "request_type": "Abandoned Vehicles",
    "request_reason": "Abandoned/Junk Vehicles",
    "date_created": "2025-11-01T16:12:40.000",
    "date_modified": "2025-11-01T16:12:42.000",
    "request_status": "Pending",
    "responsible_agency": "Department of Public Works",
    "final_address": "4936 Papania Dr",
    "address_councildis": "E",
    "status": "Pending",
    "rowid": "1237228",
    "final_x": "3715450.79653",
    "final_y": "557712.746459",
    "longitude": "-89.95987579204414",
    "latitude": "30.026441213300707",
    "geocoded_column": {
      "latitude": "30.026441213300707",
      "longitude": "-89.95987579204414"
    }
  },
  {
    "service_request": "2025-1237227",
    "request_type": "Trash/Recycling",
    "request_reason": "Order Recycling Cart",
    "date_created": "2025-11-01T16:10:43.000",
    "date_modified": "2025-11-01T16:10:46.000",
    "request_status": "Pending",
    "responsible_agency": "Department of Sanitation",
    "final_address": "1425 Reynes St",
    "address_councildis": "E",
    "status": "Pending",
    "rowid": "1237227",
    "final_x": "3696418.80727",
    "final_y": "535571.609734",
    "longitude": "-90.02081580562017",
    "latitude": "29.96617477341083",
    "geocoded_column": {
      "latitude": "29.96617477341083",
      "longitude": "-90.02081580562017"
    }
  },
  {
    "service_request": "2025-1237226",
    "request_type": "General Services",
    "request_reason": "General Service Request",
    "date_created": "2025-11-01T16:00:39.000",
    "date_modified": "2025-11-01T16:00:41.000",
    "request_status": "Pending",
    "responsible_agency": "Orleans Parish Communication District",
    "final_address": "416 N Johnson St",
    "address_councildis": "B",
    "status": "Pending",
    "rowid": "1237226",
    "final_x": "3678097.24616",
    "final_y": "534664.702086",
    "longitude": "-90.07870627053339",
    "latitude": "29.964245427858963",
    "geocoded_column": {
      "latitude": "29.964245427858963",
      "longitude": "-90.07870627053339"
    }
  },
  {
    "service_request": "2025-1237225",
    "request_type": "Utility Poles",
    "request_reason": "Wires Sagging/Hanging Low",
    "date_created": "2025-11-01T15:56:05.000",
    "date_modified": "2025-11-01T15:56:07.000",
    "request_status": "Pending",
    "responsible_agency": "Utility Company Collective",
    "final_address": "2917 Baronne St",
    "address_councildis": "B",
    "status": "Pending",
    "rowid": "1237225",
    "final_x": "3674936.69064",
    "final_y": "522802.389499",
    "longitude": "-90.08909382613815",
    "latitude": "29.931722769518665",
    "geocoded_column": {
      "latitude": "29.931722769518665",
      "longitude": "-90.08909382613815"
    }
  },
  {
    "service_request": "2025-1237224",
    "request_type": "General Services",
    "request_reason": "General Service Request",
    "date_created": "2025-11-01T15:55:44.000",
    "date_modified": "2025-11-01T15:55:47.000",
    "request_status": "Pending",
    "responsible_agency": "Orleans Parish Communication District",
    "final_address": "3330 Allen St",
    "address_councildis": "D",
    "status": "Pending",
    "rowid": "1237224",
    "final_x": "3682034.72776",
    "final_y": "544797.017103",
    "longitude": "-90.06591812331395",
    "latitude": "29.991986630173674",
    "geocoded_column": {
      "latitude": "29.991986630173674",
      "longitude": "-90.06591812331395"
    }
  },
  {
    "service_request": "2025-1237223",
    "request_type": "Trash/Recycling",
    "request_reason": "Order Recycling Cart",
    "date_created": "2025-11-01T15:52:44.000",
    "date_modified": "2025-11-01T15:52:47.000",
    "request_status": "Pending",
    "responsible_agency": "Department of Sanitation",
    "final_address": "2505 Peniston St Apt A",
    "address_councildis": "B",
    "status": "Pending",
    "rowid": "1237223",
    "final_x": "3672227.29646",
    "final_y": "524291.472252",
    "longitude": "-90.09759640089182",
    "latitude": "29.935897884714926",
    "geocoded_column": {
      "latitude": "29.935897884714926",
      "longitude": "-90.09759640089182"
    }
  },
  {
    "service_request": "2025-1237222",
    "request_type": "Trash/Recycling",
    "request_reason": "Request a Large Item Pick Up",
    "date_created": "2025-11-01T15:41:04.000",
    "date_modified": "2025-11-01T15:41:06.000",
    "request_status": "Pending",
    "responsible_agency": "Department of Sanitation",
    "final_address": "1915 Mediamolle Dr",
    "address_councildis": "C",
    "status": "Assigned to Contractor",
    "contractor": "Richards Disposal",
    "rowid": "1237222",
    "final_x": "3699427.23792",
    "final_y": "524283.515132",
    "longitude": "-90.0117264638219",
    "latitude": "29.93504139585885",
    "geocoded_column": {
      "latitude": "29.93504139585885",
      "longitude": "-90.0117264638219"
    }
  },
  {
    "service_request": "2025-1237221",
    "request_type": "Safety & Permits",
    "request_reason": "Zoning Enforcement",
    "date_created": "2025-11-01T15:21:16.000",
    "date_modified": "2025-11-01T15:21:18.000",
    "request_status": "Pending",
    "responsible_agency": "Safety and Permits",
    "final_address": "2040 Burgundy St",
    "address_councildis": "C",
    "status": "Pending",
    "rowid": "1237221",
    "final_x": "3684608.2358",
    "final_y": "535515.768774",
    "longitude": "-90.05811523035665",
    "latitude": "29.966387933778154",
    "geocoded_column": {
      "latitude": "29.966387933778154",
      "longitude": "-90.05811523035665"
    }
  },
  {
    "service_request": "2025-1237220",
    "request_type": "Trash/Recycling",
    "request_reason": "Replace Trash Cart",
    "date_created": "2025-11-01T15:13:48.000",
    "date_modified": "2025-11-01T15:13:49.000",
    "request_status": "Pending",
    "responsible_agency": "Department of Sanitation",
    "final_address": "1730 Allen St",
    "address_councildis": "D",
    "status": "Assigned to Contractor",
    "contractor": "IV Waste",
    "rowid": "1237220",
    "final_x": "3682548.38863",
    "final_y": "538579.196361",
    "longitude": "-90.06451306364718",
    "latitude": "29.974874173178637",
    "geocoded_column": {
      "latitude": "29.974874173178637",
      "longitude": "-90.06451306364718"
    }
  },
  {
    "service_request": "2025-1237219",
    "request_type": "Property Maintenance",
    "request_reason": "Property Maintenance",
    "date_created": "2025-11-01T15:11:27.000",
    "date_modified": "2025-11-01T15:11:28.000",
    "request_status": "Pending",
    "responsible_agency": "Department of Code Enforcement",
    "final_address": "715 Patterson St",
    "address_councildis": "C",
    "status": "Pending",
    "rowid": "1237219",
    "final_x": "3687719.93193",
    "final_y": "531406.208771",
    "longitude": "-90.04843409650447",
    "latitude": "29.95499247838116",
    "geocoded_column": {
      "latitude": "29.95499247838116",
      "longitude": "-90.04843409650447"
    }
  },
  {
    "service_request": "2025-1237218",
    "request_type": "Health Related Request",
    "request_reason": "Noise Ordinance Complaint",
    "date_created": "2025-11-01T15:11:22.000",
    "date_modified": "2025-11-01T15:11:24.000",
    "request_status": "Pending",
    "responsible_agency": "Health Department",
    "final_address": "734-736 Dumaine Street",
    "status": "Pending",
    "rowid": "1237218",
    "longitude": "0.0",
    "latitude": "0.0",
    "geocoded_column": {
      "latitude": "0.0",
      "longitude": "0.0"
    }
  },
  {
    "service_request": "2025-1237217",
    "request_type": "Street and Traffic Signs",
    "request_reason": "Stop Sign Missing or Damaged",
    "date_created": "2025-11-01T15:05:27.000",
    "date_modified": "2025-11-01T15:05:30.000",
    "request_status": "Pending",
    "responsible_agency": "Department of Public Works",
    "final_address": "7535 Oak St",
    "address_councildis": "A",
    "status": "Pending",
    "rowid": "1237217",
    "final_x": "3663418.23968",
    "final_y": "527109.048319",
    "longitude": "-90.12531312028524",
    "latitude": "29.943903605706574",
    "geocoded_column": {
      "latitude": "29.943903605706574",
      "longitude": "-90.12531312028524"
    }
  },
  {
    "service_request": "2025-1237216",
    "request_type": "Abandoned Vehicles",
    "request_reason": "Abandoned/Junk Vehicles",
    "date_created": "2025-11-01T14:40:49.000",
    "date_modified": "2025-11-01T14:40:51.000",
    "request_status": "Pending",
    "responsible_agency": "Department of Public Works",
    "final_address": "3800 BLK Prytania St",
    "address_councildis": "B",
    "status": "Pending",
    "rowid": "1237216",
    "final_x": "3672888.13844",
    "final_y": "520531.115878",
    "longitude": "-90.09563833751155",
    "latitude": "29.925538505097474",
    "geocoded_column": {
      "latitude": "29.925538505097474",
      "longitude": "-90.09563833751155"
    }
  },
  {
    "service_request": "2025-1237215",
    "request_type": "Abandoned Vehicles",
    "request_reason": "Abandoned/Junk Vehicles",
    "date_created": "2025-11-01T14:32:04.000",
    "date_modified": "2025-11-01T14:33:26.000",
    "request_status": "Pending",
    "responsible_agency": "Department of Public Works",
    "final_address": "1204 Short St",
    "address_councildis": "A",
    "status": "Inspected",
    "rowid": "1237215",
    "final_x": "3662321.27949",
    "final_y": "528166.006912",
    "longitude": "-90.12874145836805",
    "latitude": "29.94684165806498",
    "geocoded_column": {
      "latitude": "29.94684165806498",
      "longitude": "-90.12874145836805"
    }
  },
  {
    "service_request": "2025-1237214",
    "request_type": "Trash/Recycling",
    "request_reason": "Change Size of Trash Cart",
    "date_created": "2025-11-01T14:23:27.000",
    "date_modified": "2025-11-01T14:23:29.000",
    "request_status": "Pending",
    "responsible_agency": "Department of Sanitation",
    "final_address": "1017 Josephine St",
    "address_councildis": "B",
    "status": "Assigned to Contractor",
    "contractor": "IV Waste",
    "rowid": "1237214",
    "final_x": "3679322.31343",
    "final_y": "522157.698362",
    "longitude": "-90.07527125256283",
    "latitude": "29.92981840589393",
    "geocoded_column": {
      "latitude": "29.92981840589393",
      "longitude": "-90.07527125256283"
    }
  },
  {
    "service_request": "2025-1237213",
    "request_type": "Trash/Recycling",
    "request_reason": "Order Recycling Cart",
    "date_created": "2025-11-01T14:19:05.000",
    "date_modified": "2025-11-01T14:19:08.000",
    "request_status": "Pending",
    "responsible_agency": "Department of Sanitation",
    "final_address": "1017 Josephine St",
    "address_councildis": "B",
    "status": "Pending",
    "rowid": "1237213",
    "final_x": "3679322.31343",
    "final_y": "522157.698362",
    "longitude": "-90.07527125256283",
    "latitude": "29.92981840589393",
    "geocoded_column": {
      "latitude": "29.92981840589393",
      "longitude": "-90.07527125256283"
    }
  },
  {
    "service_request": "2025-1237212",
    "request_type": "Trash/Recycling",
    "request_reason": "Order Trash Cart",
    "date_created": "2025-11-01T13:53:42.000",
    "date_modified": "2025-11-01T13:53:44.000",
    "request_status": "Pending",
    "responsible_agency": "Department of Sanitation",
    "final_address": "7605 Plum St",
    "address_councildis": "A",
    "status": "Assigned to Contractor",
    "contractor": "IV Waste",
    "rowid": "1237212",
    "final_x": "3663507.0473",
    "final_y": "527503.994239",
    "longitude": "-90.12501957966293",
    "latitude": "29.944987005803004",
    "geocoded_column": {
      "latitude": "29.944987005803004",
      "longitude": "-90.12501957966293"
    }
  },
  {
    "service_request": "2025-1237211",
    "request_type": "Trash/Recycling",
    "request_reason": "Request a Large Item Pick Up",
    "date_created": "2025-11-01T13:52:53.000",
    "date_modified": "2025-11-01T13:52:55.000",
    "request_status": "Pending",
    "responsible_agency": "Department of Sanitation",
    "final_address": "4701 Warrington Dr",
    "address_councildis": "D",
    "status": "Assigned to Contractor",
    "contractor": "IV Waste",
    "rowid": "1237211",
    "final_x": "3681182.53775",
    "final_y": "549789.528404",
    "longitude": "-90.06843592605404",
    "latitude": "30.00574014860179",
    "geocoded_column": {
      "latitude": "30.00574014860179",
      "longitude": "-90.06843592605404"
    }
  },
  {
    "service_request": "2025-1237210",
    "request_type": "Street and Traffic Signs",
    "request_reason": "One Way Sign Missing or Damaged",
    "date_created": "2025-11-01T13:31:20.000",
    "date_modified": "2025-11-01T13:31:22.000",
    "request_status": "Pending",
    "responsible_agency": "Department of Public Works",
    "final_address": "1601 Mandeville St",
    "address_councildis": "D",
    "status": "Pending",
    "rowid": "1237210",
    "final_x": "3685659.35785",
    "final_y": "538242.584841",
    "longitude": "-90.05469971763027",
    "latitude": "29.973853520802738",
    "geocoded_column": {
      "latitude": "29.973853520802738",
      "longitude": "-90.05469971763027"
    }
  },
  {
    "service_request": "2025-1237209",
    "request_type": "Trash/Recycling",
    "request_reason": "Request a Large Item Pick Up",
    "date_created": "2025-11-01T13:29:21.000",
    "date_modified": "2025-11-01T13:29:22.000",
    "request_status": "Pending",
    "responsible_agency": "Department of Sanitation",
    "final_address": "7811 Green St",
    "address_councildis": "A",
    "status": "Assigned to Contractor",
    "contractor": "IV Waste",
    "rowid": "1237209",
    "final_x": "3663956.104",
    "final_y": "528997.14784",
    "longitude": "-90.12355198894755",
    "latitude": "29.949079669708528",
    "geocoded_column": {
      "latitude": "29.949079669708528",
      "longitude": "-90.12355198894755"
    }
  },
  {
    "service_request": "2025-1237208",
    "request_type": "Abandoned Vehicles",
    "request_reason": "Abandoned/Junk Vehicles",
    "date_created": "2025-11-01T13:25:31.000",
    "date_modified": "2025-11-01T13:25:32.000",
    "request_status": "Pending",
    "responsible_agency": "Department of Public Works",
    "final_address": "4045 Vendome Pl",
    "address_councildis": "B",
    "status": "Pending",
    "rowid": "1237208",
    "final_x": "3668848.9458",
    "final_y": "530306.690882",
    "longitude": "-90.10805888748",
    "latitude": "29.952537533643174",
    "geocoded_column": {
      "latitude": "29.952537533643174",
      "longitude": "-90.10805888748"
    }
  },
  {
    "service_request": "2025-1237207",
    "request_type": "Utility Poles",
    "request_reason": "Utility Pole Leaning",
    "date_created": "2025-11-01T13:23:25.000",
    "date_modified": "2025-11-01T13:23:28.000",
    "request_status": "Pending",
    "responsible_agency": "Utility Company Collective",
    "final_address": "8501 Hickory St",
    "address_councildis": "A",
    "status": "Pending",
    "rowid": "1237207",
    "final_x": "3662317.9728",
    "final_y": "530942.223106",
    "longitude": "-90.12865974273205",
    "latitude": "29.954475455423783",
    "geocoded_column": {
      "latitude": "29.954475455423783",
      "longitude": "-90.12865974273205"
    }
  },
  {
    "service_request": "2025-1237206",
    "request_type": "General Services",
    "request_reason": "General Service Request",
    "date_created": "2025-11-01T13:15:18.000",
    "date_modified": "2025-11-01T13:15:20.000",
    "request_status": "Pending",
    "responsible_agency": "Orleans Parish Communication District",
    "final_address": "4000 Monroe St",
    "address_councildis": "A",
    "status": "Pending",
    "rowid": "1237206",
    "final_x": "3667082.91988",
    "final_y": "537223.299976",
    "longitude": "-90.1134026992558",
    "latitude": "29.97160773561474",
    "geocoded_column": {
      "latitude": "29.97160773561474",
      "longitude": "-90.1134026992558"
    }
  },
  {
    "service_request": "2025-1237205",
    "request_type": "Roads and Streets",
    "request_reason": "Street Subsidence (Sinking)",
    "date_created": "2025-11-01T13:06:15.000",
    "date_modified": "2025-11-01T13:06:17.000",
    "request_status": "Pending",
    "responsible_agency": "Sewerage & Water Board",
    "final_address": "1119 N Johnson St",
    "address_councildis": "D",
    "status": "Pending",
    "rowid": "1237205",
    "final_x": "3679633.69282",
    "final_y": "536842.09524",
    "longitude": "-90.07377871642537",
    "latitude": "29.970186166771573",
    "geocoded_column": {
      "latitude": "29.970186166771573",
      "longitude": "-90.07377871642537"
    }
  },
  {
    "service_request": "2025-1237204",
    "request_type": "Property Maintenance",
    "request_reason": "Property Maintenance",
    "date_created": "2025-11-01T13:06:05.000",
    "date_modified": "2025-11-01T13:06:07.000",
    "request_status": "Pending",
    "responsible_agency": "Department of Code Enforcement",
    "final_address": "8203 Nelson St",
    "address_councildis": "A",
    "status": "Pending",
    "rowid": "1237204",
    "final_x": "3664851.256",
    "final_y": "532137.430659",
    "longitude": "-90.12062065174477",
    "latitude": "29.957688410443737",
    "geocoded_column": {
      "latitude": "29.957688410443737",
      "longitude": "-90.12062065174477"
    }
  },
  {
    "service_request": "2025-1237203",
    "request_type": "General Services",
    "request_reason": "General Service Request",
    "date_created": "2025-11-01T12:43:12.000",
    "date_modified": "2025-11-01T12:43:13.000",
    "request_status": "Pending",
    "responsible_agency": "Orleans Parish Communication District",
    "final_address": "SWBNO 1101 Erato St., New Orleans, LA",
    "status": "Pending",
    "rowid": "1237203",
    "longitude": "0.0",
    "latitude": "0.0",
    "geocoded_column": {
      "latitude": "0.0",
      "longitude": "0.0"
    }
  },
  {
    "service_request": "2025-1237201",
    "request_type": "Trash/Recycling",
    "request_reason": "Damaged Caused By Contractor",
    "date_created": "2025-11-01T12:35:02.000",
    "date_modified": "2025-11-01T12:35:05.000",
    "request_status": "Pending",
    "responsible_agency": "Department of Sanitation",
    "final_address": "209 20Th St",
    "address_councildis": "A",
    "status": "Assigned to Contractor",
    "contractor": "IV Waste",
    "rowid": "1237201",
    "final_x": "3665786.7401",
    "final_y": "549062.132307",
    "longitude": "-90.11709938735144",
    "latitude": "30.00419839150131",
    "geocoded_column": {
      "latitude": "30.00419839150131",
      "longitude": "-90.11709938735144"
    }
  },
  {
    "service_request": "2025-1237200",
    "request_type": "Abandoned Vehicles",
    "request_reason": "Abandoned/Junk Vehicles",
    "date_created": "2025-11-01T12:33:46.000",
    "date_modified": "2025-11-01T12:33:48.000",
    "request_status": "Pending",
    "responsible_agency": "Department of Public Works",
    "final_address": "3502 Vespasian St",
    "address_councildis": "C",
    "status": "Pending",
    "rowid": "1237200",
    "final_x": "3696321.49655",
    "final_y": "522708.266042",
    "longitude": "-90.0215881461155",
    "latitude": "29.930808133313597",
    "geocoded_column": {
      "latitude": "29.930808133313597",
      "longitude": "-90.0215881461155"
    }
  },
  {
    "service_request": "2025-1237199",
    "request_type": "Abandoned Vehicles",
    "request_reason": "Abandoned/Junk Vehicles",
    "date_created": "2025-11-01T12:29:24.000",
    "date_modified": "2025-11-01T12:29:26.000",
    "request_status": "Pending",
    "responsible_agency": "Department of Public Works",
    "final_address": "5670 Hawthorne Pl",
    "address_councildis": "A",
    "status": "Pending",
    "rowid": "1237199",
    "final_x": "3667787.83885",
    "final_y": "545203.258383",
    "longitude": "-90.11090758832879",
    "latitude": "29.993529265063408",
    "geocoded_column": {
      "latitude": "29.993529265063408",
      "longitude": "-90.11090758832879"
    }
  },
  {
    "service_request": "2025-1237198",
    "request_type": "General Services",
    "request_reason": "General Service Request",
    "date_created": "2025-11-01T12:27:52.000",
    "date_modified": "2025-11-01T12:27:53.000",
    "request_status": "Pending",
    "responsible_agency": "Orleans Parish Communication District",
    "final_address": "3222 Chestnut St",
    "address_councildis": "B",
    "status": "Pending",
    "rowid": "1237198",
    "final_x": "3675307.28289",
    "final_y": "520534.575736",
    "longitude": "-90.08800171516798",
    "latitude": "29.925475945952996",
    "geocoded_column": {
      "latitude": "29.925475945952996",
      "longitude": "-90.08800171516798"
    }
  },
  {
    "service_request": "2025-1237197",
    "request_type": "Abandoned Vehicles",
    "request_reason": "Abandoned/Junk Vehicles",
    "date_created": "2025-11-01T12:27:47.000",
    "date_modified": "2025-11-01T12:27:48.000",
    "request_status": "Pending",
    "responsible_agency": "Department of Public Works",
    "final_address": "5670 Hawthorne Pl",
    "address_councildis": "A",
    "status": "Pending",
    "rowid": "1237197",
    "final_x": "3667787.83885",
    "final_y": "545203.258383",
    "longitude": "-90.11090758832879",
    "latitude": "29.993529265063408",
    "geocoded_column": {
      "latitude": "29.993529265063408",
      "longitude": "-90.11090758832879"
    }
  },
  {
    "service_request": "2025-1237196",
    "request_type": "Safety & Permits",
    "request_reason": "Zoning Enforcement",
    "date_created": "2025-11-01T12:25:06.000",
    "date_modified": "2025-11-01T12:25:07.000",
    "request_status": "Pending",
    "responsible_agency": "Safety and Permits",
    "final_address": "1123 Nunez St",
    "address_councildis": "C",
    "status": "Pending",
    "rowid": "1237196",
    "final_x": "3686945.21647",
    "final_y": "527360.647231",
    "longitude": "-90.05102330863726",
    "latitude": "29.943892429706285",
    "geocoded_column": {
      "latitude": "29.943892429706285",
      "longitude": "-90.05102330863726"
    }
  },
  {
    "service_request": "2025-1237195",
    "request_type": "Abandoned Vehicles",
    "request_reason": "Abandoned/Junk Vehicles",
    "date_created": "2025-11-01T12:24:28.000",
    "date_modified": "2025-11-01T12:25:59.000",
    "request_status": "Pending",
    "responsible_agency": "Department of Public Works",
    "final_address": "2013 Conti St",
    "address_councildis": "B",
    "status": "Inspected",
    "rowid": "1237195",
    "final_x": "3678175.86114",
    "final_y": "534472.542085",
    "longitude": "-90.07846465654747",
    "latitude": "29.963714686006167",
    "geocoded_column": {
      "latitude": "29.963714686006167",
      "longitude": "-90.07846465654747"
    }
  },
  {
    "service_request": "2025-1237194",
    "request_type": "Roads and Streets",
    "request_reason": "Sidewalk Damaged or Missing",
    "date_created": "2025-11-01T12:09:15.000",
    "date_modified": "2025-11-01T12:09:16.000",
    "request_status": "Pending",
    "responsible_agency": "Department of Public Works",
    "final_address": "3808 Peach Tree Ct",
    "address_councildis": "C",
    "status": "Pending",
    "rowid": "1237194",
    "final_x": "3703874.3427",
    "final_y": "512711.407345",
    "longitude": "-89.99811280317881",
    "latitude": "29.90308030408361",
    "geocoded_column": {
      "latitude": "29.90308030408361",
      "longitude": "-89.99811280317881"
    }
  },
  {
    "service_request": "2025-1237193",
    "request_type": "Roads and Streets",
    "request_reason": "Pothole",
    "date_created": "2025-11-01T11:58:55.000",
    "date_modified": "2025-11-01T11:58:57.000",
    "request_status": "Pending",
    "responsible_agency": "Department of Public Works",
    "final_address": "1500 BLK Valence St",
    "address_councildis": "B",
    "status": "Pending",
    "rowid": "1237193",
    "final_x": "3669759.05087",
    "final_y": "520585.29884",
    "longitude": "-90.1055140993079",
    "latitude": "29.925780057160143",
    "geocoded_column": {
      "latitude": "29.925780057160143",
      "longitude": "-90.1055140993079"
    }
  },
  {
    "service_request": "2025-1237192",
    "request_type": "Trash/Recycling",
    "request_reason": "Return Trash Cart",
    "date_created": "2025-11-01T11:57:48.000",
    "date_modified": "2025-11-01T11:57:49.000",
    "request_status": "Pending",
    "responsible_agency": "Department of Sanitation",
    "final_address": "5238 Macarthur Blvd",
    "address_councildis": "C",
    "status": "Assigned to Contractor",
    "contractor": "Richards Disposal",
    "rowid": "1237192",
    "final_x": "3703533.4867",
    "final_y": "519891.075576",
    "longitude": "-89.99892465290522",
    "latitude": "29.92283284987122",
    "geocoded_column": {
      "latitude": "29.92283284987122",
      "longitude": "-89.99892465290522"
    }
  },
  {
    "service_request": "2025-1237191",
    "request_type": "Trash/Recycling",
    "request_reason": "Request a Large Item Pick Up",
    "date_created": "2025-11-01T11:55:00.000",
    "date_modified": "2025-11-01T11:55:02.000",
    "request_status": "Pending",
    "responsible_agency": "Department of Sanitation",
    "final_address": "831 Navarre St",
    "address_councildis": "A",
    "status": "Assigned to Contractor",
    "contractor": "IV Waste",
    "rowid": "1237191",
    "final_x": "3668971.19566",
    "final_y": "543851.957646",
    "longitude": "-90.10721521364279",
    "latitude": "29.989778885713786",
    "geocoded_column": {
      "latitude": "29.989778885713786",
      "longitude": "-90.10721521364279"
    }
  },
  {
    "service_request": "2025-1237190",
    "request_type": "Trash/Recycling",
    "request_reason": "Request a Large Item Pick Up",
    "date_created": "2025-11-01T11:35:35.000",
    "date_modified": "2025-11-01T11:35:36.000",
    "request_status": "Pending",
    "responsible_agency": "Department of Sanitation",
    "final_address": "1037 Milan St",
    "address_councildis": "B",
    "status": "Assigned to Contractor",
    "contractor": "IV Waste",
    "rowid": "1237190",
    "final_x": "3671771.27649",
    "final_y": "519552.777719",
    "longitude": "-90.0991971978299",
    "latitude": "29.922881512375223",
    "geocoded_column": {
      "latitude": "29.922881512375223",
      "longitude": "-90.0991971978299"
    }
  },
  {
    "service_request": "2025-1237189",
    "request_type": "Trash/Recycling",
    "request_reason": "Request a Large Item Pick Up",
    "date_created": "2025-11-01T11:27:32.000",
    "date_modified": "2025-11-01T11:27:34.000",
    "request_status": "Pending",
    "responsible_agency": "Department of Sanitation",
    "final_address": "1509 Fats Domino Ave",
    "address_councildis": "E",
    "status": "Assigned to Contractor",
    "contractor": "Waste Pro",
    "rowid": "1237189",
    "final_x": "3698578.21936",
    "final_y": "535342.786374",
    "longitude": "-90.01400479131456",
    "latitude": "29.965477400932706",
    "geocoded_column": {
      "latitude": "29.965477400932706",
      "longitude": "-90.01400479131456"
    }
  },
  {
    "service_request": "2025-1237188",
    "request_type": "Roads and Streets",
    "request_reason": "Debris in Driving Lanes",
    "date_created": "2025-11-01T11:04:55.000",
    "date_modified": "2025-11-01T11:04:57.000",
    "request_status": "Pending",
    "responsible_agency": "Department of Public Works",
    "final_address": "4471 Michoud Blvd",
    "address_councildis": "E",
    "status": "Pending",
    "rowid": "1237188",
    "final_x": "3726057.84864",
    "final_y": "558777.758812",
    "longitude": "-89.92631789315858",
    "latitude": "30.029015707123804",
    "geocoded_column": {
      "latitude": "30.029015707123804",
      "longitude": "-89.92631789315858"
    }
  },
  {
    "service_request": "2025-1237187",
    "request_type": "Trash/Recycling",
    "request_reason": "Return Trash Cart",
    "date_created": "2025-11-01T10:41:21.000",
    "date_modified": "2025-11-01T10:41:24.000",
    "request_status": "Pending",
    "responsible_agency": "Department of Sanitation",
    "final_address": "3962 Laurel St",
    "address_councildis": "B",
    "status": "Assigned to Contractor",
    "contractor": "IV Waste",
    "rowid": "1237187",
    "final_x": "3672730.21659",
    "final_y": "518122.450486",
    "longitude": "-90.09621894001278",
    "latitude": "29.918920134442175",
    "geocoded_column": {
      "latitude": "29.918920134442175",
      "longitude": "-90.09621894001278"
    }
  },
  {
    "service_request": "2025-1237186",
    "request_type": "Abandoned Vehicles",
    "request_reason": "Abandoned/Junk Vehicles",
    "date_created": "2025-11-01T10:25:04.000",
    "date_modified": "2025-11-01T10:25:06.000",
    "request_status": "Pending",
    "responsible_agency": "Department of Public Works",
    "final_address": "139 N Rendon St",
    "address_councildis": "B",
    "status": "Pending",
    "rowid": "1237186",
    "final_x": "3673783.64212",
    "final_y": "536782.641992",
    "longitude": "-90.09225585342725",
    "latitude": "29.97019821356145",
    "geocoded_column": {
      "latitude": "29.97019821356145",
      "longitude": "-90.09225585342725"
    }
  },
  {
    "service_request": "2025-1237185",
    "request_type": "Traffic Signals",
    "request_reason": "Traffic Signal Malfunctioning or Damaged",
    "date_created": "2025-11-01T10:17:01.000",
    "date_modified": "2025-11-01T10:17:03.000",
    "request_status": "Pending",
    "responsible_agency": "Department of Public Works",
    "final_address": "639 N Murat St",
    "address_councildis": "A",
    "status": "Pending",
    "rowid": "1237185",
    "final_x": "3670954.021",
    "final_y": "541106.668812",
    "longitude": "-90.1010452565352",
    "latitude": "29.982171791958805",
    "geocoded_column": {
      "latitude": "29.982171791958805",
      "longitude": "-90.1010452565352"
    }
  },
  {
    "service_request": "2025-1237184",
    "request_type": "Drainage",
    "request_reason": "Catch Basin Not Draining",
    "date_created": "2025-11-01T09:52:55.000",
    "date_modified": "2025-11-01T09:54:03.000",
    "request_status": "Pending",
    "responsible_agency": "Sewerage & Water Board",
    "final_address": "DESIRE PKWY & ALMONASTER AVE",
    "address_councildis": "D",
    "status": "Pending",
    "rowid": "1237184",
    "final_x": "3692410.1",
    "final_y": "548768.88",
    "longitude": "-90.03300220452078",
    "latitude": "30.0025881682413",
    "geocoded_column": {
      "latitude": "30.0025881682413",
      "longitude": "-90.03300220452078"
    }
  },
  {
    "service_request": "2025-1237183",
    "request_type": "Property Maintenance",
    "request_reason": "Property Maintenance",
    "date_created": "2025-11-01T09:15:49.000",
    "date_modified": "2025-11-01T09:15:51.000",
    "request_status": "Pending",
    "responsible_agency": "Department of Code Enforcement",
    "final_address": "1931 Montegut St",
    "address_councildis": "D",
    "status": "Pending",
    "rowid": "1237183",
    "final_x": "3689331.9526",
    "final_y": "539372.078666",
    "longitude": "-90.04306071998771",
    "latitude": "29.976846031723262",
    "geocoded_column": {
      "latitude": "29.976846031723262",
      "longitude": "-90.04306071998771"
    }
  },
  {
    "service_request": "2025-1237182",
    "request_type": "Trash/Recycling",
    "request_reason": "Request a Large Item Pick Up",
    "date_created": "2025-11-01T09:08:57.000",
    "date_modified": "2025-11-01T09:09:00.000",
    "request_status": "Pending",
    "responsible_agency": "Department of Sanitation",
    "final_address": "14056 Curran Rd",
    "address_councildis": "E",
    "status": "Assigned to Contractor",
    "contractor": "Waste Pro",
    "rowid": "1237182",
    "final_x": "3718923.64165",
    "final_y": "572496.101609",
    "longitude": "-89.94833750167587",
    "latitude": "30.066974456594508",
    "geocoded_column": {
      "latitude": "30.066974456594508",
      "longitude": "-89.94833750167587"
    }
  },
  {
    "service_request": "2025-1237181",
    "request_type": "Property Maintenance",
    "request_reason": "Property Maintenance",
    "date_created": "2025-11-01T08:57:49.000",
    "date_modified": "2025-11-01T08:57:51.000",
    "request_status": "Pending",
    "responsible_agency": "Department of Code Enforcement",
    "final_address": "CAMPUS BLVD & EMMETT W BASHFUL BLVD",
    "address_councildis": "D",
    "status": "Pending",
    "rowid": "1237181",
    "final_x": "3688523.5",
    "final_y": "556094.88",
    "longitude": "-90.04502023200162",
    "latitude": "30.022852673230524",
    "geocoded_column": {
      "latitude": "30.022852673230524",
      "longitude": "-90.04502023200162"
    }
  },
  {
    "service_request": "2025-1237180",
    "request_type": "Property Maintenance",
    "request_reason": "Property Maintenance",
    "date_created": "2025-11-01T08:39:46.000",
    "date_modified": "2025-11-01T08:39:48.000",
    "request_status": "Pending",
    "responsible_agency": "Department of Code Enforcement",
    "final_address": "1915 L. B. Landry Ave",
    "address_councildis": "C",
    "status": "Pending",
    "rowid": "1237180",
    "final_x": "3689915.60585",
    "final_y": "523866.768508",
    "longitude": "-90.04176934980119",
    "latitude": "29.934193713533396",
    "geocoded_column": {
      "latitude": "29.934193713533396",
      "longitude": "-90.04176934980119"
    }
  },
  {
    "service_request": "2025-1237179",
    "request_type": "Abandoned Vehicles",
    "request_reason": "Abandoned/Junk Vehicles",
    "date_created": "2025-11-01T08:30:41.000",
    "date_modified": "2025-11-01T08:31:58.000",
    "request_status": "Pending",
    "responsible_agency": "Department of Public Works",
    "final_address": "3700 Desire St",
    "address_councildis": "D",
    "status": "Inspected",
    "rowid": "1237179",
    "final_x": "3692422.54313",
    "final_y": "546786.499985",
    "longitude": "-90.03303396304814",
    "latitude": "29.99713696084336",
    "geocoded_column": {
      "latitude": "29.99713696084336",
      "longitude": "-90.03303396304814"
    }
  },
  {
    "service_request": "2025-1237178",
    "request_type": "Mosquito, Termite & Rodent Control",
    "request_reason": "Mosquito Complaint",
    "date_created": "2025-11-01T08:14:47.000",
    "date_modified": "2025-11-01T08:14:50.000",
    "request_status": "Pending",
    "responsible_agency": "Mosquito, Termite & Rodent Control Board",
    "final_address": "1904 Milan St, New Orleans, Louisiana, 70115",
    "address_councildis": "B",
    "status": "Pending",
    "rowid": "1237178",
    "final_x": "3671439.90388",
    "final_y": "522084.324538",
    "longitude": "-90.100157211905",
    "latitude": "29.929852265746902",
    "geocoded_column": {
      "latitude": "29.929852265746902",
      "longitude": "-90.100157211905"
    }
  },
  {
    "service_request": "2025-1237177",
    "request_type": "Abandoned Vehicles",
    "request_reason": "Abandoned/Junk Vehicles",
    "date_created": "2025-11-01T07:27:38.000",
    "date_modified": "2025-11-01T07:27:39.000",
    "request_status": "Pending",
    "responsible_agency": "Department of Public Works",
    "final_address": "440 First St",
    "address_councildis": "B",
    "status": "Pending",
    "rowid": "1237177",
    "final_x": "3679321.50594",
    "final_y": "519563.274359",
    "longitude": "-90.0753637178411",
    "latitude": "29.922684611131405",
    "geocoded_column": {
      "latitude": "29.922684611131405",
      "longitude": "-90.0753637178411"
    }
  },
  {
    "service_request": "2025-1237176",
    "request_type": "Abandoned Vehicles",
    "request_reason": "Abandoned/Junk Vehicles",
    "date_created": "2025-10-31T23:35:44.000",
    "date_modified": "2025-10-31T23:35:46.000",
    "request_status": "Pending",
    "responsible_agency": "Department of Public Works",
    "final_address": "727 Touro St",
    "address_councildis": "C",
    "status": "Pending",
    "rowid": "1237176",
    "final_x": "3684372.83695",
    "final_y": "535040.010438",
    "longitude": "-90.05887532593896",
    "latitude": "29.965086964106327",
    "geocoded_column": {
      "latitude": "29.965086964106327",
      "longitude": "-90.05887532593896"
    }
  },
  {
    "service_request": "2025-1237175",
    "request_type": "Trash/Recycling",
    "request_reason": "Replace Trash Cart",
    "date_created": "2025-10-31T23:29:33.000",
    "date_modified": "2025-10-31T23:29:36.000",
    "request_status": "Pending",
    "responsible_agency": "Department of Sanitation",
    "final_address": "4601 Hauck Dr",
    "address_councildis": "E",
    "status": "Assigned to Contractor",
    "contractor": "Waste Pro",
    "rowid": "1237175",
    "final_x": "3714711.28543",
    "final_y": "555937.172249",
    "longitude": "-89.96227967024959",
    "latitude": "30.02158344015493",
    "geocoded_column": {
      "latitude": "30.02158344015493",
      "longitude": "-89.96227967024959"
    }
  },
  {
    "service_request": "2025-1237174",
    "request_type": "Health Related Request",
    "request_reason": "Noise Ordinance Complaint",
    "date_created": "2025-10-31T23:05:47.000",
    "date_modified": "2025-10-31T23:05:48.000",
    "request_status": "Pending",
    "responsible_agency": "Health Department",
    "final_address": "1436 Calhoun St, New Orleans, Louisiana, 70118",
    "address_councildis": "A",
    "status": "Pending",
    "rowid": "1237174",
    "final_x": "3664308.2105",
    "final_y": "521870.140346",
    "longitude": "-90.12267799000962",
    "latitude": "29.92947244528107",
    "geocoded_column": {
      "latitude": "29.92947244528107",
      "longitude": "-90.12267799000962"
    }
  },
  {
    "service_request": "2025-1237173",
    "request_type": "Health Related Request",
    "request_reason": "Noise Ordinance Complaint",
    "date_created": "2025-10-31T23:03:18.000",
    "date_modified": "2025-10-31T23:03:20.000",
    "request_status": "Pending",
    "responsible_agency": "Health Department",
    "final_address": "Calhoun street",
    "address_councildis": "A",
    "status": "Pending",
    "rowid": "1237173",
    "final_x": "3663591.32691",
    "final_y": "519938.274744",
    "longitude": "-90.1250053819446",
    "latitude": "29.92418122862939",
    "geocoded_column": {
      "latitude": "29.92418122862939",
      "longitude": "-90.1250053819446"
    }
  },
  {
    "service_request": "2025-1237172",
    "request_type": "Health Related Request",
    "request_reason": "Noise Ordinance Complaint",
    "date_created": "2025-10-31T22:49:13.000",
    "date_modified": "2025-10-31T22:49:17.000",
    "request_status": "Pending",
    "responsible_agency": "Health Department",
    "final_address": "1125 Saint Mary St, New Orleans, Louisiana, 70130",
    "address_councildis": "B",
    "status": "Pending",
    "rowid": "1237172",
    "final_x": "3679627.88693",
    "final_y": "522996.446651",
    "longitude": "-90.07427751582154",
    "latitude": "29.932115459558396",
    "geocoded_column": {
      "latitude": "29.932115459558396",
      "longitude": "-90.07427751582154"
    }
  },
  {
    "service_request": "2025-1237171",
    "request_type": "Streetlights",
    "request_reason": "Streetlight Outage/Malfunction",
    "date_created": "2025-10-31T22:49:12.000",
    "date_modified": "2025-10-31T22:49:14.000",
    "request_status": "Pending",
    "responsible_agency": "Department of Public Works",
    "final_address": "3130 Maurepas St",
    "address_councildis": "A",
    "status": "Pending",
    "rowid": "1237171",
    "final_x": "3676350.96245",
    "final_y": "540714.880075",
    "longitude": "-90.08401257965623",
    "latitude": "29.980933811295067",
    "geocoded_column": {
      "latitude": "29.980933811295067",
      "longitude": "-90.08401257965623"
    }
  },
  {
    "service_request": "2025-1237170",
    "request_type": "Roads and Streets",
    "request_reason": "Street Subsidence (Sinking)",
    "date_created": "2025-10-31T22:25:44.000",
    "date_modified": "2025-10-31T22:25:46.000",
    "request_status": "Pending",
    "responsible_agency": "Sewerage & Water Board",
    "final_address": "706 Webster St",
    "address_councildis": "A",
    "status": "Pending",
    "rowid": "1237170",
    "final_x": "3663995.42317",
    "final_y": "519196.532663",
    "longitude": "-90.12375450264257",
    "latitude": "29.922129946447548",
    "geocoded_column": {
      "latitude": "29.922129946447548",
      "longitude": "-90.12375450264257"
    }
  },
  {
    "service_request": "2025-1237169",
    "request_type": "Roads and Streets",
    "request_reason": "Street Subsidence (Sinking)",
    "date_created": "2025-10-31T22:22:05.000",
    "date_modified": "2025-10-31T22:22:07.000",
    "request_status": "Pending",
    "responsible_agency": "Sewerage & Water Board",
    "final_address": "710 Webster St",
    "address_councildis": "A",
    "status": "Pending",
    "rowid": "1237169",
    "final_x": "3664001.82093",
    "final_y": "519216.008119",
    "longitude": "-90.12373365851342",
    "latitude": "29.922183312161255",
    "geocoded_column": {
      "latitude": "29.922183312161255",
      "longitude": "-90.12373365851342"
    }
  },
  {
    "service_request": "2025-1237168",
    "request_type": "Drainage",
    "request_reason": "Catch Basin Frame and Cover Missing or Damaged",
    "date_created": "2025-10-31T21:40:40.000",
    "date_modified": "2025-10-31T21:40:42.000",
    "request_status": "Pending",
    "responsible_agency": "Sewerage & Water Board",
    "final_address": "3000 Octavia St",
    "address_councildis": "A",
    "status": "Pending",
    "rowid": "1237168",
    "final_x": "3668133.73997",
    "final_y": "526676.780478",
    "longitude": "-90.11043951421837",
    "latitude": "29.94257746973604",
    "geocoded_column": {
      "latitude": "29.94257746973604",
      "longitude": "-90.11043951421837"
    }
  },
  {
    "service_request": "2025-1237167",
    "request_type": "Streetlights",
    "request_reason": "Streetlight Outage/Malfunction",
    "date_created": "2025-10-31T20:47:28.000",
    "date_modified": "2025-10-31T20:47:31.000",
    "request_status": "Pending",
    "responsible_agency": "Department of Public Works",
    "final_address": "2747 Ramsey Dr",
    "address_councildis": "C",
    "status": "Pending",
    "rowid": "1237167",
    "final_x": "3703045.57713",
    "final_y": "520594.222136",
    "longitude": "-90.00043896126392",
    "latitude": "29.924781874415988",
    "geocoded_column": {
      "latitude": "29.924781874415988",
      "longitude": "-90.00043896126392"
    }
  },
  {
    "service_request": "2025-1237166",
    "request_type": "Trash/Recycling",
    "request_reason": "Start Trash Service",
    "date_created": "2025-10-31T20:29:20.000",
    "date_modified": "2025-10-31T20:29:22.000",
    "request_status": "Pending",
    "responsible_agency": "Department of Sanitation",
    "final_address": "2218 Feliciana St",
    "address_councildis": "D",
    "status": "Assigned to Contractor",
    "contractor": "IV Waste",
    "rowid": "1237166",
    "final_x": "3689780.07145",
    "final_y": "540365.258507",
    "longitude": "-90.04161006252546",
    "latitude": "29.979563041248444",
    "geocoded_column": {
      "latitude": "29.979563041248444",
      "longitude": "-90.04161006252546"
    }
  },
  {
    "service_request": "2025-1237165",
    "request_type": "Abandoned Vehicles",
    "request_reason": "Abandoned/Junk Vehicles",
    "date_created": "2025-10-31T20:12:08.000",
    "date_modified": "2025-11-01T14:54:51.000",
    "case_close_date": "2025-11-01T03:02:14.000",
    "request_status": "Closed",
    "responsible_agency": "Department of Public Works",
    "final_address": "4401 Knight Dr",
    "address_councildis": "E",
    "status": "Invalid Case",
    "rowid": "1237165",
    "final_x": "3708389.25656",
    "final_y": "553724.823511",
    "longitude": "-89.98233782673758",
    "latitude": "30.0157068235578",
    "geocoded_column": {
      "latitude": "30.0157068235578",
      "longitude": "-89.98233782673758"
    }
  },
  {
    "service_request": "2025-1237164",
    "request_type": "Abandoned Vehicles",
    "request_reason": "Abandoned/Junk Vehicles",
    "date_created": "2025-10-31T19:59:06.000",
    "date_modified": "2025-11-01T10:34:57.000",
    "request_status": "Pending",
    "responsible_agency": "Department of Public Works",
    "final_address": "1947 Treasure St",
    "address_councildis": "D",
    "status": "Inspected",
    "rowid": "1237164",
    "final_x": "3682567.33154",
    "final_y": "543939.684878",
    "longitude": "-90.06426573267244",
    "latitude": "29.989613060777423",
    "geocoded_column": {
      "latitude": "29.989613060777423",
      "longitude": "-90.06426573267244"
    }
  },
  {
    "service_request": "2025-1237163",
    "request_type": "Streetlights",
    "request_reason": "Streetlight Outage/Malfunction",
    "date_created": "2025-10-31T19:27:45.000",
    "date_modified": "2025-10-31T19:27:48.000",
    "request_status": "Pending",
    "responsible_agency": "Department of Public Works",
    "final_address": "35 Honeysuckle Ln",
    "address_councildis": "E",
    "status": "Pending",
    "rowid": "1237163",
    "final_x": "3713024.20478",
    "final_y": "568411.211237",
    "longitude": "-89.96714039497594",
    "latitude": "30.05593743804322",
    "geocoded_column": {
      "latitude": "30.05593743804322",
      "longitude": "-89.96714039497594"
    }
  },
  {
    "service_request": "2025-1237162",
    "request_type": "Abandoned Vehicles",
    "request_reason": "Abandoned/Junk Vehicles",
    "date_created": "2025-10-31T19:23:55.000",
    "date_modified": "2025-11-01T10:22:55.000",
    "request_status": "Pending",
    "responsible_agency": "Department of Public Works",
    "final_address": "3925 Franklin Ave",
    "address_councildis": "D",
    "status": "Inspected",
    "rowid": "1237162",
    "final_x": "3687110.03561",
    "final_y": "547444.679761",
    "longitude": "-90.049792620576",
    "latitude": "29.999111413816934",
    "geocoded_column": {
      "latitude": "29.999111413816934",
      "longitude": "-90.049792620576"
    }
  },
  {
    "service_request": "2025-1237161",
    "request_type": "Streetlights",
    "request_reason": "Streetlight Outage/Malfunction",
    "date_created": "2025-10-31T19:21:48.000",
    "date_modified": "2025-10-31T19:21:50.000",
    "request_status": "Pending",
    "responsible_agency": "Department of Public Works",
    "final_address": "5902 General Meyer Ave",
    "address_councildis": "C",
    "status": "Pending",
    "rowid": "1237161",
    "final_x": "3705898.00747",
    "final_y": "521491.687545",
    "longitude": "-89.99140168161405",
    "latitude": "29.9271580466843",
    "geocoded_column": {
      "latitude": "29.9271580466843",
      "longitude": "-89.99140168161405"
    }
  },
  {
    "service_request": "2025-1237160",
    "request_type": "General Services",
    "request_reason": "General Service Request",
    "date_created": "2025-10-31T19:14:24.000",
    "date_modified": "2025-10-31T19:14:26.000",
    "request_status": "Pending",
    "responsible_agency": "Orleans Parish Communication District",
    "final_address": "3905 Louisiana Avenue Prkwy",
    "address_councildis": "B",
    "status": "Pending",
    "rowid": "1237160",
    "final_x": "3671218.71003",
    "final_y": "529110.179072",
    "longitude": "-90.10061687416176",
    "latitude": "29.94917762903807",
    "geocoded_column": {
      "latitude": "29.94917762903807",
      "longitude": "-90.10061687416176"
    }
  },
  {
    "service_request": "2025-1237159",
    "request_type": "Trash/Recycling",
    "request_reason": "Replace Trash Cart",
    "date_created": "2025-10-31T18:53:44.000",
    "date_modified": "2025-10-31T18:53:46.000",
    "request_status": "Pending",
    "responsible_agency": "Department of Sanitation",
    "final_address": "1220 Esplanade Ave",
    "address_councildis": "C",
    "status": "Assigned to Contractor",
    "contractor": "IV Waste",
    "rowid": "1237159",
    "final_x": "3682376.77148",
    "final_y": "535638.304518",
    "longitude": "-90.06515787068432",
    "latitude": "29.96679296178651",
    "geocoded_column": {
      "latitude": "29.96679296178651",
      "longitude": "-90.06515787068432"
    }
  },
  {
    "service_request": "2025-1237158",
    "request_type": "Street and Traffic Signs",
    "request_reason": "Street Name Sign Damaged or Missing",
    "date_created": "2025-10-31T18:11:10.000",
    "date_modified": "2025-10-31T18:11:13.000",
    "request_status": "Pending",
    "responsible_agency": "Department of Public Works",
    "final_address": "3605 Iberville St",
    "address_councildis": "B",
    "status": "Pending",
    "rowid": "1237158",
    "final_x": "3672830.83028",
    "final_y": "537614.691912",
    "longitude": "-90.09523654648098",
    "latitude": "29.972514411751387",
    "geocoded_column": {
      "latitude": "29.972514411751387",
      "longitude": "-90.09523654648098"
    }
  },
  {
    "service_request": "2025-1237157",
    "request_type": "Parks & Parkways",
    "request_reason": "Request Tree Service (Right of Way/Public Property)",
    "date_created": "2025-10-31T17:33:00.000",
    "date_modified": "2025-10-31T17:33:02.000",
    "request_status": "Pending",
    "responsible_agency": "Department of Parks & Parkway",
    "final_address": "3607 Dumaine St",
    "address_councildis": "A",
    "status": "Pending",
    "rowid": "1237157",
    "final_x": "3674305.75726",
    "final_y": "539766.611594",
    "longitude": "-90.09050474298299",
    "latitude": "29.978387554079752",
    "geocoded_column": {
      "latitude": "29.978387554079752",
      "longitude": "-90.09050474298299"
    }
  },
  {
    "service_request": "2025-1237156",
    "request_type": "Trash/Recycling",
    "request_reason": "Replace Trash Cart",
    "date_created": "2025-10-31T17:30:20.000",
    "date_modified": "2025-10-31T17:30:22.000",
    "request_status": "Pending",
    "responsible_agency": "Department of Sanitation",
    "final_address": "4315 Perrier St",
    "address_councildis": "B",
    "status": "Assigned to Contractor",
    "contractor": "IV Waste",
    "rowid": "1237156",
    "final_x": "3671189.38471",
    "final_y": "520149.661432",
    "longitude": "-90.10101374336183",
    "latitude": "29.924539972541034",
    "geocoded_column": {
      "latitude": "29.924539972541034",
      "longitude": "-90.10101374336183"
    }
  },
  {
    "service_request": "2025-1237155",
    "request_type": "Trash/Recycling",
    "request_reason": "Replace Trash Cart",
    "date_created": "2025-10-31T17:01:44.000",
    "date_modified": "2025-10-31T17:01:46.000",
    "request_status": "Pending",
    "responsible_agency": "Department of Sanitation",
    "final_address": "4218 S Carrollton Ave",
    "address_councildis": "A",
    "status": "Assigned to Contractor",
    "contractor": "IV Waste",
    "rowid": "1237155",
    "final_x": "3669710.16974",
    "final_y": "536641.893447",
    "longitude": "-90.10512510870625",
    "latitude": "29.96993188954803",
    "geocoded_column": {
      "latitude": "29.96993188954803",
      "longitude": "-90.10512510870625"
    }
  },
  {
    "service_request": "2025-1237154",
    "request_type": "Trash/Recycling",
    "request_reason": "Order Recycling Cart",
    "date_created": "2025-10-31T16:51:49.000",
    "date_modified": "2025-10-31T16:51:50.000",
    "request_status": "Pending",
    "responsible_agency": "Department of Sanitation",
    "final_address": "203 Vallette St",
    "address_councildis": "C",
    "status": "Pending",
    "rowid": "1237154",
    "final_x": "3687546.35862",
    "final_y": "531174.007426",
    "longitude": "-90.04899039264599",
    "latitude": "29.954359355274423",
    "geocoded_column": {
      "latitude": "29.954359355274423",
      "longitude": "-90.04899039264599"
    }
  },
  {
    "service_request": "2025-1237153",
    "request_type": "Property Maintenance",
    "request_reason": "Property Maintenance",
    "date_created": "2025-10-31T16:50:25.000",
    "date_modified": "2025-10-31T16:50:27.000",
    "request_status": "Pending",
    "responsible_agency": "Department of Code Enforcement",
    "final_address": "5515 Warrington Dr",
    "address_councildis": "D",
    "status": "Pending",
    "rowid": "1237153",
    "final_x": "3680926.4445",
    "final_y": "553247.650071",
    "longitude": "-90.06912444738647",
    "latitude": "30.015256505762096",
    "geocoded_column": {
      "latitude": "30.015256505762096",
      "longitude": "-90.06912444738647"
    }
  },
  {
    "service_request": "2025-1237152",
    "request_type": "Abandoned Vehicles",
    "request_reason": "Abandoned/Junk Vehicles",
    "date_created": "2025-10-31T16:45:51.000",
    "date_modified": "2025-11-01T09:10:02.000",
    "request_status": "Pending",
    "responsible_agency": "Department of Public Works",
    "final_address": "1301 Delery St",
    "address_councildis": "E",
    "status": "Inspected",
    "rowid": "1237152",
    "final_x": "3700773.02519",
    "final_y": "533685.719749",
    "longitude": "-90.00713430410534",
    "latitude": "29.960851392449303",
    "geocoded_column": {
      "latitude": "29.960851392449303",
      "longitude": "-90.00713430410534"
    }
  },
  {
    "service_request": "2025-1237151",
    "request_type": "Property Maintenance",
    "request_reason": "Property Maintenance",
    "date_created": "2025-10-31T16:39:45.000",
    "date_modified": "2025-10-31T16:39:48.000",
    "request_status": "Pending",
    "responsible_agency": "Department of Code Enforcement",
    "final_address": "5515 Warrington Dr",
    "address_councildis": "D",
    "status": "Pending",
    "rowid": "1237151",
    "final_x": "3680926.4445",
    "final_y": "553247.650071",
    "longitude": "-90.06912444738647",
    "latitude": "30.015256505762096",
    "geocoded_column": {
      "latitude": "30.015256505762096",
      "longitude": "-90.06912444738647"
    }
  },
  {
    "service_request": "2025-1237150",
    "request_type": "General Services",
    "request_reason": "General Service Request",
    "date_created": "2025-10-31T16:36:05.000",
    "date_modified": "2025-10-31T16:38:55.000",
    "case_close_date": "2025-10-31T11:38:54.000",
    "request_status": "Closed",
    "responsible_agency": "Orleans Parish Communication District",
    "final_address": "6500 Argonne Blvd",
    "address_councildis": "A",
    "status": "Question Answered.",
    "rowid": "1237150",
    "final_x": "3670406.68858",
    "final_y": "550615.8189",
    "longitude": "-90.10245136566657",
    "latitude": "30.008334839791388",
    "geocoded_column": {
      "latitude": "30.008334839791388",
      "longitude": "-90.10245136566657"
    }
  },
  {
    "service_request": "2025-1237149",
    "request_type": "Trash/Recycling",
    "request_reason": "Replace Recycling Cart",
    "date_created": "2025-10-31T16:30:48.000",
    "date_modified": "2025-10-31T16:30:50.000",
    "request_status": "Pending",
    "responsible_agency": "Department of Sanitation",
    "final_address": "5096 Basinview Dr",
    "address_councildis": "E",
    "status": "Pending",
    "rowid": "1237149",
    "final_x": "3698535.68688",
    "final_y": "556086.72745",
    "longitude": "-90.01338448432968",
    "latitude": "30.022516927883192",
    "geocoded_column": {
      "latitude": "30.022516927883192",
      "longitude": "-90.01338448432968"
    }
  },
  {
    "service_request": "2025-1237148",
    "request_type": "Trash/Recycling",
    "request_reason": "Request a Large Item Pick Up",
    "date_created": "2025-10-31T16:26:59.000",
    "date_modified": "2025-10-31T16:27:02.000",
    "request_status": "Pending",
    "responsible_agency": "Department of Sanitation",
    "final_address": "4718 Rosemont Pl",
    "address_councildis": "E",
    "status": "Assigned to Contractor",
    "contractor": "Waste Pro",
    "rowid": "1237148",
    "final_x": "3702677.3274",
    "final_y": "554748.174872",
    "longitude": "-90.00034718470943",
    "latitude": "30.01870458841486",
    "geocoded_column": {
      "latitude": "30.01870458841486",
      "longitude": "-90.00034718470943"
    }
  },
  {
    "service_request": "2025-1237147",
    "request_type": "Streetlights",
    "request_reason": "Streetlight Outage/Malfunction",
    "date_created": "2025-10-31T16:26:16.000",
    "date_modified": "2025-10-31T16:26:18.000",
    "request_status": "Pending",
    "responsible_agency": "Department of Public Works",
    "final_address": "2726 Orchid St",
    "address_councildis": "A",
    "status": "Pending",
    "rowid": "1237147",
    "final_x": "3677654.34101",
    "final_y": "538634.466953",
    "longitude": "-90.07996780299054",
    "latitude": "29.9751742530708",
    "geocoded_column": {
      "latitude": "29.9751742530708",
      "longitude": "-90.07996780299054"
    }
  },
  {
    "service_request": "2025-1237146",
    "request_type": "Utility Poles",
    "request_reason": "Wires Sagging/Hanging Low",
    "date_created": "2025-10-31T16:18:34.000",
    "date_modified": "2025-10-31T16:18:36.000",
    "request_status": "Pending",
    "responsible_agency": "Utility Company Collective",
    "final_address": "CARONDELET ST & VALENCE ST",
    "address_councildis": "B",
    "status": "Pending",
    "rowid": "1237146",
    "final_x": "3669706.6",
    "final_y": "521129.18",
    "longitude": "-90.1056612765996",
    "latitude": "29.927277102369835",
    "geocoded_column": {
      "latitude": "29.927277102369835",
      "longitude": "-90.1056612765996"
    }
  },
  {
    "service_request": "2025-1237145",
    "request_type": "Trash/Recycling",
    "request_reason": "Request a Large Item Pick Up",
    "date_created": "2025-10-31T16:16:57.000",
    "date_modified": "2025-10-31T16:16:59.000",
    "request_status": "Pending",
    "responsible_agency": "Department of Sanitation",
    "final_address": "3766 Preston Pl",
    "address_councildis": "C",
    "status": "Assigned to Contractor",
    "contractor": "Richards Disposal",
    "rowid": "1237145",
    "final_x": "3708294.67755",
    "final_y": "517092.210165",
    "longitude": "-89.98399962158388",
    "latitude": "29.914983625950814",
    "geocoded_column": {
      "latitude": "29.914983625950814",
      "longitude": "-89.98399962158388"
    }
  },
  {
    "service_request": "2025-1237144",
    "request_type": "Parks & Parkways",
    "request_reason": "Request Tree Service (Right of Way/Public Property)",
    "date_created": "2025-10-31T16:08:08.000",
    "date_modified": "2025-10-31T16:08:10.000",
    "request_status": "Pending",
    "responsible_agency": "Department of Parks & Parkway",
    "final_address": "4917 Wright Rd",
    "address_councildis": "E",
    "status": "Pending",
    "rowid": "1237144",
    "final_x": "3716681.88543",
    "final_y": "557694.663963",
    "longitude": "-89.95598642416675",
    "latitude": "30.026350861650428",
    "geocoded_column": {
      "latitude": "30.026350861650428",
      "longitude": "-89.95598642416675"
    }
  },
  {
    "service_request": "2025-1237143",
    "request_type": "Trash/Recycling",
    "request_reason": "Replace Trash Cart",
    "date_created": "2025-10-31T16:01:26.000",
    "date_modified": "2025-10-31T16:01:29.000",
    "request_status": "Pending",
    "responsible_agency": "Department of Sanitation",
    "final_address": "2513 Desire St",
    "address_councildis": "D",
    "status": "Assigned to Contractor",
    "contractor": "IV Waste",
    "rowid": "1237143",
    "final_x": "3691559.3599",
    "final_y": "541096.02254",
    "longitude": "-90.0359642437405",
    "latitude": "29.981517108148783",
    "geocoded_column": {
      "latitude": "29.981517108148783",
      "longitude": "-90.0359642437405"
    }
  },
  {
    "service_request": "2025-1237142",
    "request_type": "Abandoned Vehicles",
    "request_reason": "Abandoned/Junk Vehicles",
    "date_created": "2025-10-31T15:56:50.000",
    "date_modified": "2025-10-31T15:59:14.000",
    "request_status": "Pending",
    "responsible_agency": "Department of Public Works",
    "final_address": "1200 BLK Foucher St",
    "address_councildis": "B",
    "status": "Inspected",
    "rowid": "1237142",
    "final_x": "3673986.0388",
    "final_y": "519821.291838",
    "longitude": "-90.09219686893675",
    "latitude": "29.9235540627382",
    "geocoded_column": {
      "latitude": "29.9235540627382",
      "longitude": "-90.09219686893675"
    }
  },
  {
    "service_request": "2025-1237141",
    "request_type": "Trash/Recycling",
    "request_reason": "Request a Large Item Pick Up",
    "date_created": "2025-10-31T15:53:29.000",
    "date_modified": "2025-10-31T15:53:31.000",
    "request_status": "Pending",
    "responsible_agency": "Department of Sanitation",
    "final_address": "2731 Bruxelles St",
    "address_councildis": "D",
    "status": "Assigned to Contractor",
    "contractor": "IV Waste",
    "rowid": "1237141",
    "final_x": "3680366.56802",
    "final_y": "542502.816333",
    "longitude": "-90.07126731586574",
    "latitude": "29.985729013979594",
    "geocoded_column": {
      "latitude": "29.985729013979594",
      "longitude": "-90.07126731586574"
    }
  },
  {
    "service_request": "2025-1237140",
    "request_type": "Abandoned Vehicles",
    "request_reason": "Abandoned/Junk Vehicles",
    "date_created": "2025-10-31T15:52:19.000",
    "date_modified": "2025-10-31T15:54:53.000",
    "request_status": "Pending",
    "responsible_agency": "Department of Public Works",
    "final_address": "1500 BLK Antonine St",
    "address_councildis": "B",
    "status": "Inspected",
    "rowid": "1237140",
    "final_x": "3673294.16059",
    "final_y": "520875.624703",
    "longitude": "-90.09434488909022",
    "latitude": "29.92647372815397",
    "geocoded_column": {
      "latitude": "29.92647372815397",
      "longitude": "-90.09434488909022"
    }
  },
  {
    "service_request": "2025-1237139",
    "request_type": "Property Maintenance",
    "request_reason": "Property Maintenance",
    "date_created": "2025-10-31T15:48:18.000",
    "date_modified": "2025-10-31T15:48:20.000",
    "request_status": "Pending",
    "responsible_agency": "Department of Code Enforcement",
    "final_address": "5515 Warrington Dr",
    "address_councildis": "D",
    "status": "Pending",
    "rowid": "1237139",
    "final_x": "3680926.4445",
    "final_y": "553247.650071",
    "longitude": "-90.06912444738647",
    "latitude": "30.015256505762096",
    "geocoded_column": {
      "latitude": "30.015256505762096",
      "longitude": "-90.06912444738647"
    }
  },
  {
    "service_request": "2025-1237138",
    "request_type": "Parks & Parkways",
    "request_reason": "Request Tree Service (Right of Way/Public Property)",
    "date_created": "2025-10-31T15:45:41.000",
    "date_modified": "2025-10-31T15:45:44.000",
    "request_status": "Pending",
    "responsible_agency": "Department of Parks & Parkway",
    "final_address": "3400 Touro St",
    "address_councildis": "D",
    "status": "Pending",
    "rowid": "1237138",
    "final_x": "3683473.27362",
    "final_y": "545123.721295",
    "longitude": "-90.06136260194431",
    "latitude": "29.992841120388324",
    "geocoded_column": {
      "latitude": "29.992841120388324",
      "longitude": "-90.06136260194431"
    }
  },
  {
    "service_request": "2025-1237137",
    "request_type": "Trash/Recycling",
    "request_reason": "Repair Trash Cart",
    "date_created": "2025-10-31T15:42:40.000",
    "date_modified": "2025-10-31T15:42:41.000",
    "request_status": "Pending",
    "responsible_agency": "Department of Sanitation",
    "final_address": "3028 Baudin St",
    "address_councildis": "B",
    "status": "Assigned to Contractor",
    "contractor": "IV Waste",
    "rowid": "1237137",
    "final_x": "3673166.69185",
    "final_y": "534700.72327",
    "longitude": "-90.09427534893217",
    "latitude": "29.96449199780923",
    "geocoded_column": {
      "latitude": "29.96449199780923",
      "longitude": "-90.09427534893217"
    }
  },
  {
    "service_request": "2025-1237136",
    "request_type": "Trash/Recycling",
    "request_reason": "Repair Trash Cart",
    "date_created": "2025-10-31T15:42:15.000",
    "date_modified": "2025-10-31T15:42:17.000",
    "request_status": "Pending",
    "responsible_agency": "Department of Sanitation",
    "final_address": "3026 Baudin St",
    "address_councildis": "B",
    "status": "Assigned to Contractor",
    "contractor": "IV Waste",
    "rowid": "1237136",
    "final_x": "3673179.7524",
    "final_y": "534691.69031",
    "longitude": "-90.09423441309634",
    "latitude": "29.964466771858454",
    "geocoded_column": {
      "latitude": "29.964466771858454",
      "longitude": "-90.09423441309634"
    }
  },
  {
    "service_request": "2025-1237135",
    "request_type": "Trash/Recycling",
    "request_reason": "Request a Large Item Pick Up",
    "date_created": "2025-10-31T15:40:55.000",
    "date_modified": "2025-10-31T15:40:56.000",
    "request_status": "Pending",
    "responsible_agency": "Department of Sanitation",
    "final_address": "11040 Roger Dr",
    "address_councildis": "E",
    "status": "Assigned to Contractor",
    "contractor": "Waste Pro",
    "rowid": "1237135",
    "final_x": "3712397.49253",
    "final_y": "563579.453024",
    "longitude": "-89.96930310364468",
    "latitude": "30.042672594059926",
    "geocoded_column": {
      "latitude": "30.042672594059926",
      "longitude": "-89.96930310364468"
    }
  },
  {
    "service_request": "2025-1237134",
    "request_type": "Trash/Recycling",
    "request_reason": "Order Trash Cart",
    "date_created": "2025-10-31T15:39:59.000",
    "date_modified": "2025-10-31T15:40:02.000",
    "request_status": "Pending",
    "responsible_agency": "Department of Sanitation",
    "final_address": "3046 Law St",
    "address_councildis": "D",
    "status": "Assigned to Contractor",
    "contractor": "IV Waste",
    "rowid": "1237134",
    "final_x": "3690256.04905",
    "final_y": "541659.392268",
    "longitude": "-90.04006060618379",
    "latitude": "29.983106684938733",
    "geocoded_column": {
      "latitude": "29.983106684938733",
      "longitude": "-90.04006060618379"
    }
  },
  {
    "service_request": "2025-1237133",
    "request_type": "Trash/Recycling",
    "request_reason": "Request a Large Item Pick Up",
    "date_created": "2025-10-31T15:32:24.000",
    "date_modified": "2025-10-31T15:32:26.000",
    "request_status": "Pending",
    "responsible_agency": "Department of Sanitation",
    "final_address": "10708 Dreux Ave",
    "address_councildis": "E",
    "status": "Assigned to Contractor",
    "contractor": "Waste Pro",
    "rowid": "1237133",
    "final_x": "3715167.27615",
    "final_y": "555909.105177",
    "longitude": "-89.96083994027293",
    "latitude": "30.02149125655916",
    "geocoded_column": {
      "latitude": "30.02149125655916",
      "longitude": "-89.96083994027293"
    }
  },
  {
    "service_request": "2025-1237132",
    "request_type": "Trash/Recycling",
    "request_reason": "Request a Large Item Pick Up",
    "date_created": "2025-10-31T15:29:28.000",
    "date_modified": "2025-10-31T15:29:30.000",
    "request_status": "Pending",
    "responsible_agency": "Department of Sanitation",
    "final_address": "625 S Miro St",
    "address_councildis": "B",
    "status": "Assigned to Contractor",
    "contractor": "IV Waste",
    "rowid": "1237132",
    "final_x": "3675367.14721",
    "final_y": "532398.842947",
    "longitude": "-90.08740550994911",
    "latitude": "29.95809699005648",
    "geocoded_column": {
      "latitude": "29.95809699005648",
      "longitude": "-90.08740550994911"
    }
  },
  {
    "service_request": "2025-1237131",
    "request_type": "Parks & Parkways",
    "request_reason": "Request Tree Service (Right of Way/Public Property)",
    "date_created": "2025-10-31T15:25:26.000",
    "date_modified": "2025-10-31T15:25:29.000",
    "request_status": "Pending",
    "responsible_agency": "Department of Parks & Parkway",
    "final_address": "3907 Gibson St",
    "address_councildis": "D",
    "status": "Pending",
    "rowid": "1237131",
    "final_x": "3678848.55246",
    "final_y": "546660.635729",
    "longitude": "-90.07591799868185",
    "latitude": "29.997207443641937",
    "geocoded_column": {
      "latitude": "29.997207443641937",
      "longitude": "-90.07591799868185"
    }
  },
  {
    "service_request": "2025-1237130",
    "request_type": "Streetlights",
    "request_reason": "Streetlight Outage/Malfunction",
    "date_created": "2025-10-31T15:22:36.000",
    "date_modified": "2025-10-31T15:26:15.000",
    "request_status": "Pending",
    "responsible_agency": "Department of Public Works",
    "final_address": "3907 Gibson St",
    "address_councildis": "D",
    "status": "Pending",
    "rowid": "1237130",
    "final_x": "3678848.55246",
    "final_y": "546660.635729",
    "longitude": "-90.07591799868185",
    "latitude": "29.997207443641937",
    "geocoded_column": {
      "latitude": "29.997207443641937",
      "longitude": "-90.07591799868185"
    }
  },
  {
    "service_request": "2025-1237129",
    "request_type": "Trash/Recycling",
    "request_reason": "Request a Large Item Pick Up",
    "date_created": "2025-10-31T15:18:25.000",
    "date_modified": "2025-10-31T15:18:27.000",
    "request_status": "Pending",
    "responsible_agency": "Department of Sanitation",
    "final_address": "2 Assumption Pl",
    "address_councildis": "E",
    "status": "Assigned to Contractor",
    "contractor": "Waste Pro",
    "rowid": "1237129",
    "final_x": "3726079.76953",
    "final_y": "564202.302561",
    "longitude": "-89.92603809935369",
    "latitude": "30.043930225615185",
    "geocoded_column": {
      "latitude": "30.043930225615185",
      "longitude": "-89.92603809935369"
    }
  },
  {
    "service_request": "2025-1237128",
    "request_type": "Mosquito, Termite & Rodent Control",
    "request_reason": "Rodent Complaint (Mice & Rats)",
    "date_created": "2025-10-31T15:15:49.000",
    "date_modified": "2025-10-31T15:15:50.000",
    "request_status": "Pending",
    "responsible_agency": "Mosquito, Termite & Rodent Control Board",
    "final_address": "834 Cambronne St",
    "address_councildis": "A",
    "status": "Pending",
    "rowid": "1237128",
    "final_x": "3660378.0665",
    "final_y": "528296.313408",
    "longitude": "-90.13487262411248",
    "latitude": "29.947255987964294",
    "geocoded_column": {
      "latitude": "29.947255987964294",
      "longitude": "-90.13487262411248"
    }
  },
  {
    "service_request": "2025-1237127",
    "request_type": "Abandoned Vehicles",
    "request_reason": "Abandoned/Junk Vehicles",
    "date_created": "2025-10-31T15:14:45.000",
    "date_modified": "2025-10-31T15:15:40.000",
    "request_status": "Pending",
    "responsible_agency": "Department of Public Works",
    "final_address": "2223 Pine St",
    "address_councildis": "A",
    "status": "Inspected",
    "rowid": "1237127",
    "final_x": "3666040.19104",
    "final_y": "529718.264897",
    "longitude": "-90.11694741920475",
    "latitude": "29.951001839909832",
    "geocoded_column": {
      "latitude": "29.951001839909832",
      "longitude": "-90.11694741920475"
    }
  },
  {
    "service_request": "2025-1237126",
    "request_type": "Trash/Recycling",
    "request_reason": "Repair Recycling Cart",
    "date_created": "2025-10-31T15:14:42.000",
    "date_modified": "2025-10-31T15:14:43.000",
    "request_status": "Pending",
    "responsible_agency": "Department of Sanitation",
    "final_address": "330 Audubon Blvd",
    "address_councildis": "A",
    "status": "Pending",
    "rowid": "1237126",
    "final_x": "3667181.38913",
    "final_y": "530103.863937",
    "longitude": "-90.11333111262167",
    "latitude": "29.95202875124134",
    "geocoded_column": {
      "latitude": "29.95202875124134",
      "longitude": "-90.11333111262167"
    }
  },
  {
    "service_request": "2025-1237125",
    "request_type": "Drainage",
    "request_reason": "Drainage Manhole Cover Missing or Damaged",
    "date_created": "2025-10-31T15:14:14.000",
    "date_modified": "2025-10-31T15:16:14.000",
    "request_status": "Pending",
    "responsible_agency": "Sewerage & Water Board",
    "final_address": "ZIMPLE ST & DUBLIN ST",
    "address_councildis": "A",
    "status": "Pending",
    "rowid": "1237125",
    "final_x": "3661473.0",
    "final_y": "528347.58",
    "longitude": "-90.1314137878063",
    "latitude": "29.947365419617977",
    "geocoded_column": {
      "latitude": "29.947365419617977",
      "longitude": "-90.1314137878063"
    }
  },
  {
    "service_request": "2025-1237124",
    "request_type": "Trash/Recycling",
    "request_reason": "Repair Trash Cart",
    "date_created": "2025-10-31T15:14:13.000",
    "date_modified": "2025-10-31T15:14:15.000",
    "request_status": "Pending",
    "responsible_agency": "Department of Sanitation",
    "final_address": "330 Audubon Blvd",
    "address_councildis": "A",
    "status": "Assigned to Contractor",
    "contractor": "IV Waste",
    "rowid": "1237124",
    "final_x": "3667181.38913",
    "final_y": "530103.863937",
    "longitude": "-90.11333111262167",
    "latitude": "29.95202875124134",
    "geocoded_column": {
      "latitude": "29.95202875124134",
      "longitude": "-90.11333111262167"
    }
  },
  {
    "service_request": "2025-1237123",
    "request_type": "Trash/Recycling",
    "request_reason": "Request a Large Item Pick Up",
    "date_created": "2025-10-31T15:06:16.000",
    "date_modified": "2025-10-31T15:06:19.000",
    "request_status": "Pending",
    "responsible_agency": "Department of Sanitation",
    "final_address": "9730 W Rockton Cir",
    "address_councildis": "E",
    "status": "Assigned to Contractor",
    "contractor": "Waste Pro",
    "rowid": "1237123",
    "final_x": "3707941.23499",
    "final_y": "562389.991583",
    "longitude": "-89.98343082243048",
    "latitude": "30.039547157464636",
    "geocoded_column": {
      "latitude": "30.039547157464636",
      "longitude": "-89.98343082243048"
    }
  },
  {
    "service_request": "2025-1237122",
    "request_type": "Abandoned Vehicles",
    "request_reason": "Abandoned/Junk Vehicles",
    "date_created": "2025-10-31T14:58:23.000",
    "date_modified": "2025-10-31T15:01:20.000",
    "request_status": "Pending",
    "responsible_agency": "Department of Public Works",
    "final_address": "3800 BLK Prytania St",
    "address_councildis": "B",
    "status": "Inspected",
    "rowid": "1237122",
    "final_x": "3672888.13844",
    "final_y": "520531.115878",
    "longitude": "-90.09563833751155",
    "latitude": "29.925538505097474",
    "geocoded_column": {
      "latitude": "29.925538505097474",
      "longitude": "-90.09563833751155"
    }
  },
  {
    "service_request": "2025-1237121",
    "request_type": "Trash/Recycling",
    "request_reason": "Missed Trash Pick-Up",
    "date_created": "2025-10-31T14:57:15.000",
    "date_modified": "2025-10-31T14:57:17.000",
    "request_status": "Pending",
    "responsible_agency": "Department of Sanitation",
    "final_address": "6207 General Meyer Ave",
    "address_councildis": "C",
    "status": "Assigned to Contractor",
    "contractor": "Richards Disposal",
    "rowid": "1237121",
    "final_x": "3707106.6316",
    "final_y": "520640.181304",
    "longitude": "-89.98761796709621",
    "latitude": "29.924777727005722",
    "geocoded_column": {
      "latitude": "29.924777727005722",
      "longitude": "-89.98761796709621"
    }
  },
  {
    "service_request": "2025-1237120",
    "request_type": "New Orleans Recreation Development Commission (NORDC)",
    "request_reason": "Facilities and Parks Maintenance/Clean Up",
    "date_created": "2025-10-31T14:52:45.000",
    "date_modified": "2025-10-31T14:52:48.000",
    "request_status": "Pending",
    "responsible_agency": "New Orleans Recreation Development Commission",
    "final_address": "3211 Treasure St",
    "address_councildis": "D",
    "status": "Pending",
    "rowid": "1237120",
    "final_x": "3691710.74902",
    "final_y": "543778.470478",
    "longitude": "-90.03539011799346",
    "latitude": "29.988888161627884",
    "geocoded_column": {
      "latitude": "29.988888161627884",
      "longitude": "-90.03539011799346"
    }
  },
  {
    "service_request": "2025-1237119",
    "request_type": "Trash/Recycling",
    "request_reason": "Request a Large Item Pick Up",
    "date_created": "2025-10-31T14:51:25.000",
    "date_modified": "2025-10-31T14:51:26.000",
    "request_status": "Pending",
    "responsible_agency": "Department of Sanitation",
    "final_address": "4611 Nighthart St",
    "address_councildis": "E",
    "status": "Assigned to Contractor",
    "contractor": "Waste Pro",
    "rowid": "1237119",
    "final_x": "3716218.80376",
    "final_y": "556488.17929",
    "longitude": "-89.95749546672843",
    "latitude": "30.02304880640438",
    "geocoded_column": {
      "latitude": "30.02304880640438",
      "longitude": "-89.95749546672843"
    }
  },
  {
    "service_request": "2025-1237118",
    "request_type": "Trash/Recycling",
    "request_reason": "Request a Large Item Pick Up",
    "date_created": "2025-10-31T14:50:57.000",
    "date_modified": "2025-10-31T14:51:04.000",
    "request_status": "Pending",
    "responsible_agency": "Department of Sanitation",
    "final_address": "5500 Grand Bayou Dr",
    "address_councildis": "E",
    "status": "Assigned to Contractor",
    "contractor": "Waste Pro",
    "rowid": "1237118",
    "final_x": "3725148.29664",
    "final_y": "563561.130528",
    "longitude": "-89.92900675570537",
    "latitude": "30.04219869130644",
    "geocoded_column": {
      "latitude": "30.04219869130644",
      "longitude": "-89.92900675570537"
    }
  },
  {
    "service_request": "2025-1237117",
    "request_type": "Trash/Recycling",
    "request_reason": "Order Trash Cart",
    "date_created": "2025-10-31T14:49:03.000",
    "date_modified": "2025-10-31T14:49:06.000",
    "request_status": "Pending",
    "responsible_agency": "Department of Sanitation",
    "final_address": "600 Bellecastle St Apt 3",
    "address_councildis": "B",
    "status": "Assigned to Contractor",
    "contractor": "IV Waste",
    "rowid": "1237117",
    "final_x": "3667593.28775",
    "final_y": "517656.341046",
    "longitude": "-90.11244930117896",
    "latitude": "29.917789980927267",
    "geocoded_column": {
      "latitude": "29.917789980927267",
      "longitude": "-90.11244930117896"
    }
  },
  {
    "service_request": "2025-1237116",
    "request_type": "Roads and Streets",
    "request_reason": "Push-up/Pavement Expansion",
    "date_created": "2025-10-31T14:37:50.000",
    "date_modified": "2025-10-31T14:37:52.000",
    "request_status": "Pending",
    "responsible_agency": "Department of Public Works",
    "final_address": "6640 Marshal Foch St",
    "address_councildis": "A",
    "status": "Pending",
    "rowid": "1237116",
    "final_x": "3670135.72046",
    "final_y": "551564.072853",
    "longitude": "-90.10327528077804",
    "latitude": "30.010950205521738",
    "geocoded_column": {
      "latitude": "30.010950205521738",
      "longitude": "-90.10327528077804"
    }
  },
  {
    "service_request": "2025-1237115",
    "request_type": "Abandoned Vehicles",
    "request_reason": "Abandoned/Junk Vehicles",
    "date_created": "2025-10-31T14:37:10.000",
    "date_modified": "2025-10-31T14:37:11.000",
    "request_status": "Pending",
    "responsible_agency": "Department of Public Works",
    "final_address": "417 Dearmas St",
    "address_councildis": "C",
    "status": "Pending",
    "rowid": "1237115",
    "final_x": "3686795.47926",
    "final_y": "527117.690879",
    "longitude": "-90.05150464991988",
    "latitude": "29.943228988896433",
    "geocoded_column": {
      "latitude": "29.943228988896433",
      "longitude": "-90.05150464991988"
    }
  },
  {
    "service_request": "2025-1237114",
    "request_type": "Trash/Recycling",
    "request_reason": "Request a Large Item Pick Up",
    "date_created": "2025-10-31T14:36:54.000",
    "date_modified": "2025-10-31T14:36:56.000",
    "request_status": "Pending",
    "responsible_agency": "Department of Sanitation",
    "final_address": "123 S Solomon St",
    "address_councildis": "A",
    "status": "Assigned to Contractor",
    "contractor": "IV Waste",
    "rowid": "1237114",
    "final_x": "3670381.78951",
    "final_y": "538533.424265",
    "longitude": "-90.10293991845838",
    "latitude": "29.975113150852444",
    "geocoded_column": {
      "latitude": "29.975113150852444",
      "longitude": "-90.10293991845838"
    }
  },
  {
    "service_request": "2025-1237113",
    "request_type": "Trash/Recycling",
    "request_reason": "Replace Trash Cart",
    "date_created": "2025-10-31T14:35:17.000",
    "date_modified": "2025-10-31T14:35:21.000",
    "request_status": "Pending",
    "responsible_agency": "Department of Sanitation",
    "final_address": "3206 Leonidas St",
    "address_councildis": "A",
    "status": "Assigned to Contractor",
    "contractor": "IV Waste",
    "rowid": "1237113",
    "final_x": "3665543.032",
    "final_y": "535005.221446",
    "longitude": "-90.11834019358633",
    "latitude": "29.965553743683266",
    "geocoded_column": {
      "latitude": "29.965553743683266",
      "longitude": "-90.11834019358633"
    }
  },
  {
    "service_request": "2025-1237112",
    "request_type": "Trash/Recycling",
    "request_reason": "Request a Large Item Pick Up",
    "date_created": "2025-10-31T14:32:56.000",
    "date_modified": "2025-10-31T14:32:59.000",
    "request_status": "Pending",
    "responsible_agency": "Department of Sanitation",
    "final_address": "7230 Bunker Hill Rd",
    "address_councildis": "E",
    "status": "Assigned to Contractor",
    "contractor": "Waste Pro",
    "rowid": "1237112",
    "final_x": "3705501.7402",
    "final_y": "561134.244574",
    "longitude": "-89.99118678258259",
    "latitude": "30.036173145108922",
    "geocoded_column": {
      "latitude": "30.036173145108922",
      "longitude": "-89.99118678258259"
    }
  },
  {
    "service_request": "2025-1237111",
    "request_type": "Trash/Recycling",
    "request_reason": "Missed Trash Pick-Up",
    "date_created": "2025-10-31T14:22:34.000",
    "date_modified": "2025-10-31T14:59:22.000",
    "case_close_date": "2025-10-31T09:59:21.000",
    "request_status": "Closed",
    "responsible_agency": "Department of Sanitation",
    "final_address": "1808 Old Roman St",
    "address_councildis": "D",
    "status": "Invalid Request",
    "contractor": "IV Waste",
    "contractor_action": "Invalid",
    "rowid": "1237111",
    "final_x": "3682362.15189",
    "final_y": "539155.375114",
    "longitude": "-90.06508110464927",
    "latitude": "29.976464133568086",
    "geocoded_column": {
      "latitude": "29.976464133568086",
      "longitude": "-90.06508110464927"
    }
  },
  {
    "service_request": "2025-1237110",
    "request_type": "Trash/Recycling",
    "request_reason": "Request a Large Item Pick Up",
    "date_created": "2025-10-31T14:16:42.000",
    "date_modified": "2025-10-31T14:16:44.000",
    "request_status": "Pending",
    "responsible_agency": "Department of Sanitation",
    "final_address": "4925 Crowder Blvd",
    "address_councildis": "E",
    "status": "Assigned to Contractor",
    "contractor": "Waste Pro",
    "rowid": "1237110",
    "final_x": "3706414.05009",
    "final_y": "556623.951834",
    "longitude": "-89.98847102063937",
    "latitude": "30.023742191536808",
    "geocoded_column": {
      "latitude": "30.023742191536808",
      "longitude": "-89.98847102063937"
    }
  },
  {
    "service_request": "2025-1237109",
    "request_type": "Trash/Recycling",
    "request_reason": "Repair Trash Cart",
    "date_created": "2025-10-31T14:16:06.000",
    "date_modified": "2025-10-31T14:16:46.000",
    "request_status": "Pending",
    "responsible_agency": "Department of Sanitation",
    "final_address": "4559 Laine Ave",
    "address_councildis": "E",
    "status": "Assigned to Contractor",
    "contractor": "Waste Pro",
    "rowid": "1237109",
    "final_x": "3705879.89745",
    "final_y": "554232.633048",
    "longitude": "-89.99024739024397",
    "latitude": "30.017184217280562",
    "geocoded_column": {
      "latitude": "30.017184217280562",
      "longitude": "-89.99024739024397"
    }
  },
  {
    "service_request": "2025-1237108",
    "request_type": "Abandoned Vehicles",
    "request_reason": "Abandoned/Junk Vehicles",
    "date_created": "2025-10-31T14:15:38.000",
    "date_modified": "2025-10-31T15:27:17.000",
    "request_status": "Pending",
    "responsible_agency": "Department of Public Works",
    "final_address": "6711 Dorian St",
    "address_councildis": "D",
    "status": "Inspected",
    "rowid": "1237108",
    "final_x": "3696559.24867",
    "final_y": "555911.582169",
    "longitude": "-90.0196358699417",
    "latitude": "30.02209779904845",
    "geocoded_column": {
      "latitude": "30.02209779904845",
      "longitude": "-90.0196358699417"
    }
  },
  {
    "service_request": "2025-1237107",
    "request_type": "Abandoned Vehicles",
    "request_reason": "Abandoned/Junk Vehicles",
    "date_created": "2025-10-31T14:14:28.000",
    "date_modified": "2025-10-31T14:18:08.000",
    "request_status": "Pending",
    "responsible_agency": "Department of Public Works",
    "final_address": "DORIAN ST & PINES BLVD",
    "address_councildis": "D",
    "status": "Inspected",
    "rowid": "1237107",
    "final_x": "3696379.2",
    "final_y": "556180.68",
    "longitude": "-90.02019503121772",
    "latitude": "30.0228433906859",
    "geocoded_column": {
      "latitude": "30.0228433906859",
      "longitude": "-90.02019503121772"
    }
  },