[
  {
    "service_request": "2022-929496",
    "request_type": "Trash/Recycling",
    "request_reason": "Order Recycling Cart",
    "date_created": "2022-10-18T02:07:27.000",
    "date_modified": "2022-10-18T02:07:27.000",
    "request_status": "Pending",
    "responsible_agency": "Department of Sanitation",
    "final_address": "7056 W Tamaron Blvd",
    "address_councildis": "E",
    "status": "Pending",
    "rowid": "929496",
    "final_x": "3718549.28837",
    "final_y": "568328.139109",
    "longitude": "-89.94967998278422",
    "latitude": "30.055526733329547",
    "geocoded_column": {
      "latitude": "30.055526733329547",
      "longitude": "-89.94967998278422"
    }
  },
  {
    "service_request": "2022-929495",
    "request_type": "Trash/Recycling",
    "request_reason": "Request a Large Item Pick Up",
    "date_created": "2022-10-18T01:24:14.000",
    "date_modified": "2022-10-18T01:24:15.000",
    "request_status": "Pending",
    "responsible_agency": "Department of Sanitation",
    "final_address": "1343 Seville Dr",
    "address_councildis": "D",
    "status": "Assigned to Contractor",
    "contractor": "Metro Disposal",
    "rowid": "929495",
    "final_x": "3677522.12341",
    "final_y": "551222.011541",
    "longitude": "-90.07995052163729",
    "latitude": "30.009789564020988",
    "geocoded_column": {
      "latitude": "30.009789564020988",
      "longitude": "-90.07995052163729"
    }
  },
  {
    "service_request": "2022-929494",
    "request_type": "Trash/Recycling",
    "request_reason": "Repair Trash Cart",
    "date_created": "2022-10-18T01:20:49.000",
    "date_modified": "2022-10-18T01:20:49.000",
    "request_status": "Pending",
    "responsible_agency": "Department of Sanitation",
    "final_address": "2504 St Thomas St",
    "address_councildis": "B",
    "status": "Assigned to Contractor",
    "contractor": "Richards Disposal",
    "rowid": "929494",
    "final_x": "3678798.3341",
    "final_y": "519745.726456",
    "longitude": "-90.07700884874653",
    "latitude": "29.923202078027707",
    "geocoded_column": {
      "latitude": "29.923202078027707",
      "longitude": "-90.07700884874653"
    }
  },
  {
    "service_request": "2022-929493",
    "request_type": "Trash/Recycling",
    "request_reason": "Missed Trash Pick-Up",
    "date_created": "2022-10-18T00:00:55.000",
    "date_modified": "2022-10-18T00:00:56.000",
    "request_status": "Pending",
    "responsible_agency": "Department of Sanitation",
    "final_address": "2513 Lowerline St",
    "address_councildis": "A",
    "status": "Assigned to Contractor",
    "contractor": "Richards Disposal",
    "rowid": "929493",
    "final_x": "3666419.27898",
    "final_y": "530839.781506",
    "longitude": "-90.11571281509751",
    "latitude": "29.954074574600444",
    "geocoded_column": {
      "latitude": "29.954074574600444",
      "longitude": "-90.11571281509751"
    }
  },
  {
    "service_request": "2022-929492",
    "request_type": "Parks & Parkways",
    "request_reason": "Request Tree Service (Right of Way/Public Property)",
    "date_created": "2022-10-17T23:05:28.000",
    "date_modified": "2022-10-17T23:07:53.000",
    "request_status": "Pending",
    "responsible_agency": "Department of Parks & Parkway",
    "final_address": "LOUISIANA AVE & COLISEUM ST",
    "address_councildis": "B",
    "status": "Pending",
    "rowid": "929492",
    "final_x": "3674595.4",
    "final_y": "520582.48",
    "longitude": "-90.0902472715907",
    "latitude": "29.925628922126652",
    "geocoded_column": {
      "latitude": "29.925628922126652",
      "longitude": "-90.0902472715907"
    }
  },
  {
    "service_request": "2022-929491",
    "request_type": "Property Maintenance",
    "request_reason": "Property Maintenance",
    "date_created": "2022-10-17T22:47:29.000",
    "date_modified": "2022-10-17T22:47:29.000",
    "request_status": "Pending",
    "responsible_agency": "Department of Code Enforcement",
    "final_address": "2317 Flood St",
    "address_councildis": "E",
    "status": "Pending",
    "rowid": "929491",
    "final_x": "3698998.22621",
    "final_y": "538480.105033",
    "longitude": "-90.01256423630662",
    "latitude": "29.97409059506249",
    "geocoded_column": {
      "latitude": "29.97409059506249",
      "longitude": "-90.01256423630662"
    }
  },
  {
    "service_request": "2022-929490",
    "request_type": "Roads/Drainage",
    "request_reason": "Street Subsidence (Sinking)",
    "date_created": "2022-10-17T22:23:30.000",
    "date_modified": "2022-10-17T22:23:30.000",
    "request_status": "Pending",
    "responsible_agency": "Department of Public Works",
    "final_address": "5415 Rhodes Ave",
    "address_councildis": "C",
    "status": "Pending",
    "rowid": "929490",
    "final_x": "3704055.79985",
    "final_y": "519864.155512",
    "longitude": "-89.99727691928692",
    "latitude": "29.922742093311456",
    "geocoded_column": {
      "latitude": "29.922742093311456",
      "longitude": "-89.99727691928692"
    }
  },
  {
    "service_request": "2022-929489",
    "request_type": "Property Maintenance",
    "request_reason": "Property Maintenance",
    "date_created": "2022-10-17T22:19:23.000",
    "date_modified": "2022-10-17T22:19:23.000",
    "request_status": "Pending",
    "responsible_agency": "Department of Code Enforcement",
    "final_address": "2107 Conti St",
    "address_councildis": "B",
    "status": "Pending",
    "rowid": "929489",
    "final_x": "3677921.87656",
    "final_y": "534667.423174",
    "longitude": "-90.07925997930383",
    "latitude": "29.964258188638468",
    "geocoded_column": {
      "latitude": "29.964258188638468",
      "longitude": "-90.07925997930383"
    }
  },
  {
    "service_request": "2022-929488",
    "request_type": "Trash/Recycling",
    "request_reason": "Replace Trash Cart",
    "date_created": "2022-10-17T22:02:29.000",
    "date_modified": "2022-10-17T22:02:30.000",
    "request_status": "Pending",
    "responsible_agency": "Department of Sanitation",
    "final_address": "8900 Lake Forest Blvd",
    "address_councildis": "E",
    "status": "Assigned to Contractor",
    "contractor": "Metro Disposal",
    "rowid": "929488",
    "final_x": "3707179.23032",
    "final_y": "558258.006684",
    "longitude": "-89.985992512236",
    "latitude": "30.028210488279846",
    "geocoded_column": {
      "latitude": "30.028210488279846",
      "longitude": "-89.985992512236"
    }
  },
  {
    "service_request": "2022-929487",
    "request_type": "Trash/Recycling",
    "request_reason": "Replace Trash Cart",
    "date_created": "2022-10-17T21:43:25.000",
    "date_modified": "2022-10-17T21:43:26.000",
    "request_status": "Pending",
    "responsible_agency": "Department of Sanitation",
    "final_address": "2118 Robert St, New Orleans, Louisiana, 70115",
    "address_councildis": "B",
    "status": "Assigned to Contractor",
    "contractor": "Richards Disposal",
    "rowid": "929487",
    "final_x": "3668750.5193",
    "final_y": "523393.269435",
    "longitude": "-90.1086029987522",
    "latitude": "29.933530757489702",
    "geocoded_column": {
      "latitude": "29.933530757489702",
      "longitude": "-90.1086029987522"
    }
  },
  {
    "service_request": "2022-929486",
    "request_type": "Trash/Recycling",
    "request_reason": "Start Trash Service",
    "date_created": "2022-10-17T21:40:18.000",
    "date_modified": "2022-10-17T21:40:19.000",
    "request_status": "Pending",
    "responsible_agency": "Department of Sanitation",
    "final_address": "2356 Rousseau St",
    "address_councildis": "B",
    "status": "Assigned to Contractor",
    "contractor": "Richards Disposal",
    "rowid": "929486",
    "final_x": "3679451.82946",
    "final_y": "519656.076088",
    "longitude": "-90.0749491212763",
    "latitude": "29.922935850911973",
    "geocoded_column": {
      "latitude": "29.922935850911973",
      "longitude": "-90.0749491212763"
    }
  },
  {
    "service_request": "2022-929485",
    "request_type": "Trash/Recycling",
    "request_reason": "Repair Trash Cart",
    "date_created": "2022-10-17T21:37:09.000",
    "date_modified": "2022-10-17T21:37:10.000",
    "request_status": "Pending",
    "responsible_agency": "Department of Sanitation",
    "final_address": "1016 Antonine St",
    "address_councildis": "B",
    "status": "Assigned to Contractor",
    "contractor": "Richards Disposal",
    "rowid": "929485",
    "final_x": "3673907.83649",
    "final_y": "518987.091127",
    "longitude": "-90.09247224136851",
    "latitude": "29.921262607118717",
    "geocoded_column": {
      "latitude": "29.921262607118717",
      "longitude": "-90.09247224136851"
    }
  },
  {
    "service_request": "2022-929484",
    "request_type": "Traffic Signals/Signs/Striping/Streetlights",
    "request_reason": "Street Light Knocked Down/Leaning",
    "date_created": "2022-10-17T21:20:56.000",
    "date_modified": "2022-10-17T21:20:57.000",
    "request_status": "Pending",
    "responsible_agency": "Department of Public Works",
    "final_address": "S LIBERTY ST & CLEVELAND AVE",
    "address_councildis": "B",
    "status": "Pending",
    "contractor": "Legacy Professional Services",
    "rowid": "929484",
    "final_x": "3679183.2",
    "final_y": "531657.78",
    "longitude": "-90.07538116544859",
    "latitude": "29.95594467157308",
    "geocoded_column": {
      "latitude": "29.95594467157308",
      "longitude": "-90.07538116544859"
    }
  },
  {
    "service_request": "2022-929483",
    "request_type": "Abandoned Vehicles",
    "request_reason": "Abandoned/Junk Vehicles",
    "date_created": "2022-10-17T21:12:22.000",
    "date_modified": "2022-10-17T21:12:22.000",
    "request_status": "Pending",
    "responsible_agency": "Department of Public Works",
    "final_address": "2516 Toledano St",
    "address_councildis": "B",
    "status": "Pending",
    "rowid": "929483",
    "final_x": "3673165.97198",
    "final_y": "524778.46246",
    "longitude": "-90.09461635763846",
    "latitude": "29.9372090806556",
    "geocoded_column": {
      "latitude": "29.9372090806556",
      "longitude": "-90.09461635763846"
    }
  },
  {
    "service_request": "2022-929482",
    "request_type": "Abandoned Vehicles",
    "request_reason": "Abandoned/Junk Vehicles",
    "date_created": "2022-10-17T21:06:21.000",
    "date_modified": "2022-10-17T21:06:21.000",
    "request_status": "Pending",
    "responsible_agency": "Department of Public Works",
    "final_address": "2500 BLK Toledano St",
    "address_councildis": "B",
    "status": "Pending",
    "rowid": "929482",
    "final_x": "3673211.88714",
    "final_y": "524832.418299",
    "longitude": "-90.0944695586889",
    "latitude": "29.937356076727202",
    "geocoded_column": {
      "latitude": "29.937356076727202",
      "longitude": "-90.0944695586889"
    }
  },
  {
    "service_request": "2022-929481",
    "request_type": "Traffic Signals/Signs/Striping/Streetlights",
    "request_reason": "Street Light Outage/Malfunction",
    "date_created": "2022-10-17T20:45:58.000",
    "date_modified": "2022-10-17T20:45:59.000",
    "request_status": "Pending",
    "responsible_agency": "Department of Public Works",
    "final_address": "1558 N Dorgenois St",
    "address_councildis": "D",
    "status": "Pending",
    "contractor": "Legacy Professional Services",
    "rowid": "929481",
    "final_x": "3679452.12783",
    "final_y": "539600.155466",
    "longitude": "-90.07425640740742",
    "latitude": "29.977775368575053",
    "geocoded_column": {
      "latitude": "29.977775368575053",
      "longitude": "-90.07425640740742"
    }
  },
  {
    "service_request": "2022-929480",
    "request_type": "Trash/Recycling",
    "request_reason": "MIssed Recycling Pick-Up",
    "date_created": "2022-10-17T20:34:36.000",
    "date_modified": "2022-10-17T20:34:36.000",
    "request_status": "Pending",
    "responsible_agency": "Department of Sanitation",
    "final_address": "217 Delaronde St",
    "address_councildis": "C",
    "status": "Assigned to Contractor",
    "contractor": "Richards Disposal",
    "rowid": "929480",
    "final_x": "3686130.42722",
    "final_y": "530633.89325",
    "longitude": "-90.05348038307504",
    "latitude": "29.952917789547804",
    "geocoded_column": {
      "latitude": "29.952917789547804",
      "longitude": "-90.05348038307504"
    }
  },
  {
    "service_request": "2022-929479",
    "request_type": "Property Maintenance",
    "request_reason": "Property Maintenance",
    "date_created": "2022-10-17T20:29:21.000",
    "date_modified": "2022-10-17T20:29:21.000",
    "request_status": "Pending",
    "responsible_agency": "Department of Code Enforcement",
    "final_address": "6761 Coventry St",
    "address_councildis": "E",
    "status": "Pending",
    "rowid": "929479",
    "final_x": "3698345.6321",
    "final_y": "559678.741661",
    "longitude": "-90.01385431032968",
    "latitude": "30.032399608781777",
    "geocoded_column": {
      "latitude": "30.032399608781777",
      "longitude": "-90.01385431032968"
    }
  },
  {
    "service_request": "2022-929478",
    "request_type": "Trash/Recycling",
    "request_reason": "Missed Trash Pick-Up",
    "date_created": "2022-10-17T20:28:42.000",
    "date_modified": "2022-10-17T20:28:43.000",
    "request_status": "Pending",
    "responsible_agency": "Department of Sanitation",
    "final_address": "94 Fontainebleau Dr",
    "address_councildis": "A",
    "status": "Assigned to Contractor",
    "contractor": "Richards Disposal",
    "rowid": "929478",
    "final_x": "3667125.45869",
    "final_y": "530511.743298",
    "longitude": "-90.11349400465481",
    "latitude": "29.953151923769678",
    "geocoded_column": {
      "latitude": "29.953151923769678",
      "longitude": "-90.11349400465481"
    }
  },
  {
    "service_request": "2022-929477",
    "request_type": "Traffic Signals/Signs/Striping/Streetlights",
    "request_reason": "Street Light Outage/Malfunction",
    "date_created": "2022-10-17T20:18:22.000",
    "date_modified": "2022-10-17T20:18:23.000",
    "request_status": "Pending",
    "responsible_agency": "Department of Public Works",
    "final_address": "334 West Robert E Lee Blvd",
    "address_councildis": "A",
    "status": "Pending",
    "contractor": "Legacy Professional Services",
    "rowid": "929477",
    "final_x": "3665304.5728",
    "final_y": "554858.157464",
    "longitude": "-90.11842850389722",
    "latitude": "30.020149502174018",
    "geocoded_column": {
      "latitude": "30.020149502174018",
      "longitude": "-90.11842850389722"
    }
  },
  {
    "service_request": "2022-929476",
    "request_type": "Trash/Recycling",
    "request_reason": "Request a Large Item Pick Up",
    "date_created": "2022-10-17T20:12:54.000",
    "date_modified": "2022-10-17T20:12:54.000",
    "request_status": "Pending",
    "responsible_agency": "Department of Sanitation",
    "final_address": "1125 Royal St",
    "address_councildis": "C",
    "status": "Assigned to Contractor",
    "contractor": "Empire Services",
    "rowid": "929476",
    "final_x": "3683537.95714",
    "final_y": "533806.859333",
    "longitude": "-90.06155504795082",
    "latitude": "29.961721729306472",
    "geocoded_column": {
      "latitude": "29.961721729306472",
      "longitude": "-90.06155504795082"
    }
  },
  {
    "service_request": "2022-929475",
    "request_type": "Trash/Recycling",
    "request_reason": "Replace Trash Cart",
    "date_created": "2022-10-17T19:55:51.000",
    "date_modified": "2022-10-17T19:55:52.000",
    "request_status": "Pending",
    "responsible_agency": "Department of Sanitation",
    "final_address": "4737 Coronado Dr",
    "address_councildis": "E",
    "status": "Assigned to Contractor",
    "contractor": "Metro Disposal",
    "rowid": "929475",
    "final_x": "3714188.1045",
    "final_y": "556540.981786",
    "longitude": "-89.96390996224416",
    "latitude": "30.023260880392133",
    "geocoded_column": {
      "latitude": "30.023260880392133",
      "longitude": "-89.96390996224416"
    }
  },
  {
    "service_request": "2022-929474",
    "request_type": "Abandoned Vehicles",
    "request_reason": "Abandoned/Junk Vehicles",
    "date_created": "2022-10-17T19:52:40.000",
    "date_modified": "2022-10-17T19:52:40.000",
    "request_status": "Pending",
    "responsible_agency": "Department of Public Works",
    "final_address": "7637 Mackenzie St",
    "address_councildis": "E",
    "status": "Pending",
    "rowid": "929474",
    "final_x": "3711072.27646",
    "final_y": "566080.735203",
    "longitude": "-89.97339745484625",
    "latitude": "30.049593422386092",
    "geocoded_column": {
      "latitude": "30.049593422386092",
      "longitude": "-89.97339745484625"
    }
  },
  {
    "service_request": "2022-929473",
    "request_type": "Trash/Recycling",
    "request_reason": "Request a Large Item Pick Up",
    "date_created": "2022-10-17T19:50:19.000",
    "date_modified": "2022-10-17T19:50:19.000",
    "request_status": "Pending",
    "responsible_agency": "Department of Sanitation",
    "final_address": "2032 Burdette St",
    "address_councildis": "A",
    "status": "Assigned to Contractor",
    "contractor": "Richards Disposal",
    "rowid": "929473",
    "final_x": "3664849.41504",
    "final_y": "529920.931265",
    "longitude": "-90.12070053552986",
    "latitude": "29.95159381129597",
    "geocoded_column": {
      "latitude": "29.95159381129597",
      "longitude": "-90.12070053552986"
    }
  },
  {
    "service_request": "2022-929472",
    "request_type": "Traffic Signals/Signs/Striping/Streetlights",
    "request_reason": "Street Light Outage/Malfunction",
    "date_created": "2022-10-17T19:37:33.000",
    "date_modified": "2022-10-17T19:37:34.000",
    "request_status": "Pending",
    "responsible_agency": "Department of Public Works",
    "final_address": "3700 Kent Dr",
    "address_councildis": "C",
    "status": "Pending",
    "contractor": "Legacy Professional Services",
    "rowid": "929472",
    "final_x": "3708782.01624",
    "final_y": "517386.975029",
    "longitude": "-89.9824504515196",
    "latitude": "29.915778337779724",
    "geocoded_column": {
      "latitude": "29.915778337779724",
      "longitude": "-89.9824504515196"
    }
  },
  {
    "service_request": "2022-929471",
    "request_type": "Trash/Recycling",
    "request_reason": "Request a Large Item Pick Up",
    "date_created": "2022-10-17T19:22:55.000",
    "date_modified": "2022-10-17T19:22:55.000",
    "request_status": "Pending",
    "responsible_agency": "Department of Sanitation",
    "final_address": "2234 Upperline St",
    "address_councildis": "B",
    "status": "Assigned to Contractor",
    "contractor": "Richards Disposal",
    "rowid": "929471",
    "final_x": "3669058.16033",
    "final_y": "523103.464955",
    "longitude": "-90.10764157652953",
    "latitude": "29.93272484293292",
    "geocoded_column": {
      "latitude": "29.93272484293292",
      "longitude": "-90.10764157652953"
    }
  },
  {
    "service_request": "2022-929470",
    "request_type": "Trash/Recycling",
    "request_reason": "Request a Large Item Pick Up",
    "date_created": "2022-10-17T18:48:00.000",
    "date_modified": "2022-10-17T18:48:01.000",
    "request_status": "Pending",
    "responsible_agency": "Department of Sanitation",
    "final_address": "6350 Morrison Rd",
    "address_councildis": "D",
    "status": "Assigned to Contractor",
    "contractor": "Metro Disposal",
    "rowid": "929470",
    "final_x": "3696940.46224",
    "final_y": "557849.284187",
    "longitude": "-90.01836107376168",
    "latitude": "30.027413718661204",
    "geocoded_column": {
      "latitude": "30.027413718661204",
      "longitude": "-90.01836107376168"
    }
  },
  {
    "service_request": "2022-929469",
    "request_type": "Trash/Recycling",
    "request_reason": "Replace Trash Cart",
    "date_created": "2022-10-17T18:45:14.000",
    "date_modified": "2022-10-17T18:45:15.000",
    "request_status": "Pending",
    "responsible_agency": "Department of Sanitation",
    "final_address": "3328 Louisiana Avenue Prkwy",
    "address_councildis": "B",
    "status": "Assigned to Contractor",
    "contractor": "Richards Disposal",
    "rowid": "929469",
    "final_x": "3671692.41646",
    "final_y": "527440.879231",
    "longitude": "-90.09917794070665",
    "latitude": "29.944573580092754",
    "geocoded_column": {
      "latitude": "29.944573580092754",
      "longitude": "-90.09917794070665"
    }
  },
  {
    "service_request": "2022-929468",
    "request_type": "Trash/Recycling",
    "request_reason": "Replace Trash Cart",
    "date_created": "2022-10-17T18:34:44.000",
    "date_modified": "2022-10-17T18:34:45.000",
    "request_status": "Pending",
    "responsible_agency": "Department of Sanitation",
    "final_address": "1415 Terpsichore St Apt B",
    "address_councildis": "B",
    "status": "Assigned to Contractor",
    "contractor": "Richards Disposal",
    "rowid": "929468",
    "final_x": "3679742.16008",
    "final_y": "524936.049981",
    "longitude": "-90.07384946273467",
    "latitude": "29.93744527583468",
    "geocoded_column": {
      "latitude": "29.93744527583468",
      "longitude": "-90.07384946273467"
    }
  },
  {
    "service_request": "2022-929467",
    "request_type": "Law Enforcement Services",
    "request_reason": "Off Duty Officer for Hire",
    "date_created": "2022-10-17T18:34:13.000",
    "date_modified": "2022-10-17T18:34:13.000",
    "request_status": "Pending",
    "responsible_agency": "Office of Police Secondary Employment",
    "status": "Pending",
    "rowid": "929467",
    "longitude": "0.0",
    "latitude": "0.0",
    "geocoded_column": {
      "latitude": "0.0",
      "longitude": "0.0"
    }
  },
  {
    "service_request": "2022-929466",
    "request_type": "Property Maintenance",
    "request_reason": "Property Maintenance",
    "date_created": "2022-10-17T18:30:35.000",
    "date_modified": "2022-10-17T18:30:36.000",
    "request_status": "Pending",
    "responsible_agency": "Department of Code Enforcement",
    "final_address": "3328 Louisiana Avenue Prkwy",
    "address_councildis": "B",
    "status": "Pending",
    "rowid": "929466",
    "final_x": "3671692.41646",
    "final_y": "527440.879231",
    "longitude": "-90.09917794070665",
    "latitude": "29.944573580092754",
    "geocoded_column": {
      "latitude": "29.944573580092754",
      "longitude": "-90.09917794070665"
    }
  },
  {
    "service_request": "2022-929465",
    "request_type": "Traffic Signals/Signs/Striping/Streetlights",
    "request_reason": "Disabled Parking Sign ",
    "date_created": "2022-10-17T18:24:14.000",
    "date_modified": "2022-10-17T18:24:14.000",
    "request_status": "Pending",
    "responsible_agency": "Department of Public Works",
    "final_address": "2515 Laurel St",
    "address_councildis": "B",
    "status": "Pending",
    "rowid": "929465",
    "final_x": "3678096.31618",
    "final_y": "520667.360377",
    "longitude": "-90.07919301002306",
    "latitude": "29.925757417787498",
    "geocoded_column": {
      "latitude": "29.925757417787498",
      "longitude": "-90.07919301002306"
    }
  },
  {
    "service_request": "2022-929464",
    "request_type": "Abandoned Vehicles",
    "request_reason": "Abandoned/Junk Vehicles",
    "date_created": "2022-10-17T18:23:57.000",
    "date_modified": "2022-10-17T18:29:34.000",
    "request_status": "Pending",
    "responsible_agency": "Department of Public Works",
    "final_address": "160 Middle Park Pl",
    "address_councildis": "A",
    "status": "Pending",
    "rowid": "929464",
    "final_x": "3669919.29294",
    "final_y": "544676.784719",
    "longitude": "-90.10419247859102",
    "latitude": "29.992018946877383",
    "geocoded_column": {
      "latitude": "29.992018946877383",
      "longitude": "-90.10419247859102"
    }
  },
  {
    "service_request": "2022-929463",
    "request_type": "Traffic Signals/Signs/Striping/Streetlights",
    "request_reason": "Street Light Outage/Malfunction",
    "date_created": "2022-10-17T18:11:41.000",
    "date_modified": "2022-10-17T18:11:42.000",
    "request_status": "Pending",
    "responsible_agency": "Department of Public Works",
    "final_address": "2921 Metropolitan St",
    "address_councildis": "D",
    "status": "Pending",
    "contractor": "Legacy Professional Services",
    "rowid": "929463",
    "final_x": "3691163.292",
    "final_y": "543252.231182",
    "longitude": "-90.03713816582089",
    "latitude": "29.98745823311573",
    "geocoded_column": {
      "latitude": "29.98745823311573",
      "longitude": "-90.03713816582089"
    }
  },
  {
    "service_request": "2022-929461",
    "request_type": "Property Maintenance",
    "request_reason": "Property Maintenance",
    "date_created": "2022-10-17T18:07:34.000",
    "date_modified": "2022-10-17T18:07:34.000",
    "request_status": "Pending",
    "responsible_agency": "Department of Code Enforcement",
    "final_address": "2938 Louisa St",
    "address_councildis": "D",
    "status": "Pending",
    "rowid": "929461",
    "final_x": "3691373.89251",
    "final_y": "543331.896206",
    "longitude": "-90.03647010668737",
    "latitude": "29.987670730935168",
    "geocoded_column": {
      "latitude": "29.987670730935168",
      "longitude": "-90.03647010668737"
    }
  },
  {
    "service_request": "2022-929460",
    "request_type": "Property Maintenance",
    "request_reason": "Property Maintenance",
    "date_created": "2022-10-17T18:06:31.000",
    "date_modified": "2022-10-17T18:06:31.000",
    "request_status": "Pending",
    "responsible_agency": "Department of Code Enforcement",
    "final_address": "2921 Metropolitan St",
    "address_councildis": "D",
    "status": "Pending",
    "rowid": "929460",
    "final_x": "3691163.292",
    "final_y": "543252.231182",
    "longitude": "-90.03713816582089",
    "latitude": "29.98745823311573",
    "geocoded_column": {
      "latitude": "29.98745823311573",
      "longitude": "-90.03713816582089"
    }
  },
  {
    "service_request": "2022-929459",
    "request_type": "Property Maintenance",
    "request_reason": "Property Maintenance",
    "date_created": "2022-10-17T18:05:33.000",
    "date_modified": "2022-10-17T18:05:33.000",
    "request_status": "Pending",
    "responsible_agency": "Department of Code Enforcement",
    "final_address": "2938 Metropolitan St",
    "address_councildis": "D",
    "status": "Pending",
    "rowid": "929459",
    "final_x": "3691111.21014",
    "final_y": "543397.483918",
    "longitude": "-90.03729748425245",
    "latitude": "29.987859245727773",
    "geocoded_column": {
      "latitude": "29.987859245727773",
      "longitude": "-90.03729748425245"
    }
  },
  {
    "service_request": "2022-929458",
    "request_type": "Property Maintenance",
    "request_reason": "Property Maintenance",
    "date_created": "2022-10-17T18:04:37.000",
    "date_modified": "2022-10-17T18:04:37.000",
    "request_status": "Pending",
    "responsible_agency": "Department of Code Enforcement",
    "final_address": "2908 Metropolitan St",
    "address_councildis": "D",
    "status": "Pending",
    "rowid": "929458",
    "final_x": "3691057.9288",
    "final_y": "543187.916238",
    "longitude": "-90.03747326769992",
    "latitude": "29.987284667010258",
    "geocoded_column": {
      "latitude": "29.987284667010258",
      "longitude": "-90.03747326769992"
    }
  },
  {
    "service_request": "2022-929457",
    "request_type": "Property Maintenance",
    "request_reason": "Property Maintenance",
    "date_created": "2022-10-17T18:03:29.000",
    "date_modified": "2022-10-17T18:03:29.000",
    "request_status": "Pending",
    "responsible_agency": "Department of Code Enforcement",
    "final_address": "2944 Louisa St",
    "address_councildis": "D",
    "status": "Pending",
    "rowid": "929457",
    "final_x": "3691387.49584",
    "final_y": "543376.04987",
    "longitude": "-90.03642556004378",
    "latitude": "29.98779171425486",
    "geocoded_column": {
      "latitude": "29.98779171425486",
      "longitude": "-90.03642556004378"
    }
  },
  {
    "service_request": "2022-929456",
    "request_type": "Property Maintenance",
    "request_reason": "Property Maintenance",
    "date_created": "2022-10-17T17:55:37.000",
    "date_modified": "2022-10-17T17:55:37.000",
    "request_status": "Pending",
    "responsible_agency": "Department of Code Enforcement",
    "final_address": "2944 Metropolitan St",
    "address_councildis": "D",
    "status": "Pending",
    "rowid": "929456",
    "final_x": "3691122.1759",
    "final_y": "543439.541326",
    "longitude": "-90.03726134460082",
    "latitude": "29.987974547407756",
    "geocoded_column": {
      "latitude": "29.987974547407756",
      "longitude": "-90.03726134460082"
    }
  },
  {
    "service_request": "2022-929455",
    "request_type": "Property Maintenance",
    "request_reason": "Property Maintenance",
    "date_created": "2022-10-17T17:53:37.000",
    "date_modified": "2022-10-17T17:53:37.000",
    "request_status": "Pending",
    "responsible_agency": "Department of Code Enforcement",
    "final_address": "2932 Metropolitan St",
    "address_councildis": "D",
    "status": "Pending",
    "rowid": "929455",
    "final_x": "3691100.50659",
    "final_y": "543356.136078",
    "longitude": "-90.03733277024118",
    "latitude": "29.98774588693774",
    "geocoded_column": {
      "latitude": "29.98774588693774",
      "longitude": "-90.03733277024118"
    }
  },
  {
    "service_request": "2022-929454",
    "request_type": "Property Maintenance",
    "request_reason": "Property Maintenance",
    "date_created": "2022-10-17T17:51:41.000",
    "date_modified": "2022-10-17T17:51:41.000",
    "request_status": "Pending",
    "responsible_agency": "Department of Code Enforcement",
    "final_address": "3000 Louisa St",
    "address_councildis": "D",
    "status": "Pending",
    "rowid": "929454",
    "final_x": "3691413.16387",
    "final_y": "543459.650574",
    "longitude": "-90.03634149471586",
    "latitude": "29.988020787210615",
    "geocoded_column": {
      "latitude": "29.988020787210615",
      "longitude": "-90.03634149471586"
    }
  },
  {
    "service_request": "2022-929453",
    "request_type": "Property Maintenance",
    "request_reason": "Property Maintenance",
    "date_created": "2022-10-17T17:50:32.000",
    "date_modified": "2022-10-17T17:50:32.000",
    "request_status": "Pending",
    "responsible_agency": "Department of Code Enforcement",
    "final_address": "2914 Metropolitan St",
    "address_councildis": "D",
    "status": "Pending",
    "rowid": "929453",
    "final_x": "3691068.50044",
    "final_y": "543230.008526",
    "longitude": "-90.03743837209613",
    "latitude": "29.987400076911833",
    "geocoded_column": {
      "latitude": "29.987400076911833",
      "longitude": "-90.03743837209613"
    }
  },
  {
    "service_request": "2022-929452",
    "request_type": "Property Maintenance",
    "request_reason": "Property Maintenance",
    "date_created": "2022-10-17T17:49:14.000",
    "date_modified": "2022-10-17T17:49:14.000",
    "request_status": "Pending",
    "responsible_agency": "Department of Code Enforcement",
    "final_address": "2909 Metropolitan St",
    "address_councildis": "D",
    "status": "Pending",
    "rowid": "929452",
    "final_x": "3691142.41155",
    "final_y": "543168.074509",
    "longitude": "-90.03720712650272",
    "latitude": "29.98722748201097",
    "geocoded_column": {
      "latitude": "29.98722748201097",
      "longitude": "-90.03720712650272"
    }
  },
  {
    "service_request": "2022-929451",
    "request_type": "Trash/Recycling",
    "request_reason": "Request a Large Item Pick Up",
    "date_created": "2022-10-17T17:48:33.000",
    "date_modified": "2022-10-17T17:48:34.000",
    "request_status": "Pending",
    "responsible_agency": "Department of Sanitation",
    "final_address": "2354 Prancer St",
    "address_councildis": "C",
    "status": "Assigned to Contractor",
    "contractor": "Richards Disposal",
    "rowid": "929451",
    "final_x": "3700018.19268",
    "final_y": "522597.64825",
    "longitude": "-90.00992230638495",
    "latitude": "29.930387090876703",
    "geocoded_column": {
      "latitude": "29.930387090876703",
      "longitude": "-90.00992230638495"
    }
  },
  {
    "service_request": "2022-929450",
    "request_type": "Property Maintenance",
    "request_reason": "Property Maintenance",
    "date_created": "2022-10-17T17:47:48.000",
    "date_modified": "2022-10-17T17:47:48.000",
    "request_status": "Pending",
    "responsible_agency": "Department of Code Enforcement",
    "final_address": "3008 Metropolitan St",
    "address_councildis": "D",
    "status": "Pending",
    "rowid": "929450",
    "final_x": "3691158.33916",
    "final_y": "543567.572238",
    "longitude": "-90.0371425425871",
    "latitude": "29.98832546151277",
    "geocoded_column": {
      "latitude": "29.98832546151277",
      "longitude": "-90.0371425425871"
    }
  },
  {
    "service_request": "2022-929449",
    "request_type": "Property Maintenance",
    "request_reason": "Property Maintenance",
    "date_created": "2022-10-17T17:40:33.000",
    "date_modified": "2022-10-17T17:40:34.000",
    "request_status": "Pending",
    "responsible_agency": "Department of Code Enforcement",
    "final_address": "2150 Robin St",
    "address_councildis": "D",
    "status": "Pending",
    "rowid": "929449",
    "final_x": "3683446.14089",
    "final_y": "551773.966805",
    "longitude": "-90.06121508919513",
    "latitude": "30.011127733239242",
    "geocoded_column": {
      "latitude": "30.011127733239242",
      "longitude": "-90.06121508919513"
    }
  },
  {
    "service_request": "2022-929448",
    "request_type": "Abandoned Vehicles",
    "request_reason": "Abandoned/Junk Vehicles",
    "date_created": "2022-10-17T17:36:15.000",
    "date_modified": "2022-10-17T17:36:15.000",
    "request_status": "Pending",
    "responsible_agency": "Department of Public Works",
    "final_address": "900 Pauline St",
    "address_councildis": "C",
    "status": "Pending",
    "rowid": "929448",
    "final_x": "3690995.49475",
    "final_y": "534700.097734",
    "longitude": "-90.03797355790353",
    "latitude": "29.963948120843973",
    "geocoded_column": {
      "latitude": "29.963948120843973",
      "longitude": "-90.03797355790353"
    }
  },
  {
    "service_request": "2022-929446",
    "request_type": "Trash/Recycling",
    "request_reason": "Request a Large Item Pick Up",
    "date_created": "2022-10-17T17:26:24.000",
    "date_modified": "2022-10-17T17:26:24.000",
    "request_status": "Pending",
    "responsible_agency": "Department of Sanitation",
    "final_address": "4725 Banks St",
    "address_councildis": "A",
    "status": "Assigned to Contractor",
    "contractor": "Richards Disposal",
    "rowid": "929446",
    "final_x": "3668252.12263",
    "final_y": "539075.558474",
    "longitude": "-90.10964769849264",
    "latitude": "29.9766665454641",
    "geocoded_column": {
      "latitude": "29.9766665454641",
      "longitude": "-90.10964769849264"
    }
  },
  {
    "service_request": "2022-929445",
    "request_type": "Trash/Recycling",
    "request_reason": "Illegal Dumping",
    "date_created": "2022-10-17T17:25:16.000",
    "date_modified": "2022-10-17T17:25:17.000",
    "request_status": "Pending",
    "responsible_agency": "Department of Sanitation",
    "final_address": "WILLOW ST & FERRY PL",
    "address_councildis": "A",
    "status": "Pending",
    "rowid": "929445",
    "final_x": "3660217.4",
    "final_y": "530906.98",
    "longitude": "-90.13529372815174",
    "latitude": "29.954439105437718",
    "geocoded_column": {
      "latitude": "29.954439105437718",
      "longitude": "-90.13529372815174"
    }
  },
  {
    "service_request": "2022-929443",
    "request_type": "Trash/Recycling",
    "request_reason": "Order Recycling Cart",
    "date_created": "2022-10-17T17:22:46.000",
    "date_modified": "2022-10-17T17:22:46.000",
    "request_status": "Pending",
    "responsible_agency": "Department of Sanitation",
    "final_address": "1576 De Battista Pl",
    "address_councildis": "C",
    "status": "Pending",
    "rowid": "929443",
    "final_x": "3699804.9898",
    "final_y": "525174.580861",
    "longitude": "-90.01050143544035",
    "latitude": "29.9374795313296",
    "geocoded_column": {
      "latitude": "29.9374795313296",
      "longitude": "-90.01050143544035"
    }
  },
  {
    "service_request": "2022-929442",
    "request_type": "Trash/Recycling",
    "request_reason": "MIssed Recycling Pick-Up",
    "date_created": "2022-10-17T17:22:20.000",
    "date_modified": "2022-10-17T17:22:20.000",
    "case_close_date": "2022-10-16T19:00:00.000",
    "request_status": "Pending",
    "responsible_agency": "Department of Sanitation",
    "final_address": "1111 Cherokee St",
    "address_councildis": "A",
    "status": "Assigned to Contractor",
    "contractor": "Richards Disposal",
    "rowid": "929442",
    "final_x": "3663415.62195",
    "final_y": "526758.049598",
    "longitude": "-90.12533306839717",
    "latitude": "29.94293854733253",
    "geocoded_column": {
      "latitude": "29.94293854733253",
      "longitude": "-90.12533306839717"
    }
  },
  {
    "service_request": "2022-929441",
    "request_type": "Abandoned Vehicles",
    "request_reason": "Abandoned/Junk Vehicles",
    "date_created": "2022-10-17T17:21:37.000",
    "date_modified": "2022-10-17T17:21:37.000",
    "request_status": "Pending",
    "responsible_agency": "Department of Public Works",
    "final_address": "1832 Bartholomew St",
    "address_councildis": "D",
    "status": "Pending",
    "rowid": "929441",
    "final_x": "3692476.38736",
    "final_y": "538220.080521",
    "longitude": "-90.03317092699966",
    "latitude": "29.973580713047767",
    "geocoded_column": {
      "latitude": "29.973580713047767",
      "longitude": "-90.03317092699966"
    }
  },
  {
    "service_request": "2022-929440",
    "request_type": "Trash/Recycling",
    "request_reason": "MIssed Recycling Pick-Up",
    "date_created": "2022-10-17T17:08:34.000",
    "date_modified": "2022-10-17T17:08:34.000",
    "request_status": "Pending",
    "responsible_agency": "Department of Sanitation",
    "final_address": "516 Leontine St, New Orleans, Louisiana, 70115",
    "address_councildis": "B",
    "status": "Assigned to Contractor",
    "contractor": "Richards Disposal",
    "rowid": "929440",
    "final_x": "3666950.65313",
    "final_y": "517350.396853",
    "longitude": "-90.11448802314798",
    "latitude": "29.916967542227173",
    "geocoded_column": {
      "latitude": "29.916967542227173",
      "longitude": "-90.11448802314798"
    }
  },
  {
    "service_request": "2022-929438",
    "request_type": "Parks & Parkways",
    "request_reason": "Request Tree Service (Right of Way/Public Property)",
    "date_created": "2022-10-17T17:05:15.000",
    "date_modified": "2022-10-17T17:05:15.000",
    "request_status": "Pending",
    "responsible_agency": "Department of Parks & Parkway",
    "final_address": "1019 Opelousas Ave",
    "address_councildis": "C",
    "status": "Pending",
    "rowid": "929438",
    "final_x": "3688631.01641",
    "final_y": "529013.955136",
    "longitude": "-90.04564213223962",
    "latitude": "29.94838647952265",
    "geocoded_column": {
      "latitude": "29.94838647952265",
      "longitude": "-90.04564213223962"
    }
  },
  {
    "service_request": "2022-929437",
    "request_type": "Trash/Recycling",
    "request_reason": "Request a Large Item Pick Up",
    "date_created": "2022-10-17T17:02:07.000",
    "date_modified": "2022-10-17T17:02:08.000",
    "request_status": "Pending",
    "responsible_agency": "Department of Sanitation",
    "final_address": "7840 Windward Ct",
    "address_councildis": "E",
    "status": "Assigned to Contractor",
    "contractor": "Metro Disposal",
    "rowid": "929437",
    "final_x": "3715188.23083",
    "final_y": "570145.895911",
    "longitude": "-89.96023466885923",
    "latitude": "30.060635983065666",
    "geocoded_column": {
      "latitude": "30.060635983065666",
      "longitude": "-89.96023466885923"
    }
  },
  {
    "service_request": "2022-929436",
    "request_type": "Property Maintenance",
    "request_reason": "Property Maintenance",
    "date_created": "2022-10-17T16:57:20.000",
    "date_modified": "2022-10-17T16:57:21.000",
    "request_status": "Pending",
    "responsible_agency": "Department of Code Enforcement",
    "final_address": "5453 St Ferdinand Dr",
    "address_councildis": "D",
    "status": "Pending",
    "rowid": "929436",
    "final_x": "3689079.31855",
    "final_y": "553503.443543",
    "longitude": "-90.0433561607181",
    "latitude": "30.015709991125195",
    "geocoded_column": {
      "latitude": "30.015709991125195",
      "longitude": "-90.0433561607181"
    }
  },
  {
    "service_request": "2022-929435",
    "request_type": "Traffic Signals/Signs/Striping/Streetlights",
    "request_reason": "Street Light Outage/Malfunction",
    "date_created": "2022-10-17T16:56:41.000",
    "date_modified": "2022-10-17T16:56:41.000",
    "request_status": "Pending",
    "responsible_agency": "Department of Public Works",
    "final_address": "800 Emerald St",
    "address_councildis": "D",
    "status": "Pending",
    "contractor": "Legacy Professional Services",
    "rowid": "929435",
    "final_x": "3670268.29652",
    "final_y": "554820.30076",
    "longitude": "-90.10274593338559",
    "latitude": "30.019899764671663",
    "geocoded_column": {
      "latitude": "30.019899764671663",
      "longitude": "-90.10274593338559"
    }
  },
  {
    "service_request": "2022-929434",
    "request_type": "Roads/Drainage",
    "request_reason": "Man hole cover issue",
    "date_created": "2022-10-17T16:50:52.000",
    "date_modified": "2022-10-17T16:50:52.000",
    "request_status": "Pending",
    "responsible_agency": "Department of Public Works",
    "final_address": "644 N Pierce St",
    "address_councildis": "A",
    "status": "Pending",
    "rowid": "929434",
    "final_x": "3672861.62728",
    "final_y": "539713.813898",
    "longitude": "-90.09506764243277",
    "latitude": "29.978285369062704",
    "geocoded_column": {
      "latitude": "29.978285369062704",
      "longitude": "-90.09506764243277"
    }
  },
  {
    "service_request": "2022-929433",
    "request_type": "Trash/Recycling",
    "request_reason": "Missed Trash Pick-Up",
    "date_created": "2022-10-17T16:50:47.000",
    "date_modified": "2022-10-17T16:50:48.000",
    "request_status": "Pending",
    "responsible_agency": "Department of Sanitation",
    "final_address": "1505 Dumaine St",
    "address_councildis": "C",
    "status": "Assigned to Contractor",
    "contractor": "Richards Disposal",
    "rowid": "929433",
    "final_x": "3680728.99957",
    "final_y": "534832.92423",
    "longitude": "-90.07038956089656",
    "latitude": "29.964628484262043",
    "geocoded_column": {
      "latitude": "29.964628484262043",
      "longitude": "-90.07038956089656"
    }
  },
  {
    "service_request": "2022-929432",
    "request_type": "Trash/Recycling",
    "request_reason": "Repair Trash Cart",
    "date_created": "2022-10-17T16:47:38.000",
    "date_modified": "2022-10-17T16:47:38.000",
    "request_status": "Pending",
    "responsible_agency": "Department of Sanitation",
    "final_address": "924 Moss St",
    "address_councildis": "A",
    "status": "Assigned to Contractor",
    "contractor": "Richards Disposal",
    "rowid": "929432",
    "final_x": "3674916.20078",
    "final_y": "539499.680394",
    "longitude": "-90.08858589579798",
    "latitude": "29.977635364726705",
    "geocoded_column": {
      "latitude": "29.977635364726705",
      "longitude": "-90.08858589579798"
    }
  },
  {
    "service_request": "2022-929431",
    "request_type": "Trash/Recycling",
    "request_reason": "Missed Trash Pick-Up",
    "date_created": "2022-10-17T16:46:49.000",
    "date_modified": "2022-10-17T16:46:50.000",
    "request_status": "Pending",
    "responsible_agency": "Department of Sanitation",
    "final_address": "900 BLK Eighth St",
    "address_councildis": "B",
    "status": "Assigned to Contractor",
    "contractor": "Richards Disposal",
    "rowid": "929431",
    "final_x": "3676420.30329",
    "final_y": "519747.080372",
    "longitude": "-90.08451534434955",
    "latitude": "29.92327727963951",
    "geocoded_column": {
      "latitude": "29.92327727963951",
      "longitude": "-90.08451534434955"
    }
  },
  {
    "service_request": "2022-929430",
    "request_type": "Abandoned Vehicles",
    "request_reason": "Abandoned/Junk Vehicles",
    "date_created": "2022-10-17T16:41:09.000",
    "date_modified": "2022-10-17T16:42:42.000",
    "request_status": "Pending",
    "responsible_agency": "Department of Public Works",
    "final_address": "CANAL BLVD & VOISIN ST",
    "address_councildis": "A",
    "status": "Pending",
    "rowid": "929430",
    "final_x": "3668178.7",
    "final_y": "543276.68",
    "longitude": "-90.10973790231772",
    "latitude": "29.988220362345306",
    "geocoded_column": {
      "latitude": "29.988220362345306",
      "longitude": "-90.10973790231772"
    }
  },
  {
    "service_request": "2022-929429",
    "request_type": "Trash/Recycling",
    "request_reason": "Repair Trash Cart",
    "date_created": "2022-10-17T16:39:53.000",
    "date_modified": "2022-10-17T16:39:53.000",
    "request_status": "Pending",
    "responsible_agency": "Department of Sanitation",
    "final_address": "529 S Solomon St",
    "address_councildis": "A",
    "status": "Assigned to Contractor",
    "contractor": "Richards Disposal",
    "rowid": "929429",
    "final_x": "3669448.87924",
    "final_y": "537278.234888",
    "longitude": "-90.10592876498086",
    "latitude": "29.971689313734704",
    "geocoded_column": {
      "latitude": "29.971689313734704",
      "longitude": "-90.10592876498086"
    }
  },
  {
    "service_request": "2022-929428",
    "request_type": "Trash/Recycling",
    "request_reason": "Replace Trash Cart",
    "date_created": "2022-10-17T16:38:44.000",
    "date_modified": "2022-10-17T16:38:45.000",
    "request_status": "Pending",
    "responsible_agency": "Department of Sanitation",
    "final_address": "3617 Gravier St",
    "address_councildis": "B",
    "status": "Assigned to Contractor",
    "contractor": "Richards Disposal",
    "rowid": "929428",
    "final_x": "3670774.03451",
    "final_y": "535038.077318",
    "longitude": "-90.10181974949377",
    "latitude": "29.965490534061995",
    "geocoded_column": {
      "latitude": "29.965490534061995",
      "longitude": "-90.10181974949377"
    }
  },
  {
    "service_request": "2022-929427",
    "request_type": "Trash/Recycling",
    "request_reason": "Missed Trash Pick-Up",
    "date_created": "2022-10-17T16:36:03.000",
    "date_modified": "2022-10-17T16:36:04.000",
    "request_status": "Pending",
    "responsible_agency": "Department of Sanitation",
    "final_address": "3615 Gravier St",
    "address_councildis": "B",
    "status": "Assigned to Contractor",
    "contractor": "Richards Disposal",
    "rowid": "929427",
    "final_x": "3670798.30241",
    "final_y": "535073.826118",
    "longitude": "-90.10174189891801",
    "latitude": "29.965588114117594",
    "geocoded_column": {
      "latitude": "29.965588114117594",
      "longitude": "-90.10174189891801"
    }
  },
  {
    "service_request": "2022-929426",
    "request_type": "Traffic Signals/Signs/Striping/Streetlights",
    "request_reason": "Street Light Outage/Malfunction",
    "date_created": "2022-10-17T16:34:19.000",
    "date_modified": "2022-10-17T16:34:20.000",
    "request_status": "Pending",
    "responsible_agency": "Department of Public Works",
    "final_address": "2039 Farragut St",
    "address_councildis": "C",
    "status": "Pending",
    "contractor": "Legacy Professional Services",
    "rowid": "929426",
    "final_x": "3692162.31849",
    "final_y": "523531.422203",
    "longitude": "-90.03468858111412",
    "latitude": "29.93320180029606",
    "geocoded_column": {
      "latitude": "29.93320180029606",
      "longitude": "-90.03468858111412"
    }
  },
  {
    "service_request": "2022-929425",
    "request_type": "Trash/Recycling",
    "request_reason": "Request a Large Item Pick Up",
    "date_created": "2022-10-17T16:30:26.000",
    "date_modified": "2022-10-17T16:30:27.000",
    "request_status": "Pending",
    "responsible_agency": "Department of Sanitation",
    "final_address": "725 Aurora Oaks Dr",
    "address_councildis": "C",
    "status": "Assigned to Contractor",
    "contractor": "Richards Disposal",
    "rowid": "929425",
    "final_x": "3701204.00113",
    "final_y": "519882.766072",
    "longitude": "-90.00627817630726",
    "latitude": "29.922884390261185",
    "geocoded_column": {
      "latitude": "29.922884390261185",
      "longitude": "-90.00627817630726"
    }
  },
  {
    "service_request": "2022-929424",
    "request_type": "Property Maintenance",
    "request_reason": "Property Maintenance",
    "date_created": "2022-10-17T16:29:15.000",
    "date_modified": "2022-10-17T16:46:58.000",
    "case_close_date": "2022-10-17T11:46:58.000",
    "request_status": "Closed",
    "responsible_agency": "Department of Code Enforcement",
    "final_address": "14001 Wales St",
    "address_councildis": "E",
    "status": "Referred to Code Enforcement",
    "rowid": "929424",
    "final_x": "3718109.63698",
    "final_y": "572632.522345",
    "longitude": "-89.95090547504934",
    "latitude": "30.06737658465959",
    "geocoded_column": {
      "latitude": "30.06737658465959",
      "longitude": "-89.95090547504934"
    }
  },
  {
    "service_request": "2022-929423",
    "request_type": "Traffic Signals/Signs/Striping/Streetlights",
    "request_reason": "Street Light Outage/Malfunction",
    "date_created": "2022-10-17T16:26:40.000",
    "date_modified": "2022-10-17T16:26:41.000",
    "request_status": "Pending",
    "responsible_agency": "Department of Public Works",
    "final_address": "35 Stilt St",
    "address_councildis": "D",
    "status": "Pending",
    "contractor": "Legacy Professional Services",
    "rowid": "929423",
    "final_x": "3673346.1828",
    "final_y": "557291.523675",
    "longitude": "-90.09293625725824",
    "latitude": "30.02660348832835",
    "geocoded_column": {
      "latitude": "30.02660348832835",
      "longitude": "-90.09293625725824"
    }
  },
  {
    "service_request": "2022-929422",
    "request_type": "Trash/Recycling",
    "request_reason": "Order Recycling Cart",
    "date_created": "2022-10-17T16:13:22.000",
    "date_modified": "2022-10-17T16:13:22.000",
    "request_status": "Pending",
    "responsible_agency": "Department of Sanitation",
    "final_address": "3134 Royal St",
    "address_councildis": "C",
    "status": "Pending",
    "rowid": "929422",
    "final_x": "3688889.97455",
    "final_y": "534385.355845",
    "longitude": "-90.04463375437987",
    "latitude": "29.963147971512548",
    "geocoded_column": {
      "latitude": "29.963147971512548",
      "longitude": "-90.04463375437987"
    }
  },
  {
    "service_request": "2022-929421",
    "request_type": "Abandoned Vehicles",
    "request_reason": "Abandoned/Junk Vehicles",
    "date_created": "2022-10-17T15:47:57.000",
    "date_modified": "2022-10-17T15:47:57.000",
    "request_status": "Pending",
    "responsible_agency": "Department of Public Works",
    "final_address": "7513 Hampson St",
    "address_councildis": "A",
    "status": "Pending",
    "rowid": "929421",
    "final_x": "3662306.85901",
    "final_y": "525781.818813",
    "longitude": "-90.12886611857303",
    "latitude": "29.940286317944537",
    "geocoded_column": {
      "latitude": "29.940286317944537",
      "longitude": "-90.12886611857303"
    }
  },
  {
    "service_request": "2022-929420",
    "request_type": "Trash/Recycling",
    "request_reason": "Missed Trash Pick-Up",
    "date_created": "2022-10-17T15:36:59.000",
    "date_modified": "2022-10-17T15:37:00.000",
    "request_status": "Pending",
    "responsible_agency": "Department of Sanitation",
    "final_address": "6128 Old Gentilly Rd",
    "address_councildis": "E",
    "status": "Assigned to Contractor",
    "contractor": "Metro Disposal",
    "rowid": "929420",
    "final_x": "3697481.07427",
    "final_y": "550723.020117",
    "longitude": "-90.01691150091783",
    "latitude": "30.00780211741916",
    "geocoded_column": {
      "latitude": "30.00780211741916",
      "longitude": "-90.01691150091783"
    }
  },
  {
    "service_request": "2022-929419",
    "request_type": "Trash/Recycling",
    "request_reason": "Repair Trash Cart",
    "date_created": "2022-10-17T15:36:58.000",
    "date_modified": "2022-10-17T15:36:58.000",
    "request_status": "Pending",
    "responsible_agency": "Department of Sanitation",
    "final_address": "5043 Debore Cir",
    "address_councildis": "D",
    "status": "Assigned to Contractor",
    "contractor": "Metro Disposal",
    "rowid": "929419",
    "final_x": "3692274.7272",
    "final_y": "553066.930711",
    "longitude": "-90.0332758077426",
    "latitude": "30.014410442013997",
    "geocoded_column": {
      "latitude": "30.014410442013997",
      "longitude": "-90.0332758077426"
    }
  },
  {
    "service_request": "2022-929418",
    "request_type": "Trash/Recycling",
    "request_reason": "Order Recycling Cart",
    "date_created": "2022-10-17T15:36:49.000",
    "date_modified": "2022-10-17T15:36:50.000",
    "request_status": "Pending",
    "responsible_agency": "Department of Sanitation",
    "final_address": "534 Thayer St",
    "address_councildis": "C",
    "status": "Pending",
    "rowid": "929418",
    "final_x": "3689565.30166",
    "final_y": "529537.986881",
    "longitude": "-90.04267357835472",
    "latitude": "29.949798483790826",
    "geocoded_column": {
      "latitude": "29.949798483790826",
      "longitude": "-90.04267357835472"
    }
  },
  {
    "service_request": "2022-929417",
    "request_type": "Trash/Recycling",
    "request_reason": "Order Trash Cart",
    "date_created": "2022-10-17T15:36:34.000",
    "date_modified": "2022-10-17T16:27:37.000",
    "case_close_date": "2022-10-17T11:27:37.000",
    "request_status": "Closed",
    "responsible_agency": "Department of Sanitation",
    "final_address": "534 Thayer St",
    "address_councildis": "C",
    "status": "Resolved",
    "contractor": "Richards Disposal",
    "rowid": "929417",
    "final_x": "3689565.30166",
    "final_y": "529537.986881",
    "longitude": "-90.04267357835472",
    "latitude": "29.949798483790826",
    "geocoded_column": {
      "latitude": "29.949798483790826",
      "longitude": "-90.04267357835472"
    }
  },
  {
    "service_request": "2022-929416",
    "request_type": "Trash/Recycling",
    "request_reason": "Start Trash Service",
    "date_created": "2022-10-17T15:36:05.000",
    "date_modified": "2022-10-17T15:36:06.000",
    "request_status": "Pending",
    "responsible_agency": "Department of Sanitation",
    "final_address": "534 Thayer St",
    "address_councildis": "C",
    "status": "Assigned to Contractor",
    "contractor": "Richards Disposal",
    "rowid": "929416",
    "final_x": "3689565.30166",
    "final_y": "529537.986881",
    "longitude": "-90.04267357835472",
    "latitude": "29.949798483790826",
    "geocoded_column": {
      "latitude": "29.949798483790826",
      "longitude": "-90.04267357835472"
    }
  },
  {
    "service_request": "2022-929415",
    "request_type": "Trash/Recycling",
    "request_reason": "MIssed Recycling Pick-Up",
    "date_created": "2022-10-17T15:35:38.000",
    "date_modified": "2022-10-17T15:35:39.000",
    "request_status": "Pending",
    "responsible_agency": "Department of Sanitation",
    "final_address": "3118 Hamilton St",
    "address_councildis": "A",
    "status": "Assigned to Contractor",
    "contractor": "Richards Disposal",
    "rowid": "929415",
    "final_x": "3664010.80244",
    "final_y": "535913.144903",
    "longitude": "-90.1231486503308",
    "latitude": "29.968094819180052",
    "geocoded_column": {
      "latitude": "29.968094819180052",
      "longitude": "-90.1231486503308"
    }
  },
  {
    "service_request": "2022-929414",
    "request_type": "Trash/Recycling",
    "request_reason": "Illegal Dumping",
    "date_created": "2022-10-17T15:35:36.000",
    "date_modified": "2022-10-17T15:35:36.000",
    "request_status": "Pending",
    "responsible_agency": "Department of Sanitation",
    "final_address": "2715 S Saratoga St",
    "address_councildis": "B",
    "status": "Pending",
    "rowid": "929414",
    "final_x": "3675066.90241",
    "final_y": "524151.028476",
    "longitude": "-90.08863651350961",
    "latitude": "29.935427199156518",
    "geocoded_column": {
      "latitude": "29.935427199156518",
      "longitude": "-90.08863651350961"
    }
  },
  {
    "service_request": "2022-929413",
    "request_type": "Trash/Recycling",
    "request_reason": "Illegal Dumping",
    "date_created": "2022-10-17T15:35:33.000",
    "date_modified": "2022-10-17T15:35:33.000",
    "request_status": "Pending",
    "responsible_agency": "Department of Sanitation",
    "final_address": "2715 S Saratoga St",
    "address_councildis": "B",
    "status": "Pending",
    "rowid": "929413",
    "final_x": "3675066.90241",
    "final_y": "524151.028476",
    "longitude": "-90.08863651350961",
    "latitude": "29.935427199156518",
    "geocoded_column": {
      "latitude": "29.935427199156518",
      "longitude": "-90.08863651350961"
    }
  },
  {
    "service_request": "2022-929412",
    "request_type": "Traffic Signals/Signs/Striping/Streetlights",
    "request_reason": "Street Light Outage/Malfunction",
    "date_created": "2022-10-17T15:34:36.000",
    "date_modified": "2022-10-17T15:34:36.000",
    "request_status": "Pending",
    "responsible_agency": "Department of Public Works",
    "final_address": "1831 Governor Nicholls St",
    "address_councildis": "D",
    "status": "Pending",
    "contractor": "Legacy Professional Services",
    "rowid": "929412",
    "final_x": "3680397.05845",
    "final_y": "536486.976519",
    "longitude": "-90.07138028012072",
    "latitude": "29.96918661726015",
    "geocoded_column": {
      "latitude": "29.96918661726015",
      "longitude": "-90.07138028012072"
    }
  },
  {
    "service_request": "2022-929411",
    "request_type": "Roads/Drainage",
    "request_reason": "Accessibility Ramps, Curbs and Sidewalk Repair",
    "date_created": "2022-10-17T15:34:07.000",
    "date_modified": "2022-10-17T15:34:07.000",
    "request_status": "Pending",
    "responsible_agency": "Department of Public Works",
    "final_address": "6232 Carlisle Ct",
    "address_councildis": "C",
    "status": "Pending",
    "rowid": "929411",
    "final_x": "3707194.20728",
    "final_y": "516543.932469",
    "longitude": "-89.987493396082",
    "latitude": "29.91351163935187",
    "geocoded_column": {
      "latitude": "29.91351163935187",
      "longitude": "-89.987493396082"
    }
  },
  {
    "service_request": "2022-929410",
    "request_type": "Trash/Recycling",
    "request_reason": "Request a Large Item Pick Up",
    "date_created": "2022-10-17T15:31:21.000",
    "date_modified": "2022-10-17T15:31:22.000",
    "request_status": "Pending",
    "responsible_agency": "Department of Sanitation",
    "final_address": "5824 Vicksburg St",
    "address_councildis": "A",
    "status": "Assigned to Contractor",
    "contractor": "Metro Disposal",
    "rowid": "929410",
    "final_x": "3668675.821",
    "final_y": "546143.894224",
    "longitude": "-90.10807080983886",
    "latitude": "29.996089611606706",
    "geocoded_column": {
      "latitude": "29.996089611606706",
      "longitude": "-90.10807080983886"
    }
  },
  {
    "service_request": "2022-929409",
    "request_type": "Trash/Recycling",
    "request_reason": "MIssed Recycling Pick-Up",
    "date_created": "2022-10-17T15:30:20.000",
    "date_modified": "2022-10-17T15:30:26.000",
    "request_status": "Pending",
    "responsible_agency": "Department of Sanitation",
    "final_address": "7930 Sycamore St",
    "address_councildis": "A",
    "status": "Assigned to Contractor",
    "contractor": "Richards Disposal",
    "rowid": "929409",
    "final_x": "3664709.90784",
    "final_y": "530572.133186",
    "longitude": "-90.12111928080861",
    "latitude": "29.953388464323652",
    "geocoded_column": {
      "latitude": "29.953388464323652",
      "longitude": "-90.12111928080861"
    }
  },
  {
    "service_request": "2022-929408",
    "request_type": "Roads/Drainage",
    "request_reason": "Pothole",
    "date_created": "2022-10-17T15:28:57.000",
    "date_modified": "2022-10-17T15:28:57.000",
    "request_status": "Pending",
    "responsible_agency": "Department of Public Works",
    "final_address": "1821 Broadway St",
    "address_councildis": "A",
    "status": "Pending",
    "rowid": "929408",
    "final_x": "3665527.928",
    "final_y": "528407.027072",
    "longitude": "-90.1186087865003",
    "latitude": "29.947411302989714",
    "geocoded_column": {
      "latitude": "29.947411302989714",
      "longitude": "-90.1186087865003"
    }
  },
  {
    "service_request": "2022-929407",
    "request_type": "Parks & Parkways",
    "request_reason": "Request Tree Service (Right of Way/Public Property)",
    "date_created": "2022-10-17T15:21:36.000",
    "date_modified": "2022-10-17T15:21:36.000",
    "request_status": "Pending",
    "responsible_agency": "Department of Parks & Parkway",
    "final_address": "1434 S Carrollton Ave",
    "address_councildis": "A",
    "status": "Pending",
    "rowid": "929407",
    "final_x": "3662611.02752",
    "final_y": "529111.758848",
    "longitude": "-90.12779519662924",
    "latitude": "29.949433793642644",
    "geocoded_column": {
      "latitude": "29.949433793642644",
      "longitude": "-90.12779519662924"
    }
  },
  {
    "service_request": "2022-929406",
    "request_type": "Trash/Recycling",
    "request_reason": "Request a Large Item Pick Up",
    "date_created": "2022-10-17T15:20:42.000",
    "date_modified": "2022-10-17T15:20:42.000",
    "request_status": "Pending",
    "responsible_agency": "Department of Sanitation",
    "final_address": "3951 Annunciation St",
    "address_councildis": "B",
    "status": "Assigned to Contractor",
    "contractor": "Richards Disposal",
    "rowid": "929406",
    "final_x": "3672890.25307",
    "final_y": "517964.922422",
    "longitude": "-90.09571915722083",
    "latitude": "29.918482230441032",
    "geocoded_column": {
      "latitude": "29.918482230441032",
      "longitude": "-90.09571915722083"
    }
  },
  {
    "service_request": "2022-929405",
    "request_type": "Trash/Recycling",
    "request_reason": "Replace Trash Cart",
    "date_created": "2022-10-17T15:20:14.000",
    "date_modified": "2022-10-17T15:20:15.000",
    "request_status": "Pending",
    "responsible_agency": "Department of Sanitation",
    "final_address": "8501 Gervais St",
    "address_councildis": "E",
    "status": "Assigned to Contractor",
    "contractor": "Metro Disposal",
    "rowid": "929405",
    "final_x": "3703597.16554",
    "final_y": "562626.923872",
    "longitude": "-89.9971505560707",
    "latitude": "30.040338629850208",
    "geocoded_column": {
      "latitude": "30.040338629850208",
      "longitude": "-89.9971505560707"
    }
  },
  {
    "service_request": "2022-929404",
    "request_type": "Traffic Signals/Signs/Striping/Streetlights",
    "request_reason": "Street Light Outage/Malfunction",
    "date_created": "2022-10-17T15:18:44.000",
    "date_modified": "2022-10-17T15:18:45.000",
    "request_status": "Pending",
    "responsible_agency": "Department of Public Works",
    "final_address": "BIENVILLE ST & N CORTEZ ST",
    "address_councildis": "B",
    "status": "Pending",
    "contractor": "Legacy Professional Services",
    "rowid": "929404",
    "final_x": "3672536.49",
    "final_y": "538207.46",
    "longitude": "-90.09614591437047",
    "latitude": "29.974153064958927",
    "geocoded_column": {
      "latitude": "29.974153064958927",
      "longitude": "-90.09614591437047"
    }
  },
  {
    "service_request": "2022-929403",
    "request_type": "Trash/Recycling",
    "request_reason": "Missed Trash Pick-Up",
    "date_created": "2022-10-17T15:13:31.000",
    "date_modified": "2022-10-17T15:13:32.000",
    "request_status": "Pending",
    "responsible_agency": "Department of Sanitation",
    "final_address": "400 BLK S Genois St",
    "address_councildis": "B",
    "status": "Assigned to Contractor",
    "contractor": "Richards Disposal",
    "rowid": "929403",
    "final_x": "3671742.46422",
    "final_y": "536069.822989",
    "longitude": "-90.09872637788645",
    "latitude": "29.968298833521548",
    "geocoded_column": {
      "latitude": "29.968298833521548",
      "longitude": "-90.09872637788645"
    }
  },
  {
    "service_request": "2022-929402",
    "request_type": "Roads/Drainage",
    "request_reason": "Bicycle Hazardous Incident Reporting",
    "date_created": "2022-10-17T15:11:29.000",
    "date_modified": "2022-10-17T15:11:29.000",
    "request_status": "Pending",
    "responsible_agency": "Health Department",
    "final_address": "2307 S Carrollton Ave",
    "address_councildis": "A",
    "status": "Pending",
    "rowid": "929402",
    "final_x": "3664739.40045",
    "final_y": "531178.61613",
    "longitude": "-90.12100589398084",
    "latitude": "29.95505523743961",
    "geocoded_column": {
      "latitude": "29.95505523743961",
      "longitude": "-90.12100589398084"
    }
  },
  {
    "service_request": "2022-929401",
    "request_type": "Trash/Recycling",
    "request_reason": "Request a Large Item Pick Up",
    "date_created": "2022-10-17T15:10:58.000",
    "date_modified": "2022-10-17T15:10:59.000",
    "request_status": "Pending",
    "responsible_agency": "Department of Sanitation",
    "final_address": "2430 Caffin Ave",
    "address_councildis": "E",
    "status": "Assigned to Contractor",
    "contractor": "Metro Disposal",
    "rowid": "929401",
    "final_x": "3699322.1713",
    "final_y": "538966.721482",
    "longitude": "-90.01152342152737",
    "latitude": "29.97541834304149",
    "geocoded_column": {
      "latitude": "29.97541834304149",
      "longitude": "-90.01152342152737"
    }
  },
  {
    "service_request": "2022-929400",
    "request_type": "Trash/Recycling",
    "request_reason": "MIssed Recycling Pick-Up",
    "date_created": "2022-10-17T15:08:16.000",
    "date_modified": "2022-10-17T15:08:16.000",
    "request_status": "Pending",
    "responsible_agency": "Department of Sanitation",
    "final_address": "8823 Colapissa St",
    "address_councildis": "A",
    "status": "Assigned to Contractor",
    "contractor": "Richards Disposal",
    "rowid": "929400",
    "final_x": "3664569.88436",
    "final_y": "535247.568838",
    "longitude": "-90.12140527184842",
    "latitude": "29.966248456504",
    "geocoded_column": {
      "latitude": "29.966248456504",
      "longitude": "-90.12140527184842"
    }
  },
  {
    "service_request": "2022-929399",
    "request_type": "Trash/Recycling",
    "request_reason": "Replace Trash Cart",
    "date_created": "2022-10-17T15:05:55.000",
    "date_modified": "2022-10-17T15:05:56.000",
    "request_status": "Pending",
    "responsible_agency": "Department of Sanitation",
    "final_address": "761 Conrad St",
    "address_councildis": "A",
    "status": "Assigned to Contractor",
    "contractor": "Metro Disposal",
    "rowid": "929399",
    "final_x": "3669628.83796",
    "final_y": "554295.590232",
    "longitude": "-90.1047841988904",
    "latitude": "30.01847586493677",
    "geocoded_column": {
      "latitude": "30.01847586493677",
      "longitude": "-90.1047841988904"
    }
  },
  {
    "service_request": "2022-929398",
    "request_type": "Trash/Recycling",
    "request_reason": "Request a Large Item Pick Up",
    "date_created": "2022-10-17T15:05:08.000",
    "date_modified": "2022-10-17T15:05:08.000",
    "request_status": "Pending",
    "responsible_agency": "Department of Sanitation",
    "final_address": "3816 Baudin St",
    "address_councildis": "B",
    "status": "Assigned to Contractor",
    "contractor": "Richards Disposal",
    "rowid": "929398",
    "final_x": "3670994.39207",
    "final_y": "536351.771399",
    "longitude": "-90.10107925368656",
    "latitude": "29.969096238762873",
    "geocoded_column": {
      "latitude": "29.969096238762873",
      "longitude": "-90.10107925368656"
    }
  },
  {
    "service_request": "2022-929397",
    "request_type": "Abandoned Vehicles",
    "request_reason": "Abandoned/Junk Vehicles",
    "date_created": "2022-10-17T15:04:44.000",
    "date_modified": "2022-10-17T15:06:30.000",
    "request_status": "Pending",
    "responsible_agency": "Department of Public Works",
    "final_address": "3600 St Ferdinand St",
    "address_councildis": "D",
    "status": "Pending",
    "rowid": "929397",
    "final_x": "3689924.53545",
    "final_y": "546232.854032",
    "longitude": "-90.04094476478022",
    "latitude": "29.995692343898398",
    "geocoded_column": {
      "latitude": "29.995692343898398",
      "longitude": "-90.04094476478022"
    }
  },
  {
    "service_request": "2022-929395",
    "request_type": "Traffic Signals/Signs/Striping/Streetlights",
    "request_reason": "Street Name Sign Damaged or Missing",
    "date_created": "2022-10-17T15:02:41.000",
    "date_modified": "2022-10-17T15:02:41.000",
    "request_status": "Pending",
    "responsible_agency": "Department of Public Works",
    "final_address": "8001 Fig St",
    "address_councildis": "B",
    "status": "Pending",
    "rowid": "929395",
    "final_x": "3666658.75649",
    "final_y": "532921.957508",
    "longitude": "-90.11488672649722",
    "latitude": "29.959792877303094",
    "geocoded_column": {
      "latitude": "29.959792877303094",
      "longitude": "-90.11488672649722"
    }
  },
  {
    "service_request": "2022-929391",
    "request_type": "Trash/Recycling",
    "request_reason": "Order Recycling Cart",
    "date_created": "2022-10-17T14:57:49.000",
    "date_modified": "2022-10-17T14:57:49.000",
    "request_status": "Pending",
    "responsible_agency": "Department of Sanitation",
    "final_address": "4607 Dryades St",
    "address_councildis": "B",
    "status": "Pending",
    "rowid": "929391",
    "final_x": "3669911.87329",
    "final_y": "521892.866938",
    "longitude": "-90.1049874353544",
    "latitude": "29.929370948463387",
    "geocoded_column": {
      "latitude": "29.929370948463387",
      "longitude": "-90.1049874353544"
    }
  },
  {
    "service_request": "2022-929390",
    "request_type": "Traffic Signals/Signs/Striping/Streetlights",
    "request_reason": "Street Light Outage/Malfunction",
    "date_created": "2022-10-17T14:57:43.000",
    "date_modified": "2022-10-17T14:57:44.000",
    "request_status": "Pending",
    "responsible_agency": "Department of Public Works",
    "final_address": "2625 Holiday Dr",
    "address_councildis": "C",
    "status": "Pending",
    "contractor": "Legacy Professional Services",
    "rowid": "929390",
    "final_x": "3698730.1962",
    "final_y": "521474.120697",
    "longitude": "-90.01402912517142",
    "latitude": "29.927338617604615",
    "geocoded_column": {
      "latitude": "29.927338617604615",
      "longitude": "-90.01402912517142"
    }
  },
  {
    "service_request": "2022-929389",
    "request_type": "Trash/Recycling",
    "request_reason": "Request a Large Item Pick Up",
    "date_created": "2022-10-17T14:56:42.000",
    "date_modified": "2022-10-17T14:56:43.000",
    "request_status": "Pending",
    "responsible_agency": "Department of Sanitation",
    "final_address": "3470 Wall Blvd",
    "address_councildis": "C",
    "status": "Assigned to Contractor",
    "contractor": "Richards Disposal",
    "rowid": "929389",
    "final_x": "3696957.40528",
    "final_y": "523899.406652",
    "longitude": "-90.01953756869659",
    "latitude": "29.93406332829153",
    "geocoded_column": {
      "latitude": "29.93406332829153",
      "longitude": "-90.01953756869659"
    }
  },
  {
    "service_request": "2022-929388",
    "request_type": "Trash/Recycling",
    "request_reason": "Illegal Dumping",
    "date_created": "2022-10-17T14:55:57.000",
    "date_modified": "2022-10-17T14:55:58.000",
    "case_close_date": "2022-10-16T19:00:00.000",
    "request_status": "Pending",
    "responsible_agency": "Department of Sanitation",
    "final_address": "6500 E Sixth St",
    "address_councildis": "C",
    "status": "Pending",
    "rowid": "929388",
    "final_x": "3713753.10815",
    "final_y": "514402.126771",
    "longitude": "-89.96687230149959",
    "latitude": "29.907408968902566",
    "geocoded_column": {
      "latitude": "29.907408968902566",
      "longitude": "-89.96687230149959"
    }
  },
  {
    "service_request": "2022-929386",
    "request_type": "Parks & Parkways",
    "request_reason": "Request Tree Service (Right of Way/Public Property)",
    "date_created": "2022-10-17T14:54:39.000",
    "date_modified": "2022-10-17T15:00:22.000",
    "case_close_date": "2022-10-17T10:00:22.000",
    "request_status": "Closed",
    "responsible_agency": "Department of Parks & Parkway",
    "final_address": "6611 Dorchester St",
    "address_councildis": "E",
    "status": "Duplicate Request",
    "rowid": "929386",
    "final_x": "3697722.68426",
    "final_y": "558958.889116",
    "longitude": "-90.01584901640473",
    "latitude": "30.030440000728728",
    "geocoded_column": {
      "latitude": "30.030440000728728",
      "longitude": "-90.01584901640473"
    }
  },
  {
    "service_request": "2022-929385",
    "request_type": "Trash/Recycling",
    "request_reason": "MIssed Recycling Pick-Up",
    "date_created": "2022-10-17T14:54:04.000",
    "date_modified": "2022-10-17T14:54:05.000",
    "request_status": "Pending",
    "responsible_agency": "Department of Sanitation",
    "final_address": "3642 Huntlee Dr",
    "address_councildis": "C",
    "status": "Assigned to Contractor",
    "contractor": "Richards Disposal",
    "rowid": "929385",
    "final_x": "3701765.22986",
    "final_y": "517589.247798",
    "longitude": "-90.0045905628738",
    "latitude": "29.91656011791266",
    "geocoded_column": {
      "latitude": "29.91656011791266",
      "longitude": "-90.0045905628738"
    }
  },
  {
    "service_request": "2022-929384",
    "request_type": "Trash/Recycling",
    "request_reason": "Request a Large Item Pick Up",
    "date_created": "2022-10-17T14:53:32.000",
    "date_modified": "2022-10-17T14:53:33.000",
    "request_status": "Pending",
    "responsible_agency": "Department of Sanitation",
    "final_address": "3642 Huntlee Dr",
    "address_councildis": "C",
    "status": "Assigned to Contractor",
    "contractor": "Richards Disposal",
    "rowid": "929384",
    "final_x": "3701765.22986",
    "final_y": "517589.247798",
    "longitude": "-90.0045905628738",
    "latitude": "29.91656011791266",
    "geocoded_column": {
      "latitude": "29.91656011791266",
      "longitude": "-90.0045905628738"
    }
  },
  {
    "service_request": "2022-929383",
    "request_type": "Roads/Drainage",
    "request_reason": "Damaged Sidewalk",
    "date_created": "2022-10-17T14:51:17.000",
    "date_modified": "2022-10-17T14:52:25.000",
    "request_status": "Pending",
    "responsible_agency": "Department of Public Works",
    "final_address": "2421 St Roch Ave",
    "address_councildis": "D",
    "status": "Pending",
    "rowid": "929383",
    "final_x": "3686166.36495",
    "final_y": "541424.752972",
    "longitude": "-90.05298618345307",
    "latitude": "29.982587796924697",
    "geocoded_column": {
      "latitude": "29.982587796924697",
      "longitude": "-90.05298618345307"
    }
  },
  {
    "service_request": "2022-929382",
    "request_type": "Property Maintenance",
    "request_reason": "Property Maintenance",
    "date_created": "2022-10-17T14:49:38.000",
    "date_modified": "2022-10-17T16:28:25.000",
    "case_close_date": "2022-10-17T11:28:25.000",
    "request_status": "Closed",
    "responsible_agency": "Department of Code Enforcement",
    "final_address": "6761 Coventry St",
    "address_councildis": "E",
    "status": "Referred to Code Enforcement",
    "rowid": "929382",
    "final_x": "3698345.6321",
    "final_y": "559678.741661",
    "longitude": "-90.01385431032968",
    "latitude": "30.032399608781777",
    "geocoded_column": {
      "latitude": "30.032399608781777",
      "longitude": "-90.01385431032968"
    }
  },
  {
    "service_request": "2022-929381",
    "request_type": "Trash/Recycling",
    "request_reason": "Order Trash Cart",
    "date_created": "2022-10-17T14:47:59.000",
    "date_modified": "2022-10-17T14:48:00.000",
    "request_status": "Pending",
    "responsible_agency": "Department of Sanitation",
    "final_address": "5535 Sutton Pl",
    "address_councildis": "C",
    "status": "Assigned to Contractor",
    "contractor": "Richards Disposal",
    "rowid": "929381",
    "final_x": "3704538.69054",
    "final_y": "518394.777718",
    "longitude": "-89.99580677824582",
    "latitude": "29.918686321971233",
    "geocoded_column": {
      "latitude": "29.918686321971233",
      "longitude": "-89.99580677824582"
    }
  },
  {
    "service_request": "2022-929380",
    "request_type": "Trash/Recycling",
    "request_reason": "Request a Large Item Pick Up",
    "date_created": "2022-10-17T14:42:32.000",
    "date_modified": "2022-10-17T14:42:33.000",
    "request_status": "Pending",
    "responsible_agency": "Department of Sanitation",
    "final_address": "4831 Major Dr",
    "address_councildis": "E",
    "status": "Assigned to Contractor",
    "contractor": "Metro Disposal",
    "rowid": "929380",
    "final_x": "3718233.81119",
    "final_y": "557453.036187",
    "longitude": "-89.95109179082704",
    "latitude": "30.025635097091758",
    "geocoded_column": {
      "latitude": "30.025635097091758",
      "longitude": "-89.95109179082704"
    }
  },
  {
    "service_request": "2022-929379",
    "request_type": "Trash/Recycling",
    "request_reason": "Request a Large Item Pick Up",
    "date_created": "2022-10-17T14:40:56.000",
    "date_modified": "2022-10-17T14:40:57.000",
    "request_status": "Pending",
    "responsible_agency": "Department of Sanitation",
    "final_address": "7616 Dogwood Dr",
    "address_councildis": "E",
    "status": "Assigned to Contractor",
    "contractor": "Metro Disposal",
    "rowid": "929379",
    "final_x": "3701212.00305",
    "final_y": "561011.716318",
    "longitude": "-90.00474758401121",
    "latitude": "30.03597370152162",
    "geocoded_column": {
      "latitude": "30.03597370152162",
      "longitude": "-90.00474758401121"
    }
  },
  {
    "service_request": "2022-929378",
    "request_type": "Trash/Recycling",
    "request_reason": "Request a Large Item Pick Up",
    "date_created": "2022-10-17T14:40:09.000",
    "date_modified": "2022-10-17T14:40:10.000",
    "request_status": "Pending",
    "responsible_agency": "Department of Sanitation",
    "final_address": "434 Joseph St",
    "address_councildis": "A",
    "status": "Assigned to Contractor",
    "contractor": "Richards Disposal",
    "rowid": "929378",
    "final_x": "3665825.59732",
    "final_y": "517767.083766",
    "longitude": "-90.1180252376034",
    "latitude": "29.918146159593906",
    "geocoded_column": {
      "latitude": "29.918146159593906",
      "longitude": "-90.1180252376034"
    }
  },
  {
    "service_request": "2022-929377",
    "request_type": "Trash/Recycling",
    "request_reason": "Missed Trash Pick-Up",
    "date_created": "2022-10-17T14:33:36.000",
    "date_modified": "2022-10-17T14:33:37.000",
    "request_status": "Pending",
    "responsible_agency": "Department of Sanitation",
    "final_address": "1547 Harrison Ave",
    "address_councildis": "D",
    "status": "Assigned to Contractor",
    "contractor": "Metro Disposal",
    "rowid": "929377",
    "final_x": "3679153.36802",
    "final_y": "547745.395794",
    "longitude": "-90.07491746464362",
    "latitude": "30.000180948320345",
    "geocoded_column": {
      "latitude": "30.000180948320345",
      "longitude": "-90.07491746464362"
    }
  },
  {
    "service_request": "2022-929376",
    "request_type": "Trash/Recycling",
    "request_reason": "Missed Trash Pick-Up",
    "date_created": "2022-10-17T14:32:34.000",
    "date_modified": "2022-10-17T14:32:35.000",
    "request_status": "Pending",
    "responsible_agency": "Department of Sanitation",
    "final_address": "1545 Harrison Ave",
    "address_councildis": "D",
    "status": "Assigned to Contractor",
    "contractor": "Metro Disposal",
    "rowid": "929376",
    "final_x": "3679133.36802",
    "final_y": "547745.11797",
    "longitude": "-90.07498065537202",
    "latitude": "30.000180788345695",
    "geocoded_column": {
      "latitude": "30.000180788345695",
      "longitude": "-90.07498065537202"
    }
  },
  {
    "service_request": "2022-929374",
    "request_type": "Traffic Signals/Signs/Striping/Streetlights",
    "request_reason": "Street Light Knocked Down/Leaning",
    "date_created": "2022-10-17T14:30:24.000",
    "date_modified": "2022-10-17T14:30:24.000",
    "request_status": "Pending",
    "responsible_agency": "Department of Public Works",
    "final_address": "4723 Rhodes Dr",
    "address_councildis": "E",
    "status": "Pending",
    "contractor": "Legacy Professional Services",
    "rowid": "929374",
    "final_x": "3702579.14807",
    "final_y": "554425.649304",
    "longitude": "-90.00066924606017",
    "latitude": "30.017820906717727",
    "geocoded_column": {
      "latitude": "30.017820906717727",
      "longitude": "-90.00066924606017"
    }
  },
  {
    "service_request": "2022-929373",
    "request_type": "Parks & Parkways",
    "request_reason": "Request Tree Service (Right of Way/Public Property)",
    "date_created": "2022-10-17T14:29:15.000",
    "date_modified": "2022-10-17T14:29:16.000",
    "request_status": "Pending",
    "responsible_agency": "Department of Parks & Parkway",
    "final_address": "4723 Rhodes Dr",
    "address_councildis": "E",
    "status": "Pending",
    "rowid": "929373",
    "final_x": "3702579.14807",
    "final_y": "554425.649304",
    "longitude": "-90.00066924606017",
    "latitude": "30.017820906717727",
    "geocoded_column": {
      "latitude": "30.017820906717727",
      "longitude": "-90.00066924606017"
    }
  },
  {
    "service_request": "2022-929372",
    "request_type": "Trash/Recycling",
    "request_reason": "Request a Large Item Pick Up",
    "date_created": "2022-10-17T14:25:42.000",
    "date_modified": "2022-10-17T14:25:42.000",
    "request_status": "Pending",
    "responsible_agency": "Department of Sanitation",
    "final_address": "1457 N Derbigny St",
    "address_councildis": "D",
    "status": "Assigned to Contractor",
    "contractor": "Metro Disposal",
    "rowid": "929372",
    "final_x": "3681269.72136",
    "final_y": "537253.457608",
    "longitude": "-90.0685976308363",
    "latitude": "29.97126772048289",
    "geocoded_column": {
      "latitude": "29.97126772048289",
      "longitude": "-90.0685976308363"
    }
  },
  {
    "service_request": "2022-929371",
    "request_type": "Trash/Recycling",
    "request_reason": "Order Trash Cart",
    "date_created": "2022-10-17T14:19:41.000",
    "date_modified": "2022-10-17T14:25:00.000",
    "case_close_date": "2022-10-17T09:25:00.000",
    "request_status": "Closed",
    "responsible_agency": "Department of Sanitation",
    "final_address": "7102 Camp St",
    "address_councildis": "A",
    "status": "Duplicate Request",
    "contractor": "Richards Disposal",
    "rowid": "929371",
    "final_x": "3661067.33555",
    "final_y": "521443.468729",
    "longitude": "-90.13292300381269",
    "latitude": "29.92839298819287",
    "geocoded_column": {
      "latitude": "29.92839298819287",
      "longitude": "-90.13292300381269"
    }
  },
  {
    "service_request": "2022-929370",
    "request_type": "Trash/Recycling",
    "request_reason": "Replace Trash Cart",
    "date_created": "2022-10-17T14:19:26.000",
    "date_modified": "2022-10-17T14:19:27.000",
    "request_status": "Pending",
    "responsible_agency": "Department of Sanitation",
    "final_address": "1318 Ursulines Ave",
    "address_councildis": "C",
    "status": "Assigned to Contractor",
    "contractor": "Richards Disposal",
    "rowid": "929370",
    "final_x": "3681552.65954",
    "final_y": "535047.92935",
    "longitude": "-90.06778100406544",
    "latitude": "29.96519468652391",
    "geocoded_column": {
      "latitude": "29.96519468652391",
      "longitude": "-90.06778100406544"
    }
  },
  {
    "service_request": "2022-929369",
    "request_type": "Trash/Recycling",
    "request_reason": "Start Trash Service",
    "date_created": "2022-10-17T14:19:20.000",
    "date_modified": "2022-10-17T14:26:11.000",
    "case_close_date": "2022-10-17T09:26:11.000",
    "request_status": "Closed",
    "responsible_agency": "Department of Sanitation",
    "final_address": "7102 Camp St",
    "address_councildis": "A",
    "status": "Duplicate Request",
    "contractor": "Richards Disposal",
    "rowid": "929369",
    "final_x": "3661067.33555",
    "final_y": "521443.468729",
    "longitude": "-90.13292300381269",
    "latitude": "29.92839298819287",
    "geocoded_column": {
      "latitude": "29.92839298819287",
      "longitude": "-90.13292300381269"
    }
  },
  {
    "service_request": "2022-929368",
    "request_type": "Trash/Recycling",
    "request_reason": "Replace Trash Cart",
    "date_created": "2022-10-17T14:16:42.000",
    "date_modified": "2022-10-17T14:16:43.000",
    "request_status": "Pending",
    "responsible_agency": "Department of Sanitation",
    "final_address": "1401 Benton St",
    "address_councildis": "E",
    "status": "Assigned to Contractor",
    "contractor": "Metro Disposal",
    "rowid": "929368",
    "final_x": "3699294.32266",
    "final_y": "534646.016198",
    "longitude": "-90.0117687609486",
    "latitude": "29.96353884120136",
    "geocoded_column": {
      "latitude": "29.96353884120136",
      "longitude": "-90.0117687609486"
    }
  },
  {
    "service_request": "2022-929367",
    "request_type": "Roads/Drainage",
    "request_reason": "Accessibility Ramps, Curbs and Sidewalk Repair",
    "date_created": "2022-10-17T14:16:41.000",
    "date_modified": "2022-10-17T14:16:41.000",
    "request_status": "Pending",
    "responsible_agency": "Department of Public Works",
    "final_address": "1876 N Roman St",
    "address_councildis": "D",
    "status": "Pending",
    "rowid": "929367",
    "final_x": "3683560.73135",
    "final_y": "538748.622345",
    "longitude": "-90.06130989311943",
    "latitude": "29.975309173283534",
    "geocoded_column": {
      "latitude": "29.975309173283534",
      "longitude": "-90.06130989311943"
    }
  },
  {
    "service_request": "2022-929366",
    "request_type": "Abandoned Vehicles",
    "request_reason": "Abandoned/Junk Vehicles",
    "date_created": "2022-10-17T14:15:40.000",
    "date_modified": "2022-10-17T14:17:01.000",
    "request_status": "Pending",
    "responsible_agency": "Department of Public Works",
    "final_address": "2269 N Miro St",
    "address_councildis": "D",
    "status": "Pending",
    "rowid": "929366",
    "final_x": "3685375.50287",
    "final_y": "540450.965323",
    "longitude": "-90.05551841409293",
    "latitude": "29.97993449907862",
    "geocoded_column": {
      "latitude": "29.97993449907862",
      "longitude": "-90.05551841409293"
    }
  },
  {
    "service_request": "2022-929365",
    "request_type": "Roads/Drainage",
    "request_reason": "Catch Basin - Clogged",
    "date_created": "2022-10-17T14:15:20.000",
    "date_modified": "2022-10-17T14:15:20.000",
    "request_status": "Pending",
    "responsible_agency": "Department of Public Works",
    "final_address": "6258 Marshal Foch St",
    "address_councildis": "A",
    "status": "Pending",
    "rowid": "929365",
    "final_x": "3669894.74119",
    "final_y": "548933.368211",
    "longitude": "-90.10412579327652",
    "latitude": "30.003723800700943",
    "geocoded_column": {
      "latitude": "30.003723800700943",
      "longitude": "-90.10412579327652"
    }
  },
  {
    "service_request": "2022-929364",
    "request_type": "Trash/Recycling",
    "request_reason": "Replace Trash Cart",
    "date_created": "2022-10-17T14:13:02.000",
    "date_modified": "2022-10-17T14:13:03.000",
    "request_status": "Pending",
    "responsible_agency": "Department of Sanitation",
    "final_address": "820 Forstall St",
    "address_councildis": "E",
    "status": "Assigned to Contractor",
    "contractor": "Metro Disposal",
    "rowid": "929364",
    "final_x": "3695948.34154",
    "final_y": "533272.291012",
    "longitude": "-90.02238459304758",
    "latitude": "29.959867271106006",
    "geocoded_column": {
      "latitude": "29.959867271106006",
      "longitude": "-90.02238459304758"
    }
  },
  {
    "service_request": "2022-929363",
    "request_type": "Parks & Parkways",
    "request_reason": "Tree Stump (removal, grind)",
    "date_created": "2022-10-17T14:11:37.000",
    "date_modified": "2022-10-17T14:11:37.000",
    "request_status": "Pending",
    "responsible_agency": "Department of Parks & Parkway",
    "final_address": "5415 Bellaire Dr",
    "address_councildis": "A",
    "status": "Pending",
    "rowid": "929363",
    "final_x": "3664126.15284",
    "final_y": "543744.446094",
    "longitude": "-90.12252302885103",
    "latitude": "29.989624931040318",
    "geocoded_column": {
      "latitude": "29.989624931040318",
      "longitude": "-90.12252302885103"
    }
  },
  {
    "service_request": "2022-929362",
    "request_type": "Trash/Recycling",
    "request_reason": "Order Trash Cart",
    "date_created": "2022-10-17T14:09:43.000",
    "date_modified": "2022-10-17T14:09:43.000",
    "request_status": "Pending",
    "responsible_agency": "Department of Sanitation",
    "final_address": "1011 St Maurice Ave",
    "address_councildis": "E",
    "status": "Assigned to Contractor",
    "contractor": "Metro Disposal",
    "rowid": "929362",
    "final_x": "3699749.5601",
    "final_y": "532861.396164",
    "longitude": "-90.01039624484328",
    "latitude": "29.9586173279919",
    "geocoded_column": {
      "latitude": "29.9586173279919",
      "longitude": "-90.01039624484328"
    }
  },
  {
    "service_request": "2022-929361",
    "request_type": "Trash/Recycling",
    "request_reason": "Order Trash Cart",
    "date_created": "2022-10-17T14:09:24.000",
    "date_modified": "2022-10-17T14:09:27.000",
    "request_status": "Pending",
    "responsible_agency": "Department of Sanitation",
    "final_address": "1013 St Maurice Ave",
    "address_councildis": "E",
    "status": "Assigned to Contractor",
    "contractor": "Metro Disposal",
    "rowid": "929361",
    "final_x": "3699755.84458",
    "final_y": "532873.966276",
    "longitude": "-90.01037594193882",
    "latitude": "29.95865169181543",
    "geocoded_column": {
      "latitude": "29.95865169181543",
      "longitude": "-90.01037594193882"
    }
  },
  {
    "service_request": "2022-929360",
    "request_type": "Trash/Recycling",
    "request_reason": "Repair Trash Cart",
    "date_created": "2022-10-17T14:05:41.000",
    "date_modified": "2022-10-17T14:05:42.000",
    "request_status": "Pending",
    "responsible_agency": "Department of Sanitation",
    "final_address": "3566 Mimosa Ct",
    "address_councildis": "C",
    "status": "Assigned to Contractor",
    "contractor": "Richards Disposal",
    "rowid": "929360",
    "final_x": "3703274.58878",
    "final_y": "513089.290033",
    "longitude": "-89.99999172435552",
    "latitude": "29.904138556638376",
    "geocoded_column": {
      "latitude": "29.904138556638376",
      "longitude": "-89.99999172435552"
    }
  },
  {
    "service_request": "2022-929359",
    "request_type": "Trash/Recycling",
    "request_reason": "Request a Large Item Pick Up",
    "date_created": "2022-10-17T14:04:35.000",
    "date_modified": "2022-10-17T14:04:36.000",
    "request_status": "Pending",
    "responsible_agency": "Department of Sanitation",
    "final_address": "3566 Mimosa Ct",
    "address_councildis": "C",
    "status": "Assigned to Contractor",
    "contractor": "Richards Disposal",
    "rowid": "929359",
    "final_x": "3703274.58878",
    "final_y": "513089.290033",
    "longitude": "-89.99999172435552",
    "latitude": "29.904138556638376",
    "geocoded_column": {
      "latitude": "29.904138556638376",
      "longitude": "-89.99999172435552"
    }
  },
  {
    "service_request": "2022-929357",
    "request_type": "Trash/Recycling",
    "request_reason": "Request a Large Item Pick Up",
    "date_created": "2022-10-17T13:51:54.000",
    "date_modified": "2022-10-17T13:51:55.000",
    "request_status": "Pending",
    "responsible_agency": "Department of Sanitation",
    "final_address": "5752 Bancroft Dr",
    "address_councildis": "D",
    "status": "Assigned to Contractor",
    "contractor": "Metro Disposal",
    "rowid": "929357",
    "final_x": "3676427.42049",
    "final_y": "553678.681879",
    "longitude": "-90.0833244127266",
    "latitude": "30.016577407077214",
    "geocoded_column": {
      "latitude": "30.016577407077214",
      "longitude": "-90.0833244127266"
    }
  },
  {
    "service_request": "2022-929356",
    "request_type": "Safety & Permits",
    "request_reason": "Licenses & Permits",
    "date_created": "2022-10-17T13:50:06.000",
    "date_modified": "2022-10-17T13:50:07.000",
    "request_status": "Pending",
    "responsible_agency": "Safety and Permits",
    "final_address": "326 Chartres St",
    "address_councildis": "C",
    "status": "Pending",
    "rowid": "929356",
    "final_x": "3682108.46556",
    "final_y": "531244.41165",
    "longitude": "-90.06615863166338",
    "latitude": "29.95471941988481",
    "geocoded_column": {
      "latitude": "29.95471941988481",
      "longitude": "-90.06615863166338"
    }
  },
  {
    "service_request": "2022-929355",
    "request_type": "Property Maintenance",
    "request_reason": "Property Maintenance",
    "date_created": "2022-10-17T13:44:06.000",
    "date_modified": "2022-10-17T16:32:16.000",
    "case_close_date": "2022-10-17T11:32:16.000",
    "request_status": "Closed",
    "responsible_agency": "Department of Code Enforcement",
    "final_address": "7001 Michoud Blvd",
    "address_councildis": "E",
    "status": "Referred to Code Enforcement",
    "rowid": "929355",
    "final_x": "3725065.19046",
    "final_y": "567691.654244",
    "longitude": "-89.92910942324514",
    "latitude": "30.053558711111265",
    "geocoded_column": {
      "latitude": "30.053558711111265",
      "longitude": "-89.92910942324514"
    }
  },
  {
    "service_request": "2022-929354",
    "request_type": "Trash/Recycling",
    "request_reason": "Request a Large Item Pick Up",
    "date_created": "2022-10-17T13:43:58.000",
    "date_modified": "2022-10-17T13:43:59.000",
    "request_status": "Pending",
    "responsible_agency": "Department of Sanitation",
    "final_address": "12400 N Lake Carmel Dr",
    "address_councildis": "E",
    "status": "Assigned to Contractor",
    "contractor": "Metro Disposal",
    "rowid": "929354",
    "final_x": "3715367.01125",
    "final_y": "567568.389604",
    "longitude": "-89.95976722187062",
    "latitude": "30.053543010614035",
    "geocoded_column": {
      "latitude": "30.053543010614035",
      "longitude": "-89.95976722187062"
    }
  },
  {
    "service_request": "2022-929353",
    "request_type": "Trash/Recycling",
    "request_reason": "Replace Trash Cart",
    "date_created": "2022-10-17T13:38:34.000",
    "date_modified": "2022-10-17T13:38:35.000",
    "request_status": "Pending",
    "responsible_agency": "Department of Sanitation",
    "final_address": "6627 Dwyer Rd",
    "address_councildis": "E",
    "status": "Assigned to Contractor",
    "contractor": "Metro Disposal",
    "rowid": "929353",
    "final_x": "3699211.42839",
    "final_y": "555582.482201",
    "longitude": "-90.01126769860173",
    "latitude": "30.021109024865666",
    "geocoded_column": {
      "latitude": "30.021109024865666",
      "longitude": "-90.01126769860173"
    }
  },
  {
    "service_request": "2022-929352",
    "request_type": "Trash/Recycling",
    "request_reason": "Request a Large Item Pick Up",
    "date_created": "2022-10-17T13:35:16.000",
    "date_modified": "2022-10-17T13:35:17.000",
    "request_status": "Pending",
    "responsible_agency": "Department of Sanitation",
    "final_address": "5500 Pauline Dr",
    "address_councildis": "D",
    "status": "Assigned to Contractor",
    "contractor": "Metro Disposal",
    "rowid": "929352",
    "final_x": "3692024.4136",
    "final_y": "554228.135768",
    "longitude": "-90.03402506960289",
    "latitude": "30.017611129752442",
    "geocoded_column": {
      "latitude": "30.017611129752442",
      "longitude": "-90.03402506960289"
    }
  },
  {
    "service_request": "2022-929351",
    "request_type": "Trash/Recycling",
    "request_reason": "Order Recycling Cart",
    "date_created": "2022-10-17T13:34:24.000",
    "date_modified": "2022-10-17T13:34:24.000",
    "request_status": "Pending",
    "responsible_agency": "Department of Sanitation",
    "final_address": "2901 Prytania St",
    "address_councildis": "B",
    "status": "Pending",
    "rowid": "929351",
    "final_x": "3675726.34043",
    "final_y": "521830.616058",
    "longitude": "-90.08663436577922",
    "latitude": "29.929027107317225",
    "geocoded_column": {
      "latitude": "29.929027107317225",
      "longitude": "-90.08663436577922"
    }
  },
  {
    "service_request": "2022-929350",
    "request_type": "Trash/Recycling",
    "request_reason": "Missed Trash Pick-Up",
    "date_created": "2022-10-17T13:33:14.000",
    "date_modified": "2022-10-17T13:33:15.000",
    "request_status": "Pending",
    "responsible_agency": "Department of Sanitation",
    "final_address": "2833 S Liberty St",
    "address_councildis": "B",
    "status": "Assigned to Contractor",
    "contractor": "Richards Disposal",
    "rowid": "929350",
    "final_x": "3674286.65134",
    "final_y": "524479.15078",
    "longitude": "-90.09108854333479",
    "latitude": "29.936352710840243",
    "geocoded_column": {
      "latitude": "29.936352710840243",
      "longitude": "-90.09108854333479"
    }
  },
  {
    "service_request": "2022-929348",
    "request_type": "Roads/Drainage",
    "request_reason": "Catch Basin - Clogged",
    "date_created": "2022-10-17T13:32:21.000",
    "date_modified": "2022-10-17T13:32:21.000",
    "request_status": "Pending",
    "responsible_agency": "Department of Public Works",
    "final_address": "5880 Old Gentilly Rd",
    "address_councildis": "E",
    "status": "Pending",
    "rowid": "929348",
    "final_x": "3696377.71933",
    "final_y": "550396.853652",
    "longitude": "-90.02040911416847",
    "latitude": "30.00694008979785",
    "geocoded_column": {
      "latitude": "30.00694008979785",
      "longitude": "-90.02040911416847"
    }
  },