[
  {
    "service_request": "2025-1202413",
    "request_type": "Trash/Recycling",
    "request_reason": "Request a Large Item Pick Up",
    "date_created": "2025-06-18T23:49:41.000",
    "date_modified": "2025-06-18T23:49:43.000",
    "request_status": "Pending",
    "responsible_agency": "Department of Sanitation",
    "final_address": "4631 Clara St",
    "address_councildis": "B",
    "status": "Assigned to Contractor",
    "contractor": "IV Waste",
    "rowid": "1202413",
    "final_x": "3669481.11054",
    "final_y": "525029.117693",
    "longitude": "-90.10624125077786",
    "latitude": "29.93800732162591",
    "geocoded_column": {
      "latitude": "29.93800732162591",
      "longitude": "-90.10624125077786"
    }
  },
  {
    "service_request": "2025-1202412",
    "request_type": "Abandoned Vehicles",
    "request_reason": "Abandoned/Junk Vehicles",
    "date_created": "2025-06-18T23:33:30.000",
    "date_modified": "2025-06-18T23:33:32.000",
    "request_status": "Pending",
    "responsible_agency": "Department of Public Works",
    "final_address": "638 Port St",
    "address_councildis": "C",
    "status": "Pending",
    "rowid": "1202412",
    "final_x": "3687006.54146",
    "final_y": "534868.168454",
    "longitude": "-90.05056433111247",
    "latitude": "29.96453364895112",
    "geocoded_column": {
      "latitude": "29.96453364895112",
      "longitude": "-90.05056433111247"
    }
  },
  {
    "service_request": "2025-1202411",
    "request_type": "Street and Traffic Signs",
    "request_reason": "Stop Sign Missing or Damaged",
    "date_created": "2025-06-18T23:30:26.000",
    "date_modified": "2025-06-18T23:30:28.000",
    "request_status": "Pending",
    "responsible_agency": "Department of Public Works",
    "final_address": "929 Port St",
    "address_councildis": "C",
    "status": "Pending",
    "rowid": "1202411",
    "final_x": "3687313.52898",
    "final_y": "535868.302919",
    "longitude": "-90.04955950426066",
    "latitude": "29.967274217276582",
    "geocoded_column": {
      "latitude": "29.967274217276582",
      "longitude": "-90.04955950426066"
    }
  },
  {
    "service_request": "2025-1202410",
    "request_type": "Street and Traffic Signs",
    "request_reason": "Stop Sign Missing or Damaged",
    "date_created": "2025-06-18T23:27:56.000",
    "date_modified": "2025-06-18T23:27:58.000",
    "request_status": "Pending",
    "responsible_agency": "Department of Public Works",
    "final_address": "2440 Dauphine St",
    "address_councildis": "C",
    "status": "Pending",
    "rowid": "1202410",
    "final_x": "3686172.29686",
    "final_y": "535284.648518",
    "longitude": "-90.05318411439598",
    "latitude": "29.96570447841788",
    "geocoded_column": {
      "latitude": "29.96570447841788",
      "longitude": "-90.05318411439598"
    }
  },
  {
    "service_request": "2025-1202409",
    "request_type": "Streetlights",
    "request_reason": "Streetlight Outage/Malfunction",
    "date_created": "2025-06-18T22:23:36.000",
    "date_modified": "2025-06-18T22:23:39.000",
    "request_status": "Pending",
    "responsible_agency": "Department of Public Works",
    "final_address": "8011 Pebble Dr",
    "address_councildis": "E",
    "status": "Pending",
    "contractor": "Legacy Professional Services",
    "rowid": "1202409",
    "final_x": "3714381.04376",
    "final_y": "570124.448679",
    "longitude": "-89.96278694559767",
    "latitude": "30.060603583699343",
    "geocoded_column": {
      "latitude": "30.060603583699343",
      "longitude": "-89.96278694559767"
    }
  },
  {
    "service_request": "2025-1202408",
    "request_type": "Street and Traffic Signs",
    "request_reason": "One Way Sign Missing or Damaged",
    "date_created": "2025-06-18T22:14:57.000",
    "date_modified": "2025-06-18T22:14:58.000",
    "request_status": "Pending",
    "responsible_agency": "Department of Public Works",
    "final_address": "ESPLANADE AVE & N JOHNSON ST",
    "address_councildis": "D",
    "status": "Pending",
    "rowid": "1202408",
    "final_x": "3680159.2",
    "final_y": "537468.48",
    "longitude": "-90.07209733608087",
    "latitude": "29.97189261527131",
    "geocoded_column": {
      "latitude": "29.97189261527131",
      "longitude": "-90.07209733608087"
    }
  },
  {
    "service_request": "2025-1202407",
    "request_type": "Trash/Recycling",
    "request_reason": "Repair Trash Cart",
    "date_created": "2025-06-18T22:14:28.000",
    "date_modified": "2025-06-18T22:14:29.000",
    "request_status": "Pending",
    "responsible_agency": "Department of Sanitation",
    "final_address": "3221 Deers St",
    "address_councildis": "D",
    "status": "Assigned to Contractor",
    "contractor": "IV Waste",
    "rowid": "1202407",
    "final_x": "3688001.07395",
    "final_y": "544957.734735",
    "longitude": "-90.04706601091534",
    "latitude": "29.992245737124247",
    "geocoded_column": {
      "latitude": "29.992245737124247",
      "longitude": "-90.04706601091534"
    }
  },
  {
    "service_request": "2025-1202406",
    "request_type": "Street and Traffic Signs",
    "request_reason": "One Way Sign Missing or Damaged",
    "date_created": "2025-06-18T22:12:50.000",
    "date_modified": "2025-06-18T22:12:52.000",
    "request_status": "Pending",
    "responsible_agency": "Department of Public Works",
    "final_address": "ESPLANADE AVE & N PRIEUR ST",
    "address_councildis": "D",
    "status": "Pending",
    "rowid": "1202406",
    "final_x": "3680442.8",
    "final_y": "537254.58",
    "longitude": "-90.07120912343088",
    "latitude": "29.971295877556827",
    "geocoded_column": {
      "latitude": "29.971295877556827",
      "longitude": "-90.07120912343088"
    }
  },
  {
    "service_request": "2025-1202405",
    "request_type": "Property Maintenance",
    "request_reason": "Property Maintenance",
    "date_created": "2025-06-18T22:10:24.000",
    "date_modified": "2025-06-18T22:10:26.000",
    "request_status": "Pending",
    "responsible_agency": "Department of Code Enforcement",
    "final_address": "2201 Mazant St",
    "address_councildis": "D",
    "status": "Pending",
    "rowid": "1202405",
    "final_x": "3693183.52336",
    "final_y": "539407.251274",
    "longitude": "-90.0308950336624",
    "latitude": "29.976822927718207",
    "geocoded_column": {
      "latitude": "29.976822927718207",
      "longitude": "-90.0308950336624"
    }
  },
  {
    "service_request": "2025-1202404",
    "request_type": "Property Maintenance",
    "request_reason": "Property Maintenance",
    "date_created": "2025-06-18T22:07:12.000",
    "date_modified": "2025-06-18T22:07:14.000",
    "request_status": "Pending",
    "responsible_agency": "Department of Code Enforcement",
    "final_address": "2201 Mazant St",
    "address_councildis": "D",
    "status": "Pending",
    "rowid": "1202404",
    "final_x": "3693183.52336",
    "final_y": "539407.251274",
    "longitude": "-90.0308950336624",
    "latitude": "29.976822927718207",
    "geocoded_column": {
      "latitude": "29.976822927718207",
      "longitude": "-90.0308950336624"
    }
  },
  {
    "service_request": "2025-1202403",
    "request_type": "Streetlights",
    "request_reason": "Streetlight Outage/Malfunction",
    "date_created": "2025-06-18T22:06:06.000",
    "date_modified": "2025-06-18T22:06:07.000",
    "request_status": "Pending",
    "responsible_agency": "Department of Public Works",
    "final_address": "2922 Gravier St",
    "address_councildis": "B",
    "status": "Pending",
    "contractor": "Legacy Professional Services",
    "rowid": "1202403",
    "final_x": "3672975.97908",
    "final_y": "533825.675269",
    "longitude": "-90.09490747279017",
    "latitude": "29.962091578168767",
    "geocoded_column": {
      "latitude": "29.962091578168767",
      "longitude": "-90.09490747279017"
    }
  },
  {
    "service_request": "2025-1202402",
    "request_type": "Streetlights",
    "request_reason": "Streetlight Outage/Malfunction",
    "date_created": "2025-06-18T22:03:18.000",
    "date_modified": "2025-06-18T22:03:19.000",
    "request_status": "Pending",
    "responsible_agency": "Department of Public Works",
    "final_address": "2920 Gravier St",
    "address_councildis": "B",
    "status": "Pending",
    "contractor": "Legacy Professional Services",
    "rowid": "1202402",
    "final_x": "3672982.33006",
    "final_y": "533821.633733",
    "longitude": "-90.0948875552595",
    "latitude": "29.962080276554573",
    "geocoded_column": {
      "latitude": "29.962080276554573",
      "longitude": "-90.0948875552595"
    }
  },
  {
    "service_request": "2025-1202401",
    "request_type": "Street and Traffic Signs",
    "request_reason": "Street Name Sign Damaged or Missing",
    "date_created": "2025-06-18T22:02:21.000",
    "date_modified": "2025-06-18T22:02:23.000",
    "request_status": "Pending",
    "responsible_agency": "Department of Public Works",
    "final_address": "ESPLANADE AVE & N CLAIBORNE AVE",
    "address_councildis": "D",
    "status": "Pending",
    "rowid": "1202401",
    "final_x": "3681231.3",
    "final_y": "536639.18",
    "longitude": "-90.06874038104324",
    "latitude": "29.969579834804723",
    "geocoded_column": {
      "latitude": "29.969579834804723",
      "longitude": "-90.06874038104324"
    }
  },
  {
    "service_request": "2025-1202400",
    "request_type": "Property Maintenance",
    "request_reason": "Property Maintenance",
    "date_created": "2025-06-18T21:58:23.000",
    "date_modified": "2025-06-18T21:58:25.000",
    "request_status": "Pending",
    "responsible_agency": "Department of Code Enforcement",
    "final_address": "2119 Mazant St",
    "address_councildis": "D",
    "status": "Pending",
    "rowid": "1202400",
    "final_x": "3693117.22627",
    "final_y": "539145.826442",
    "longitude": "-90.03111380328191",
    "latitude": "29.976106174709116",
    "geocoded_column": {
      "latitude": "29.976106174709116",
      "longitude": "-90.03111380328191"
    }
  },
  {
    "service_request": "2025-1202399",
    "request_type": "Property Maintenance",
    "request_reason": "Property Maintenance",
    "date_created": "2025-06-18T21:57:37.000",
    "date_modified": "2025-06-18T21:57:38.000",
    "request_status": "Pending",
    "responsible_agency": "Department of Code Enforcement",
    "final_address": "2123 Mazant St",
    "address_councildis": "D",
    "status": "Pending",
    "rowid": "1202399",
    "final_x": "3693120.45334",
    "final_y": "539177.518858",
    "longitude": "-90.0311024737447",
    "latitude": "29.976193216694043",
    "geocoded_column": {
      "latitude": "29.976193216694043",
      "longitude": "-90.0311024737447"
    }
  },
  {
    "service_request": "2025-1202398",
    "request_type": "Property Maintenance",
    "request_reason": "Property Maintenance",
    "date_created": "2025-06-18T21:56:59.000",
    "date_modified": "2025-06-18T21:57:00.000",
    "request_status": "Pending",
    "responsible_agency": "Department of Code Enforcement",
    "final_address": "2101 Mazant St",
    "address_councildis": "D",
    "status": "Pending",
    "rowid": "1202398",
    "final_x": "3693106.54397",
    "final_y": "539023.673482",
    "longitude": "-90.0311519252898",
    "latitude": "29.975770631479435",
    "geocoded_column": {
      "latitude": "29.975770631479435",
      "longitude": "-90.0311519252898"
    }
  },
  {
    "service_request": "2025-1202397",
    "request_type": "Property Maintenance",
    "request_reason": "Property Maintenance",
    "date_created": "2025-06-18T21:55:52.000",
    "date_modified": "2025-06-18T21:55:55.000",
    "request_status": "Pending",
    "responsible_agency": "Department of Code Enforcement",
    "final_address": "2136 Mazant St",
    "address_councildis": "D",
    "status": "Pending",
    "rowid": "1202397",
    "final_x": "3693073.39728",
    "final_y": "539277.06305",
    "longitude": "-90.03124751743344",
    "latitude": "29.976468398065766",
    "geocoded_column": {
      "latitude": "29.976468398065766",
      "longitude": "-90.03124751743344"
    }
  },
  {
    "service_request": "2025-1202396",
    "request_type": "Streetlights",
    "request_reason": "Streetlight Outage/Malfunction",
    "date_created": "2025-06-18T21:55:21.000",
    "date_modified": "2025-06-18T21:55:22.000",
    "request_status": "Pending",
    "responsible_agency": "Department of Public Works",
    "final_address": "1929 Esplanade Ave",
    "address_councildis": "D",
    "status": "Pending",
    "contractor": "Legacy Professional Services",
    "rowid": "1202396",
    "final_x": "3680257.00079",
    "final_y": "537446.59604",
    "longitude": "-90.07178922667175",
    "latitude": "29.971829481547797",
    "geocoded_column": {
      "latitude": "29.971829481547797",
      "longitude": "-90.07178922667175"
    }
  },
  {
    "service_request": "2025-1202395",
    "request_type": "Property Maintenance",
    "request_reason": "Property Maintenance",
    "date_created": "2025-06-18T21:54:50.000",
    "date_modified": "2025-06-18T21:54:51.000",
    "request_status": "Pending",
    "responsible_agency": "Department of Code Enforcement",
    "final_address": "2201 Mazant St",
    "address_councildis": "D",
    "status": "Pending",
    "rowid": "1202395",
    "final_x": "3693183.52336",
    "final_y": "539407.251274",
    "longitude": "-90.0308950336624",
    "latitude": "29.976822927718207",
    "geocoded_column": {
      "latitude": "29.976822927718207",
      "longitude": "-90.0308950336624"
    }
  },
  {
    "service_request": "2025-1202394",
    "request_type": "Streetlights",
    "request_reason": "Streetlight Outage/Malfunction",
    "date_created": "2025-06-18T21:50:35.000",
    "date_modified": "2025-06-18T21:50:37.000",
    "request_status": "Pending",
    "responsible_agency": "Department of Public Works",
    "final_address": "1913 Esplanade Ave",
    "address_councildis": "D",
    "status": "Pending",
    "contractor": "Legacy Professional Services",
    "rowid": "1202394",
    "final_x": "3680365.65781",
    "final_y": "537355.902472",
    "longitude": "-90.0714492252029",
    "latitude": "29.971576815645047",
    "geocoded_column": {
      "latitude": "29.971576815645047",
      "longitude": "-90.0714492252029"
    }
  },
  {
    "service_request": "2025-1202393",
    "request_type": "General Services",
    "request_reason": "General Service Request",
    "date_created": "2025-06-18T20:56:07.000",
    "date_modified": "2025-06-18T20:56:08.000",
    "request_status": "Pending",
    "responsible_agency": "Orleans Parish Communication District",
    "final_address": "3151 Mansfield Ave",
    "address_councildis": "C",
    "status": "Pending",
    "rowid": "1202393",
    "final_x": "3709052.01278",
    "final_y": "518604.194103",
    "longitude": "-89.98155292168204",
    "latitude": "29.91911651023944",
    "geocoded_column": {
      "latitude": "29.91911651023944",
      "longitude": "-89.98155292168204"
    }
  },
  {
    "service_request": "2025-1202392",
    "request_type": "Trash/Recycling",
    "request_reason": "Request a Large Item Pick Up",
    "date_created": "2025-06-18T20:46:56.000",
    "date_modified": "2025-06-18T20:46:58.000",
    "request_status": "Pending",
    "responsible_agency": "Department of Sanitation",
    "final_address": "233 Nashville Ave",
    "address_councildis": "A",
    "status": "Assigned to Contractor",
    "contractor": "IV Waste",
    "rowid": "1202392",
    "final_x": "3665177.39277",
    "final_y": "517156.584565",
    "longitude": "-90.12009168063697",
    "latitude": "29.916486365289625",
    "geocoded_column": {
      "latitude": "29.916486365289625",
      "longitude": "-90.12009168063697"
    }
  },
  {
    "service_request": "2025-1202391",
    "request_type": "Trash/Recycling",
    "request_reason": "Request a Large Item Pick Up",
    "date_created": "2025-06-18T19:27:03.000",
    "date_modified": "2025-06-18T19:27:05.000",
    "request_status": "Pending",
    "responsible_agency": "Department of Sanitation",
    "final_address": "7231 Queensway Dr",
    "address_councildis": "E",
    "status": "Assigned to Contractor",
    "contractor": "Waste Pro",
    "rowid": "1202391",
    "final_x": "3718634.65765",
    "final_y": "570269.282663",
    "longitude": "-89.9493360422512",
    "latitude": "30.06086123686576",
    "geocoded_column": {
      "latitude": "30.06086123686576",
      "longitude": "-89.9493360422512"
    }
  },
  {
    "service_request": "2025-1202390",
    "request_type": "Trash/Recycling",
    "request_reason": "Request a Large Item Pick Up",
    "date_created": "2025-06-18T19:12:09.000",
    "date_modified": "2025-06-18T19:12:10.000",
    "request_status": "Pending",
    "responsible_agency": "Department of Sanitation",
    "final_address": "2825 Ramsey Dr",
    "address_councildis": "C",
    "status": "Assigned to Contractor",
    "contractor": "Richards Disposal",
    "rowid": "1202390",
    "final_x": "3703037.62238",
    "final_y": "520239.55788",
    "longitude": "-90.00047709438773",
    "latitude": "29.923806924869382",
    "geocoded_column": {
      "latitude": "29.923806924869382",
      "longitude": "-90.00047709438773"
    }
  },
  {
    "service_request": "2025-1202389",
    "request_type": "Trash/Recycling",
    "request_reason": "Replace Trash Cart",
    "date_created": "2025-06-18T19:07:44.000",
    "date_modified": "2025-06-18T19:07:46.000",
    "request_status": "Pending",
    "responsible_agency": "Department of Sanitation",
    "final_address": "5410 Tullis Dr",
    "address_councildis": "C",
    "status": "Assigned to Contractor",
    "contractor": "Richards Disposal",
    "rowid": "1202389",
    "final_x": "3703998.89015",
    "final_y": "511979.167152",
    "longitude": "-89.99774667277934",
    "latitude": "29.901062900636397",
    "geocoded_column": {
      "latitude": "29.901062900636397",
      "longitude": "-89.99774667277934"
    }
  },
  {
    "service_request": "2025-1202388",
    "request_type": "Trash/Recycling",
    "request_reason": "Damaged Caused By Contractor",
    "date_created": "2025-06-18T18:57:22.000",
    "date_modified": "2025-06-18T18:57:24.000",
    "request_status": "Pending",
    "responsible_agency": "Department of Sanitation",
    "final_address": "2218 Burdette St",
    "address_councildis": "A",
    "status": "Assigned to Contractor",
    "contractor": "IV Waste",
    "rowid": "1202388",
    "final_x": "3665245.68922",
    "final_y": "530362.889858",
    "longitude": "-90.11943450429679",
    "latitude": "29.952797516686054",
    "geocoded_column": {
      "latitude": "29.952797516686054",
      "longitude": "-90.11943450429679"
    }
  },
  {
    "service_request": "2025-1202387",
    "request_type": "Trash/Recycling",
    "request_reason": "Request a Large Item Pick Up",
    "date_created": "2025-06-18T18:45:34.000",
    "date_modified": "2025-06-18T18:45:35.000",
    "request_status": "Pending",
    "responsible_agency": "Department of Sanitation",
    "final_address": "415 Pelican Ave",
    "address_councildis": "C",
    "status": "Assigned to Contractor",
    "contractor": "Richards Disposal",
    "rowid": "1202387",
    "final_x": "3686639.38582",
    "final_y": "530532.760322",
    "longitude": "-90.05187689152805",
    "latitude": "29.952624067414302",
    "geocoded_column": {
      "latitude": "29.952624067414302",
      "longitude": "-90.05187689152805"
    }
  },
  {
    "service_request": "2025-1202386",
    "request_type": "Property Maintenance",
    "request_reason": "Property Maintenance",
    "date_created": "2025-06-18T18:45:28.000",
    "date_modified": "2025-06-18T18:45:30.000",
    "request_status": "Pending",
    "responsible_agency": "Department of Code Enforcement",
    "final_address": "422 Country Club Dr",
    "address_councildis": "A",
    "status": "Pending",
    "rowid": "1202386",
    "final_x": "3664255.87252",
    "final_y": "544237.185038",
    "longitude": "-90.12209682630302",
    "latitude": "29.990976026474808",
    "geocoded_column": {
      "latitude": "29.990976026474808",
      "longitude": "-90.12209682630302"
    }
  },
  {
    "service_request": "2025-1202385",
    "request_type": "Trash/Recycling",
    "request_reason": "Repair Trash Cart",
    "date_created": "2025-06-18T18:45:26.000",
    "date_modified": "2025-06-18T18:45:28.000",
    "request_status": "Pending",
    "responsible_agency": "Department of Sanitation",
    "final_address": "2117 S Saratoga St",
    "address_councildis": "B",
    "status": "Assigned to Contractor",
    "contractor": "IV Waste",
    "rowid": "1202385",
    "final_x": "3676622.34094",
    "final_y": "525372.404029",
    "longitude": "-90.08368393023287",
    "latitude": "29.93873903020281",
    "geocoded_column": {
      "latitude": "29.93873903020281",
      "longitude": "-90.08368393023287"
    }
  },
  {
    "service_request": "2025-1202384",
    "request_type": "Trash/Recycling",
    "request_reason": "Request a Large Item Pick Up",
    "date_created": "2025-06-18T18:17:27.000",
    "date_modified": "2025-06-18T18:17:29.000",
    "request_status": "Pending",
    "responsible_agency": "Department of Sanitation",
    "final_address": "1343 Seville Dr",
    "address_councildis": "D",
    "status": "Assigned to Contractor",
    "contractor": "IV Waste",
    "rowid": "1202384",
    "final_x": "3677522.12341",
    "final_y": "551222.011541",
    "longitude": "-90.07995052163729",
    "latitude": "30.009789564020988",
    "geocoded_column": {
      "latitude": "30.009789564020988",
      "longitude": "-90.07995052163729"
    }
  },
  {
    "service_request": "2025-1202383",
    "request_type": "Property Maintenance",
    "request_reason": "Property Maintenance",
    "date_created": "2025-06-18T18:13:02.000",
    "date_modified": "2025-06-18T18:13:03.000",
    "request_status": "Pending",
    "responsible_agency": "Department of Code Enforcement",
    "final_address": "1040 St Louis St",
    "address_councildis": "C",
    "status": "Pending",
    "rowid": "1202383",
    "final_x": "3680957.00827",
    "final_y": "532687.133892",
    "longitude": "-90.06974425193025",
    "latitude": "29.958721380409784",
    "geocoded_column": {
      "latitude": "29.958721380409784",
      "longitude": "-90.06974425193025"
    }
  },
  {
    "service_request": "2025-1202382",
    "request_type": "Trash/Recycling",
    "request_reason": "Request a Large Item Pick Up",
    "date_created": "2025-06-18T18:11:10.000",
    "date_modified": "2025-06-18T18:11:13.000",
    "request_status": "Pending",
    "responsible_agency": "Department of Sanitation",
    "final_address": "7161 Salem Dr",
    "address_councildis": "E",
    "status": "Assigned to Contractor",
    "contractor": "Waste Pro",
    "rowid": "1202382",
    "final_x": "3706409.02891",
    "final_y": "561448.445918",
    "longitude": "-89.98830794265791",
    "latitude": "30.03700782271376",
    "geocoded_column": {
      "latitude": "30.03700782271376",
      "longitude": "-89.98830794265791"
    }
  },
  {
    "service_request": "2025-1202381",
    "request_type": "Healthy Homes",
    "request_reason": "Healthy Homes",
    "date_created": "2025-06-18T18:03:03.000",
    "date_modified": "2025-06-18T18:03:04.000",
    "request_status": "Pending",
    "responsible_agency": "Department of Code Enforcement",
    "final_address": "7822 Henley St",
    "address_councildis": "E",
    "status": "Pending",
    "rowid": "1202381",
    "final_x": "3696605.82096",
    "final_y": "559811.327133",
    "longitude": "-90.01934740997575",
    "latitude": "30.032819140767156",
    "geocoded_column": {
      "latitude": "30.032819140767156",
      "longitude": "-90.01934740997575"
    }
  },
  {
    "service_request": "2025-1202380",
    "request_type": "Trash/Recycling",
    "request_reason": "Repair Trash Cart",
    "date_created": "2025-06-18T17:56:21.000",
    "date_modified": "2025-06-18T17:56:24.000",
    "request_status": "Pending",
    "responsible_agency": "Department of Sanitation",
    "final_address": "103 Cambridge Ct",
    "address_councildis": "C",
    "status": "Assigned to Contractor",
    "contractor": "Richards Disposal",
    "rowid": "1202380",
    "final_x": "3705688.87281",
    "final_y": "518360.886262",
    "longitude": "-89.99217753808205",
    "latitude": "29.91855616519488",
    "geocoded_column": {
      "latitude": "29.91855616519488",
      "longitude": "-89.99217753808205"
    }
  },
  {
    "service_request": "2025-1202379",
    "request_type": "Trash/Recycling",
    "request_reason": "Request a Large Item Pick Up",
    "date_created": "2025-06-18T17:52:55.000",
    "date_modified": "2025-06-18T17:52:56.000",
    "request_status": "Pending",
    "responsible_agency": "Department of Sanitation",
    "final_address": "1638 Dufossat St",
    "address_councildis": "B",
    "status": "Assigned to Contractor",
    "contractor": "IV Waste",
    "rowid": "1202379",
    "final_x": "3668081.06983",
    "final_y": "521521.075257",
    "longitude": "-90.11077948217309",
    "latitude": "29.92840247859922",
    "geocoded_column": {
      "latitude": "29.92840247859922",
      "longitude": "-90.11077948217309"
    }
  },
  {
    "service_request": "2025-1202378",
    "request_type": "Trash/Recycling",
    "request_reason": "Damaged Caused By Contractor",
    "date_created": "2025-06-18T17:52:08.000",
    "date_modified": "2025-06-18T17:52:10.000",
    "request_status": "Pending",
    "responsible_agency": "Department of Sanitation",
    "final_address": "2450 Hudson Pl",
    "address_councildis": "C",
    "status": "Assigned to Contractor",
    "contractor": "Richards Disposal",
    "rowid": "1202378",
    "final_x": "3703501.68394",
    "final_y": "522008.565626",
    "longitude": "-89.99894720179628",
    "latitude": "29.928656231169903",
    "geocoded_column": {
      "latitude": "29.928656231169903",
      "longitude": "-89.99894720179628"
    }
  },
  {
    "service_request": "2025-1202377",
    "request_type": "Drainage",
    "request_reason": "Ditch and Culvert Maintenance",
    "date_created": "2025-06-18T17:33:42.000",
    "date_modified": "2025-06-18T17:33:43.000",
    "request_status": "Pending",
    "responsible_agency": "Department of Public Works",
    "final_address": "1730 River Oaks Dr",
    "address_councildis": "C",
    "status": "Pending",
    "rowid": "1202377",
    "final_x": "3701742.75946",
    "final_y": "524207.6631",
    "longitude": "-90.00441920736907",
    "latitude": "29.934759190529803",
    "geocoded_column": {
      "latitude": "29.934759190529803",
      "longitude": "-90.00441920736907"
    }
  },
  {
    "service_request": "2025-1202376",
    "request_type": "Trash/Recycling",
    "request_reason": "Repair Trash Cart",
    "date_created": "2025-06-18T17:28:26.000",
    "date_modified": "2025-06-18T17:28:28.000",
    "request_status": "Pending",
    "responsible_agency": "Department of Sanitation",
    "final_address": "6010 Perrier St",
    "address_councildis": "A",
    "status": "Assigned to Contractor",
    "contractor": "IV Waste",
    "rowid": "1202376",
    "final_x": "3664961.47642",
    "final_y": "520503.37132",
    "longitude": "-90.1206614034837",
    "latitude": "29.925695266285246",
    "geocoded_column": {
      "latitude": "29.925695266285246",
      "longitude": "-90.1206614034837"
    }
  },
  {
    "service_request": "2025-1202375",
    "request_type": "Property Maintenance",
    "request_reason": "Property Maintenance",
    "date_created": "2025-06-18T17:16:11.000",
    "date_modified": "2025-06-18T17:16:12.000",
    "request_status": "Pending",
    "responsible_agency": "Department of Code Enforcement",
    "final_address": "1343 Spain St",
    "address_councildis": "C",
    "status": "Pending",
    "rowid": "1202375",
    "final_x": "3686085.65078",
    "final_y": "537465.977672",
    "longitude": "-90.0533807908755",
    "latitude": "29.971705035761463",
    "geocoded_column": {
      "latitude": "29.971705035761463",
      "longitude": "-90.0533807908755"
    }
  },
  {
    "service_request": "2025-1202374",
    "request_type": "Property Maintenance",
    "request_reason": "Property Maintenance",
    "date_created": "2025-06-18T17:13:32.000",
    "date_modified": "2025-06-18T17:13:34.000",
    "request_status": "Pending",
    "responsible_agency": "Department of Code Enforcement",
    "final_address": "2362 N Villere St",
    "address_councildis": "C",
    "status": "Pending",
    "rowid": "1202374",
    "final_x": "3686236.839",
    "final_y": "537478.66228",
    "longitude": "-90.05290286873696",
    "latitude": "29.97173526941767",
    "geocoded_column": {
      "latitude": "29.97173526941767",
      "longitude": "-90.05290286873696"
    }
  },
  {
    "service_request": "2025-1202373",
    "request_type": "General Services",
    "request_reason": "General Service Request",
    "date_created": "2025-06-18T17:12:48.000",
    "date_modified": "2025-06-18T17:12:50.000",
    "request_status": "Pending",
    "responsible_agency": "Orleans Parish Communication District",
    "final_address": "6260 Vicksburg St",
    "address_councildis": "A",
    "status": "Pending",
    "rowid": "1202373",
    "final_x": "3668986.5122",
    "final_y": "549039.298323",
    "longitude": "-90.10699146714231",
    "latitude": "30.00404183037819",
    "geocoded_column": {
      "latitude": "30.00404183037819",
      "longitude": "-90.10699146714231"
    }
  },
  {
    "service_request": "2025-1202372",
    "request_type": "Trash/Recycling",
    "request_reason": "Request a Large Item Pick Up",
    "date_created": "2025-06-18T17:06:56.000",
    "date_modified": "2025-06-18T17:06:58.000",
    "request_status": "Pending",
    "responsible_agency": "Department of Sanitation",
    "final_address": "712 Marigny St",
    "address_councildis": "C",
    "status": "Assigned to Contractor",
    "contractor": "IV Waste",
    "rowid": "1202372",
    "final_x": "3685494.5165",
    "final_y": "535033.960326",
    "longitude": "-90.05533334528641",
    "latitude": "29.96503597640276",
    "geocoded_column": {
      "latitude": "29.96503597640276",
      "longitude": "-90.05533334528641"
    }
  },
  {
    "service_request": "2025-1202371",
    "request_type": "Abandoned Vehicles",
    "request_reason": "Abandoned/Junk Vehicles",
    "date_created": "2025-06-18T16:58:44.000",
    "date_modified": "2025-06-18T16:58:47.000",
    "request_status": "Pending",
    "responsible_agency": "Department of Public Works",
    "final_address": "1218 Ursulines Ave",
    "address_councildis": "C",
    "status": "Pending",
    "rowid": "1202371",
    "final_x": "3681804.1933",
    "final_y": "534856.825222",
    "longitude": "-90.06699334407215",
    "latitude": "29.964661574418113",
    "geocoded_column": {
      "latitude": "29.964661574418113",
      "longitude": "-90.06699334407215"
    }
  },
  {
    "service_request": "2025-1202370",
    "request_type": "Roads and Streets",
    "request_reason": "Pothole",
    "date_created": "2025-06-18T16:56:46.000",
    "date_modified": "2025-06-18T16:56:48.000",
    "request_status": "Pending",
    "responsible_agency": "Department of Public Works",
    "final_address": "4000 BLK Mithra St",
    "address_councildis": "D",
    "status": "Pending",
    "rowid": "1202370",
    "final_x": "3688832.64854",
    "final_y": "553059.197147",
    "longitude": "-90.04415131578097",
    "latitude": "30.014496111141554",
    "geocoded_column": {
      "latitude": "30.014496111141554",
      "longitude": "-90.04415131578097"
    }
  },
  {
    "service_request": "2025-1202369",
    "request_type": "Trash/Recycling",
    "request_reason": "Request a Large Item Pick Up",
    "date_created": "2025-06-18T16:51:57.000",
    "date_modified": "2025-06-18T16:51:59.000",
    "request_status": "Pending",
    "responsible_agency": "Department of Sanitation",
    "final_address": "4617 Knight Dr",
    "address_councildis": "E",
    "status": "Assigned to Contractor",
    "contractor": "Waste Pro",
    "rowid": "1202369",
    "final_x": "3708289.81988",
    "final_y": "554738.46364",
    "longitude": "-89.98261424594638",
    "latitude": "30.018497164438",
    "geocoded_column": {
      "latitude": "30.018497164438",
      "longitude": "-89.98261424594638"
    }
  },
  {
    "service_request": "2025-1202368",
    "request_type": "Drainage",
    "request_reason": "Catch Basin Clogged",
    "date_created": "2025-06-18T16:50:14.000",
    "date_modified": "2025-06-18T16:50:15.000",
    "request_status": "Pending",
    "responsible_agency": "Sewerage & Water Board",
    "final_address": "500 S Gayoso St",
    "address_councildis": "B",
    "status": "Pending",
    "rowid": "1202368",
    "final_x": "3673379.19099",
    "final_y": "534541.839493",
    "longitude": "-90.09360972003024",
    "latitude": "29.96404880070456",
    "geocoded_column": {
      "latitude": "29.96404880070456",
      "longitude": "-90.09360972003024"
    }
  },
  {
    "service_request": "2025-1202367",
    "request_type": "Drainage",
    "request_reason": "Street Flooding",
    "date_created": "2025-06-18T16:49:36.000",
    "date_modified": "2025-06-18T16:49:38.000",
    "request_status": "Pending",
    "responsible_agency": "Sewerage & Water Board",
    "final_address": "500 BLK N Gayoso St",
    "address_councildis": "A",
    "status": "Pending",
    "rowid": "1202367",
    "final_x": "3675371.60066",
    "final_y": "537213.674704",
    "longitude": "-90.087226103928",
    "latitude": "29.97133601890712",
    "geocoded_column": {
      "latitude": "29.97133601890712",
      "longitude": "-90.087226103928"
    }
  },
  {
    "service_request": "2025-1202366",
    "request_type": "Trash/Recycling",
    "request_reason": "Request a Large Item Pick Up",
    "date_created": "2025-06-18T16:45:30.000",
    "date_modified": "2025-06-18T16:45:32.000",
    "request_status": "Pending",
    "responsible_agency": "Department of Sanitation",
    "final_address": "3901 Royal St",
    "address_councildis": "C",
    "status": "Assigned to Contractor",
    "contractor": "IV Waste",
    "rowid": "1202366",
    "final_x": "3691180.6872",
    "final_y": "533898.863493",
    "longitude": "-90.03741735559026",
    "latitude": "29.96173924928404",
    "geocoded_column": {
      "latitude": "29.96173924928404",
      "longitude": "-90.03741735559026"
    }
  },
  {
    "service_request": "2025-1202365",
    "request_type": "Abandoned Vehicles",
    "request_reason": "Abandoned/Junk Vehicles",
    "date_created": "2025-06-18T16:40:04.000",
    "date_modified": "2025-06-18T16:40:06.000",
    "request_status": "Pending",
    "responsible_agency": "Department of Public Works",
    "final_address": "7000 BLK Oleander St",
    "address_councildis": "B",
    "status": "Pending",
    "rowid": "1202365",
    "final_x": "3668414.68183",
    "final_y": "532162.182511",
    "longitude": "-90.10936751777801",
    "latitude": "29.957652288173545",
    "geocoded_column": {
      "latitude": "29.957652288173545",
      "longitude": "-90.10936751777801"
    }
  },
  {
    "service_request": "2025-1202364",
    "request_type": "Trash/Recycling",
    "request_reason": "Repair Trash Cart",
    "date_created": "2025-06-18T16:33:54.000",
    "date_modified": "2025-06-18T16:33:55.000",
    "request_status": "Pending",
    "responsible_agency": "Department of Sanitation",
    "final_address": "7219 Pritchard Pl",
    "address_councildis": "B",
    "status": "Assigned to Contractor",
    "contractor": "IV Waste",
    "rowid": "1202364",
    "final_x": "3667416.52276",
    "final_y": "531689.984067",
    "longitude": "-90.11253530995901",
    "latitude": "29.956383176977734",
    "geocoded_column": {
      "latitude": "29.956383176977734",
      "longitude": "-90.11253530995901"
    }
  },
  {
    "service_request": "2025-1202363",
    "request_type": "Trash/Recycling",
    "request_reason": "Request a Large Item Pick Up",
    "date_created": "2025-06-18T16:30:08.000",
    "date_modified": "2025-06-18T16:30:10.000",
    "request_status": "Pending",
    "responsible_agency": "Department of Sanitation",
    "final_address": "4103 Gibson St",
    "address_councildis": "D",
    "status": "Assigned to Contractor",
    "contractor": "IV Waste",
    "rowid": "1202363",
    "final_x": "3678796.98683",
    "final_y": "547346.908561",
    "longitude": "-90.07605710504637",
    "latitude": "29.999096006866594",
    "geocoded_column": {
      "latitude": "29.999096006866594",
      "longitude": "-90.07605710504637"
    }
  },
  {
    "service_request": "2025-1202362",
    "request_type": "Trash/Recycling",
    "request_reason": "Request a Large Item Pick Up",
    "date_created": "2025-06-18T16:25:44.000",
    "date_modified": "2025-06-18T16:25:46.000",
    "request_status": "Pending",
    "responsible_agency": "Department of Sanitation",
    "final_address": "4940 Congress Dr",
    "address_councildis": "D",
    "status": "Assigned to Contractor",
    "contractor": "IV Waste",
    "rowid": "1202362",
    "final_x": "3692018.74141",
    "final_y": "552420.01071",
    "longitude": "-90.03410776849394",
    "latitude": "30.01263963596709",
    "geocoded_column": {
      "latitude": "30.01263963596709",
      "longitude": "-90.03410776849394"
    }
  },
  {
    "service_request": "2025-1202361",
    "request_type": "Drainage",
    "request_reason": "Ditch and Culvert Maintenance",
    "date_created": "2025-06-18T16:19:58.000",
    "date_modified": "2025-06-18T16:20:00.000",
    "request_status": "Pending",
    "responsible_agency": "Department of Public Works",
    "final_address": "WOODLAND HWY & BRYSON ST",
    "address_councildis": "C",
    "status": "Pending",
    "rowid": "1202361",
    "final_x": "3714753.7",
    "final_y": "517326.98",
    "longitude": "-89.96360400141769",
    "latitude": "29.915418437614345",
    "geocoded_column": {
      "latitude": "29.915418437614345",
      "longitude": "-89.96360400141769"
    }
  },
  {
    "service_request": "2025-1202360",
    "request_type": "Trash/Recycling",
    "request_reason": "Repair Trash Cart",
    "date_created": "2025-06-18T16:17:08.000",
    "date_modified": "2025-06-18T16:17:09.000",
    "request_status": "Pending",
    "responsible_agency": "Department of Sanitation",
    "final_address": "3644 Republic St",
    "address_councildis": "D",
    "status": "Assigned to Contractor",
    "contractor": "IV Waste",
    "rowid": "1202360",
    "final_x": "3680384.92456",
    "final_y": "545883.911248",
    "longitude": "-90.07109169095786",
    "latitude": "29.99502527879217",
    "geocoded_column": {
      "latitude": "29.99502527879217",
      "longitude": "-90.07109169095786"
    }
  },
  {
    "service_request": "2025-1202359",
    "request_type": "Trash/Recycling",
    "request_reason": "Damaged Caused By Contractor",
    "date_created": "2025-06-18T16:16:46.000",
    "date_modified": "2025-06-18T16:16:47.000",
    "request_status": "Pending",
    "responsible_agency": "Department of Sanitation",
    "final_address": "1207 Henry Clay Ave",
    "address_councildis": "A",
    "status": "Assigned to Contractor",
    "contractor": "IV Waste",
    "rowid": "1202359",
    "final_x": "3664380.25933",
    "final_y": "520884.181689",
    "longitude": "-90.12248343488895",
    "latitude": "29.92675927607611",
    "geocoded_column": {
      "latitude": "29.92675927607611",
      "longitude": "-90.12248343488895"
    }
  },
  {
    "service_request": "2025-1202358",
    "request_type": "Trash/Recycling",
    "request_reason": "Request a Large Item Pick Up",
    "date_created": "2025-06-18T16:16:28.000",
    "date_modified": "2025-06-18T16:16:30.000",
    "request_status": "Pending",
    "responsible_agency": "Department of Sanitation",
    "final_address": "1530 Music St",
    "address_councildis": "C",
    "status": "Assigned to Contractor",
    "contractor": "IV Waste",
    "rowid": "1202358",
    "final_x": "3686674.41084",
    "final_y": "538177.258633",
    "longitude": "-90.05149627141928",
    "latitude": "29.973642712564057",
    "geocoded_column": {
      "latitude": "29.973642712564057",
      "longitude": "-90.05149627141928"
    }
  },
  {
    "service_request": "2025-1202357",
    "request_type": "Trash/Recycling",
    "request_reason": "Request a Large Item Pick Up",
    "date_created": "2025-06-18T16:15:59.000",
    "date_modified": "2025-06-18T16:16:00.000",
    "request_status": "Pending",
    "responsible_agency": "Department of Sanitation",
    "final_address": "4668 Francisco Verrett Dr",
    "address_councildis": "E",
    "status": "Assigned to Contractor",
    "contractor": "Waste Pro",
    "rowid": "1202357",
    "final_x": "3704225.39236",
    "final_y": "554817.277016",
    "longitude": "-89.99545334385458",
    "latitude": "30.018844983673084",
    "geocoded_column": {
      "latitude": "30.018844983673084",
      "longitude": "-89.99545334385458"
    }
  },
  {
    "service_request": "2025-1202356",
    "request_type": "Trash/Recycling",
    "request_reason": "Request a Large Item Pick Up",
    "date_created": "2025-06-18T16:14:12.000",
    "date_modified": "2025-06-18T16:14:15.000",
    "request_status": "Pending",
    "responsible_agency": "Department of Sanitation",
    "final_address": "1315 Peniston St",
    "address_councildis": "B",
    "status": "Assigned to Contractor",
    "contractor": "IV Waste",
    "rowid": "1202356",
    "final_x": "3673101.31451",
    "final_y": "520423.11276",
    "longitude": "-90.09496908964098",
    "latitude": "29.925235197927364",
    "geocoded_column": {
      "latitude": "29.925235197927364",
      "longitude": "-90.09496908964098"
    }
  },
  {
    "service_request": "2025-1202355",
    "request_type": "Trash/Recycling",
    "request_reason": "Request a Large Item Pick Up",
    "date_created": "2025-06-18T16:12:40.000",
    "date_modified": "2025-06-18T16:12:41.000",
    "request_status": "Pending",
    "responsible_agency": "Department of Sanitation",
    "final_address": "3127 Derby Pl",
    "address_councildis": "A",
    "status": "Assigned to Contractor",
    "contractor": "IV Waste",
    "rowid": "1202355",
    "final_x": "3678277.87912",
    "final_y": "542928.460109",
    "longitude": "-90.07784991297075",
    "latitude": "29.986962477729037",
    "geocoded_column": {
      "latitude": "29.986962477729037",
      "longitude": "-90.07784991297075"
    }
  },
  {
    "service_request": "2025-1202354",
    "request_type": "Abandoned Vehicles",
    "request_reason": "Abandoned/Junk Vehicles",
    "date_created": "2025-06-18T16:11:42.000",
    "date_modified": "2025-06-18T16:12:26.000",
    "request_status": "Pending",
    "responsible_agency": "Department of Public Works",
    "final_address": "LAUREL ST & 7TH ST",
    "address_councildis": "B",
    "status": "Pending",
    "rowid": "1202354",
    "final_x": "3676777.1",
    "final_y": "519766.08",
    "longitude": "-90.08338841737097",
    "latitude": "29.923318825202557",
    "geocoded_column": {
      "latitude": "29.923318825202557",
      "longitude": "-90.08338841737097"
    }
  },
  {
    "service_request": "2025-1202353",
    "request_type": "Trash/Recycling",
    "request_reason": "Request a Large Item Pick Up",
    "date_created": "2025-06-18T16:11:42.000",
    "date_modified": "2025-06-18T16:11:43.000",
    "request_status": "Pending",
    "responsible_agency": "Department of Sanitation",
    "final_address": "4811 Redwood St",
    "address_councildis": "E",
    "status": "Assigned to Contractor",
    "contractor": "Waste Pro",
    "rowid": "1202353",
    "final_x": "3712526.34354",
    "final_y": "556506.096282",
    "longitude": "-89.96916202760025",
    "latitude": "30.02321946222862",
    "geocoded_column": {
      "latitude": "30.02321946222862",
      "longitude": "-89.96916202760025"
    }
  },
  {
    "service_request": "2025-1202352",
    "request_type": "Trash/Recycling",
    "request_reason": "Illegal Dumping",
    "date_created": "2025-06-18T16:10:32.000",
    "date_modified": "2025-06-18T16:10:34.000",
    "request_status": "Pending",
    "responsible_agency": "Department of Sanitation",
    "final_address": "1600 BLK Dufossat St",
    "address_councildis": "B",
    "status": "Pending",
    "rowid": "1202352",
    "final_x": "3668138.5295",
    "final_y": "521631.641892",
    "longitude": "-90.11059436927883",
    "latitude": "29.928704815820403",
    "geocoded_column": {
      "latitude": "29.928704815820403",
      "longitude": "-90.11059436927883"
    }
  },
  {
    "service_request": "2025-1202351",
    "request_type": "Drainage",
    "request_reason": "Catch Basin Clogged",
    "date_created": "2025-06-18T16:09:21.000",
    "date_modified": "2025-06-18T16:09:22.000",
    "request_status": "Pending",
    "responsible_agency": "Sewerage & Water Board",
    "final_address": "251 Oakmont Dr",
    "address_councildis": "E",
    "status": "Pending",
    "rowid": "1202351",
    "final_x": "3719942.27442",
    "final_y": "562834.918496",
    "longitude": "-89.94548737869408",
    "latitude": "30.040376314649286",
    "geocoded_column": {
      "latitude": "30.040376314649286",
      "longitude": "-89.94548737869408"
    }
  },
  {
    "service_request": "2025-1202350",
    "request_type": "Parks & Parkways",
    "request_reason": "Request Tree Service (Right of Way/Public Property)",
    "date_created": "2025-06-18T16:08:36.000",
    "date_modified": "2025-06-18T16:08:39.000",
    "request_status": "Pending",
    "responsible_agency": "Department of Parks & Parkway",
    "final_address": "711 Pelican Ave",
    "address_councildis": "C",
    "status": "Pending",
    "rowid": "1202350",
    "final_x": "3687667.5519",
    "final_y": "530735.615106",
    "longitude": "-90.04862323359524",
    "latitude": "29.95315019127049",
    "geocoded_column": {
      "latitude": "29.95315019127049",
      "longitude": "-90.04862323359524"
    }
  },
  {
    "service_request": "2025-1202349",
    "request_type": "Trash/Recycling",
    "request_reason": "Request a Large Item Pick Up",
    "date_created": "2025-06-18T16:05:32.000",
    "date_modified": "2025-06-18T16:05:34.000",
    "request_status": "Pending",
    "responsible_agency": "Department of Sanitation",
    "final_address": "8925 Fig St",
    "address_councildis": "A",
    "status": "Assigned to Contractor",
    "contractor": "IV Waste",
    "rowid": "1202349",
    "final_x": "3664096.12749",
    "final_y": "535202.769862",
    "longitude": "-90.12290288785279",
    "latitude": "29.96613904359966",
    "geocoded_column": {
      "latitude": "29.96613904359966",
      "longitude": "-90.12290288785279"
    }
  },
  {
    "service_request": "2025-1202348",
    "request_type": "Trash/Recycling",
    "request_reason": "Request a Large Item Pick Up",
    "date_created": "2025-06-18T16:01:23.000",
    "date_modified": "2025-06-18T16:01:25.000",
    "request_status": "Pending",
    "responsible_agency": "Department of Sanitation",
    "final_address": "10721 Willowbrae Dr",
    "address_councildis": "E",
    "status": "Assigned to Contractor",
    "contractor": "Waste Pro",
    "rowid": "1202348",
    "final_x": "3710785.62981",
    "final_y": "564175.988577",
    "longitude": "-89.97437482566951",
    "latitude": "30.04436548821462",
    "geocoded_column": {
      "latitude": "30.04436548821462",
      "longitude": "-89.97437482566951"
    }
  },
  {
    "service_request": "2025-1202347",
    "request_type": "Roads and Streets",
    "request_reason": "Pothole",
    "date_created": "2025-06-18T15:57:08.000",
    "date_modified": "2025-06-18T15:57:09.000",
    "request_status": "Pending",
    "responsible_agency": "Department of Public Works",
    "final_address": "3228 Byrne Pl",
    "address_councildis": "D",
    "status": "Pending",
    "rowid": "1202347",
    "final_x": "3690873.91158",
    "final_y": "540108.019787",
    "longitude": "-90.03816447192305",
    "latitude": "29.97882177508256",
    "geocoded_column": {
      "latitude": "29.97882177508256",
      "longitude": "-90.03816447192305"
    }
  },
  {
    "service_request": "2025-1202346",
    "request_type": "Parks & Parkways",
    "request_reason": "Request Tree Service (Right of Way/Public Property)",
    "date_created": "2025-06-18T15:56:52.000",
    "date_modified": "2025-06-18T15:56:54.000",
    "request_status": "Pending",
    "responsible_agency": "Department of Parks & Parkway",
    "final_address": "5819 Vicksburg St",
    "address_councildis": "A",
    "status": "Pending",
    "rowid": "1202346",
    "final_x": "3668853.27674",
    "final_y": "546078.09544",
    "longitude": "-90.10751246237432",
    "latitude": "29.995903468829738",
    "geocoded_column": {
      "latitude": "29.995903468829738",
      "longitude": "-90.10751246237432"
    }
  },
  {
    "service_request": "2025-1202345",
    "request_type": "Streetlights",
    "request_reason": "Streetlight Outage/Malfunction",
    "date_created": "2025-06-18T15:54:44.000",
    "date_modified": "2025-06-18T15:56:46.000",
    "request_status": "Pending",
    "responsible_agency": "Department of Public Works",
    "final_address": "2275 Bayou Rd",
    "address_councildis": "D",
    "status": "Pending",
    "contractor": "Legacy Professional Services",
    "rowid": "1202345",
    "final_x": "3679252.5428",
    "final_y": "538379.042633",
    "longitude": "-90.0749291214379",
    "latitude": "29.9744237586363",
    "geocoded_column": {
      "latitude": "29.9744237586363",
      "longitude": "-90.0749291214379"
    }
  },
  {
    "service_request": "2025-1202344",
    "request_type": "Streetlights",
    "request_reason": "Streetlight Outage/Malfunction",
    "date_created": "2025-06-18T15:54:15.000",
    "date_modified": "2025-06-18T15:56:16.000",
    "request_status": "Pending",
    "responsible_agency": "Department of Public Works",
    "final_address": "3435 Republic St",
    "address_councildis": "D",
    "status": "Pending",
    "contractor": "Legacy Professional Services",
    "rowid": "1202344",
    "final_x": "3680531.14325",
    "final_y": "545131.625871",
    "longitude": "-90.07065598919823",
    "latitude": "29.99295233031461",
    "geocoded_column": {
      "latitude": "29.99295233031461",
      "longitude": "-90.07065598919823"
    }
  },
  {
    "service_request": "2025-1202343",
    "request_type": "Trash/Recycling",
    "request_reason": "Request a Large Item Pick Up",
    "date_created": "2025-06-18T15:54:04.000",
    "date_modified": "2025-06-18T15:54:06.000",
    "request_status": "Pending",
    "responsible_agency": "Department of Sanitation",
    "final_address": "4661 Dale St",
    "address_councildis": "E",
    "status": "Assigned to Contractor",
    "contractor": "Waste Pro",
    "rowid": "1202343",
    "final_x": "3699551.27146",
    "final_y": "554655.280984",
    "longitude": "-90.01022772653673",
    "latitude": "30.018548788790106",
    "geocoded_column": {
      "latitude": "30.018548788790106",
      "longitude": "-90.01022772653673"
    }
  },
  {
    "service_request": "2025-1202342",
    "request_type": "Trash/Recycling",
    "request_reason": "Illegal Dumping",
    "date_created": "2025-06-18T15:53:40.000",
    "date_modified": "2025-06-18T15:53:42.000",
    "request_status": "Pending",
    "responsible_agency": "Department of Sanitation",
    "final_address": "511 Topaz St",
    "address_councildis": "D",
    "status": "Pending",
    "rowid": "1202342",
    "final_x": "3668453.25089",
    "final_y": "556639.597466",
    "longitude": "-90.10841946250535",
    "latitude": "30.024955656642717",
    "geocoded_column": {
      "latitude": "30.024955656642717",
      "longitude": "-90.10841946250535"
    }
  },
  {
    "service_request": "2025-1202341",
    "request_type": "Trash/Recycling",
    "request_reason": "Replace Trash Cart",
    "date_created": "2025-06-18T15:45:05.000",
    "date_modified": "2025-06-18T15:45:07.000",
    "request_status": "Pending",
    "responsible_agency": "Department of Sanitation",
    "final_address": "7814 Maple St",
    "address_councildis": "A",
    "status": "Assigned to Contractor",
    "contractor": "IV Waste",
    "rowid": "1202341",
    "final_x": "3661732.06234",
    "final_y": "526641.391358",
    "longitude": "-90.13065236794843",
    "latitude": "29.94266647056257",
    "geocoded_column": {
      "latitude": "29.94266647056257",
      "longitude": "-90.13065236794843"
    }
  },
  {
    "service_request": "2025-1202340",
    "request_type": "Trash/Recycling",
    "request_reason": "Request a Large Item Pick Up",
    "date_created": "2025-06-18T15:44:49.000",
    "date_modified": "2025-06-18T15:44:51.000",
    "request_status": "Pending",
    "responsible_agency": "Department of Sanitation",
    "final_address": "7420 Alabama St",
    "address_councildis": "D",
    "status": "Assigned to Contractor",
    "contractor": "Waste Pro",
    "rowid": "1202340",
    "final_x": "3695037.14832",
    "final_y": "557960.974171",
    "longitude": "-90.0243713268422",
    "latitude": "30.02778074511043",
    "geocoded_column": {
      "latitude": "30.02778074511043",
      "longitude": "-90.0243713268422"
    }
  },
  {
    "service_request": "2025-1202339",
    "request_type": "Roads and Streets",
    "request_reason": "Pothole",
    "date_created": "2025-06-18T15:41:46.000",
    "date_modified": "2025-06-18T15:41:48.000",
    "request_status": "Pending",
    "responsible_agency": "Department of Public Works",
    "final_address": "4236 Mithra St",
    "address_councildis": "D",
    "status": "Pending",
    "rowid": "1202339",
    "final_x": "3689643.43862",
    "final_y": "553041.555927",
    "longitude": "-90.0415902547092",
    "latitude": "30.014422496726098",
    "geocoded_column": {
      "latitude": "30.014422496726098",
      "longitude": "-90.0415902547092"
    }
  },
  {
    "service_request": "2025-1202338",
    "request_type": "Traffic Signals",
    "request_reason": "Traffic Signal Malfunctioning or Damaged",
    "date_created": "2025-06-18T15:39:07.000",
    "date_modified": "2025-06-18T15:39:09.000",
    "request_status": "Pending",
    "responsible_agency": "Department of Public Works",
    "final_address": "7001 Bullard Ave",
    "address_councildis": "E",
    "status": "Pending",
    "rowid": "1202338",
    "final_x": "3714772.26917",
    "final_y": "565501.191074",
    "longitude": "-89.96172524141116",
    "latitude": "30.047878648707098",
    "geocoded_column": {
      "latitude": "30.047878648707098",
      "longitude": "-89.96172524141116"
    }
  },
  {
    "service_request": "2025-1202337",
    "request_type": "Trash/Recycling",
    "request_reason": "Replace Trash Cart",
    "date_created": "2025-06-18T15:38:27.000",
    "date_modified": "2025-06-18T15:38:39.000",
    "request_status": "Pending",
    "responsible_agency": "Department of Sanitation",
    "final_address": "4176 Bienville Ave",
    "address_councildis": "A",
    "status": "Assigned to Contractor",
    "contractor": "IV Waste",
    "rowid": "1202337",
    "final_x": "3671055.53319",
    "final_y": "539284.013002",
    "longitude": "-90.10078655567156",
    "latitude": "29.977157105902226",
    "geocoded_column": {
      "latitude": "29.977157105902226",
      "longitude": "-90.10078655567156"
    }
  },
  {
    "service_request": "2025-1202336",
    "request_type": "Abandoned Vehicles",
    "request_reason": "Abandoned/Junk Vehicles",
    "date_created": "2025-06-18T15:28:08.000",
    "date_modified": "2025-06-18T15:29:29.000",
    "request_status": "Pending",
    "responsible_agency": "Department of Public Works",
    "final_address": "340 S Olympia St",
    "address_councildis": "A",
    "status": "Pending",
    "rowid": "1202336",
    "final_x": "3668781.15546",
    "final_y": "538695.732873",
    "longitude": "-90.1079896720759",
    "latitude": "29.975606607493678",
    "geocoded_column": {
      "latitude": "29.975606607493678",
      "longitude": "-90.1079896720759"
    }
  },
  {
    "service_request": "2025-1202335",
    "request_type": "Parks & Parkways",
    "request_reason": "Request Tree Service (Right of Way/Public Property)",
    "date_created": "2025-06-18T15:27:11.000",
    "date_modified": "2025-06-18T15:27:12.000",
    "request_status": "Pending",
    "responsible_agency": "Department of Parks & Parkway",
    "final_address": "1505 Dufossat St",
    "address_councildis": "B",
    "status": "Pending",
    "rowid": "1202335",
    "final_x": "3668186.71681",
    "final_y": "520463.654776",
    "longitude": "-90.11048160048723",
    "latitude": "29.92549180818648",
    "geocoded_column": {
      "latitude": "29.92549180818648",
      "longitude": "-90.11048160048723"
    }
  },
  {
    "service_request": "2025-1202334",
    "request_type": "Trash/Recycling",
    "request_reason": "Missed Trash Pick-Up",
    "date_created": "2025-06-18T15:26:25.000",
    "date_modified": "2025-06-18T15:26:27.000",
    "request_status": "Pending",
    "responsible_agency": "Department of Sanitation",
    "final_address": "5641 New England Dr",
    "address_councildis": "E",
    "status": "Assigned to Contractor",
    "contractor": "Waste Pro",
    "rowid": "1202334",
    "final_x": "3723721.53606",
    "final_y": "564323.661025",
    "longitude": "-89.93348636422216",
    "latitude": "30.044343338129906",
    "geocoded_column": {
      "latitude": "30.044343338129906",
      "longitude": "-89.93348636422216"
    }
  },
  {
    "service_request": "2025-1202333",
    "request_type": "Trash/Recycling",
    "request_reason": "Request a Large Item Pick Up",
    "date_created": "2025-06-18T15:23:43.000",
    "date_modified": "2025-06-18T15:23:44.000",
    "request_status": "Pending",
    "responsible_agency": "Department of Sanitation",
    "final_address": "11433 Melvin Pl",
    "address_councildis": "E",
    "status": "Assigned to Contractor",
    "contractor": "Waste Pro",
    "rowid": "1202333",
    "final_x": "3718081.67525",
    "final_y": "561806.917343",
    "longitude": "-89.95140659140455",
    "latitude": "30.03761156203299",
    "geocoded_column": {
      "latitude": "30.03761156203299",
      "longitude": "-89.95140659140455"
    }
  },
  {
    "service_request": "2025-1202332",
    "request_type": "Trash/Recycling",
    "request_reason": "Repair Trash Cart",
    "date_created": "2025-06-18T15:23:32.000",
    "date_modified": "2025-06-18T15:23:33.000",
    "request_status": "Pending",
    "responsible_agency": "Department of Sanitation",
    "final_address": "1109 Numa St",
    "address_councildis": "C",
    "status": "Assigned to Contractor",
    "contractor": "Richards Disposal",
    "rowid": "1202332",
    "final_x": "3691780.1871",
    "final_y": "527291.360959",
    "longitude": "-90.03576052352129",
    "latitude": "29.943552251408757",
    "geocoded_column": {
      "latitude": "29.943552251408757",
      "longitude": "-90.03576052352129"
    }
  },
  {
    "service_request": "2025-1202331",
    "request_type": "Trash/Recycling",
    "request_reason": "Request a Large Item Pick Up",
    "date_created": "2025-06-18T15:20:37.000",
    "date_modified": "2025-06-18T15:20:38.000",
    "request_status": "Pending",
    "responsible_agency": "Department of Sanitation",
    "final_address": "7631 Crestmont Rd",
    "address_councildis": "E",
    "status": "Assigned to Contractor",
    "contractor": "Waste Pro",
    "rowid": "1202331",
    "final_x": "3699657.76964",
    "final_y": "560389.539614",
    "longitude": "-90.00968193620962",
    "latitude": "30.03431241658454",
    "geocoded_column": {
      "latitude": "30.03431241658454",
      "longitude": "-90.00968193620962"
    }
  },
  {
    "service_request": "2025-1202330",
    "request_type": "Trash/Recycling",
    "request_reason": "Request a Large Item Pick Up",
    "date_created": "2025-06-18T15:18:37.000",
    "date_modified": "2025-06-18T15:18:39.000",
    "request_status": "Pending",
    "responsible_agency": "Department of Sanitation",
    "final_address": "1200 Numa St",
    "address_councildis": "C",
    "status": "Assigned to Contractor",
    "contractor": "Richards Disposal",
    "rowid": "1202330",
    "final_x": "3691855.16483",
    "final_y": "526950.411454",
    "longitude": "-90.03553599232185",
    "latitude": "29.942612422420858",
    "geocoded_column": {
      "latitude": "29.942612422420858",
      "longitude": "-90.03553599232185"
    }
  },
  {
    "service_request": "2025-1202329",
    "request_type": "Property Maintenance",
    "request_reason": "Property Maintenance",
    "date_created": "2025-06-18T15:18:28.000",
    "date_modified": "2025-06-18T15:30:43.000",
    "case_close_date": "2025-06-18T10:30:42.000",
    "request_status": "Closed",
    "responsible_agency": "Department of Code Enforcement",
    "final_address": "532 Warrington Dr",
    "address_councildis": "D",
    "status": "Referred to Code Enforcement",
    "rowid": "1202329",
    "final_x": "3681100.18344",
    "final_y": "548933.890259",
    "longitude": "-90.06872593556636",
    "latitude": "30.003389949981834",
    "geocoded_column": {
      "latitude": "30.003389949981834",
      "longitude": "-90.06872593556636"
    }
  },
  {
    "service_request": "2025-1202328",
    "request_type": "Property Maintenance",
    "request_reason": "Property Maintenance",
    "date_created": "2025-06-18T15:16:46.000",
    "date_modified": "2025-06-18T15:16:47.000",
    "request_status": "Pending",
    "responsible_agency": "Department of Code Enforcement",
    "final_address": "2816 N Dorgenois St",
    "address_councildis": "D",
    "status": "Pending",
    "rowid": "1202328",
    "final_x": "3688014.59996",
    "final_y": "541699.738188",
    "longitude": "-90.04713880452864",
    "latitude": "29.983286993487496",
    "geocoded_column": {
      "latitude": "29.983286993487496",
      "longitude": "-90.04713880452864"
    }
  },
  {
    "service_request": "2025-1202327",
    "request_type": "Traffic Signals",
    "request_reason": "Traffic Signal Malfunctioning or Damaged",
    "date_created": "2025-06-18T15:16:31.000",
    "date_modified": "2025-06-18T15:16:33.000",
    "request_status": "Pending",
    "responsible_agency": "Department of Public Works",
    "final_address": "BANKS ST & S CARROLLTON AVE",
    "address_councildis": "A",
    "status": "Pending",
    "rowid": "1202327",
    "final_x": "3670261.5",
    "final_y": "537432.88",
    "longitude": "-90.10335713538814",
    "latitude": "29.972090575948645",
    "geocoded_column": {
      "latitude": "29.972090575948645",
      "longitude": "-90.10335713538814"
    }
  },
  {
    "service_request": "2025-1202326",
    "request_type": "Trash/Recycling",
    "request_reason": "Order Recycling Cart",
    "date_created": "2025-06-18T15:16:15.000",
    "date_modified": "2025-06-18T15:16:16.000",
    "request_status": "Pending",
    "responsible_agency": "Department of Sanitation",
    "final_address": "4524 Lafon Dr",
    "address_councildis": "E",
    "status": "Pending",
    "rowid": "1202326",
    "final_x": "3701180.57924",
    "final_y": "553071.897879",
    "longitude": "-90.00513773273298",
    "latitude": "30.01414325698542",
    "geocoded_column": {
      "latitude": "30.01414325698542",
      "longitude": "-90.00513773273298"
    }
  },
  {
    "service_request": "2025-1202325",
    "request_type": "Roads and Streets",
    "request_reason": "Pothole",
    "date_created": "2025-06-18T15:16:07.000",
    "date_modified": "2025-06-18T15:16:08.000",
    "request_status": "Pending",
    "responsible_agency": "Department of Public Works",
    "final_address": "GENERAL MEYER AVE & HORACE ST",
    "address_councildis": "C",
    "status": "Pending",
    "rowid": "1202325",
    "final_x": "3696338.7",
    "final_y": "526058.88",
    "longitude": "-90.02141273250625",
    "latitude": "29.940020626879285",
    "geocoded_column": {
      "latitude": "29.940020626879285",
      "longitude": "-90.02141273250625"
    }
  },
  {
    "service_request": "2025-1202324",
    "request_type": "Trash/Recycling",
    "request_reason": "Request a Large Item Pick Up",
    "date_created": "2025-06-18T15:05:26.000",
    "date_modified": "2025-06-18T16:28:22.000",
    "case_close_date": "2025-06-18T11:28:21.000",
    "request_status": "Closed",
    "responsible_agency": "Department of Sanitation",
    "final_address": "13845 Chef Menteur Hwy",
    "address_councildis": "E",
    "status": "Invalid Request",
    "contractor": "Waste Pro",
    "contractor_action": "Invalid",
    "rowid": "1202324",
    "final_x": "3727964.2823",
    "final_y": "560610.598302",
    "longitude": "-89.92022229241083",
    "latitude": "30.03399075528855",
    "geocoded_column": {
      "latitude": "30.03399075528855",
      "longitude": "-89.92022229241083"
    }
  },
  {
    "service_request": "2025-1202323",
    "request_type": "Trash/Recycling",
    "request_reason": "Request a Large Item Pick Up",
    "date_created": "2025-06-18T15:04:55.000",
    "date_modified": "2025-06-18T15:04:56.000",
    "request_status": "Pending",
    "responsible_agency": "Department of Sanitation",
    "final_address": "5330 Dryades St",
    "address_councildis": "B",
    "status": "Assigned to Contractor",
    "contractor": "IV Waste",
    "rowid": "1202323",
    "final_x": "3667638.71924",
    "final_y": "521786.810362",
    "longitude": "-90.11216695160309",
    "latitude": "29.929146135816534",
    "geocoded_column": {
      "latitude": "29.929146135816534",
      "longitude": "-90.11216695160309"
    }
  },
  {
    "service_request": "2025-1202322",
    "request_type": "Trash/Recycling",
    "request_reason": "Repair Trash Cart",
    "date_created": "2025-06-18T15:04:51.000",
    "date_modified": "2025-06-18T15:04:53.000",
    "request_status": "Pending",
    "responsible_agency": "Department of Sanitation",
    "final_address": "1 Olympic Ct",
    "address_councildis": "C",
    "status": "Assigned to Contractor",
    "contractor": "Richards Disposal",
    "rowid": "1202322",
    "final_x": "3700187.63997",
    "final_y": "516621.406901",
    "longitude": "-90.00960534003964",
    "latitude": "29.913949093317143",
    "geocoded_column": {
      "latitude": "29.913949093317143",
      "longitude": "-90.00960534003964"
    }
  },
  {
    "service_request": "2025-1202321",
    "request_type": "Trash/Recycling",
    "request_reason": "Repair Trash Cart",
    "date_created": "2025-06-18T15:02:34.000",
    "date_modified": "2025-06-18T15:02:36.000",
    "request_status": "Pending",
    "responsible_agency": "Department of Sanitation",
    "final_address": "3901 S Inwood Ave",
    "address_councildis": "C",
    "status": "Assigned to Contractor",
    "contractor": "Richards Disposal",
    "rowid": "1202321",
    "final_x": "3705011.28062",
    "final_y": "513861.271346",
    "longitude": "-89.99448227398237",
    "latitude": "29.90620556017596",
    "geocoded_column": {
      "latitude": "29.90620556017596",
      "longitude": "-89.99448227398237"
    }
  },
  {
    "service_request": "2025-1202320",
    "request_type": "Trash/Recycling",
    "request_reason": "Request a Large Item Pick Up",
    "date_created": "2025-06-18T14:58:30.000",
    "date_modified": "2025-06-18T14:58:32.000",
    "request_status": "Pending",
    "responsible_agency": "Department of Sanitation",
    "final_address": "5805 Fontainebleau Dr",
    "address_councildis": "B",
    "status": "Assigned to Contractor",
    "contractor": "IV Waste",
    "rowid": "1202320",
    "final_x": "3668477.80218",
    "final_y": "529867.832577",
    "longitude": "-90.10924559784861",
    "latitude": "29.951341724272368",
    "geocoded_column": {
      "latitude": "29.951341724272368",
      "longitude": "-90.10924559784861"
    }
  },
  {
    "service_request": "2025-1202319",
    "request_type": "Abandoned Vehicles",
    "request_reason": "Abandoned/Junk Vehicles",
    "date_created": "2025-06-18T14:48:37.000",
    "date_modified": "2025-06-18T14:48:39.000",
    "request_status": "Pending",
    "responsible_agency": "Department of Public Works",
    "final_address": "4900 BLK Chrysler St",
    "address_councildis": "E",
    "status": "Pending",
    "rowid": "1202319",
    "final_x": "3715219.73225",
    "final_y": "557709.721638",
    "longitude": "-89.96060603507665",
    "latitude": "30.026440509698542",
    "geocoded_column": {
      "latitude": "30.026440509698542",
      "longitude": "-89.96060603507665"
    }
  },
  {
    "service_request": "2025-1202318",
    "request_type": "Healthy Homes",
    "request_reason": "Healthy Homes",
    "date_created": "2025-06-18T14:47:34.000",
    "date_modified": "2025-06-18T15:24:19.000",
    "request_status": "Pending",
    "responsible_agency": "Department of Code Enforcement",
    "final_address": "1313 Governor Nicholls St Apt A",
    "address_councildis": "C",
    "status": "Pending",
    "rowid": "1202318",
    "final_x": "3681883.95061",
    "final_y": "535404.679814",
    "longitude": "-90.06672235192569",
    "latitude": "29.966165562576023",
    "geocoded_column": {
      "latitude": "29.966165562576023",
      "longitude": "-90.06672235192569"
    }
  },
  {
    "service_request": "2025-1202317",
    "request_type": "Trash/Recycling",
    "request_reason": "Missed Trash Pick-Up",
    "date_created": "2025-06-18T14:42:33.000",
    "date_modified": "2025-06-18T16:17:26.000",
    "case_close_date": "2025-06-18T11:17:25.000",
    "request_status": "Closed",
    "responsible_agency": "Department of Sanitation",
    "final_address": "13000 BLK New Hampshire Dr",
    "address_councildis": "E",
    "status": "Invalid Request",
    "contractor": "Waste Pro",
    "contractor_action": "Invalid",
    "rowid": "1202317",
    "final_x": "3723671.57427",
    "final_y": "564728.512719",
    "longitude": "-89.93362863401784",
    "latitude": "30.045458190902735",
    "geocoded_column": {
      "latitude": "30.045458190902735",
      "longitude": "-89.93362863401784"
    }
  },
  {
    "service_request": "2025-1202316",
    "request_type": "Trash/Recycling",
    "request_reason": "Request a Large Item Pick Up",
    "date_created": "2025-06-18T14:39:14.000",
    "date_modified": "2025-06-18T14:39:15.000",
    "request_status": "Pending",
    "responsible_agency": "Department of Sanitation",
    "final_address": "1916 France St",
    "address_councildis": "D",
    "status": "Assigned to Contractor",
    "contractor": "IV Waste",
    "rowid": "1202316",
    "final_x": "3693129.90083",
    "final_y": "538314.505033",
    "longitude": "-90.03110361247862",
    "latitude": "29.97381994119079",
    "geocoded_column": {
      "latitude": "29.97381994119079",
      "longitude": "-90.03110361247862"
    }
  },
  {
    "service_request": "2025-1202315",
    "request_type": "Trash/Recycling",
    "request_reason": "Replace Recycling Cart",
    "date_created": "2025-06-18T14:38:48.000",
    "date_modified": "2025-06-18T14:38:50.000",
    "request_status": "Pending",
    "responsible_agency": "Department of Sanitation",
    "final_address": "9 Richmond Pl",
    "address_councildis": "A",
    "status": "Pending",
    "rowid": "1202315",
    "final_x": "3666589.7913",
    "final_y": "523656.067195",
    "longitude": "-90.11541550568799",
    "latitude": "29.93431669420583",
    "geocoded_column": {
      "latitude": "29.93431669420583",
      "longitude": "-90.11541550568799"
    }
  },
  {
    "service_request": "2025-1202314",
    "request_type": "Trash/Recycling",
    "request_reason": "Request a Large Item Pick Up",
    "date_created": "2025-06-18T14:36:49.000",
    "date_modified": "2025-06-18T14:36:50.000",
    "request_status": "Pending",
    "responsible_agency": "Department of Sanitation",
    "final_address": "1901 France St",
    "address_councildis": "D",
    "status": "Assigned to Contractor",
    "contractor": "IV Waste",
    "rowid": "1202314",
    "final_x": "3693183.75779",
    "final_y": "538203.589321",
    "longitude": "-90.03093750265647",
    "latitude": "29.973513279375094",
    "geocoded_column": {
      "latitude": "29.973513279375094",
      "longitude": "-90.03093750265647"
    }
  },
  {
    "service_request": "2025-1202313",
    "request_type": "Drainage",
    "request_reason": "Catch Basin Clogged",
    "date_created": "2025-06-18T14:30:01.000",
    "date_modified": "2025-06-18T14:30:03.000",
    "request_status": "Pending",
    "responsible_agency": "Sewerage & Water Board",
    "final_address": "2408 Felicity St",
    "address_councildis": "B",
    "status": "Pending",
    "rowid": "1202313",
    "final_x": "3676084.25742",
    "final_y": "526929.920894",
    "longitude": "-90.08532916379218",
    "latitude": "29.943037814011426",
    "geocoded_column": {
      "latitude": "29.943037814011426",
      "longitude": "-90.08532916379218"
    }
  },
  {
    "service_request": "2025-1202312",
    "request_type": "Trash/Recycling",
    "request_reason": "Request a Large Item Pick Up",
    "date_created": "2025-06-18T14:29:04.000",
    "date_modified": "2025-06-18T14:29:06.000",
    "request_status": "Pending",
    "responsible_agency": "Department of Sanitation",
    "final_address": "6251 Paris Ave",
    "address_councildis": "D",
    "status": "Assigned to Contractor",
    "contractor": "IV Waste",
    "rowid": "1202312",
    "final_x": "3678867.26965",
    "final_y": "556318.877978",
    "longitude": "-90.07552395808824",
    "latitude": "30.02376357527406",
    "geocoded_column": {
      "latitude": "30.02376357527406",
      "longitude": "-90.07552395808824"
    }
  },
  {
    "service_request": "2025-1202311",
    "request_type": "Trash/Recycling",
    "request_reason": "Illegal Dumping",
    "date_created": "2025-06-18T14:28:13.000",
    "date_modified": "2025-06-18T14:28:14.000",
    "request_status": "Pending",
    "responsible_agency": "Department of Sanitation",
    "final_address": "100 BLK Fairfax Pl",
    "address_councildis": "C",
    "status": "Pending",
    "rowid": "1202311",
    "final_x": "3705719.01602",
    "final_y": "517444.970147",
    "longitude": "-89.99211623275858",
    "latitude": "29.916036742557544",
    "geocoded_column": {
      "latitude": "29.916036742557544",
      "longitude": "-89.99211623275858"
    }
  },
  {
    "service_request": "2025-1202310",
    "request_type": "Trash/Recycling",
    "request_reason": "Replace Trash Cart",
    "date_created": "2025-06-18T14:27:35.000",
    "date_modified": "2025-06-18T14:27:37.000",
    "request_status": "Pending",
    "responsible_agency": "Department of Sanitation",
    "final_address": "4919 Pauline Dr",
    "address_councildis": "D",
    "status": "Assigned to Contractor",
    "contractor": "IV Waste",
    "rowid": "1202310",
    "final_x": "3692739.08937",
    "final_y": "552439.739542",
    "longitude": "-90.03183116731067",
    "latitude": "30.01267140489291",
    "geocoded_column": {
      "latitude": "30.01267140489291",
      "longitude": "-90.03183116731067"
    }
  },
  {
    "service_request": "2025-1202309",
    "request_type": "Property Maintenance",
    "request_reason": "Property Maintenance",
    "date_created": "2025-06-18T14:25:57.000",
    "date_modified": "2025-06-18T14:27:20.000",
    "request_status": "Pending",
    "responsible_agency": "Department of Code Enforcement",
    "final_address": "1942 Flood St",
    "address_councildis": "E",
    "status": "Pending",
    "rowid": "1202309",
    "final_x": "3698556.46295",
    "final_y": "537184.299656",
    "longitude": "-90.01400653779048",
    "latitude": "29.970541591014968",
    "geocoded_column": {
      "latitude": "29.970541591014968",
      "longitude": "-90.01400653779048"
    }
  },
  {
    "service_request": "2025-1202308",
    "request_type": "Property Maintenance",
    "request_reason": "Property Maintenance",
    "date_created": "2025-06-18T14:24:59.000",
    "date_modified": "2025-06-18T14:25:00.000",
    "request_status": "Pending",
    "responsible_agency": "Department of Code Enforcement",
    "final_address": "1928 Flood St",
    "address_councildis": "E",
    "status": "Pending",
    "rowid": "1202308",
    "final_x": "3698541.91472",
    "final_y": "537086.04468",
    "longitude": "-90.01405605519018",
    "latitude": "29.970271885733077",
    "geocoded_column": {
      "latitude": "29.970271885733077",
      "longitude": "-90.01405605519018"
    }
  },
  {
    "service_request": "2025-1202307",
    "request_type": "Trash/Recycling",
    "request_reason": "Replace Trash Cart",
    "date_created": "2025-06-18T14:23:02.000",
    "date_modified": "2025-06-18T14:23:04.000",
    "request_status": "Pending",
    "responsible_agency": "Department of Sanitation",
    "final_address": "2030 Palmer Ave",
    "address_councildis": "A",
    "status": "Assigned to Contractor",
    "contractor": "IV Waste",
    "rowid": "1202307",
    "final_x": "3665831.25466",
    "final_y": "524541.984572",
    "longitude": "-90.11778052280778",
    "latitude": "29.93677483208753",
    "geocoded_column": {
      "latitude": "29.93677483208753",
      "longitude": "-90.11778052280778"
    }
  },
  {
    "service_request": "2025-1202306",
    "request_type": "Trash/Recycling",
    "request_reason": "Request a Large Item Pick Up",
    "date_created": "2025-06-18T14:21:27.000",
    "date_modified": "2025-06-18T14:21:35.000",
    "request_status": "Pending",
    "responsible_agency": "Department of Sanitation",
    "final_address": "1121 Louisa St",
    "address_councildis": "C",
    "status": "Assigned to Contractor",
    "contractor": "IV Waste",
    "rowid": "1202306",
    "final_x": "3689651.98998",
    "final_y": "536102.170887",
    "longitude": "-90.04216631625772",
    "latitude": "29.967845025129265",
    "geocoded_column": {
      "latitude": "29.967845025129265",
      "longitude": "-90.04216631625772"
    }
  },
  {
    "service_request": "2025-1202305",
    "request_type": "Trash/Recycling",
    "request_reason": "Request a Large Item Pick Up",
    "date_created": "2025-06-18T14:20:03.000",
    "date_modified": "2025-06-18T14:20:06.000",
    "request_status": "Pending",
    "responsible_agency": "Department of Sanitation",
    "final_address": "7311 Voyageur Dr",
    "address_councildis": "E",
    "status": "Assigned to Contractor",
    "contractor": "Waste Pro",
    "rowid": "1202305",
    "final_x": "3726367.72947",
    "final_y": "569284.367142",
    "longitude": "-89.9249306141525",
    "latitude": "30.05789404519078",
    "geocoded_column": {
      "latitude": "30.05789404519078",
      "longitude": "-89.9249306141525"
    }
  },
  {
    "service_request": "2025-1202304",
    "request_type": "Trash/Recycling",
    "request_reason": "Illegal Dumping",
    "date_created": "2025-06-18T14:18:49.000",
    "date_modified": "2025-06-18T14:18:51.000",
    "request_status": "Pending",
    "responsible_agency": "Department of Sanitation",
    "final_address": "3100 BLK N dOrgenois St",
    "address_councildis": "D",
    "status": "Pending",
    "rowid": "1202304",
    "final_x": "3690602.3973",
    "final_y": "541204.582405",
    "longitude": "-90.0389828913488",
    "latitude": "29.981845367127253",
    "geocoded_column": {
      "latitude": "29.981845367127253",
      "longitude": "-90.0389828913488"
    }
  },
  {
    "service_request": "2025-1202303",
    "request_type": "Trash/Recycling",
    "request_reason": "Request a Large Item Pick Up",
    "date_created": "2025-06-18T14:16:15.000",
    "date_modified": "2025-06-18T14:16:17.000",
    "request_status": "Pending",
    "responsible_agency": "Department of Sanitation",
    "final_address": "1409 Lizardi St",
    "address_councildis": "E",
    "status": "Assigned to Contractor",
    "contractor": "Waste Pro",
    "rowid": "1202303",
    "final_x": "3696904.0696",
    "final_y": "535338.032454",
    "longitude": "-90.01929182542",
    "latitude": "29.96551722622792",
    "geocoded_column": {
      "latitude": "29.96551722622792",
      "longitude": "-90.01929182542"
    }
  },
  {
    "service_request": "2025-1202302",
    "request_type": "Trash/Recycling",
    "request_reason": "Request a Large Item Pick Up",
    "date_created": "2025-06-18T14:16:03.000",
    "date_modified": "2025-06-18T14:17:21.000",
    "request_status": "Pending",
    "responsible_agency": "Department of Sanitation",
    "final_address": "1824 Bartholomew St",
    "address_councildis": "D",
    "status": "Assigned to Contractor",
    "contractor": "IV Waste",
    "rowid": "1202302",
    "final_x": "3692463.90333",
    "final_y": "538165.180681",
    "longitude": "-90.03321232135889",
    "latitude": "29.973430147493204",
    "geocoded_column": {
      "latitude": "29.973430147493204",
      "longitude": "-90.03321232135889"
    }
  },
  {
    "service_request": "2025-1202301",
    "request_type": "Trash/Recycling",
    "request_reason": "Request a Large Item Pick Up",
    "date_created": "2025-06-18T14:15:26.000",
    "date_modified": "2025-06-18T14:15:27.000",
    "request_status": "Pending",
    "responsible_agency": "Department of Sanitation",
    "final_address": "602 Kerlerec St",
    "address_councildis": "C",
    "status": "Assigned to Contractor",
    "contractor": "IV Waste",
    "rowid": "1202301",
    "final_x": "3684486.87362",
    "final_y": "534447.579973",
    "longitude": "-90.0585360193076",
    "latitude": "29.96345449663177",
    "geocoded_column": {
      "latitude": "29.96345449663177",
      "longitude": "-90.0585360193076"
    }
  },
  {
    "service_request": "2025-1202300",
    "request_type": "Trash/Recycling",
    "request_reason": "Missed Trash Pick-Up",
    "date_created": "2025-06-18T14:15:12.000",
    "date_modified": "2025-06-18T15:22:49.000",
    "case_close_date": "2025-06-18T10:22:47.000",
    "request_status": "Closed",
    "responsible_agency": "Department of Sanitation",
    "final_address": "5651 Red Maple Dr",
    "address_councildis": "E",
    "status": "Invalid Request",
    "contractor": "Waste Pro",
    "contractor_action": "Invalid",
    "rowid": "1202300",
    "final_x": "3723463.47513",
    "final_y": "564349.357281",
    "longitude": "-89.93430095072014",
    "latitude": "30.044422658307703",
    "geocoded_column": {
      "latitude": "30.044422658307703",
      "longitude": "-89.93430095072014"
    }
  },
  {
    "service_request": "2025-1202299",
    "request_type": "Roads and Streets",
    "request_reason": "Sidewalk Damaged or Missing",
    "date_created": "2025-06-18T14:12:10.000",
    "date_modified": "2025-06-18T14:12:12.000",
    "request_status": "Pending",
    "responsible_agency": "Department of Public Works",
    "final_address": "1434 St Andrew St",
    "address_councildis": "B",
    "status": "Pending",
    "rowid": "1202299",
    "final_x": "3678618.71541",
    "final_y": "523589.703419",
    "longitude": "-90.07744284298361",
    "latitude": "29.93377717299945",
    "geocoded_column": {
      "latitude": "29.93377717299945",
      "longitude": "-90.07744284298361"
    }
  },
  {
    "service_request": "2025-1202298",
    "request_type": "Mosquito, Termite & Rodent Control",
    "request_reason": "Mosquito Complaint",
    "date_created": "2025-06-18T14:12:06.000",
    "date_modified": "2025-06-18T14:12:07.000",
    "request_status": "Pending",
    "responsible_agency": "Mosquito, Termite & Rodent Control Board",
    "final_address": "922 Race St",
    "address_councildis": "B",
    "status": "Pending",
    "rowid": "1202298",
    "final_x": "3680780.96738",
    "final_y": "523654.292283",
    "longitude": "-90.07061447168613",
    "latitude": "29.933889428909904",
    "geocoded_column": {
      "latitude": "29.933889428909904",
      "longitude": "-90.07061447168613"
    }
  },
  {
    "service_request": "2025-1202297",
    "request_type": "Trash/Recycling",
    "request_reason": "Replace Trash Cart",
    "date_created": "2025-06-18T14:12:00.000",
    "date_modified": "2025-06-18T14:12:02.000",
    "request_status": "Pending",
    "responsible_agency": "Department of Sanitation",
    "final_address": "3932 Clematis St",
    "address_councildis": "D",
    "status": "Assigned to Contractor",
    "contractor": "IV Waste",
    "rowid": "1202297",
    "final_x": "3685577.5302",
    "final_y": "547359.713105",
    "longitude": "-90.05463682258443",
    "latitude": "29.998924899461436",
    "geocoded_column": {
      "latitude": "29.998924899461436",
      "longitude": "-90.05463682258443"
    }
  },
  {
    "service_request": "2025-1202296",
    "request_type": "Trash/Recycling",
    "request_reason": "Request a Large Item Pick Up",
    "date_created": "2025-06-18T14:09:29.000",
    "date_modified": "2025-06-18T14:11:06.000",
    "case_close_date": "2025-06-18T09:11:04.000",
    "request_status": "Closed",
    "responsible_agency": "Department of Sanitation",
    "final_address": "118 City Park Ave",
    "address_councildis": "A",
    "status": "Resolved",
    "rowid": "1202296",
    "final_x": "3667651.43245",
    "final_y": "540854.232907",
    "longitude": "-90.1114849682831",
    "latitude": "29.98157492613766",
    "geocoded_column": {
      "latitude": "29.98157492613766",
      "longitude": "-90.1114849682831"
    }
  },
  {
    "service_request": "2025-1202295",
    "request_type": "Trash/Recycling",
    "request_reason": "Order Recycling Cart",
    "date_created": "2025-06-18T14:07:22.000",
    "date_modified": "2025-06-18T14:07:24.000",
    "request_status": "Pending",
    "responsible_agency": "Department of Sanitation",
    "final_address": "3821 Indiana St",
    "address_councildis": "C",
    "status": "Pending",
    "rowid": "1202295",
    "final_x": "3692899.4463",
    "final_y": "519548.605751",
    "longitude": "-90.03250426841258",
    "latitude": "29.92222741087994",
    "geocoded_column": {
      "latitude": "29.92222741087994",
      "longitude": "-90.03250426841258"
    }
  },
  {
    "service_request": "2025-1202294",
    "request_type": "Trash/Recycling",
    "request_reason": "Order Trash Cart",
    "date_created": "2025-06-18T14:06:11.000",
    "date_modified": "2025-06-18T14:06:21.000",
    "request_status": "Pending",
    "responsible_agency": "Department of Sanitation",
    "final_address": "3821 Indiana St",
    "address_councildis": "C",
    "status": "Assigned to Contractor",
    "contractor": "Richards Disposal",
    "rowid": "1202294",
    "final_x": "3692899.4463",
    "final_y": "519548.605751",
    "longitude": "-90.03250426841258",
    "latitude": "29.92222741087994",
    "geocoded_column": {
      "latitude": "29.92222741087994",
      "longitude": "-90.03250426841258"
    }
  },
  {
    "service_request": "2025-1202293",
    "request_type": "Property Maintenance",
    "request_reason": "Property Maintenance",
    "date_created": "2025-06-18T14:04:25.000",
    "date_modified": "2025-06-18T14:05:04.000",
    "request_status": "Pending",
    "responsible_agency": "Department of Code Enforcement",
    "final_address": "2227 Gordon St",
    "address_councildis": "E",
    "status": "Pending",
    "rowid": "1202293",
    "final_x": "3700930.73316",
    "final_y": "537533.60788",
    "longitude": "-90.00649559352516",
    "latitude": "29.971426680145697",
    "geocoded_column": {
      "latitude": "29.971426680145697",
      "longitude": "-90.00649559352516"
    }
  },
  {
    "service_request": "2025-1202292",
    "request_type": "Trash/Recycling",
    "request_reason": "Request a Large Item Pick Up",
    "date_created": "2025-06-18T13:58:50.000",
    "date_modified": "2025-06-18T13:58:51.000",
    "request_status": "Pending",
    "responsible_agency": "Department of Sanitation",
    "final_address": "4929 S Johnson St",
    "address_councildis": "B",
    "status": "Assigned to Contractor",
    "contractor": "IV Waste",
    "rowid": "1202292",
    "final_x": "3668990.20276",
    "final_y": "527098.936383",
    "longitude": "-90.1077211985664",
    "latitude": "29.943713100318238",
    "geocoded_column": {
      "latitude": "29.943713100318238",
      "longitude": "-90.1077211985664"
    }
  },
  {
    "service_request": "2025-1202291",
    "request_type": "Streetlights",
    "request_reason": "Streetlight Outage/Malfunction",
    "date_created": "2025-06-18T13:51:49.000",
    "date_modified": "2025-06-18T13:51:51.000",
    "request_status": "Pending",
    "responsible_agency": "Department of Public Works",
    "final_address": "731 Philip St",
    "address_councildis": "B",
    "status": "Pending",
    "contractor": "Legacy Professional Services",
    "rowid": "1202291",
    "final_x": "3679307.41231",
    "final_y": "520904.833785",
    "longitude": "-90.07536171401469",
    "latitude": "29.926373887931526",
    "geocoded_column": {
      "latitude": "29.926373887931526",
      "longitude": "-90.07536171401469"
    }
  },
  {
    "service_request": "2025-1202290",
    "request_type": "Trash/Recycling",
    "request_reason": "Missed Trash Pick-Up",
    "date_created": "2025-06-18T13:51:28.000",
    "date_modified": "2025-06-18T15:24:58.000",
    "case_close_date": "2025-06-18T10:24:57.000",
    "request_status": "Closed",
    "responsible_agency": "Department of Sanitation",
    "final_address": "210 Walnut St",
    "address_councildis": "A",
    "status": "Invalid Request",
    "contractor": "IV Waste",
    "contractor_action": "Invalid",
    "rowid": "1202290",
    "final_x": "3661234.13946",
    "final_y": "521143.393209",
    "longitude": "-90.13240636549081",
    "latitude": "29.927563068180334",
    "geocoded_column": {
      "latitude": "29.927563068180334",
      "longitude": "-90.13240636549081"
    }
  },
  {
    "service_request": "2025-1202289",
    "request_type": "Parks & Parkways",
    "request_reason": "Request Tree Service (Right of Way/Public Property)",
    "date_created": "2025-06-18T13:51:02.000",
    "date_modified": "2025-06-18T13:51:03.000",
    "request_status": "Pending",
    "responsible_agency": "Department of Parks & Parkway",
    "final_address": "44 Versailles Blvd",
    "address_councildis": "A",
    "status": "Pending",
    "rowid": "1202289",
    "final_x": "3667480.79796",
    "final_y": "530019.237761",
    "longitude": "-90.11238856413544",
    "latitude": "29.951787287873287",
    "geocoded_column": {
      "latitude": "29.951787287873287",
      "longitude": "-90.11238856413544"
    }
  },
  {
    "service_request": "2025-1202288",
    "request_type": "Trash/Recycling",
    "request_reason": "Request a Large Item Pick Up",
    "date_created": "2025-06-18T13:49:33.000",
    "date_modified": "2025-06-18T13:49:35.000",
    "request_status": "Pending",
    "responsible_agency": "Department of Sanitation",
    "final_address": "513 English Turn Dr",
    "address_councildis": "C",
    "status": "Assigned to Contractor",
    "contractor": "Richards Disposal",
    "rowid": "1202288",
    "final_x": "3715032.16696",
    "final_y": "515613.262196",
    "longitude": "-89.96278976450816",
    "latitude": "29.91069716226731",
    "geocoded_column": {
      "latitude": "29.91069716226731",
      "longitude": "-89.96278976450816"
    }
  },
  {
    "service_request": "2025-1202287",
    "request_type": "Streetlights",
    "request_reason": "Streetlight Outage/Malfunction",
    "date_created": "2025-06-18T13:43:51.000",
    "date_modified": "2025-06-18T13:44:29.000",
    "request_status": "Pending",
    "responsible_agency": "Department of Public Works",
    "final_address": "10810 Roger Dr",
    "address_councildis": "E",
    "status": "Pending",
    "contractor": "Legacy Professional Services",
    "rowid": "1202287",
    "final_x": "3711711.23352",
    "final_y": "563071.516576",
    "longitude": "-89.97149101374126",
    "latitude": "30.04129841759096",
    "geocoded_column": {
      "latitude": "30.04129841759096",
      "longitude": "-89.97149101374126"
    }
  },
  {
    "service_request": "2025-1202286",
    "request_type": "Trash/Recycling",
    "request_reason": "Repair Trash Cart",
    "date_created": "2025-06-18T13:42:23.000",
    "date_modified": "2025-06-18T13:42:25.000",
    "request_status": "Pending",
    "responsible_agency": "Department of Sanitation",
    "final_address": "6540 Curran Rd",
    "address_councildis": "E",
    "status": "Assigned to Contractor",
    "contractor": "Waste Pro",
    "rowid": "1202286",
    "final_x": "3697403.25245",
    "final_y": "559605.285405",
    "longitude": "-90.01683495100696",
    "latitude": "30.032227437214445",
    "geocoded_column": {
      "latitude": "30.032227437214445",
      "longitude": "-90.01683495100696"
    }
  },
  {
    "service_request": "2025-1202285",
    "request_type": "Roads and Streets",
    "request_reason": "Street Subsidence (Sinking)",
    "date_created": "2025-06-18T13:38:54.000",
    "date_modified": "2025-06-18T13:38:56.000",
    "request_status": "Pending",
    "responsible_agency": "Department of Public Works",
    "final_address": "4710 Annette St",
    "address_councildis": "D",
    "status": "Pending",
    "rowid": "1202285",
    "final_x": "3681969.51861",
    "final_y": "549862.927508",
    "longitude": "-90.06594710938893",
    "latitude": "30.005918058708506",
    "geocoded_column": {
      "latitude": "30.005918058708506",
      "longitude": "-90.06594710938893"
    }
  },
  {
    "service_request": "2025-1202284",
    "request_type": "Abandoned Vehicles",
    "request_reason": "Vehicle Blocking Your Driveway",
    "date_created": "2025-06-18T13:33:57.000",
    "date_modified": "2025-06-18T14:00:42.000",
    "case_close_date": "2025-06-18T09:00:41.000",
    "request_status": "Closed",
    "responsible_agency": "Department of Public Works",
    "final_address": "2341 Odin St. 70122",
    "status": "Referred to Property Owner",
    "rowid": "1202284",
    "longitude": "0.0",
    "latitude": "0.0",
    "geocoded_column": {
      "latitude": "0.0",
      "longitude": "0.0"
    }
  },
  {
    "service_request": "2025-1202283",
    "request_type": "Trash/Recycling",
    "request_reason": "Request a Large Item Pick Up",
    "date_created": "2025-06-18T13:32:47.000",
    "date_modified": "2025-06-18T13:32:49.000",
    "request_status": "Pending",
    "responsible_agency": "Department of Sanitation",
    "final_address": "7641 Means Ave",
    "address_councildis": "E",
    "status": "Assigned to Contractor",
    "contractor": "Waste Pro",
    "rowid": "1202283",
    "final_x": "3708066.01944",
    "final_y": "564892.336482",
    "longitude": "-89.9829432708833",
    "latitude": "30.046423565170983",
    "geocoded_column": {
      "latitude": "30.046423565170983",
      "longitude": "-89.9829432708833"
    }
  },
  {
    "service_request": "2025-1202282",
    "request_type": "Parks & Parkways",
    "request_reason": "Request Tree Service (Right of Way/Public Property)",
    "date_created": "2025-06-18T13:28:41.000",
    "date_modified": "2025-06-18T13:30:07.000",
    "request_status": "Pending",
    "responsible_agency": "Department of Parks & Parkway",
    "final_address": "6260 Vicksburg St",
    "address_councildis": "A",
    "status": "Pending",
    "rowid": "1202282",
    "final_x": "3668986.5122",
    "final_y": "549039.298323",
    "longitude": "-90.10699146714231",
    "latitude": "30.00404183037819",
    "geocoded_column": {
      "latitude": "30.00404183037819",
      "longitude": "-90.10699146714231"
    }
  },
  {
    "service_request": "2025-1202281",
    "request_type": "Property Maintenance",
    "request_reason": "Property Maintenance",
    "date_created": "2025-06-18T13:27:04.000",
    "date_modified": "2025-06-18T13:27:06.000",
    "request_status": "Pending",
    "responsible_agency": "Department of Code Enforcement",
    "final_address": "400 BLK Sixth St",
    "address_councildis": "B",
    "status": "Pending",
    "rowid": "1202281",
    "final_x": "3677705.37913",
    "final_y": "518910.120432",
    "longitude": "-90.08048773224021",
    "latitude": "29.920937337057207",
    "geocoded_column": {
      "latitude": "29.920937337057207",
      "longitude": "-90.08048773224021"
    }
  },
  {
    "service_request": "2025-1202280",
    "request_type": "Trash/Recycling",
    "request_reason": "Missed Trash Pick-Up",
    "date_created": "2025-06-18T13:25:12.000",
    "date_modified": "2025-06-18T15:21:29.000",
    "case_close_date": "2025-06-18T10:21:28.000",
    "request_status": "Closed",
    "responsible_agency": "Department of Sanitation",
    "final_address": "5660 New England Dr",
    "address_councildis": "E",
    "status": "Invalid Request",
    "contractor": "Waste Pro",
    "contractor_action": "Invalid",
    "rowid": "1202280",
    "final_x": "3723558.22233",
    "final_y": "564427.157729",
    "longitude": "-89.93399850779016",
    "latitude": "30.04463339617989",
    "geocoded_column": {
      "latitude": "30.04463339617989",
      "longitude": "-89.93399850779016"
    }
  },
  {
    "service_request": "2025-1202279",
    "request_type": "Trash/Recycling",
    "request_reason": "Request a Large Item Pick Up",
    "date_created": "2025-06-18T13:24:43.000",
    "date_modified": "2025-06-18T13:24:55.000",
    "request_status": "Pending",
    "responsible_agency": "Department of Sanitation",
    "final_address": "1431 St Andrew St",
    "address_councildis": "B",
    "status": "Assigned to Contractor",
    "contractor": "IV Waste",
    "rowid": "1202279",
    "final_x": "3678693.99733",
    "final_y": "523606.590203",
    "longitude": "-90.07720459705475",
    "latitude": "29.933821337076548",
    "geocoded_column": {
      "latitude": "29.933821337076548",
      "longitude": "-90.07720459705475"
    }
  },
  {
    "service_request": "2025-1202278",
    "request_type": "Trash/Recycling",
    "request_reason": "Order Trash Cart",
    "date_created": "2025-06-18T13:16:29.000",
    "date_modified": "2025-06-18T13:16:30.000",
    "request_status": "Pending",
    "responsible_agency": "Department of Sanitation",
    "final_address": "3605 Frenchmen St",
    "address_councildis": "D",
    "status": "Assigned to Contractor",
    "contractor": "IV Waste",
    "rowid": "1202278",
    "final_x": "3683863.8262",
    "final_y": "545963.217872",
    "longitude": "-90.06009945116011",
    "latitude": "29.995137510054473",
    "geocoded_column": {
      "latitude": "29.995137510054473",
      "longitude": "-90.06009945116011"
    }
  },
  {
    "service_request": "2025-1202277",
    "request_type": "Abandoned Vehicles",
    "request_reason": "Abandoned/Junk Vehicles",
    "date_created": "2025-06-18T13:09:32.000",
    "date_modified": "2025-06-18T13:09:34.000",
    "request_status": "Pending",
    "responsible_agency": "Department of Public Works",
    "final_address": "1104 Thayer St",
    "address_councildis": "C",
    "status": "Pending",
    "rowid": "1202277",
    "final_x": "3689477.25084",
    "final_y": "527384.564543",
    "longitude": "-90.04302816019657",
    "latitude": "29.94388003679111",
    "geocoded_column": {
      "latitude": "29.94388003679111",
      "longitude": "-90.04302816019657"
    }
  },
  {
    "service_request": "2025-1202276",
    "request_type": "Trash/Recycling",
    "request_reason": "Order Recycling Cart",
    "date_created": "2025-06-18T13:08:46.000",
    "date_modified": "2025-06-18T13:08:47.000",
    "request_status": "Pending",
    "responsible_agency": "Department of Sanitation",
    "final_address": "4536 Viola St",
    "address_councildis": "E",
    "status": "Pending",
    "rowid": "1202276",
    "final_x": "3704052.29514",
    "final_y": "553818.659863",
    "longitude": "-89.99603709023157",
    "latitude": "30.016104725931026",
    "geocoded_column": {
      "latitude": "30.016104725931026",
      "longitude": "-89.99603709023157"
    }
  },