[
  {
    "service_request": "2022-908521",
    "request_type": "Traffic Signals/Signs/Striping/Streetlights",
    "request_reason": "Street Light Outage/Malfunction",
    "date_created": "2022-08-10T22:57:37.000",
    "date_modified": "2022-08-10T22:57:38.000",
    "request_status": "Pending",
    "responsible_agency": "Department of Public Works",
    "final_address": "2401 Orleans Ave Apt A",
    "address_councildis": "D",
    "status": "Pending",
    "contractor": "Legacy Professional Services",
    "rowid": "908521",
    "final_x": "3677881.68718",
    "final_y": "536282.793991",
    "longitude": "-90.07933106671439",
    "latitude": "29.96870111802159",
    "geocoded_column": {
      "latitude": "29.96870111802159",
      "longitude": "-90.07933106671439"
    }
  },
  {
    "service_request": "2022-908520",
    "request_type": "Property Maintenance",
    "request_reason": "Property Maintenance",
    "date_created": "2022-08-10T22:48:03.000",
    "date_modified": "2022-08-10T22:48:03.000",
    "request_status": "Pending",
    "responsible_agency": "Department of Code Enforcement",
    "final_address": "7808 Pearl St",
    "address_councildis": "A",
    "status": "Pending",
    "rowid": "908520",
    "final_x": "3661039.5223",
    "final_y": "525839.859197",
    "longitude": "-90.13286540342955",
    "latitude": "29.940482480367116",
    "geocoded_column": {
      "latitude": "29.940482480367116",
      "longitude": "-90.13286540342955"
    }
  },
  {
    "service_request": "2022-908519",
    "request_type": "Roads/Drainage",
    "request_reason": "Catch Basin - Clogged",
    "date_created": "2022-08-10T22:38:44.000",
    "date_modified": "2022-08-10T22:38:44.000",
    "request_status": "Pending",
    "responsible_agency": "Department of Public Works",
    "final_address": "8019 Spruce St",
    "address_councildis": "A",
    "status": "Pending",
    "rowid": "908519",
    "final_x": "3664104.08474",
    "final_y": "530280.406401",
    "longitude": "-90.12304194981296",
    "latitude": "29.952603919301907",
    "geocoded_column": {
      "latitude": "29.952603919301907",
      "longitude": "-90.12304194981296"
    }
  },
  {
    "service_request": "2022-908518",
    "request_type": "Trash/Recycling",
    "request_reason": "Order Trash Cart",
    "date_created": "2022-08-10T22:27:28.000",
    "date_modified": "2022-08-10T22:27:28.000",
    "request_status": "Pending",
    "responsible_agency": "Department of Sanitation",
    "final_address": "2931 Bacchus Dr",
    "address_councildis": "C",
    "status": "Assigned to Contractor",
    "contractor": "Richards Disposal",
    "rowid": "908518",
    "final_x": "3710161.84862",
    "final_y": "518643.020343",
    "longitude": "-89.97804832129685",
    "latitude": "29.919187220615434",
    "geocoded_column": {
      "latitude": "29.919187220615434",
      "longitude": "-89.97804832129685"
    }
  },
  {
    "service_request": "2022-908517",
    "request_type": "Trash/Recycling",
    "request_reason": "Order Trash Cart",
    "date_created": "2022-08-10T22:26:19.000",
    "date_modified": "2022-08-10T22:26:20.000",
    "request_status": "Pending",
    "responsible_agency": "Department of Sanitation",
    "final_address": "2931 Bacchus Dr",
    "address_councildis": "C",
    "status": "Assigned to Contractor",
    "contractor": "Richards Disposal",
    "rowid": "908517",
    "final_x": "3710161.84862",
    "final_y": "518643.020343",
    "longitude": "-89.97804832129685",
    "latitude": "29.919187220615434",
    "geocoded_column": {
      "latitude": "29.919187220615434",
      "longitude": "-89.97804832129685"
    }
  },
  {
    "service_request": "2022-908516",
    "request_type": "Trash/Recycling",
    "request_reason": "Order Trash Cart",
    "date_created": "2022-08-10T22:24:53.000",
    "date_modified": "2022-08-10T22:24:53.000",
    "request_status": "Pending",
    "responsible_agency": "Department of Sanitation",
    "final_address": "2931 Bacchus Dr",
    "address_councildis": "C",
    "status": "Assigned to Contractor",
    "contractor": "Richards Disposal",
    "rowid": "908516",
    "final_x": "3710161.84862",
    "final_y": "518643.020343",
    "longitude": "-89.97804832129685",
    "latitude": "29.919187220615434",
    "geocoded_column": {
      "latitude": "29.919187220615434",
      "longitude": "-89.97804832129685"
    }
  },
  {
    "service_request": "2022-908515",
    "request_type": "Trash/Recycling",
    "request_reason": "Missed Trash Pick-Up",
    "date_created": "2022-08-10T21:50:34.000",
    "date_modified": "2022-08-10T21:50:35.000",
    "request_status": "Pending",
    "responsible_agency": "Department of Sanitation",
    "final_address": "6011 Milne Blvd",
    "address_councildis": "A",
    "status": "Assigned to Contractor",
    "contractor": "Metro Disposal",
    "rowid": "908515",
    "final_x": "3667096.87457",
    "final_y": "547524.466578",
    "longitude": "-90.11301215489475",
    "latitude": "29.999932040526797",
    "geocoded_column": {
      "latitude": "29.999932040526797",
      "longitude": "-90.11301215489475"
    }
  },
  {
    "service_request": "2022-908514",
    "request_type": "Traffic Signals/Signs/Striping/Streetlights",
    "request_reason": "Street Light Outage/Malfunction",
    "date_created": "2022-08-10T21:40:19.000",
    "date_modified": "2022-08-10T21:40:20.000",
    "request_status": "Pending",
    "responsible_agency": "Department of Public Works",
    "final_address": "1616 Abundance St",
    "address_councildis": "D",
    "status": "Pending",
    "contractor": "Legacy Professional Services",
    "rowid": "908514",
    "final_x": "3680055.39183",
    "final_y": "543275.642062",
    "longitude": "-90.07222332963559",
    "latitude": "29.987863434497587",
    "geocoded_column": {
      "latitude": "29.987863434497587",
      "longitude": "-90.07222332963559"
    }
  },
  {
    "service_request": "2022-908513",
    "request_type": "Trash/Recycling",
    "request_reason": "Missed Trash Pick-Up",
    "date_created": "2022-08-10T21:15:33.000",
    "date_modified": "2022-08-10T21:15:34.000",
    "request_status": "Pending",
    "responsible_agency": "Department of Sanitation",
    "final_address": "6743 Colbert St",
    "address_councildis": "A",
    "status": "Assigned to Contractor",
    "contractor": "Metro Disposal",
    "rowid": "908513",
    "final_x": "3667971.9305",
    "final_y": "552476.414742",
    "longitude": "-90.1100808001325",
    "latitude": "30.013522517359874",
    "geocoded_column": {
      "latitude": "30.013522517359874",
      "longitude": "-90.1100808001325"
    }
  },
  {
    "service_request": "2022-908512",
    "request_type": "Roads/Drainage",
    "request_reason": "Street Flooding / Drainage",
    "date_created": "2022-08-10T21:10:14.000",
    "date_modified": "2022-08-10T21:10:14.000",
    "request_status": "Pending",
    "responsible_agency": "Department of Public Works",
    "final_address": "4822 Cleveland Ave",
    "address_councildis": "A",
    "status": "Pending",
    "rowid": "908512",
    "final_x": "3668365.69857",
    "final_y": "539808.562826",
    "longitude": "-90.10926425820907",
    "latitude": "29.97867872482772",
    "geocoded_column": {
      "latitude": "29.97867872482772",
      "longitude": "-90.10926425820907"
    }
  },
  {
    "service_request": "2022-908511",
    "request_type": "Traffic Signals/Signs/Striping/Streetlights",
    "request_reason": "Street Light Outage/Malfunction",
    "date_created": "2022-08-10T21:08:55.000",
    "date_modified": "2022-08-10T21:08:56.000",
    "request_status": "Pending",
    "responsible_agency": "Department of Public Works",
    "final_address": "407 26Th St",
    "address_councildis": "A",
    "status": "Pending",
    "contractor": "Legacy Professional Services",
    "rowid": "908511",
    "final_x": "3664765.781",
    "final_y": "550008.354388",
    "longitude": "-90.12029315042575",
    "latitude": "30.006829933104783",
    "geocoded_column": {
      "latitude": "30.006829933104783",
      "longitude": "-90.12029315042575"
    }
  },
  {
    "service_request": "2022-908510",
    "request_type": "Trash/Recycling",
    "request_reason": "Missed Trash Pick-Up",
    "date_created": "2022-08-10T21:04:38.000",
    "date_modified": "2022-08-10T21:04:39.000",
    "request_status": "Pending",
    "responsible_agency": "Department of Sanitation",
    "final_address": "7432 Hurst St",
    "address_councildis": "A",
    "status": "Assigned to Contractor",
    "contractor": "Richards Disposal",
    "rowid": "908510",
    "final_x": "3661462.61306",
    "final_y": "524033.978172",
    "longitude": "-90.13158942548503",
    "latitude": "29.935504683472388",
    "geocoded_column": {
      "latitude": "29.935504683472388",
      "longitude": "-90.13158942548503"
    }
  },
  {
    "service_request": "2022-908509",
    "request_type": "Trash/Recycling",
    "request_reason": "Illegal Dumping",
    "date_created": "2022-08-10T21:01:58.000",
    "date_modified": "2022-08-10T21:01:58.000",
    "request_status": "Pending",
    "responsible_agency": "Department of Sanitation",
    "final_address": "425 Burgundy St",
    "address_councildis": "C",
    "status": "Pending",
    "rowid": "908509",
    "final_x": "3681127.74869",
    "final_y": "532413.001603",
    "longitude": "-90.06921464798965",
    "latitude": "29.95796243145082",
    "geocoded_column": {
      "latitude": "29.95796243145082",
      "longitude": "-90.06921464798965"
    }
  },
  {
    "service_request": "2022-908508",
    "request_type": "Roads/Drainage",
    "request_reason": "Catch Basin - Clogged",
    "date_created": "2022-08-10T20:52:26.000",
    "date_modified": "2022-08-10T20:52:26.000",
    "request_status": "Pending",
    "responsible_agency": "Department of Public Works",
    "final_address": "7524 Willow St",
    "address_councildis": "A",
    "status": "Pending",
    "rowid": "908508",
    "final_x": "3663848.00832",
    "final_y": "527527.902079",
    "longitude": "-90.1239422592859",
    "latitude": "29.945042853827598",
    "geocoded_column": {
      "latitude": "29.945042853827598",
      "longitude": "-90.1239422592859"
    }
  },
  {
    "service_request": "2022-908507",
    "request_type": "Property Maintenance",
    "request_reason": "Property Maintenance",
    "date_created": "2022-08-10T20:51:03.000",
    "date_modified": "2022-08-10T20:51:03.000",
    "request_status": "Pending",
    "responsible_agency": "Department of Code Enforcement",
    "final_address": "3534 Paris Ave",
    "address_councildis": "D",
    "status": "Pending",
    "rowid": "908507",
    "final_x": "3679616.82895",
    "final_y": "545413.45384",
    "longitude": "-90.07353436034033",
    "latitude": "29.99375493005855",
    "geocoded_column": {
      "latitude": "29.99375493005855",
      "longitude": "-90.07353436034033"
    }
  },
  {
    "service_request": "2022-908506",
    "request_type": "Traffic Signals/Signs/Striping/Streetlights",
    "request_reason": "Additional signage",
    "date_created": "2022-08-10T20:47:07.000",
    "date_modified": "2022-08-10T20:47:07.000",
    "request_status": "Pending",
    "responsible_agency": "Department of Public Works",
    "final_address": "1537 Louisa St",
    "address_councildis": "D",
    "status": "Pending",
    "rowid": "908506",
    "final_x": "3690037.8719",
    "final_y": "537643.565576",
    "longitude": "-90.04089278782799",
    "latitude": "29.972071356276718",
    "geocoded_column": {
      "latitude": "29.972071356276718",
      "longitude": "-90.04089278782799"
    }
  },
  {
    "service_request": "2022-908504",
    "request_type": "Traffic Signals/Signs/Striping/Streetlights",
    "request_reason": "Request for Stop Sign",
    "date_created": "2022-08-10T20:45:53.000",
    "date_modified": "2022-08-10T20:45:53.000",
    "request_status": "Pending",
    "responsible_agency": "Department of Public Works",
    "final_address": "1537 Louisa St",
    "address_councildis": "D",
    "status": "Pending",
    "rowid": "908504",
    "final_x": "3690037.8719",
    "final_y": "537643.565576",
    "longitude": "-90.04089278782799",
    "latitude": "29.972071356276718",
    "geocoded_column": {
      "latitude": "29.972071356276718",
      "longitude": "-90.04089278782799"
    }
  },
  {
    "service_request": "2022-908503",
    "request_type": "Trash/Recycling",
    "request_reason": "MIssed Recycling Pick-Up",
    "date_created": "2022-08-10T20:42:04.000",
    "date_modified": "2022-08-10T20:42:05.000",
    "request_status": "Pending",
    "responsible_agency": "Department of Sanitation",
    "final_address": "2516 Amelia St",
    "address_councildis": "B",
    "status": "Assigned to Contractor",
    "contractor": "Richards Disposal",
    "rowid": "908503",
    "final_x": "3672297.55297",
    "final_y": "524425.781756",
    "longitude": "-90.09737002555032",
    "latitude": "29.936265108738073",
    "geocoded_column": {
      "latitude": "29.936265108738073",
      "longitude": "-90.09737002555032"
    }
  },
  {
    "service_request": "2022-908502",
    "request_type": "Trash/Recycling",
    "request_reason": "Order Recycling Cart",
    "date_created": "2022-08-10T20:39:32.000",
    "date_modified": "2022-08-10T20:39:32.000",
    "request_status": "Pending",
    "responsible_agency": "Department of Sanitation",
    "final_address": "30 Admiralty Ct",
    "address_councildis": "C",
    "status": "Pending",
    "rowid": "908502",
    "final_x": "3703841.83332",
    "final_y": "523086.529723",
    "longitude": "-89.99783376813072",
    "latitude": "29.931609360037655",
    "geocoded_column": {
      "latitude": "29.931609360037655",
      "longitude": "-89.99783376813072"
    }
  },
  {
    "service_request": "2022-908501",
    "request_type": "Property Maintenance",
    "request_reason": "Property Maintenance",
    "date_created": "2022-08-10T20:31:34.000",
    "date_modified": "2022-08-10T20:31:34.000",
    "request_status": "Pending",
    "responsible_agency": "Department of Code Enforcement",
    "final_address": "20901 Old Spanish Trl",
    "address_councildis": "E",
    "status": "Pending",
    "rowid": "908501",
    "final_x": "3763690.09002",
    "final_y": "572611.649257",
    "longitude": "-89.80682220267474",
    "latitude": "30.065728346609028",
    "geocoded_column": {
      "latitude": "30.065728346609028",
      "longitude": "-89.80682220267474"
    }
  },
  {
    "service_request": "2022-908500",
    "request_type": "Property Maintenance",
    "request_reason": "Property Maintenance",
    "date_created": "2022-08-10T20:26:07.000",
    "date_modified": "2022-08-10T20:26:07.000",
    "request_status": "Pending",
    "responsible_agency": "Department of Code Enforcement",
    "final_address": "4750 San Marco Rd",
    "address_councildis": "E",
    "status": "Pending",
    "rowid": "908500",
    "final_x": "3763671.85437",
    "final_y": "572623.698153",
    "longitude": "-89.80687933893839",
    "latitude": "30.06576214347099",
    "geocoded_column": {
      "latitude": "30.06576214347099",
      "longitude": "-89.80687933893839"
    }
  },
  {
    "service_request": "2022-908499",
    "request_type": "Traffic Signals/Signs/Striping/Streetlights",
    "request_reason": "Street Light Outage/Malfunction",
    "date_created": "2022-08-10T20:23:54.000",
    "date_modified": "2022-08-10T20:23:54.000",
    "request_status": "Pending",
    "responsible_agency": "Department of Public Works",
    "final_address": "1718 Urquhart St",
    "address_councildis": "C",
    "status": "Pending",
    "contractor": "Legacy Professional Services",
    "rowid": "908499",
    "final_x": "3683265.47279",
    "final_y": "536801.357512",
    "longitude": "-90.06231061593071",
    "latitude": "29.969963880521334",
    "geocoded_column": {
      "latitude": "29.969963880521334",
      "longitude": "-90.06231061593071"
    }
  },
  {
    "service_request": "2022-908498",
    "request_type": "Property Maintenance",
    "request_reason": "Property Maintenance",
    "date_created": "2022-08-10T20:17:49.000",
    "date_modified": "2022-08-10T20:17:49.000",
    "request_status": "Pending",
    "responsible_agency": "Department of Code Enforcement",
    "final_address": "4740 San Marco Rd",
    "address_councildis": "E",
    "status": "Pending",
    "rowid": "908498",
    "final_x": "3763602.47747",
    "final_y": "572681.193065",
    "longitude": "-89.80709622148187",
    "latitude": "30.065922768931085",
    "geocoded_column": {
      "latitude": "30.065922768931085",
      "longitude": "-89.80709622148187"
    }
  },
  {
    "service_request": "2022-908497",
    "request_type": "Roads/Drainage",
    "request_reason": "Pothole",
    "date_created": "2022-08-10T20:05:34.000",
    "date_modified": "2022-08-10T20:05:34.000",
    "request_status": "Pending",
    "responsible_agency": "Department of Public Works",
    "final_address": "Old Gentilly Rd & Desire Pkwy, New Orleans, Louisiana, 70126",
    "status": "Pending",
    "rowid": "908497",
    "longitude": "0.0",
    "latitude": "0.0",
    "geocoded_column": {
      "latitude": "0.0",
      "longitude": "0.0"
    }
  },
  {
    "service_request": "2022-908496",
    "request_type": "Trash/Recycling",
    "request_reason": "Missed Trash Pick-Up",
    "date_created": "2022-08-10T19:55:34.000",
    "date_modified": "2022-08-10T19:55:34.000",
    "request_status": "Pending",
    "responsible_agency": "Department of Sanitation",
    "final_address": "2219 S Salcedo St",
    "address_councildis": "A",
    "status": "Assigned to Contractor",
    "contractor": "Richards Disposal",
    "rowid": "908496",
    "final_x": "3669136.94913",
    "final_y": "528943.801472",
    "longitude": "-90.10719555049423",
    "latitude": "29.948781562243237",
    "geocoded_column": {
      "latitude": "29.948781562243237",
      "longitude": "-90.10719555049423"
    }
  },
  {
    "service_request": "2022-908495",
    "request_type": "Trash/Recycling",
    "request_reason": "MIssed Recycling Pick-Up",
    "date_created": "2022-08-10T19:47:28.000",
    "date_modified": "2022-08-10T19:47:28.000",
    "request_status": "Pending",
    "responsible_agency": "Department of Sanitation",
    "final_address": "1301 General Taylor St",
    "address_councildis": "B",
    "status": "Assigned to Contractor",
    "contractor": "Richards Disposal",
    "rowid": "908495",
    "final_x": "3672844.37032",
    "final_y": "520291.135864",
    "longitude": "-90.09578468200387",
    "latitude": "29.924879936904606",
    "geocoded_column": {
      "latitude": "29.924879936904606",
      "longitude": "-90.09578468200387"
    }
  },
  {
    "service_request": "2022-908494",
    "request_type": "Trash/Recycling",
    "request_reason": "Order Recycling Cart",
    "date_created": "2022-08-10T19:46:29.000",
    "date_modified": "2022-08-10T19:46:29.000",
    "request_status": "Pending",
    "responsible_agency": "Department of Sanitation",
    "final_address": "902 Cherokee St",
    "address_councildis": "A",
    "status": "Pending",
    "rowid": "908494",
    "final_x": "3662838.33434",
    "final_y": "526227.787006",
    "longitude": "-90.12717333731365",
    "latitude": "29.94149721626437",
    "geocoded_column": {
      "latitude": "29.94149721626437",
      "longitude": "-90.12717333731365"
    }
  },
  {
    "service_request": "2022-908493",
    "request_type": "Trash/Recycling",
    "request_reason": "MIssed Recycling Pick-Up",
    "date_created": "2022-08-10T19:33:48.000",
    "date_modified": "2022-08-10T19:33:48.000",
    "request_status": "Pending",
    "responsible_agency": "Department of Sanitation",
    "final_address": "1000-1200 Block of Austerlitz St, New Orleans, Louisiana, 70115",
    "status": "Assigned to Contractor",
    "rowid": "908493",
    "longitude": "0.0",
    "latitude": "0.0",
    "geocoded_column": {
      "latitude": "0.0",
      "longitude": "0.0"
    }
  },
  {
    "service_request": "2022-908492",
    "request_type": "Trash/Recycling",
    "request_reason": "Order Trash Cart",
    "date_created": "2022-08-10T19:28:58.000",
    "date_modified": "2022-08-10T19:28:59.000",
    "request_status": "Pending",
    "responsible_agency": "Department of Sanitation",
    "final_address": "2124 Carnot St, New Orleans, Louisiana, 70122",
    "address_councildis": "D",
    "status": "Assigned to Contractor",
    "contractor": "Metro Disposal",
    "rowid": "908492",
    "final_x": "3683340.05237",
    "final_y": "549842.207828",
    "longitude": "-90.06161800155269",
    "latitude": "30.00581933366573",
    "geocoded_column": {
      "latitude": "30.00581933366573",
      "longitude": "-90.06161800155269"
    }
  },
  {
    "service_request": "2022-908491",
    "request_type": "Traffic Signals/Signs/Striping/Streetlights",
    "request_reason": "Street Light Outage/Malfunction",
    "date_created": "2022-08-10T19:25:48.000",
    "date_modified": "2022-08-10T19:25:48.000",
    "request_status": "Pending",
    "responsible_agency": "Department of Public Works",
    "final_address": "1461 Magazine St",
    "address_councildis": "B",
    "status": "Pending",
    "contractor": "Legacy Professional Services",
    "rowid": "908491",
    "final_x": "3680202.78491",
    "final_y": "524023.150652",
    "longitude": "-90.0724269539209",
    "latitude": "29.934921174757065",
    "geocoded_column": {
      "latitude": "29.934921174757065",
      "longitude": "-90.0724269539209"
    }
  },
  {
    "service_request": "2022-908490",
    "request_type": "Trash/Recycling",
    "request_reason": "Order Trash Cart",
    "date_created": "2022-08-10T19:25:11.000",
    "date_modified": "2022-08-10T19:25:12.000",
    "request_status": "Pending",
    "responsible_agency": "Department of Sanitation",
    "final_address": "1010 Josephine St Unit A",
    "address_councildis": "B",
    "status": "Assigned to Contractor",
    "contractor": "Richards Disposal",
    "rowid": "908490",
    "final_x": "3679287.09512",
    "final_y": "522077.080442",
    "longitude": "-90.07538522466042",
    "latitude": "29.929597796210384",
    "geocoded_column": {
      "latitude": "29.929597796210384",
      "longitude": "-90.07538522466042"
    }
  },
  {
    "service_request": "2022-908489",
    "request_type": "Trash/Recycling",
    "request_reason": "MIssed Recycling Pick-Up",
    "date_created": "2022-08-10T19:23:32.000",
    "date_modified": "2022-08-10T19:23:33.000",
    "request_status": "Pending",
    "responsible_agency": "Department of Sanitation",
    "final_address": "1461 Magazine St",
    "address_councildis": "B",
    "status": "Assigned to Contractor",
    "contractor": "Richards Disposal",
    "rowid": "908489",
    "final_x": "3680202.78491",
    "final_y": "524023.150652",
    "longitude": "-90.0724269539209",
    "latitude": "29.934921174757065",
    "geocoded_column": {
      "latitude": "29.934921174757065",
      "longitude": "-90.0724269539209"
    }
  },
  {
    "service_request": "2022-908488",
    "request_type": "Trash/Recycling",
    "request_reason": "Missed Trash Pick-Up",
    "date_created": "2022-08-10T19:21:48.000",
    "date_modified": "2022-08-10T19:21:49.000",
    "request_status": "Pending",
    "responsible_agency": "Department of Sanitation",
    "final_address": "7022 Wuerpel St",
    "address_councildis": "A",
    "status": "Assigned to Contractor",
    "contractor": "Metro Disposal",
    "rowid": "908488",
    "final_x": "3667315.93978",
    "final_y": "554370.729368",
    "longitude": "-90.11208960603747",
    "latitude": "30.018750455080134",
    "geocoded_column": {
      "latitude": "30.018750455080134",
      "longitude": "-90.11208960603747"
    }
  },
  {
    "service_request": "2022-908487",
    "request_type": "Trash/Recycling",
    "request_reason": "Missed Trash Pick-Up",
    "date_created": "2022-08-10T19:02:43.000",
    "date_modified": "2022-08-10T19:02:44.000",
    "request_status": "Pending",
    "responsible_agency": "Department of Sanitation",
    "final_address": "2100 Napoleon Ave",
    "address_councildis": "B",
    "status": "Assigned to Contractor",
    "contractor": "Richards Disposal",
    "rowid": "908487",
    "final_x": "3670394.96826",
    "final_y": "522656.31161",
    "longitude": "-90.10343652210679",
    "latitude": "29.931455927719163",
    "geocoded_column": {
      "latitude": "29.931455927719163",
      "longitude": "-90.10343652210679"
    }
  },
  {
    "service_request": "2022-908486",
    "request_type": "Trash/Recycling",
    "request_reason": "Replace Trash Cart",
    "date_created": "2022-08-10T19:01:38.000",
    "date_modified": "2022-08-10T19:01:38.000",
    "case_close_date": "2022-01-05T18:00:00.000",
    "request_status": "Pending",
    "responsible_agency": "Department of Sanitation",
    "final_address": "3 N Oak Ridge Ct",
    "address_councildis": "E",
    "status": "Assigned to Contractor",
    "contractor": "Metro Disposal",
    "rowid": "908486",
    "final_x": "3713173.17304",
    "final_y": "567666.557412",
    "longitude": "-89.966697610517",
    "latitude": "30.05388505996307",
    "geocoded_column": {
      "latitude": "30.05388505996307",
      "longitude": "-89.966697610517"
    }
  },
  {
    "service_request": "2022-908485",
    "request_type": "Trash/Recycling",
    "request_reason": "Missed Trash Pick-Up",
    "date_created": "2022-08-10T18:56:14.000",
    "date_modified": "2022-08-10T18:56:15.000",
    "request_status": "Pending",
    "responsible_agency": "Department of Sanitation",
    "final_address": "4401 Danneel St",
    "address_councildis": "B",
    "status": "Assigned to Contractor",
    "contractor": "Richards Disposal",
    "rowid": "908485",
    "final_x": "3670603.20148",
    "final_y": "522323.074042",
    "longitude": "-90.10279045080992",
    "latitude": "29.93053348395607",
    "geocoded_column": {
      "latitude": "29.93053348395607",
      "longitude": "-90.10279045080992"
    }
  },
  {
    "service_request": "2022-908484",
    "request_type": "Trash/Recycling",
    "request_reason": "Missed Trash Pick-Up",
    "date_created": "2022-08-10T18:56:13.000",
    "date_modified": "2022-08-10T18:56:15.000",
    "request_status": "Pending",
    "responsible_agency": "Department of Sanitation",
    "final_address": "4401 Danneel St",
    "address_councildis": "B",
    "status": "Assigned to Contractor",
    "contractor": "Richards Disposal",
    "rowid": "908484",
    "final_x": "3670603.20148",
    "final_y": "522323.074042",
    "longitude": "-90.10279045080992",
    "latitude": "29.93053348395607",
    "geocoded_column": {
      "latitude": "29.93053348395607",
      "longitude": "-90.10279045080992"
    }
  },
  {
    "service_request": "2022-908483",
    "request_type": "Roads/Drainage",
    "request_reason": "Catch Basin - Clogged",
    "date_created": "2022-08-10T18:49:23.000",
    "date_modified": "2022-08-10T18:49:24.000",
    "request_status": "Pending",
    "responsible_agency": "Department of Public Works",
    "final_address": "1600 Pratt Dr",
    "address_councildis": "D",
    "status": "Pending",
    "rowid": "908483",
    "final_x": "3679566.82613",
    "final_y": "548386.285586",
    "longitude": "-90.07358906947155",
    "latitude": "30.001930675177935",
    "geocoded_column": {
      "latitude": "30.001930675177935",
      "longitude": "-90.07358906947155"
    }
  },
  {
    "service_request": "2022-908482",
    "request_type": "Trash/Recycling",
    "request_reason": "MIssed Recycling Pick-Up",
    "date_created": "2022-08-10T18:46:33.000",
    "date_modified": "2022-08-10T18:46:33.000",
    "request_status": "Pending",
    "responsible_agency": "Department of Sanitation",
    "final_address": "9118 Apple St",
    "address_councildis": "A",
    "status": "Assigned to Contractor",
    "contractor": "Richards Disposal",
    "rowid": "908482",
    "final_x": "3662610.09984",
    "final_y": "534557.668229",
    "longitude": "-90.12761718838134",
    "latitude": "29.964408305703383",
    "geocoded_column": {
      "latitude": "29.964408305703383",
      "longitude": "-90.12761718838134"
    }
  },
  {
    "service_request": "2022-908481",
    "request_type": "Trash/Recycling",
    "request_reason": "Request a Large Item Pick Up",
    "date_created": "2022-08-10T18:46:14.000",
    "date_modified": "2022-08-10T18:46:15.000",
    "request_status": "Pending",
    "responsible_agency": "Department of Sanitation",
    "final_address": "1335 Riviera Ave",
    "address_councildis": "D",
    "status": "Assigned to Contractor",
    "contractor": "Metro Disposal",
    "rowid": "908481",
    "final_x": "3677490.84642",
    "final_y": "550910.792469",
    "longitude": "-90.08006009133753",
    "latitude": "30.008934763549835",
    "geocoded_column": {
      "latitude": "30.008934763549835",
      "longitude": "-90.08006009133753"
    }
  },
  {
    "service_request": "2022-908478",
    "request_type": "Abandoned Vehicles",
    "request_reason": "Abandoned/Junk Vehicles",
    "date_created": "2022-08-10T18:29:40.000",
    "date_modified": "2022-08-10T18:34:20.000",
    "request_status": "Pending",
    "responsible_agency": "Department of Public Works",
    "final_address": "100 Block of S Saint Patrick St, New Orleans, Louisiana, 70119",
    "address_councildis": "A",
    "rowid": "908478",
    "final_x": "3668875.71975",
    "final_y": "539599.713162",
    "longitude": "-90.10766047163138",
    "latitude": "29.978089467652417",
    "geocoded_column": {
      "latitude": "29.978089467652417",
      "longitude": "-90.10766047163138"
    }
  },
  {
    "service_request": "2022-908476",
    "request_type": "Property Maintenance",
    "request_reason": "Property Maintenance",
    "date_created": "2022-08-10T18:25:01.000",
    "date_modified": "2022-08-10T18:25:01.000",
    "request_status": "Pending",
    "responsible_agency": "Department of Code Enforcement",
    "final_address": "1534 Piety St",
    "address_councildis": "D",
    "status": "Pending",
    "rowid": "908476",
    "final_x": "3690246.77187",
    "final_y": "537568.877704",
    "longitude": "-90.04023571150044",
    "latitude": "29.971859510411257",
    "geocoded_column": {
      "latitude": "29.971859510411257",
      "longitude": "-90.04023571150044"
    }
  },
  {
    "service_request": "2022-908475",
    "request_type": "Trash/Recycling",
    "request_reason": "Replace Recycling Cart",
    "date_created": "2022-08-10T18:24:32.000",
    "date_modified": "2022-08-10T18:27:11.000",
    "request_status": "Pending",
    "responsible_agency": "Department of Sanitation",
    "final_address": "3021 Joseph St",
    "address_councildis": "A",
    "contractor": "Richards Disposal",
    "rowid": "908475",
    "final_x": "3667979.28289",
    "final_y": "526921.236222",
    "longitude": "-90.11091893874308",
    "latitude": "29.943254175777934",
    "geocoded_column": {
      "latitude": "29.943254175777934",
      "longitude": "-90.11091893874308"
    }
  },
  {
    "service_request": "2022-908474",
    "request_type": "Property Maintenance",
    "request_reason": "Property Maintenance",
    "date_created": "2022-08-10T18:22:51.000",
    "date_modified": "2022-08-10T18:22:51.000",
    "request_status": "Pending",
    "responsible_agency": "Department of Code Enforcement",
    "final_address": "3229 N Claiborne Ave",
    "address_councildis": "D",
    "status": "Pending",
    "rowid": "908474",
    "final_x": "3690229.63696",
    "final_y": "537714.372744",
    "longitude": "-90.04028464078587",
    "latitude": "29.97226010211065",
    "geocoded_column": {
      "latitude": "29.97226010211065",
      "longitude": "-90.04028464078587"
    }
  },
  {
    "service_request": "2022-908473",
    "request_type": "Trash/Recycling",
    "request_reason": "Repair Trash Cart",
    "date_created": "2022-08-10T18:20:19.000",
    "date_modified": "2022-08-10T18:20:19.000",
    "request_status": "Pending",
    "responsible_agency": "Department of Sanitation",
    "final_address": "47 Versailles Blvd",
    "address_councildis": "A",
    "status": "Assigned to Contractor",
    "contractor": "Richards Disposal",
    "rowid": "908473",
    "final_x": "3667559.09505",
    "final_y": "529785.679297",
    "longitude": "-90.11214919803243",
    "latitude": "29.951142784001696",
    "geocoded_column": {
      "latitude": "29.951142784001696",
      "longitude": "-90.11214919803243"
    }
  },
  {
    "service_request": "2022-908472",
    "request_type": "Trash/Recycling",
    "request_reason": "Repair Trash Cart",
    "date_created": "2022-08-10T18:18:54.000",
    "date_modified": "2022-08-10T18:18:55.000",
    "request_status": "Pending",
    "responsible_agency": "Department of Sanitation",
    "final_address": "1616 N Miro St",
    "address_councildis": "D",
    "status": "Assigned to Contractor",
    "contractor": "Metro Disposal",
    "rowid": "908472",
    "final_x": "3680673.06325",
    "final_y": "539149.194058",
    "longitude": "-90.0704159720143",
    "latitude": "29.976498435474156",
    "geocoded_column": {
      "latitude": "29.976498435474156",
      "longitude": "-90.0704159720143"
    }
  },
  {
    "service_request": "2022-908471",
    "request_type": "Traffic Signals/Signs/Striping/Streetlights",
    "request_reason": "Traffic Signal Malfunctioning/Damaged",
    "date_created": "2022-08-10T18:17:13.000",
    "date_modified": "2022-08-10T18:17:13.000",
    "request_status": "Pending",
    "responsible_agency": "Department of Public Works",
    "final_address": "2200 Broadway St",
    "address_councildis": "A",
    "status": "Pending",
    "rowid": "908471",
    "final_x": "3666121.59629",
    "final_y": "529495.560897",
    "longitude": "-90.11669784765591",
    "latitude": "29.950387099772076",
    "geocoded_column": {
      "latitude": "29.950387099772076",
      "longitude": "-90.11669784765591"
    }
  },
  {
    "service_request": "2022-908470",
    "request_type": "Abandoned Vehicles",
    "request_reason": "Abandoned/Junk Vehicles",
    "date_created": "2022-08-10T18:16:01.000",
    "date_modified": "2022-08-10T18:16:01.000",
    "request_status": "Pending",
    "responsible_agency": "Department of Public Works",
    "final_address": "5701 Eads St, New Orleans, Louisiana, 70122",
    "address_councildis": "D",
    "status": "Pending",
    "rowid": "908470",
    "final_x": "3686936.43657",
    "final_y": "554178.848216",
    "longitude": "-90.05010278113275",
    "latitude": "30.017633264131042",
    "geocoded_column": {
      "latitude": "30.017633264131042",
      "longitude": "-90.05010278113275"
    }
  },
  {
    "service_request": "2022-908469",
    "request_type": "Trash/Recycling",
    "request_reason": "Repair Trash Cart",
    "date_created": "2022-08-10T18:12:55.000",
    "date_modified": "2022-08-10T18:13:47.000",
    "request_status": "Pending",
    "responsible_agency": "Department of Sanitation",
    "final_address": "New Orleans,LA",
    "address_councildis": "B",
    "status": "Assigned to Contractor",
    "contractor": "Richards Disposal",
    "rowid": "908469",
    "final_x": "3672871.88136",
    "final_y": "520171.87884",
    "longitude": "-90.09570190464898",
    "latitude": "29.924551201278657",
    "geocoded_column": {
      "latitude": "29.924551201278657",
      "longitude": "-90.09570190464898"
    }
  },
  {
    "service_request": "2022-908468",
    "request_type": "Property Maintenance",
    "request_reason": "Property Maintenance",
    "date_created": "2022-08-10T18:12:22.000",
    "date_modified": "2022-08-10T18:12:22.000",
    "request_status": "Pending",
    "responsible_agency": "Department of Code Enforcement",
    "final_address": "217 N Tonti St",
    "address_councildis": "B",
    "status": "Pending",
    "rowid": "908468",
    "final_x": "3676690.49",
    "final_y": "534814.829766",
    "longitude": "-90.08314352012844",
    "latitude": "29.964700506571056",
    "geocoded_column": {
      "latitude": "29.964700506571056",
      "longitude": "-90.08314352012844"
    }
  },
  {
    "service_request": "2022-908467",
    "request_type": "Trash/Recycling",
    "request_reason": "MIssed Recycling Pick-Up",
    "date_created": "2022-08-10T18:10:03.000",
    "date_modified": "2022-08-10T18:10:04.000",
    "request_status": "Pending",
    "responsible_agency": "Department of Sanitation",
    "final_address": "2921 Annunciation St",
    "address_councildis": "B",
    "status": "Assigned to Contractor",
    "contractor": "Richards Disposal",
    "rowid": "908467",
    "final_x": "3677052.73294",
    "final_y": "519547.227447",
    "longitude": "-90.08252588897253",
    "latitude": "29.92270878098026",
    "geocoded_column": {
      "latitude": "29.92270878098026",
      "longitude": "-90.08252588897253"
    }
  },
  {
    "service_request": "2022-908466",
    "request_type": "Trash/Recycling",
    "request_reason": "MIssed Recycling Pick-Up",
    "date_created": "2022-08-10T18:09:13.000",
    "date_modified": "2022-08-10T18:09:14.000",
    "request_status": "Pending",
    "responsible_agency": "Department of Sanitation",
    "final_address": "2916 Annunciation St",
    "address_councildis": "B",
    "status": "Assigned to Contractor",
    "contractor": "Richards Disposal",
    "rowid": "908466",
    "final_x": "3677120.92757",
    "final_y": "519502.791799",
    "longitude": "-90.08231215688713",
    "latitude": "29.922584550232244",
    "geocoded_column": {
      "latitude": "29.922584550232244",
      "longitude": "-90.08231215688713"
    }
  },
  {
    "service_request": "2022-908465",
    "request_type": "Trash/Recycling",
    "request_reason": "MIssed Recycling Pick-Up",
    "date_created": "2022-08-10T18:08:39.000",
    "date_modified": "2022-08-10T18:08:40.000",
    "request_status": "Pending",
    "responsible_agency": "Department of Sanitation",
    "final_address": "2914 Annunciation St",
    "address_councildis": "B",
    "status": "Assigned to Contractor",
    "contractor": "Richards Disposal",
    "rowid": "908465",
    "final_x": "3677134.08942",
    "final_y": "519513.446711",
    "longitude": "-90.08227024296154",
    "latitude": "29.922613452660002",
    "geocoded_column": {
      "latitude": "29.922613452660002",
      "longitude": "-90.08227024296154"
    }
  },
  {
    "service_request": "2022-908464",
    "request_type": "Trash/Recycling",
    "request_reason": "MIssed Recycling Pick-Up",
    "date_created": "2022-08-10T18:07:58.000",
    "date_modified": "2022-08-10T18:07:58.000",
    "request_status": "Pending",
    "responsible_agency": "Department of Sanitation",
    "final_address": "2912 Annunciation St",
    "address_councildis": "B",
    "status": "Assigned to Contractor",
    "contractor": "Richards Disposal",
    "rowid": "908464",
    "final_x": "3677146.62389",
    "final_y": "519523.474615",
    "longitude": "-90.08223033101143",
    "latitude": "29.922640649840694",
    "geocoded_column": {
      "latitude": "29.922640649840694",
      "longitude": "-90.08223033101143"
    }
  },
  {
    "service_request": "2022-908463",
    "request_type": "Trash/Recycling",
    "request_reason": "MIssed Recycling Pick-Up",
    "date_created": "2022-08-10T18:07:53.000",
    "date_modified": "2022-08-10T18:07:54.000",
    "request_status": "Pending",
    "responsible_agency": "Department of Sanitation",
    "final_address": "2407 Iberville St",
    "address_councildis": "B",
    "status": "Assigned to Contractor",
    "contractor": "Richards Disposal",
    "rowid": "908463",
    "final_x": "3676633.30056",
    "final_y": "534709.763526",
    "longitude": "-90.08332774012753",
    "latitude": "29.9644133255772",
    "geocoded_column": {
      "latitude": "29.9644133255772",
      "longitude": "-90.08332774012753"
    }
  },
  {
    "service_request": "2022-908462",
    "request_type": "Roads/Drainage",
    "request_reason": "Pothole",
    "date_created": "2022-08-10T18:04:16.000",
    "date_modified": "2022-08-10T18:04:16.000",
    "request_status": "Pending",
    "responsible_agency": "Department of Public Works",
    "final_address": "1643 S Norman C Francis Prkwy",
    "address_councildis": "B",
    "status": "Pending",
    "rowid": "908462",
    "final_x": "3669269.23252",
    "final_y": "531015.587394",
    "longitude": "-90.1067078468871",
    "latitude": "29.954474402047378",
    "geocoded_column": {
      "latitude": "29.954474402047378",
      "longitude": "-90.1067078468871"
    }
  },
  {
    "service_request": "2022-908461",
    "request_type": "Traffic Signals/Signs/Striping/Streetlights",
    "request_reason": "Additional signage",
    "date_created": "2022-08-10T18:02:40.000",
    "date_modified": "2022-08-10T18:02:40.000",
    "request_status": "Pending",
    "responsible_agency": "Department of Public Works",
    "final_address": "5651 Paris Ave",
    "address_councildis": "D",
    "status": "Pending",
    "rowid": "908461",
    "final_x": "3679175.83323",
    "final_y": "553366.536407",
    "longitude": "-90.07465143349559",
    "latitude": "30.01563639201733",
    "geocoded_column": {
      "latitude": "30.01563639201733",
      "longitude": "-90.07465143349559"
    }
  },
  {
    "service_request": "2022-908460",
    "request_type": "Parks & Parkways",
    "request_reason": "Request Tree Service (Right of Way/Public Property)",
    "date_created": "2022-08-10T17:50:16.000",
    "date_modified": "2022-08-10T17:50:16.000",
    "request_status": "Pending",
    "responsible_agency": "Department of Parks & Parkway",
    "final_address": "7340 Fieldston Rd",
    "address_councildis": "E",
    "status": "Pending",
    "rowid": "908460",
    "final_x": "3700659.04605",
    "final_y": "559858.048221",
    "longitude": "-90.00653723623822",
    "latitude": "30.032819179822038",
    "geocoded_column": {
      "latitude": "30.032819179822038",
      "longitude": "-90.00653723623822"
    }
  },
  {
    "service_request": "2022-908459",
    "request_type": "Trash/Recycling",
    "request_reason": "Repair Trash Cart",
    "date_created": "2022-08-10T17:47:04.000",
    "date_modified": "2022-08-10T17:47:05.000",
    "request_status": "Pending",
    "responsible_agency": "Department of Sanitation",
    "final_address": "9873 Andover Dr",
    "address_councildis": "E",
    "status": "Assigned to Contractor",
    "contractor": "Metro Disposal",
    "rowid": "908459",
    "final_x": "3709309.20472",
    "final_y": "562353.697759",
    "longitude": "-89.97910902196459",
    "latitude": "30.03940298034053",
    "geocoded_column": {
      "latitude": "30.03940298034053",
      "longitude": "-89.97910902196459"
    }
  },
  {
    "service_request": "2022-908458",
    "request_type": "Roads/Drainage",
    "request_reason": "Debris in Roadway",
    "date_created": "2022-08-10T17:41:26.000",
    "date_modified": "2022-08-10T17:41:27.000",
    "request_status": "Pending",
    "responsible_agency": "Department of Public Works",
    "final_address": "5660 Read Blvd",
    "address_councildis": "E",
    "status": "Pending",
    "rowid": "908458",
    "final_x": "3711260.5267",
    "final_y": "559758.782493",
    "longitude": "-89.97303968206258",
    "latitude": "30.032204441391542",
    "geocoded_column": {
      "latitude": "30.032204441391542",
      "longitude": "-89.97303968206258"
    }
  },
  {
    "service_request": "2022-908457",
    "request_type": "Roads/Drainage",
    "request_reason": "Pothole",
    "date_created": "2022-08-10T17:35:42.000",
    "date_modified": "2022-08-10T17:35:42.000",
    "request_status": "Pending",
    "responsible_agency": "Department of Public Works",
    "final_address": "6031 Constance St, New Orleans, Louisiana, 70118",
    "status": "Pending",
    "rowid": "908457",
    "longitude": "0.0",
    "latitude": "0.0",
    "geocoded_column": {
      "latitude": "0.0",
      "longitude": "0.0"
    }
  },
  {
    "service_request": "2022-908456",
    "request_type": "Trash/Recycling",
    "request_reason": "MIssed Recycling Pick-Up",
    "date_created": "2022-08-10T17:35:27.000",
    "date_modified": "2022-08-10T17:35:27.000",
    "request_status": "Pending",
    "responsible_agency": "Department of Sanitation",
    "final_address": "1409 Saint Mary St, New Orleans, Louisiana, 70130",
    "status": "Assigned to Contractor",
    "rowid": "908456",
    "longitude": "0.0",
    "latitude": "0.0",
    "geocoded_column": {
      "latitude": "0.0",
      "longitude": "0.0"
    }
  },
  {
    "service_request": "2022-908455",
    "request_type": "Parks & Parkways",
    "request_reason": "Request Grass Cutting Service (City Owned Property)",
    "date_created": "2022-08-10T17:34:38.000",
    "date_modified": "2022-08-10T17:34:38.000",
    "request_status": "Pending",
    "responsible_agency": "Department of Parks & Parkway",
    "final_address": "2814 Seine St",
    "address_councildis": "C",
    "status": "Pending",
    "rowid": "908455",
    "final_x": "3693417.14537",
    "final_y": "521015.798969",
    "longitude": "-90.03081746734189",
    "latitude": "29.926245526240336",
    "geocoded_column": {
      "latitude": "29.926245526240336",
      "longitude": "-90.03081746734189"
    }
  },
  {
    "service_request": "2022-908454",
    "request_type": "Roads/Drainage",
    "request_reason": "Catch Basin - Clogged",
    "date_created": "2022-08-10T17:33:39.000",
    "date_modified": "2022-08-10T17:33:39.000",
    "request_status": "Pending",
    "responsible_agency": "Department of Public Works",
    "final_address": "2200 Soniat St",
    "address_councildis": "B",
    "status": "Pending",
    "rowid": "908454",
    "final_x": "3668445.44948",
    "final_y": "523611.371195",
    "longitude": "-90.10955873683822",
    "latitude": "29.934139429919075",
    "geocoded_column": {
      "latitude": "29.934139429919075",
      "longitude": "-90.10955873683822"
    }
  },
  {
    "service_request": "2022-908453",
    "request_type": "Trash/Recycling",
    "request_reason": "Illegal Dumping",
    "date_created": "2022-08-10T17:28:01.000",
    "date_modified": "2022-08-10T17:28:02.000",
    "request_status": "Pending",
    "responsible_agency": "Department of Sanitation",
    "final_address": "3210 St Thomas St",
    "address_councildis": "B",
    "status": "Pending",
    "contractor": "Richards Disposal",
    "rowid": "908453",
    "final_x": "3676554.10702",
    "final_y": "518295.685878",
    "longitude": "-90.08414292372474",
    "latitude": "29.919282402142905",
    "geocoded_column": {
      "latitude": "29.919282402142905",
      "longitude": "-90.08414292372474"
    }
  },
  {
    "service_request": "2022-908452",
    "request_type": "Abandoned Vehicles",
    "request_reason": "Abandoned/Junk Vehicles",
    "date_created": "2022-08-10T17:26:28.000",
    "date_modified": "2022-08-10T18:09:41.000",
    "request_status": "Pending",
    "responsible_agency": "Department of Public Works",
    "final_address": "6300 Morrison Rd",
    "address_councildis": "D",
    "status": "Pending",
    "rowid": "908452",
    "final_x": "3696576.99139",
    "final_y": "557763.818907",
    "longitude": "-90.01951270188557",
    "latitude": "30.027190186025834",
    "geocoded_column": {
      "latitude": "30.027190186025834",
      "longitude": "-90.01951270188557"
    }
  },
  {
    "service_request": "2022-908451",
    "request_type": "Traffic Signals/Signs/Striping/Streetlights",
    "request_reason": "Street Light Knocked Down/Leaning",
    "date_created": "2022-08-10T17:23:48.000",
    "date_modified": "2022-08-10T17:23:49.000",
    "request_status": "Pending",
    "responsible_agency": "Department of Public Works",
    "final_address": "7001 Martin Dr",
    "address_councildis": "E",
    "status": "Pending",
    "contractor": "Legacy Professional Services",
    "rowid": "908451",
    "final_x": "3699289.35824",
    "final_y": "557953.520347",
    "longitude": "-90.01093500208854",
    "latitude": "30.02762599978341",
    "geocoded_column": {
      "latitude": "30.02762599978341",
      "longitude": "-90.01093500208854"
    }
  },
  {
    "service_request": "2022-908450",
    "request_type": "Roads/Drainage",
    "request_reason": "Catch Basin - Clogged",
    "date_created": "2022-08-10T17:19:25.000",
    "date_modified": "2022-08-10T17:19:25.000",
    "request_status": "Pending",
    "responsible_agency": "Department of Public Works",
    "final_address": "7531 Willow St",
    "address_councildis": "A",
    "status": "Pending",
    "rowid": "908450",
    "final_x": "3663904.9849",
    "final_y": "527633.273023",
    "longitude": "-90.12375885384918",
    "latitude": "29.945330936440897",
    "geocoded_column": {
      "latitude": "29.945330936440897",
      "longitude": "-90.12375885384918"
    }
  },
  {
    "service_request": "2022-908449",
    "request_type": "Trash/Recycling",
    "request_reason": "MIssed Recycling Pick-Up",
    "date_created": "2022-08-10T17:18:20.000",
    "date_modified": "2022-08-10T17:18:21.000",
    "request_status": "Pending",
    "responsible_agency": "Department of Sanitation",
    "final_address": "2833 S Liberty St",
    "address_councildis": "B",
    "status": "Assigned to Contractor",
    "contractor": "Richards Disposal",
    "rowid": "908449",
    "final_x": "3674286.65134",
    "final_y": "524479.15078",
    "longitude": "-90.09108854333479",
    "latitude": "29.936352710840243",
    "geocoded_column": {
      "latitude": "29.936352710840243",
      "longitude": "-90.09108854333479"
    }
  },
  {
    "service_request": "2022-908448",
    "request_type": "Property Maintenance",
    "request_reason": "Property Maintenance",
    "date_created": "2022-08-10T17:16:16.000",
    "date_modified": "2022-08-10T17:17:43.000",
    "request_status": "Pending",
    "responsible_agency": "Department of Code Enforcement",
    "final_address": "1123 N Miro St",
    "address_councildis": "D",
    "status": "Pending",
    "rowid": "908448",
    "final_x": "3679085.93595",
    "final_y": "537273.259464",
    "longitude": "-90.07549364251885",
    "latitude": "29.971388265261552",
    "geocoded_column": {
      "latitude": "29.971388265261552",
      "longitude": "-90.07549364251885"
    }
  },
  {
    "service_request": "2022-908447",
    "request_type": "Roads/Drainage",
    "request_reason": "Catch Basin - Clogged",
    "date_created": "2022-08-10T17:15:01.000",
    "date_modified": "2022-08-10T17:15:01.000",
    "request_status": "Pending",
    "responsible_agency": "Department of Public Works",
    "final_address": "8016 Belfast St",
    "address_councildis": "A",
    "status": "Pending",
    "rowid": "908447",
    "final_x": "3665751.94151",
    "final_y": "532102.021059",
    "longitude": "-90.11777772352873",
    "latitude": "29.95756480368929",
    "geocoded_column": {
      "latitude": "29.95756480368929",
      "longitude": "-90.11777772352873"
    }
  },
  {
    "service_request": "2022-908446",
    "request_type": "Traffic Signals/Signs/Striping/Streetlights",
    "request_reason": "Street Light Outage/Malfunction",
    "date_created": "2022-08-10T17:14:47.000",
    "date_modified": "2022-08-10T17:14:49.000",
    "request_status": "Pending",
    "responsible_agency": "Department of Public Works",
    "final_address": "5246 Beaver Dr",
    "address_councildis": "E",
    "status": "Pending",
    "contractor": "Legacy Professional Services",
    "rowid": "908446",
    "final_x": "3717569.77912",
    "final_y": "559276.927708",
    "longitude": "-89.9531205937335",
    "latitude": "30.030672076455254",
    "geocoded_column": {
      "latitude": "30.030672076455254",
      "longitude": "-89.9531205937335"
    }
  },
  {
    "service_request": "2022-908445",
    "request_type": "Roads/Drainage",
    "request_reason": "Street Flooding / Drainage",
    "date_created": "2022-08-10T17:12:45.000",
    "date_modified": "2022-08-10T17:12:45.000",
    "request_status": "Pending",
    "responsible_agency": "Department of Public Works",
    "final_address": "8200 Hampson St",
    "address_councildis": "A",
    "status": "Pending",
    "rowid": "908445",
    "final_x": "3660465.08077",
    "final_y": "527356.223039",
    "longitude": "-90.1346289372227",
    "latitude": "29.94466853593979",
    "geocoded_column": {
      "latitude": "29.94466853593979",
      "longitude": "-90.1346289372227"
    }
  },
  {
    "service_request": "2022-908444",
    "request_type": "Roads/Drainage",
    "request_reason": "Street Flooding / Drainage",
    "date_created": "2022-08-10T17:05:41.000",
    "date_modified": "2022-08-10T17:05:41.000",
    "request_status": "Pending",
    "responsible_agency": "Department of Public Works",
    "final_address": "7531 Willow St",
    "address_councildis": "A",
    "status": "Pending",
    "rowid": "908444",
    "final_x": "3663904.9849",
    "final_y": "527633.273023",
    "longitude": "-90.12375885384918",
    "latitude": "29.945330936440897",
    "geocoded_column": {
      "latitude": "29.945330936440897",
      "longitude": "-90.12375885384918"
    }
  },
  {
    "service_request": "2022-908443",
    "request_type": "Trash/Recycling",
    "request_reason": "MIssed Recycling Pick-Up",
    "date_created": "2022-08-10T16:56:42.000",
    "date_modified": "2022-08-10T16:56:43.000",
    "request_status": "Pending",
    "responsible_agency": "Department of Sanitation",
    "final_address": "431 S Cortez St",
    "address_councildis": "B",
    "status": "Assigned to Contractor",
    "contractor": "Richards Disposal",
    "rowid": "908443",
    "final_x": "3671137.88814",
    "final_y": "536437.845255",
    "longitude": "-90.10062315755906",
    "latitude": "29.96932866896284",
    "geocoded_column": {
      "latitude": "29.96932866896284",
      "longitude": "-90.10062315755906"
    }
  },
  {
    "service_request": "2022-908442",
    "request_type": "Traffic Signals/Signs/Striping/Streetlights",
    "request_reason": "Street Light Outage/Malfunction",
    "date_created": "2022-08-10T16:53:05.000",
    "date_modified": "2022-08-10T16:53:06.000",
    "request_status": "Pending",
    "responsible_agency": "Department of Public Works",
    "final_address": "3773 Silver Maple Ct",
    "address_councildis": "C",
    "status": "Pending",
    "contractor": "Legacy Professional Services",
    "rowid": "908442",
    "final_x": "3703679.56497",
    "final_y": "512780.878193",
    "longitude": "-89.99872495988359",
    "latitude": "29.903277564843922",
    "geocoded_column": {
      "latitude": "29.903277564843922",
      "longitude": "-89.99872495988359"
    }
  },
  {
    "service_request": "2022-908441",
    "request_type": "Trash/Recycling",
    "request_reason": "Request a Large Item Pick Up",
    "date_created": "2022-08-10T16:52:16.000",
    "date_modified": "2022-08-10T16:52:17.000",
    "request_status": "Pending",
    "responsible_agency": "Department of Sanitation",
    "final_address": "3700 Dumaine St",
    "address_councildis": "A",
    "status": "Assigned to Contractor",
    "contractor": "Richards Disposal",
    "rowid": "908441",
    "final_x": "3674055.92168",
    "final_y": "539822.04513",
    "longitude": "-90.09129191822002",
    "latitude": "29.978547426070424",
    "geocoded_column": {
      "latitude": "29.978547426070424",
      "longitude": "-90.09129191822002"
    }
  },
  {
    "service_request": "2022-908440",
    "request_type": "Trash/Recycling",
    "request_reason": "Order Trash Cart",
    "date_created": "2022-08-10T16:51:45.000",
    "date_modified": "2022-08-10T16:51:46.000",
    "request_status": "Pending",
    "responsible_agency": "Department of Sanitation",
    "final_address": "2355 N Galvez St",
    "address_councildis": "D",
    "status": "Assigned to Contractor",
    "contractor": "Metro Disposal",
    "rowid": "908440",
    "final_x": "3685956.18383",
    "final_y": "540122.403659",
    "longitude": "-90.05369597642962",
    "latitude": "29.979013251764638",
    "geocoded_column": {
      "latitude": "29.979013251764638",
      "longitude": "-90.05369597642962"
    }
  },
  {
    "service_request": "2022-908439",
    "request_type": "Trash/Recycling",
    "request_reason": "Replace Trash Cart",
    "date_created": "2022-08-10T16:48:13.000",
    "date_modified": "2022-08-10T16:48:14.000",
    "request_status": "Pending",
    "responsible_agency": "Department of Sanitation",
    "final_address": "4910 Danneel St",
    "address_councildis": "B",
    "status": "Assigned to Contractor",
    "contractor": "Richards Disposal",
    "rowid": "908439",
    "final_x": "3669006.17543",
    "final_y": "522097.878138",
    "longitude": "-90.10783964157538",
    "latitude": "29.929961329683202",
    "geocoded_column": {
      "latitude": "29.929961329683202",
      "longitude": "-90.10783964157538"
    }
  },
  {
    "service_request": "2022-908438",
    "request_type": "Trash/Recycling",
    "request_reason": "MIssed Recycling Pick-Up",
    "date_created": "2022-08-10T16:46:25.000",
    "date_modified": "2022-08-10T16:46:25.000",
    "request_status": "Pending",
    "responsible_agency": "Department of Sanitation",
    "final_address": "622 N Murat St",
    "address_councildis": "A",
    "status": "Assigned to Contractor",
    "contractor": "Richards Disposal",
    "rowid": "908438",
    "final_x": "3670950.15783",
    "final_y": "540970.556043",
    "longitude": "-90.10106208171221",
    "latitude": "29.981797642470212",
    "geocoded_column": {
      "latitude": "29.981797642470212",
      "longitude": "-90.10106208171221"
    }
  },
  {
    "service_request": "2022-908437",
    "request_type": "Abandoned Vehicles",
    "request_reason": "Abandoned/Junk Vehicles",
    "date_created": "2022-08-10T16:45:07.000",
    "date_modified": "2022-08-10T16:47:32.000",
    "request_status": "Pending",
    "responsible_agency": "Department of Public Works",
    "final_address": "3157 Urquhart St",
    "address_councildis": "C",
    "status": "Pending",
    "rowid": "908437",
    "final_x": "3689631.59887",
    "final_y": "536655.852551",
    "longitude": "-90.0422110093971",
    "latitude": "29.969368087114248",
    "geocoded_column": {
      "latitude": "29.969368087114248",
      "longitude": "-90.0422110093971"
    }
  },
  {
    "service_request": "2022-908436",
    "request_type": "Roads/Drainage",
    "request_reason": "Service Cut",
    "date_created": "2022-08-10T16:41:50.000",
    "date_modified": "2022-08-10T16:41:51.000",
    "request_status": "Pending",
    "responsible_agency": "Department of Public Works",
    "final_address": "3900 BLK General Taylor St",
    "address_councildis": "B",
    "status": "Pending",
    "rowid": "908436",
    "final_x": "3670732.66604",
    "final_y": "529128.302752",
    "longitude": "-90.10215091792575",
    "latitude": "29.949241832145184",
    "geocoded_column": {
      "latitude": "29.949241832145184",
      "longitude": "-90.10215091792575"
    }
  },
  {
    "service_request": "2022-908435",
    "request_type": "Parks & Parkways",
    "request_reason": "Request Grass Cutting Service (City Owned Property)",
    "date_created": "2022-08-10T16:38:47.000",
    "date_modified": "2022-08-10T16:38:47.000",
    "request_status": "Pending",
    "responsible_agency": "Department of Parks & Parkway",
    "final_address": "10101 Dwyer Rd",
    "address_councildis": "E",
    "status": "Pending",
    "rowid": "908435",
    "final_x": "3712861.84318",
    "final_y": "558035.777435",
    "longitude": "-89.96804434105468",
    "latitude": "30.027414493874833",
    "geocoded_column": {
      "latitude": "30.027414493874833",
      "longitude": "-89.96804434105468"
    }
  },
  {
    "service_request": "2022-908434",
    "request_type": "Trash/Recycling",
    "request_reason": "MIssed Recycling Pick-Up",
    "date_created": "2022-08-10T16:34:29.000",
    "date_modified": "2022-08-10T16:34:30.000",
    "request_status": "Pending",
    "responsible_agency": "Department of Sanitation",
    "final_address": "921 Bellecastle St",
    "address_councildis": "B",
    "status": "Assigned to Contractor",
    "contractor": "Richards Disposal",
    "rowid": "908434",
    "final_x": "3667800.23098",
    "final_y": "518770.234615",
    "longitude": "-90.11175861019325",
    "latitude": "29.920846773348178",
    "geocoded_column": {
      "latitude": "29.920846773348178",
      "longitude": "-90.11175861019325"
    }
  },
  {
    "service_request": "2022-908433",
    "request_type": "Abandoned Vehicles",
    "request_reason": "Abandoned/Junk Vehicles",
    "date_created": "2022-08-10T16:34:08.000",
    "date_modified": "2022-08-10T16:34:08.000",
    "request_status": "Pending",
    "responsible_agency": "Department of Public Works",
    "final_address": "1244 Casa Calvo St",
    "address_councildis": "C",
    "status": "Pending",
    "rowid": "908433",
    "final_x": "3692118.95408",
    "final_y": "526557.104318",
    "longitude": "-90.03471722493315",
    "latitude": "29.941522744844505",
    "geocoded_column": {
      "latitude": "29.941522744844505",
      "longitude": "-90.03471722493315"
    }
  },
  {
    "service_request": "2022-908432",
    "request_type": "Trash/Recycling",
    "request_reason": "Illegal Dumping",
    "date_created": "2022-08-10T16:33:18.000",
    "date_modified": "2022-08-10T16:33:18.000",
    "request_status": "Pending",
    "responsible_agency": "Department of Sanitation",
    "final_address": "1718 Allen St",
    "address_councildis": "D",
    "status": "Pending",
    "rowid": "908432",
    "final_x": "3682551.89269",
    "final_y": "538501.593481",
    "longitude": "-90.06450471090986",
    "latitude": "29.9746606855351",
    "geocoded_column": {
      "latitude": "29.9746606855351",
      "longitude": "-90.06450471090986"
    }
  },
  {
    "service_request": "2022-908431",
    "request_type": "Trash/Recycling",
    "request_reason": "Request a Large Item Pick Up",
    "date_created": "2022-08-10T16:32:54.000",
    "date_modified": "2022-08-10T16:32:54.000",
    "request_status": "Pending",
    "responsible_agency": "Department of Sanitation",
    "final_address": "2351 Magazine St",
    "address_councildis": "B",
    "status": "Assigned to Contractor",
    "contractor": "Richards Disposal",
    "rowid": "908431",
    "final_x": "3678180.2619",
    "final_y": "521624.296377",
    "longitude": "-90.07889494801034",
    "latitude": "29.92838615338833",
    "geocoded_column": {
      "latitude": "29.92838615338833",
      "longitude": "-90.07889494801034"
    }
  },
  {
    "service_request": "2022-908430",
    "request_type": "Trash/Recycling",
    "request_reason": "Missed Trash Pick-Up",
    "date_created": "2022-08-10T16:32:49.000",
    "date_modified": "2022-08-10T16:32:50.000",
    "request_status": "Pending",
    "responsible_agency": "Department of Sanitation",
    "final_address": "921 Bellecastle St",
    "address_councildis": "B",
    "status": "Assigned to Contractor",
    "contractor": "Richards Disposal",
    "rowid": "908430",
    "final_x": "3667800.23098",
    "final_y": "518770.234615",
    "longitude": "-90.11175861019325",
    "latitude": "29.920846773348178",
    "geocoded_column": {
      "latitude": "29.920846773348178",
      "longitude": "-90.11175861019325"
    }
  },
  {
    "service_request": "2022-908429",
    "request_type": "Trash/Recycling",
    "request_reason": "Order Recycling Cart",
    "date_created": "2022-08-10T16:29:55.000",
    "date_modified": "2022-08-10T16:29:56.000",
    "request_status": "Pending",
    "responsible_agency": "Department of Sanitation",
    "final_address": "9 Rosa Park",
    "address_councildis": "A",
    "status": "Pending",
    "rowid": "908429",
    "final_x": "3666254.54631",
    "final_y": "522586.536442",
    "longitude": "-90.11650972460535",
    "latitude": "29.93138561860705",
    "geocoded_column": {
      "latitude": "29.93138561860705",
      "longitude": "-90.11650972460535"
    }
  },
  {
    "service_request": "2022-908428",
    "request_type": "Roads/Drainage",
    "request_reason": "Catch Basin - Clogged",
    "date_created": "2022-08-10T16:27:55.000",
    "date_modified": "2022-08-10T16:27:55.000",
    "request_status": "Pending",
    "responsible_agency": "Department of Public Works",
    "final_address": "830 Burdette St",
    "address_councildis": "A",
    "status": "Pending",
    "rowid": "908428",
    "final_x": "3662023.46266",
    "final_y": "526825.70739",
    "longitude": "-90.12972623159206",
    "latitude": "29.943164867718178",
    "geocoded_column": {
      "latitude": "29.943164867718178",
      "longitude": "-90.12972623159206"
    }
  },
  {
    "service_request": "2022-908427",
    "request_type": "Trash/Recycling",
    "request_reason": "Order Recycling Cart",
    "date_created": "2022-08-10T16:26:18.000",
    "date_modified": "2022-08-10T16:26:19.000",
    "request_status": "Pending",
    "responsible_agency": "Department of Sanitation",
    "final_address": "3950 Louisa St",
    "address_councildis": "D",
    "status": "Pending",
    "rowid": "908427",
    "final_x": "3691620.32688",
    "final_y": "547992.11925",
    "longitude": "-90.03552498482429",
    "latitude": "30.00047698081084",
    "geocoded_column": {
      "latitude": "30.00047698081084",
      "longitude": "-90.03552498482429"
    }
  },
  {
    "service_request": "2022-908426",
    "request_type": "Trash/Recycling",
    "request_reason": "Order Trash Cart",
    "date_created": "2022-08-10T16:25:42.000",
    "date_modified": "2022-08-10T16:25:43.000",
    "request_status": "Pending",
    "responsible_agency": "Department of Sanitation",
    "final_address": "3950 Louisa St",
    "address_councildis": "D",
    "status": "Assigned to Contractor",
    "contractor": "Metro Disposal",
    "rowid": "908426",
    "final_x": "3691620.32688",
    "final_y": "547992.11925",
    "longitude": "-90.03552498482429",
    "latitude": "30.00047698081084",
    "geocoded_column": {
      "latitude": "30.00047698081084",
      "longitude": "-90.03552498482429"
    }
  },
  {
    "service_request": "2022-908425",
    "request_type": "Trash/Recycling",
    "request_reason": "Start Trash Service",
    "date_created": "2022-08-10T16:25:17.000",
    "date_modified": "2022-08-10T16:25:18.000",
    "request_status": "Pending",
    "responsible_agency": "Department of Sanitation",
    "final_address": "3950 Louisa St",
    "address_councildis": "D",
    "status": "Assigned to Contractor",
    "contractor": "Metro Disposal",
    "rowid": "908425",
    "final_x": "3691620.32688",
    "final_y": "547992.11925",
    "longitude": "-90.03552498482429",
    "latitude": "30.00047698081084",
    "geocoded_column": {
      "latitude": "30.00047698081084",
      "longitude": "-90.03552498482429"
    }
  },
  {
    "service_request": "2022-908424",
    "request_type": "Roads/Drainage",
    "request_reason": "Catch Basin - Broken/Damage",
    "date_created": "2022-08-10T16:22:55.000",
    "date_modified": "2022-08-10T16:22:55.000",
    "request_status": "Pending",
    "responsible_agency": "Department of Public Works",
    "final_address": "3400 Canal St",
    "address_councildis": "B",
    "status": "Pending",
    "rowid": "908424",
    "final_x": "3673048.87745",
    "final_y": "536746.168647",
    "longitude": "-90.09457756709588",
    "latitude": "29.970119786470928",
    "geocoded_column": {
      "latitude": "29.970119786470928",
      "longitude": "-90.09457756709588"
    }
  },
  {
    "service_request": "2022-908423",
    "request_type": "Property Maintenance",
    "request_reason": "Property Maintenance",
    "date_created": "2022-08-10T16:22:44.000",
    "date_modified": "2022-08-10T16:22:45.000",
    "request_status": "Pending",
    "responsible_agency": "Department of Code Enforcement",
    "final_address": "2318 Eads St",
    "address_councildis": "D",
    "status": "Pending",
    "rowid": "908423",
    "final_x": "3687873.64796",
    "final_y": "541152.071436",
    "longitude": "-90.04760341297154",
    "latitude": "29.98178545407927",
    "geocoded_column": {
      "latitude": "29.98178545407927",
      "longitude": "-90.04760341297154"
    }
  },
  {
    "service_request": "2022-908422",
    "request_type": "Trash/Recycling",
    "request_reason": "Request a Large Item Pick Up",
    "date_created": "2022-08-10T16:22:43.000",
    "date_modified": "2022-08-10T16:22:43.000",
    "request_status": "Pending",
    "responsible_agency": "Department of Sanitation",
    "final_address": "2602 Chippewa St, New Orleans, Louisiana, 70130",
    "address_councildis": "B",
    "status": "Assigned to Contractor",
    "contractor": "Richards Disposal",
    "rowid": "908422",
    "final_x": "3678375.40424",
    "final_y": "519862.22188",
    "longitude": "-90.07833984965245",
    "latitude": "29.92353514635856",
    "geocoded_column": {
      "latitude": "29.92353514635856",
      "longitude": "-90.07833984965245"
    }
  },
  {
    "service_request": "2022-908421",
    "request_type": "Property Maintenance",
    "request_reason": "Property Maintenance",
    "date_created": "2022-08-10T16:20:39.000",
    "date_modified": "2022-08-10T16:20:39.000",
    "request_status": "Pending",
    "responsible_agency": "Department of Code Enforcement",
    "final_address": "4815 Feliciana Dr",
    "address_councildis": "D",
    "status": "Pending",
    "rowid": "908421",
    "final_x": "3690215.98339",
    "final_y": "550907.684309",
    "longitude": "-90.03985740884234",
    "latitude": "30.00853737777067",
    "geocoded_column": {
      "latitude": "30.00853737777067",
      "longitude": "-90.03985740884234"
    }
  },
  {
    "service_request": "2022-908420",
    "request_type": "Trash/Recycling",
    "request_reason": "Order Recycling Cart",
    "date_created": "2022-08-10T16:19:41.000",
    "date_modified": "2022-08-10T16:19:41.000",
    "request_status": "Pending",
    "responsible_agency": "Department of Sanitation",
    "final_address": "109 10Th St",
    "address_councildis": "A",
    "status": "Pending",
    "rowid": "908420",
    "final_x": "3665971.15808",
    "final_y": "547563.502738",
    "longitude": "-90.11656705019897",
    "latitude": "30.000072293733712",
    "geocoded_column": {
      "latitude": "30.000072293733712",
      "longitude": "-90.11656705019897"
    }
  },
  {
    "service_request": "2022-908419",
    "request_type": "Trash/Recycling",
    "request_reason": "Missed Trash Pick-Up",
    "date_created": "2022-08-10T16:19:40.000",
    "date_modified": "2022-08-10T16:19:41.000",
    "request_status": "Pending",
    "responsible_agency": "Department of Sanitation",
    "final_address": "1618 N Lopez St",
    "address_councildis": "A",
    "status": "Assigned to Contractor",
    "contractor": "Metro Disposal",
    "rowid": "908419",
    "final_x": "3676638.37941",
    "final_y": "540703.436875",
    "longitude": "-90.083105182647",
    "latitude": "29.980893726628747",
    "geocoded_column": {
      "latitude": "29.980893726628747",
      "longitude": "-90.083105182647"
    }
  },
  {
    "service_request": "2022-908418",
    "request_type": "Property Maintenance",
    "request_reason": "Property Maintenance",
    "date_created": "2022-08-10T16:19:11.000",
    "date_modified": "2022-08-10T16:19:13.000",
    "request_status": "Pending",
    "responsible_agency": "Department of Code Enforcement",
    "final_address": "4822 Kendall Dr",
    "address_councildis": "D",
    "status": "Pending",
    "rowid": "908418",
    "final_x": "3690304.76476",
    "final_y": "550978.900117",
    "longitude": "-90.03957438074102",
    "latitude": "30.00873043903212",
    "geocoded_column": {
      "latitude": "30.00873043903212",
      "longitude": "-90.03957438074102"
    }
  },
  {
    "service_request": "2022-908417",
    "request_type": "Trash/Recycling",
    "request_reason": "Order Trash Cart",
    "date_created": "2022-08-10T16:18:13.000",
    "date_modified": "2022-08-10T16:18:13.000",
    "request_status": "Pending",
    "responsible_agency": "Department of Sanitation",
    "final_address": "3950 Louisa St",
    "address_councildis": "D",
    "status": "Assigned to Contractor",
    "contractor": "Metro Disposal",
    "rowid": "908417",
    "final_x": "3691620.32688",
    "final_y": "547992.11925",
    "longitude": "-90.03552498482429",
    "latitude": "30.00047698081084",
    "geocoded_column": {
      "latitude": "30.00047698081084",
      "longitude": "-90.03552498482429"
    }
  },
  {
    "service_request": "2022-908415",
    "request_type": "Trash/Recycling",
    "request_reason": "Start Trash Service",
    "date_created": "2022-08-10T16:16:56.000",
    "date_modified": "2022-08-10T16:16:56.000",
    "request_status": "Pending",
    "responsible_agency": "Department of Sanitation",
    "final_address": "3950 Louisa St",
    "address_councildis": "D",
    "status": "Assigned to Contractor",
    "contractor": "Metro Disposal",
    "rowid": "908415",
    "final_x": "3691620.32688",
    "final_y": "547992.11925",
    "longitude": "-90.03552498482429",
    "latitude": "30.00047698081084",
    "geocoded_column": {
      "latitude": "30.00047698081084",
      "longitude": "-90.03552498482429"
    }
  },
  {
    "service_request": "2022-908414",
    "request_type": "Trash/Recycling",
    "request_reason": "Missed Trash Pick-Up",
    "date_created": "2022-08-10T16:12:10.000",
    "date_modified": "2022-08-10T16:12:11.000",
    "request_status": "Pending",
    "responsible_agency": "Department of Sanitation",
    "final_address": "5237 Chestnut St",
    "address_councildis": "B",
    "status": "Assigned to Contractor",
    "contractor": "Richards Disposal",
    "rowid": "908414",
    "final_x": "3667772.67354",
    "final_y": "519400.678775",
    "longitude": "-90.11182438232632",
    "latitude": "29.922581103783585",
    "geocoded_column": {
      "latitude": "29.922581103783585",
      "longitude": "-90.11182438232632"
    }
  },
  {
    "service_request": "2022-908413",
    "request_type": "Trash/Recycling",
    "request_reason": "Repair Recycling Cart",
    "date_created": "2022-08-10T16:10:35.000",
    "date_modified": "2022-08-10T16:10:35.000",
    "request_status": "Pending",
    "responsible_agency": "Department of Sanitation",
    "final_address": "5237 Chestnut St",
    "address_councildis": "B",
    "status": "Pending",
    "rowid": "908413",
    "final_x": "3667772.67354",
    "final_y": "519400.678775",
    "longitude": "-90.11182438232632",
    "latitude": "29.922581103783585",
    "geocoded_column": {
      "latitude": "29.922581103783585",
      "longitude": "-90.11182438232632"
    }
  },
  {
    "service_request": "2022-908412",
    "request_type": "Abandoned Vehicles",
    "request_reason": "Abandoned/Junk Vehicles",
    "date_created": "2022-08-10T16:09:26.000",
    "date_modified": "2022-08-10T16:09:26.000",
    "request_status": "Pending",
    "responsible_agency": "Department of Public Works",
    "final_address": "503 French St",
    "address_councildis": "A",
    "status": "Pending",
    "rowid": "908412",
    "final_x": "3667926.02631",
    "final_y": "548712.063315",
    "longitude": "-90.11035277466601",
    "latitude": "30.003173213362263",
    "geocoded_column": {
      "latitude": "30.003173213362263",
      "longitude": "-90.11035277466601"
    }
  },
  {
    "service_request": "2022-908411",
    "request_type": "Trash/Recycling",
    "request_reason": "Request a Large Item Pick Up",
    "date_created": "2022-08-10T16:08:47.000",
    "date_modified": "2022-08-10T16:08:48.000",
    "request_status": "Pending",
    "responsible_agency": "Department of Sanitation",
    "final_address": "3269 Belfort St",
    "address_councildis": "A",
    "status": "Assigned to Contractor",
    "contractor": "Metro Disposal",
    "rowid": "908411",
    "final_x": "3677741.64302",
    "final_y": "542593.288845",
    "longitude": "-90.0795552724145",
    "latitude": "29.986057018076604",
    "geocoded_column": {
      "latitude": "29.986057018076604",
      "longitude": "-90.0795552724145"
    }
  },
  {
    "service_request": "2022-908409",
    "request_type": "Property Maintenance",
    "request_reason": "Property Maintenance",
    "date_created": "2022-08-10T16:03:00.000",
    "date_modified": "2022-08-10T16:03:00.000",
    "request_status": "Pending",
    "responsible_agency": "Department of Code Enforcement",
    "final_address": "7432 Ligustrum Dr",
    "address_councildis": "E",
    "status": "Pending",
    "rowid": "908409",
    "final_x": "3701629.38455",
    "final_y": "560645.170974",
    "longitude": "-90.00344203315537",
    "latitude": "30.034952531323203",
    "geocoded_column": {
      "latitude": "30.034952531323203",
      "longitude": "-90.00344203315537"
    }
  },
  {
    "service_request": "2022-908408",
    "request_type": "Parks & Parkways",
    "request_reason": "Request Grass Cutting Service (City Owned Property)",
    "date_created": "2022-08-10T16:01:23.000",
    "date_modified": "2022-08-10T16:01:23.000",
    "request_status": "Pending",
    "responsible_agency": "Department of Parks & Parkway",
    "final_address": "537 Verret St",
    "address_councildis": "C",
    "status": "Pending",
    "rowid": "908408",
    "final_x": "3686983.72239",
    "final_y": "529582.922177",
    "longitude": "-90.05082320331647",
    "latitude": "29.95000174427931",
    "geocoded_column": {
      "latitude": "29.95000174427931",
      "longitude": "-90.05082320331647"
    }
  },
  {
    "service_request": "2022-908407",
    "request_type": "Property Maintenance",
    "request_reason": "Property Maintenance",
    "date_created": "2022-08-10T16:00:40.000",
    "date_modified": "2022-08-10T16:00:40.000",
    "request_status": "Pending",
    "responsible_agency": "Department of Code Enforcement",
    "final_address": "2220 First St",
    "address_councildis": "B",
    "status": "Pending",
    "rowid": "908407",
    "final_x": "3675638.98376",
    "final_y": "525131.234877",
    "longitude": "-90.08679678324253",
    "latitude": "29.938105346177405",
    "geocoded_column": {
      "latitude": "29.938105346177405",
      "longitude": "-90.08679678324253"
    }
  },
  {
    "service_request": "2022-908406",
    "request_type": "Traffic Signals/Signs/Striping/Streetlights",
    "request_reason": "Street Light Outage/Malfunction",
    "date_created": "2022-08-10T15:58:05.000",
    "date_modified": "2022-08-10T15:58:06.000",
    "request_status": "Pending",
    "responsible_agency": "Department of Public Works",
    "final_address": "2727 Amelia St",
    "address_councildis": "B",
    "status": "Pending",
    "contractor": "Legacy Professional Services",
    "rowid": "908406",
    "final_x": "3672163.71086",
    "final_y": "525202.616445",
    "longitude": "-90.09776612480994",
    "latitude": "29.93840512101448",
    "geocoded_column": {
      "latitude": "29.93840512101448",
      "longitude": "-90.09776612480994"
    }
  },
  {
    "service_request": "2022-908405",
    "request_type": "Roads/Drainage",
    "request_reason": "Catch Basin - Clogged",
    "date_created": "2022-08-10T15:57:23.000",
    "date_modified": "2022-08-10T15:57:23.000",
    "request_status": "Pending",
    "responsible_agency": "Department of Public Works",
    "final_address": "2300 BLK Republic St",
    "address_councildis": "D",
    "status": "Pending",
    "rowid": "908405",
    "final_x": "3680856.95288",
    "final_y": "540603.393975",
    "longitude": "-90.06978454675551",
    "latitude": "29.98049140555193",
    "geocoded_column": {
      "latitude": "29.98049140555193",
      "longitude": "-90.06978454675551"
    }
  },
  {
    "service_request": "2022-908404",
    "request_type": "Roads/Drainage",
    "request_reason": "Street Subsidence (Sinking)",
    "date_created": "2022-08-10T15:41:54.000",
    "date_modified": "2022-08-10T15:41:54.000",
    "request_status": "Pending",
    "responsible_agency": "Department of Public Works",
    "final_address": "639 Julia St",
    "address_councildis": "B",
    "status": "Pending",
    "rowid": "908404",
    "final_x": "3680523.8116",
    "final_y": "528039.705919",
    "longitude": "-90.0712738132556",
    "latitude": "29.945955648354627",
    "geocoded_column": {
      "latitude": "29.945955648354627",
      "longitude": "-90.0712738132556"
    }
  },
  {
    "service_request": "2022-908403",
    "request_type": "Roads/Drainage",
    "request_reason": "Catch Basin - Clogged",
    "date_created": "2022-08-10T15:41:04.000",
    "date_modified": "2022-08-10T15:41:05.000",
    "request_status": "Pending",
    "responsible_agency": "Department of Public Works",
    "final_address": "4100 Prytania St",
    "address_councildis": "B",
    "status": "Pending",
    "rowid": "908403",
    "final_x": "3671965.78734",
    "final_y": "520363.725112",
    "longitude": "-90.09855561660004",
    "latitude": "29.92510559658134",
    "geocoded_column": {
      "latitude": "29.92510559658134",
      "longitude": "-90.09855561660004"
    }
  },
  {
    "service_request": "2022-908402",
    "request_type": "Trash/Recycling",
    "request_reason": "MIssed Recycling Pick-Up",
    "date_created": "2022-08-10T15:40:56.000",
    "date_modified": "2022-08-10T15:40:57.000",
    "request_status": "Pending",
    "responsible_agency": "Department of Sanitation",
    "final_address": "917 Thalia St",
    "address_councildis": "B",
    "status": "Assigned to Contractor",
    "contractor": "Richards Disposal",
    "rowid": "908402",
    "final_x": "3681183.92591",
    "final_y": "525116.528957",
    "longitude": "-90.06929142583014",
    "latitude": "29.937897878712683",
    "geocoded_column": {
      "latitude": "29.937897878712683",
      "longitude": "-90.06929142583014"
    }
  },
  {
    "service_request": "2022-908401",
    "request_type": "Trash/Recycling",
    "request_reason": "Missed Trash Pick-Up",
    "date_created": "2022-08-10T15:39:46.000",
    "date_modified": "2022-08-10T15:39:46.000",
    "request_status": "Pending",
    "responsible_agency": "Department of Sanitation",
    "final_address": "6327 Providence Pl, New Orleans, Louisiana, 70126",
    "address_councildis": "D",
    "status": "Assigned to Contractor",
    "contractor": "Metro Disposal",
    "rowid": "908401",
    "final_x": "3688176.439",
    "final_y": "556764.661594",
    "longitude": "-90.04609308762701",
    "latitude": "30.024705047772944",
    "geocoded_column": {
      "latitude": "30.024705047772944",
      "longitude": "-90.04609308762701"
    }
  },
  {
    "service_request": "2022-908400",
    "request_type": "Roads/Drainage",
    "request_reason": "Pothole",
    "date_created": "2022-08-10T15:38:39.000",
    "date_modified": "2022-08-10T15:38:40.000",
    "request_status": "Pending",
    "responsible_agency": "Department of Public Works",
    "final_address": "CARONDELET ST & ST CHARLES EXIT & CALLIOPE ST",
    "address_councildis": "B",
    "status": "Pending",
    "rowid": "908400",
    "final_x": "3679435.33",
    "final_y": "526777.12",
    "longitude": "-90.07475430373874",
    "latitude": "29.94251687804364",
    "geocoded_column": {
      "latitude": "29.94251687804364",
      "longitude": "-90.07475430373874"
    }
  },
  {
    "service_request": "2022-908399",
    "request_type": "Trash/Recycling",
    "request_reason": "Request a Large Item Pick Up",
    "date_created": "2022-08-10T15:36:43.000",
    "date_modified": "2022-08-10T15:36:44.000",
    "request_status": "Pending",
    "responsible_agency": "Department of Sanitation",
    "final_address": "2917 Ursulines Ave, New Orleans, Louisiana, 70119",
    "address_councildis": "A",
    "status": "Assigned to Contractor",
    "contractor": "Richards Disposal",
    "rowid": "908399",
    "final_x": "3676684.91182",
    "final_y": "538985.24737",
    "longitude": "-90.08301742865254",
    "latitude": "29.976167900639656",
    "geocoded_column": {
      "latitude": "29.976167900639656",
      "longitude": "-90.08301742865254"
    }
  },
  {
    "service_request": "2022-908398",
    "request_type": "Trash/Recycling",
    "request_reason": "Illegal Dumping",
    "date_created": "2022-08-10T15:34:56.000",
    "date_modified": "2022-08-10T15:34:57.000",
    "request_status": "Pending",
    "responsible_agency": "Department of Sanitation",
    "final_address": "I 10 W ONRAMP & SUPERDOME EXIT & W PONTCHARTRAIN EXPRESSWAY",
    "address_councildis": "B",
    "status": "Pending",
    "rowid": "908398",
    "final_x": "3676152.5",
    "final_y": "529600.98",
    "longitude": "-90.08502183137841",
    "latitude": "29.95038029769489",
    "geocoded_column": {
      "latitude": "29.95038029769489",
      "longitude": "-90.08502183137841"
    }
  },
  {
    "service_request": "2022-908397",
    "request_type": "Trash/Recycling",
    "request_reason": "MIssed Recycling Pick-Up",
    "date_created": "2022-08-10T15:34:22.000",
    "date_modified": "2022-08-10T15:34:23.000",
    "request_status": "Pending",
    "responsible_agency": "Department of Sanitation",
    "final_address": "2918 Conti St",
    "address_councildis": "B",
    "status": "Assigned to Contractor",
    "contractor": "Richards Disposal",
    "rowid": "908397",
    "final_x": "3675164.21441",
    "final_y": "536659.484103",
    "longitude": "-90.0879000831419",
    "latitude": "29.969818382783124",
    "geocoded_column": {
      "latitude": "29.969818382783124",
      "longitude": "-90.0879000831419"
    }
  },
  {
    "service_request": "2022-908396",
    "request_type": "Trash/Recycling",
    "request_reason": "Request a Large Item Pick Up",
    "date_created": "2022-08-10T15:33:52.000",
    "date_modified": "2022-08-10T15:33:53.000",
    "request_status": "Pending",
    "responsible_agency": "Department of Sanitation",
    "final_address": "2235 Laurel St",
    "address_councildis": "B",
    "status": "Assigned to Contractor",
    "contractor": "Richards Disposal",
    "rowid": "908396",
    "final_x": "3679038.39458",
    "final_y": "521329.273593",
    "longitude": "-90.07619622759418",
    "latitude": "29.927549077094735",
    "geocoded_column": {
      "latitude": "29.927549077094735",
      "longitude": "-90.07619622759418"
    }
  },
  {
    "service_request": "2022-908395",
    "request_type": "Traffic Signals/Signs/Striping/Streetlights",
    "request_reason": "Street Light Outage/Malfunction",
    "date_created": "2022-08-10T15:31:16.000",
    "date_modified": "2022-08-10T15:31:17.000",
    "request_status": "Pending",
    "responsible_agency": "Department of Public Works",
    "final_address": "2223 Broadway St",
    "address_councildis": "A",
    "status": "Pending",
    "contractor": "Legacy Professional Services",
    "rowid": "908395",
    "final_x": "3666277.71597",
    "final_y": "529550.944705",
    "longitude": "-90.11620304372894",
    "latitude": "29.950534828339777",
    "geocoded_column": {
      "latitude": "29.950534828339777",
      "longitude": "-90.11620304372894"
    }
  },
  {
    "service_request": "2022-908394",
    "request_type": "Property Maintenance",
    "request_reason": "Property Maintenance",
    "date_created": "2022-08-10T15:29:40.000",
    "date_modified": "2022-08-10T15:29:40.000",
    "request_status": "Pending",
    "responsible_agency": "Department of Code Enforcement",
    "final_address": "1401 Touro St",
    "address_councildis": "C",
    "status": "Pending",
    "rowid": "908394",
    "final_x": "3684175.6893",
    "final_y": "537377.052168",
    "longitude": "-90.0594158543855",
    "latitude": "29.971519047419815",
    "geocoded_column": {
      "latitude": "29.971519047419815",
      "longitude": "-90.0594158543855"
    }
  },
  {
    "service_request": "2022-908393",
    "request_type": "Property Maintenance",
    "request_reason": "Property Maintenance",
    "date_created": "2022-08-10T15:29:37.000",
    "date_modified": "2022-08-10T15:29:37.000",
    "request_status": "Pending",
    "responsible_agency": "Department of Code Enforcement",
    "final_address": "1401 Touro St",
    "address_councildis": "C",
    "status": "Pending",
    "rowid": "908393",
    "final_x": "3684175.6893",
    "final_y": "537377.052168",
    "longitude": "-90.0594158543855",
    "latitude": "29.971519047419815",
    "geocoded_column": {
      "latitude": "29.971519047419815",
      "longitude": "-90.0594158543855"
    }
  },
  {
    "service_request": "2022-908392",
    "request_type": "Trash/Recycling",
    "request_reason": "Illegal Dumping",
    "date_created": "2022-08-10T15:22:34.000",
    "date_modified": "2022-08-10T15:24:43.000",
    "request_status": "Pending",
    "responsible_agency": "Department of Sanitation",
    "final_address": "2801 N Robertson St",
    "address_councildis": "C",
    "status": "Pending",
    "rowid": "908392",
    "final_x": "3688151.11651",
    "final_y": "537835.847241",
    "longitude": "-90.04684463737789",
    "latitude": "29.97265844513969",
    "geocoded_column": {
      "latitude": "29.97265844513969",
      "longitude": "-90.04684463737789"
    }
  },
  {
    "service_request": "2022-908391",
    "request_type": "Roads/Drainage",
    "request_reason": "Street Flooding / Drainage",
    "date_created": "2022-08-10T15:21:15.000",
    "date_modified": "2022-08-10T15:21:15.000",
    "request_status": "Pending",
    "responsible_agency": "Department of Public Works",
    "final_address": "1424 Valmont St",
    "address_councildis": "B",
    "status": "Pending",
    "rowid": "908391",
    "final_x": "3667643.52897",
    "final_y": "520415.550008",
    "longitude": "-90.11219790077504",
    "latitude": "29.925375463871653",
    "geocoded_column": {
      "latitude": "29.925375463871653",
      "longitude": "-90.11219790077504"
    }
  },
  {
    "service_request": "2022-908390",
    "request_type": "Trash/Recycling",
    "request_reason": "Illegal Dumping",
    "date_created": "2022-08-10T15:21:11.000",
    "date_modified": "2022-08-10T15:21:11.000",
    "request_status": "Pending",
    "responsible_agency": "Department of Sanitation",
    "final_address": "2801 N Robertson St",
    "address_councildis": "C",
    "status": "Pending",
    "rowid": "908390",
    "final_x": "3688151.11651",
    "final_y": "537835.847241",
    "longitude": "-90.04684463737789",
    "latitude": "29.97265844513969",
    "geocoded_column": {
      "latitude": "29.97265844513969",
      "longitude": "-90.04684463737789"
    }
  },
  {
    "service_request": "2022-908389",
    "request_type": "Roads/Drainage",
    "request_reason": "Accessibility Ramps, Curbs and Sidewalk Repair",
    "date_created": "2022-08-10T15:19:17.000",
    "date_modified": "2022-08-10T15:19:17.000",
    "request_status": "Pending",
    "responsible_agency": "Department of Public Works",
    "final_address": "528 Baronne St",
    "address_councildis": "B",
    "status": "Pending",
    "rowid": "908389",
    "final_x": "3679899.60635",
    "final_y": "529242.042369",
    "longitude": "-90.07320289157151",
    "latitude": "29.949280560749422",
    "geocoded_column": {
      "latitude": "29.949280560749422",
      "longitude": "-90.07320289157151"
    }
  },
  {
    "service_request": "2022-908388",
    "request_type": "Trash/Recycling",
    "request_reason": "Request a Large Item Pick Up",
    "date_created": "2022-08-10T15:18:32.000",
    "date_modified": "2022-08-10T15:18:33.000",
    "request_status": "Pending",
    "responsible_agency": "Department of Sanitation",
    "final_address": "2257 Carondelet St",
    "address_councildis": "B",
    "status": "Assigned to Contractor",
    "contractor": "Richards Disposal",
    "rowid": "908388",
    "final_x": "3676946.78216",
    "final_y": "523751.035835",
    "longitude": "-90.0827155021044",
    "latitude": "29.934271066483923",
    "geocoded_column": {
      "latitude": "29.934271066483923",
      "longitude": "-90.0827155021044"
    }
  },
  {
    "service_request": "2022-908387",
    "request_type": "Trash/Recycling",
    "request_reason": "Illegal Dumping",
    "date_created": "2022-08-10T15:17:24.000",
    "date_modified": "2022-08-10T15:17:24.000",
    "request_status": "Pending",
    "responsible_agency": "Department of Sanitation",
    "final_address": "4205 Duplessis St",
    "address_councildis": "D",
    "status": "Pending",
    "rowid": "908387",
    "final_x": "3678402.58165",
    "final_y": "547716.562834",
    "longitude": "-90.07729023867971",
    "latitude": "30.000124318702735",
    "geocoded_column": {
      "latitude": "30.000124318702735",
      "longitude": "-90.07729023867971"
    }
  },
  {
    "service_request": "2022-908386",
    "request_type": "Trash/Recycling",
    "request_reason": "Request a Large Item Pick Up",
    "date_created": "2022-08-10T15:16:57.000",
    "date_modified": "2022-08-10T15:16:58.000",
    "request_status": "Pending",
    "responsible_agency": "Department of Sanitation",
    "final_address": "2018 Simon Bolivar Ave",
    "address_councildis": "B",
    "status": "Assigned to Contractor",
    "contractor": "Richards Disposal",
    "rowid": "908386",
    "final_x": "3676712.07259",
    "final_y": "525766.090493",
    "longitude": "-90.08338707898031",
    "latitude": "29.93981884729819",
    "geocoded_column": {
      "latitude": "29.93981884729819",
      "longitude": "-90.08338707898031"
    }
  },
  {
    "service_request": "2022-908385",
    "request_type": "Trash/Recycling",
    "request_reason": "Request a Large Item Pick Up",
    "date_created": "2022-08-10T15:15:25.000",
    "date_modified": "2022-08-10T15:15:26.000",
    "request_status": "Pending",
    "responsible_agency": "Department of Sanitation",
    "final_address": "2416 St Ann St",
    "address_councildis": "D",
    "status": "Assigned to Contractor",
    "contractor": "Richards Disposal",
    "rowid": "908385",
    "final_x": "3677844.67733",
    "final_y": "536437.885511",
    "longitude": "-90.07944258626746",
    "latitude": "29.969128680429044",
    "geocoded_column": {
      "latitude": "29.969128680429044",
      "longitude": "-90.07944258626746"
    }
  },
  {
    "service_request": "2022-908384",
    "request_type": "Roads/Drainage",
    "request_reason": "Street Flooding / Drainage",
    "date_created": "2022-08-10T15:11:57.000",
    "date_modified": "2022-08-10T15:11:57.000",
    "request_status": "Pending",
    "responsible_agency": "Department of Public Works",
    "final_address": "500 N Lopez St",
    "address_councildis": "A",
    "status": "Pending",
    "rowid": "908384",
    "final_x": "3674837.21845",
    "final_y": "537452.584968",
    "longitude": "-90.08890556630871",
    "latitude": "29.97200890956814",
    "geocoded_column": {
      "latitude": "29.97200890956814",
      "longitude": "-90.08890556630871"
    }
  },
  {
    "service_request": "2022-908383",
    "request_type": "Roads/Drainage",
    "request_reason": "Street Subsidence (Sinking)",
    "date_created": "2022-08-10T15:11:30.000",
    "date_modified": "2022-08-10T15:11:30.000",
    "request_status": "Pending",
    "responsible_agency": "Department of Public Works",
    "final_address": "7719 Sycamore St",
    "address_councildis": "A",
    "status": "Pending",
    "rowid": "908383",
    "final_x": "3665356.28205",
    "final_y": "530147.666753",
    "longitude": "-90.11909250143516",
    "latitude": "29.95220250101232",
    "geocoded_column": {
      "latitude": "29.95220250101232",
      "longitude": "-90.11909250143516"
    }
  },
  {
    "service_request": "2022-908382",
    "request_type": "Trash/Recycling",
    "request_reason": "Request a Large Item Pick Up",
    "date_created": "2022-08-10T15:09:59.000",
    "date_modified": "2022-08-10T15:10:01.000",
    "request_status": "Pending",
    "responsible_agency": "Department of Sanitation",
    "final_address": "1204 S Genois St",
    "address_councildis": "B",
    "status": "Assigned to Contractor",
    "contractor": "Richards Disposal",
    "rowid": "908382",
    "final_x": "3669465.74305",
    "final_y": "532737.648388",
    "longitude": "-90.10602910009108",
    "latitude": "29.95920371625599",
    "geocoded_column": {
      "latitude": "29.95920371625599",
      "longitude": "-90.10602910009108"
    }
  },
  {
    "service_request": "2022-908381",
    "request_type": "Traffic Signals/Signs/Striping/Streetlights",
    "request_reason": "Street Light Outage/Malfunction",
    "date_created": "2022-08-10T15:04:57.000",
    "date_modified": "2022-08-10T15:04:57.000",
    "request_status": "Pending",
    "responsible_agency": "Department of Public Works",
    "final_address": "3201 St Charles Ave",
    "address_councildis": "B",
    "status": "Pending",
    "contractor": "Legacy Professional Services",
    "rowid": "908381",
    "final_x": "3674698.39752",
    "final_y": "521848.25177",
    "longitude": "-90.0898787789062",
    "latitude": "29.929106312802755",
    "geocoded_column": {
      "latitude": "29.929106312802755",
      "longitude": "-90.0898787789062"
    }
  },
  {
    "service_request": "2022-908380",
    "request_type": "Traffic Signals/Signs/Striping/Streetlights",
    "request_reason": "Street Light Outage/Malfunction",
    "date_created": "2022-08-10T15:03:44.000",
    "date_modified": "2022-08-10T15:03:45.000",
    "request_status": "Pending",
    "responsible_agency": "Department of Public Works",
    "final_address": "MAGNOLIA ST & UPPERLINE ST",
    "address_councildis": "B",
    "status": "Pending",
    "contractor": "Legacy Professional Services",
    "rowid": "908380",
    "final_x": "3669192.4",
    "final_y": "524616.08",
    "longitude": "-90.10716669179968",
    "latitude": "29.936880099398095",
    "geocoded_column": {
      "latitude": "29.936880099398095",
      "longitude": "-90.10716669179968"
    }
  },
  {
    "service_request": "2022-908379",
    "request_type": "Property Maintenance",
    "request_reason": "Property Maintenance",
    "date_created": "2022-08-10T15:00:53.000",
    "date_modified": "2022-08-10T15:00:53.000",
    "request_status": "Pending",
    "responsible_agency": "Department of Code Enforcement",
    "final_address": "1902 St Philip St",
    "address_councildis": "D",
    "status": "Pending",
    "rowid": "908379",
    "final_x": "3679812.84245",
    "final_y": "535938.703047",
    "longitude": "-90.07324431794675",
    "latitude": "29.967696731937504",
    "geocoded_column": {
      "latitude": "29.967696731937504",
      "longitude": "-90.07324431794675"
    }
  },
  {
    "service_request": "2022-908377",
    "request_type": "Trash/Recycling",
    "request_reason": "Illegal Dumping",
    "date_created": "2022-08-10T14:58:42.000",
    "date_modified": "2022-08-10T14:58:42.000",
    "request_status": "Pending",
    "responsible_agency": "Department of Sanitation",
    "final_address": "2100 BLK Magnolia St",
    "address_councildis": "B",
    "status": "Pending",
    "rowid": "908377",
    "final_x": "3675364.83591",
    "final_y": "526947.332376",
    "longitude": "-90.08759995928972",
    "latitude": "29.943107215699904",
    "geocoded_column": {
      "latitude": "29.943107215699904",
      "longitude": "-90.08759995928972"
    }
  },
  {
    "service_request": "2022-908376",
    "request_type": "Roads/Drainage",
    "request_reason": "Pothole",
    "date_created": "2022-08-10T14:54:44.000",
    "date_modified": "2022-08-10T14:54:44.000",
    "request_status": "Pending",
    "responsible_agency": "Department of Public Works",
    "final_address": "5529 Music St",
    "address_councildis": "D",
    "status": "Pending",
    "rowid": "908376",
    "final_x": "3685531.11836",
    "final_y": "553448.018903",
    "longitude": "-90.0545687962029",
    "latitude": "30.015666951556966",
    "geocoded_column": {
      "latitude": "30.015666951556966",
      "longitude": "-90.0545687962029"
    }
  },