[
  {
    "service_request": "2024-1136061",
    "request_type": "Trash/Recycling",
    "request_reason": "Repair Trash Cart",
    "date_created": "2024-09-26T22:59:09.000",
    "date_modified": "2024-09-26T22:59:10.000",
    "request_status": "Pending",
    "responsible_agency": "Department of Sanitation",
    "final_address": "2116 Brainard St",
    "address_councildis": "B",
    "status": "Assigned to Contractor",
    "contractor": "IV Waste",
    "rowid": "1136061",
    "final_x": "3677407.52514",
    "final_y": "524352.435708",
    "longitude": "-90.08124020369416",
    "latitude": "29.935910883435124",
    "geocoded_column": {
      "latitude": "29.935910883435124",
      "longitude": "-90.08124020369416"
    }
  },
  {
    "service_request": "2024-1136060",
    "request_type": "Trash/Recycling",
    "request_reason": "Order Recycling Cart",
    "date_created": "2024-09-26T22:53:42.000",
    "date_modified": "2024-09-26T22:53:42.000",
    "request_status": "Pending",
    "responsible_agency": "Department of Sanitation",
    "final_address": "6930 Camberley Dr",
    "address_councildis": "E",
    "status": "Pending",
    "rowid": "1136060",
    "final_x": "3713416.55429",
    "final_y": "564290.102689",
    "longitude": "-89.96605569535376",
    "latitude": "30.044593198312988",
    "geocoded_column": {
      "latitude": "30.044593198312988",
      "longitude": "-89.96605569535376"
    }
  },
  {
    "service_request": "2024-1136059",
    "request_type": "Trash/Recycling",
    "request_reason": "Order Recycling Cart",
    "date_created": "2024-09-26T22:50:52.000",
    "date_modified": "2024-09-26T22:50:52.000",
    "request_status": "Pending",
    "responsible_agency": "Department of Sanitation",
    "final_address": "6930 Camberley Dr",
    "address_councildis": "E",
    "status": "Pending",
    "rowid": "1136059",
    "final_x": "3713416.55429",
    "final_y": "564290.102689",
    "longitude": "-89.96605569535376",
    "latitude": "30.044593198312988",
    "geocoded_column": {
      "latitude": "30.044593198312988",
      "longitude": "-89.96605569535376"
    }
  },
  {
    "service_request": "2024-1136058",
    "request_type": "Drainage",
    "request_reason": "Catch Basin Damaged",
    "date_created": "2024-09-26T22:49:03.000",
    "date_modified": "2024-09-26T22:49:03.000",
    "request_status": "Pending",
    "responsible_agency": "Department of Public Works",
    "final_address": "7525 Edward St",
    "address_councildis": "E",
    "status": "Pending",
    "rowid": "1136058",
    "final_x": "3701215.26545",
    "final_y": "560710.253726",
    "longitude": "-90.00474832042549",
    "latitude": "30.035144692770455",
    "geocoded_column": {
      "latitude": "30.035144692770455",
      "longitude": "-90.00474832042549"
    }
  },
  {
    "service_request": "2024-1136057",
    "request_type": "Streetlights",
    "request_reason": "Streetlight Outage/Malfunction",
    "date_created": "2024-09-26T22:44:59.000",
    "date_modified": "2024-09-26T22:45:01.000",
    "request_status": "Pending",
    "responsible_agency": "Department of Public Works",
    "final_address": "3300 BLK Royal St",
    "address_councildis": "C",
    "status": "Pending",
    "contractor": "Legacy Professional Services",
    "rowid": "1136057",
    "final_x": "3689634.3871",
    "final_y": "534252.326624",
    "longitude": "-90.04228772812296",
    "latitude": "29.96275914579874",
    "geocoded_column": {
      "latitude": "29.96275914579874",
      "longitude": "-90.04228772812296"
    }
  },
  {
    "service_request": "2024-1136056",
    "request_type": "Trash/Recycling",
    "request_reason": "Return Trash Cart",
    "date_created": "2024-09-26T22:10:47.000",
    "date_modified": "2024-09-26T22:10:48.000",
    "request_status": "Pending",
    "responsible_agency": "Department of Sanitation",
    "final_address": "1020 Euterpe St",
    "address_councildis": "B",
    "status": "Assigned to Contractor",
    "contractor": "IV Waste",
    "rowid": "1136056",
    "final_x": "3680468.36021",
    "final_y": "524126.649468",
    "longitude": "-90.07158493796615",
    "latitude": "29.935197723856458",
    "geocoded_column": {
      "latitude": "29.935197723856458",
      "longitude": "-90.07158493796615"
    }
  },
  {
    "service_request": "2024-1136055",
    "request_type": "Trash/Recycling",
    "request_reason": "Replace Trash Cart",
    "date_created": "2024-09-26T21:33:59.000",
    "date_modified": "2024-09-26T21:34:00.000",
    "request_status": "Pending",
    "responsible_agency": "Department of Sanitation",
    "final_address": "1524 Seventh St",
    "address_councildis": "B",
    "status": "Assigned to Contractor",
    "contractor": "IV Waste",
    "rowid": "1136055",
    "final_x": "3675363.70504",
    "final_y": "521792.457082",
    "longitude": "-90.0877804448857",
    "latitude": "29.9289330264972",
    "geocoded_column": {
      "latitude": "29.9289330264972",
      "longitude": "-90.0877804448857"
    }
  },
  {
    "service_request": "2024-1136054",
    "request_type": "Trash/Recycling",
    "request_reason": "Replace Trash Cart",
    "date_created": "2024-09-26T21:32:40.000",
    "date_modified": "2024-09-26T21:32:41.000",
    "request_status": "Pending",
    "responsible_agency": "Department of Sanitation",
    "final_address": "1524 Seventh St",
    "address_councildis": "B",
    "status": "Assigned to Contractor",
    "contractor": "IV Waste",
    "rowid": "1136054",
    "final_x": "3675363.70504",
    "final_y": "521792.457082",
    "longitude": "-90.0877804448857",
    "latitude": "29.9289330264972",
    "geocoded_column": {
      "latitude": "29.9289330264972",
      "longitude": "-90.0877804448857"
    }
  },
  {
    "service_request": "2024-1136053",
    "request_type": "Streetlights",
    "request_reason": "Streetlight Outage/Malfunction",
    "date_created": "2024-09-26T21:21:55.000",
    "date_modified": "2024-09-26T21:21:56.000",
    "request_status": "Pending",
    "responsible_agency": "Department of Public Works",
    "final_address": "10 Tupelo St",
    "address_councildis": "E",
    "status": "Pending",
    "contractor": "Legacy Professional Services",
    "rowid": "1136053",
    "final_x": "3701603.25681",
    "final_y": "538315.736073",
    "longitude": "-90.00434303296026",
    "latitude": "29.97355581859725",
    "geocoded_column": {
      "latitude": "29.97355581859725",
      "longitude": "-90.00434303296026"
    }
  },
  {
    "service_request": "2024-1136052",
    "request_type": "Streetlights",
    "request_reason": "Streetlight Outage/Malfunction",
    "date_created": "2024-09-26T20:57:14.000",
    "date_modified": "2024-09-26T20:57:15.000",
    "request_status": "Pending",
    "responsible_agency": "Department of Public Works",
    "final_address": "4320 Willow St",
    "address_councildis": "B",
    "status": "Pending",
    "contractor": "Legacy Professional Services",
    "rowid": "1136052",
    "final_x": "3670605.28155",
    "final_y": "525419.859197",
    "longitude": "-90.10267888720281",
    "latitude": "29.93904858348961",
    "geocoded_column": {
      "latitude": "29.93904858348961",
      "longitude": "-90.10267888720281"
    }
  },
  {
    "service_request": "2024-1136051",
    "request_type": "Trash/Recycling",
    "request_reason": "Illegal Dumping",
    "date_created": "2024-09-26T20:28:51.000",
    "date_modified": "2024-09-26T20:28:51.000",
    "request_status": "Pending",
    "responsible_agency": "Department of Sanitation",
    "final_address": "4735 Banks St",
    "address_councildis": "A",
    "status": "Pending",
    "rowid": "1136051",
    "final_x": "3668188.73901",
    "final_y": "539120.448906",
    "longitude": "-90.10984637041167",
    "latitude": "29.97679184013206",
    "geocoded_column": {
      "latitude": "29.97679184013206",
      "longitude": "-90.10984637041167"
    }
  },
  {
    "service_request": "2024-1136050",
    "request_type": "Trash/Recycling",
    "request_reason": "Request a Large Item Pick Up",
    "date_created": "2024-09-26T20:25:28.000",
    "date_modified": "2024-09-26T20:25:29.000",
    "request_status": "Pending",
    "responsible_agency": "Department of Sanitation",
    "final_address": "2331 Dumaine St",
    "address_councildis": "D",
    "status": "Assigned to Contractor",
    "contractor": "IV Waste",
    "rowid": "1136050",
    "final_x": "3678332.06056",
    "final_y": "536674.081991",
    "longitude": "-90.0778952221412",
    "latitude": "29.969763465908983",
    "geocoded_column": {
      "latitude": "29.969763465908983",
      "longitude": "-90.0778952221412"
    }
  },
  {
    "service_request": "2024-1136049",
    "request_type": "Trash/Recycling",
    "request_reason": "Order Recycling Cart",
    "date_created": "2024-09-26T20:23:23.000",
    "date_modified": "2024-09-26T20:23:23.000",
    "request_status": "Pending",
    "responsible_agency": "Department of Sanitation",
    "final_address": "812 St Ferdinand St",
    "address_councildis": "C",
    "status": "Pending",
    "rowid": "1136049",
    "final_x": "3687420.30409",
    "final_y": "535247.56391",
    "longitude": "-90.04924427611307",
    "latitude": "29.965564111408607",
    "geocoded_column": {
      "latitude": "29.965564111408607",
      "longitude": "-90.04924427611307"
    }
  },
  {
    "service_request": "2024-1136048",
    "request_type": "Streetlights",
    "request_reason": "Streetlight Outage/Malfunction",
    "date_created": "2024-09-26T20:08:00.000",
    "date_modified": "2024-09-26T20:08:01.000",
    "request_status": "Pending",
    "responsible_agency": "Department of Public Works",
    "final_address": "2645 Bristol Pl",
    "address_councildis": "C",
    "status": "Pending",
    "contractor": "Legacy Professional Services",
    "rowid": "1136048",
    "final_x": "3702555.69706",
    "final_y": "521191.725433",
    "longitude": "-90.00196342388394",
    "latitude": "29.92644046161899",
    "geocoded_column": {
      "latitude": "29.92644046161899",
      "longitude": "-90.00196342388394"
    }
  },
  {
    "service_request": "2024-1136047",
    "request_type": "Healthy Homes",
    "request_reason": "Healthy Homes",
    "date_created": "2024-09-26T19:46:50.000",
    "date_modified": "2024-09-26T19:46:50.000",
    "request_status": "Pending",
    "responsible_agency": "Department of Code Enforcement",
    "final_address": "5345 Baccich St",
    "address_councildis": "D",
    "status": "Pending",
    "rowid": "1136047",
    "final_x": "3687737.78761",
    "final_y": "552679.790294",
    "longitude": "-90.04762397909339",
    "latitude": "30.01348670726616",
    "geocoded_column": {
      "latitude": "30.01348670726616",
      "longitude": "-90.04762397909339"
    }
  },
  {
    "service_request": "2024-1136046",
    "request_type": "Mosquito, Termite & Rodent Control",
    "request_reason": "Mosquito Complaint",
    "date_created": "2024-09-26T19:45:27.000",
    "date_modified": "2024-09-26T19:45:27.000",
    "request_status": "Pending",
    "responsible_agency": "Mosquito, Termite & Rodent Control Board",
    "final_address": "5345 Baccich St",
    "address_councildis": "D",
    "status": "Pending",
    "rowid": "1136046",
    "final_x": "3687737.78761",
    "final_y": "552679.790294",
    "longitude": "-90.04762397909339",
    "latitude": "30.01348670726616",
    "geocoded_column": {
      "latitude": "30.01348670726616",
      "longitude": "-90.04762397909339"
    }
  },
  {
    "service_request": "2024-1136045",
    "request_type": "Health Related Request",
    "request_reason": "Noise Ordinance Complaint",
    "date_created": "2024-09-26T19:44:40.000",
    "date_modified": "2024-09-26T19:44:40.000",
    "request_status": "Pending",
    "responsible_agency": "Health Department",
    "final_address": "5345 Baccich St",
    "address_councildis": "D",
    "status": "Pending",
    "rowid": "1136045",
    "final_x": "3687737.78761",
    "final_y": "552679.790294",
    "longitude": "-90.04762397909339",
    "latitude": "30.01348670726616",
    "geocoded_column": {
      "latitude": "30.01348670726616",
      "longitude": "-90.04762397909339"
    }
  },
  {
    "service_request": "2024-1136043",
    "request_type": "Trash/Recycling",
    "request_reason": "Request a Large Item Pick Up",
    "date_created": "2024-09-26T19:16:30.000",
    "date_modified": "2024-09-26T19:16:31.000",
    "request_status": "Pending",
    "responsible_agency": "Department of Sanitation",
    "final_address": "2014 Third St",
    "address_councildis": "B",
    "status": "Assigned to Contractor",
    "contractor": "IV Waste",
    "rowid": "1136043",
    "final_x": "3675534.40347",
    "final_y": "524160.074556",
    "longitude": "-90.08716029808377",
    "latitude": "29.93543810086901",
    "geocoded_column": {
      "latitude": "29.93543810086901",
      "longitude": "-90.08716029808377"
    }
  },
  {
    "service_request": "2024-1136042",
    "request_type": "Trash/Recycling",
    "request_reason": "Order Trash Cart",
    "date_created": "2024-09-26T18:55:01.000",
    "date_modified": "2024-09-26T18:55:02.000",
    "request_status": "Pending",
    "responsible_agency": "Department of Sanitation",
    "final_address": "7520 Mayo Rd",
    "address_councildis": "E",
    "status": "Assigned to Contractor",
    "contractor": "Waste Pro",
    "rowid": "1136042",
    "final_x": "3700784.03722",
    "final_y": "560480.115934",
    "longitude": "-90.00611948628571",
    "latitude": "30.0345256444371",
    "geocoded_column": {
      "latitude": "30.0345256444371",
      "longitude": "-90.00611948628571"
    }
  },
  {
    "service_request": "2024-1136041",
    "request_type": "Trash/Recycling",
    "request_reason": "Order Trash Cart",
    "date_created": "2024-09-26T18:53:46.000",
    "date_modified": "2024-09-26T18:53:47.000",
    "request_status": "Pending",
    "responsible_agency": "Department of Sanitation",
    "final_address": "7341 Ligustrum Dr",
    "address_councildis": "E",
    "status": "Assigned to Contractor",
    "contractor": "Waste Pro",
    "rowid": "1136041",
    "final_x": "3701860.04925",
    "final_y": "560426.141726",
    "longitude": "-90.002721139657",
    "latitude": "30.03434292303466",
    "geocoded_column": {
      "latitude": "30.03434292303466",
      "longitude": "-90.002721139657"
    }
  },
  {
    "service_request": "2024-1136040",
    "request_type": "Abandoned Vehicles",
    "request_reason": "Abandoned/Junk Vehicles",
    "date_created": "2024-09-26T18:45:07.000",
    "date_modified": "2024-09-26T18:45:07.000",
    "request_status": "Pending",
    "responsible_agency": "Department of Public Works",
    "final_address": "2700 BLK Higgins Blvd",
    "address_councildis": "D",
    "status": "Pending",
    "rowid": "1136040",
    "final_x": "3689592.66704",
    "final_y": "545094.754742",
    "longitude": "-90.04203362004463",
    "latitude": "29.992573270218895",
    "geocoded_column": {
      "latitude": "29.992573270218895",
      "longitude": "-90.04203362004463"
    }
  },
  {
    "service_request": "2024-1136039",
    "request_type": "Trash/Recycling",
    "request_reason": "Request a Large Item Pick Up",
    "date_created": "2024-09-26T18:39:11.000",
    "date_modified": "2024-09-26T18:39:12.000",
    "request_status": "Pending",
    "responsible_agency": "Department of Sanitation",
    "final_address": "7210 Cove Dr",
    "address_councildis": "E",
    "status": "Assigned to Contractor",
    "contractor": "Waste Pro",
    "rowid": "1136039",
    "final_x": "3700053.53424",
    "final_y": "558896.431836",
    "longitude": "-90.0084858298527",
    "latitude": "30.030194371207465",
    "geocoded_column": {
      "latitude": "30.030194371207465",
      "longitude": "-90.0084858298527"
    }
  },
  {
    "service_request": "2024-1136038",
    "request_type": "Streetlights",
    "request_reason": "Streetlight Outage/Malfunction",
    "date_created": "2024-09-26T18:36:30.000",
    "date_modified": "2024-09-26T18:36:31.000",
    "request_status": "Pending",
    "responsible_agency": "Department of Public Works",
    "final_address": "11036 Chaucer St",
    "address_councildis": "E",
    "status": "Pending",
    "contractor": "Legacy Professional Services",
    "rowid": "1136038",
    "final_x": "3713393.26603",
    "final_y": "562196.647967",
    "longitude": "-89.96620823612497",
    "latitude": "30.038837805662624",
    "geocoded_column": {
      "latitude": "30.038837805662624",
      "longitude": "-89.96620823612497"
    }
  },
  {
    "service_request": "2024-1136037",
    "request_type": "Parks & Parkways",
    "request_reason": "Park Maintenance/Clean Up",
    "date_created": "2024-09-26T18:35:33.000",
    "date_modified": "2024-09-26T18:35:33.000",
    "request_status": "Pending",
    "responsible_agency": "Department of Parks & Parkway",
    "final_address": "2500 Fats Domino Ave",
    "address_councildis": "E",
    "status": "Pending",
    "rowid": "1136037",
    "final_x": "3699406.48336",
    "final_y": "539214.37601",
    "longitude": "-90.01124811827164",
    "latitude": "29.976096628677436",
    "geocoded_column": {
      "latitude": "29.976096628677436",
      "longitude": "-90.01124811827164"
    }
  },
  {
    "service_request": "2024-1136036",
    "request_type": "Parks & Parkways",
    "request_reason": "Request Tree Service (Right of Way/Public Property)",
    "date_created": "2024-09-26T18:33:19.000",
    "date_modified": "2024-09-26T18:33:19.000",
    "request_status": "Pending",
    "responsible_agency": "Department of Parks & Parkway",
    "final_address": "N DORGENOIS ST & FLOOD ST",
    "address_councildis": "E",
    "status": "Pending",
    "rowid": "1136036",
    "final_x": "3699128.1",
    "final_y": "539090.08",
    "longitude": "-90.01213185514631",
    "latitude": "29.975763688664152",
    "geocoded_column": {
      "latitude": "29.975763688664152",
      "longitude": "-90.01213185514631"
    }
  },
  {
    "service_request": "2024-1136035",
    "request_type": "Trash/Recycling",
    "request_reason": "Replace Trash Cart",
    "date_created": "2024-09-26T18:30:48.000",
    "date_modified": "2024-09-26T18:30:49.000",
    "request_status": "Pending",
    "responsible_agency": "Department of Sanitation",
    "final_address": "4636 Laurel St",
    "address_councildis": "B",
    "status": "Assigned to Contractor",
    "contractor": "IV Waste",
    "rowid": "1136035",
    "final_x": "3670081.47463",
    "final_y": "517909.85087",
    "longitude": "-90.10458686811094",
    "latitude": "29.918413920431654",
    "geocoded_column": {
      "latitude": "29.918413920431654",
      "longitude": "-90.10458686811094"
    }
  },
  {
    "service_request": "2024-1136034",
    "request_type": "Mosquito, Termite & Rodent Control",
    "request_reason": "Non-Rodent Complaint (Mice, Possums, Snakes)",
    "date_created": "2024-09-26T18:25:01.000",
    "date_modified": "2024-09-26T18:25:01.000",
    "request_status": "Pending",
    "responsible_agency": "Mosquito, Termite & Rodent Control Board",
    "final_address": "6431 Avenue B",
    "address_councildis": "A",
    "status": "Pending",
    "rowid": "1136034",
    "final_x": "3665734.81517",
    "final_y": "551081.885461",
    "longitude": "-90.11719570593893",
    "latitude": "30.009753527219818",
    "geocoded_column": {
      "latitude": "30.009753527219818",
      "longitude": "-90.11719570593893"
    }
  },
  {
    "service_request": "2024-1136033",
    "request_type": "General Services",
    "request_reason": "General Service Request",
    "date_created": "2024-09-26T18:04:43.000",
    "date_modified": "2024-09-26T18:04:43.000",
    "request_status": "Pending",
    "responsible_agency": "Orleans Parish Communication District",
    "final_address": "TOULOUSE ST & N SALCEDO ST",
    "address_councildis": "A",
    "status": "Pending",
    "rowid": "1136033",
    "final_x": "3675178.0",
    "final_y": "537524.38",
    "longitude": "-90.08782685687162",
    "latitude": "29.972196140531143",
    "geocoded_column": {
      "latitude": "29.972196140531143",
      "longitude": "-90.08782685687162"
    }
  },
  {
    "service_request": "2024-1136032",
    "request_type": "Trash/Recycling",
    "request_reason": "Request a Large Item Pick Up",
    "date_created": "2024-09-26T18:02:22.000",
    "date_modified": "2024-09-26T18:02:23.000",
    "request_status": "Pending",
    "responsible_agency": "Department of Sanitation",
    "final_address": "6518 Maumus Ave",
    "address_councildis": "C",
    "status": "Assigned to Contractor",
    "contractor": "Richards Disposal",
    "rowid": "1136032",
    "final_x": "3707978.82641",
    "final_y": "516742.542645",
    "longitude": "-89.98500953909978",
    "latitude": "29.91403238504296",
    "geocoded_column": {
      "latitude": "29.91403238504296",
      "longitude": "-89.98500953909978"
    }
  },
  {
    "service_request": "2024-1136031",
    "request_type": "Trash/Recycling",
    "request_reason": "Storm Debris Collection",
    "date_created": "2024-09-26T18:00:36.000",
    "date_modified": "2024-09-26T18:00:36.000",
    "request_status": "Pending",
    "responsible_agency": "Department of Sanitation",
    "final_address": "1320 Fats Domino Ave",
    "address_councildis": "E",
    "status": "Pending",
    "rowid": "1136031",
    "final_x": "3698209.02826",
    "final_y": "534680.50055",
    "longitude": "-90.01519473316911",
    "latitude": "29.96366803458303",
    "geocoded_column": {
      "latitude": "29.96366803458303",
      "longitude": "-90.01519473316911"
    }
  },
  {
    "service_request": "2024-1136030",
    "request_type": "Drainage",
    "request_reason": "Street Flooding",
    "date_created": "2024-09-26T17:47:44.000",
    "date_modified": "2024-09-26T17:47:44.000",
    "request_status": "Pending",
    "responsible_agency": "Department of Public Works",
    "final_address": "542 S Norman C Francis Prkwy",
    "address_councildis": "B",
    "status": "Pending",
    "rowid": "1136030",
    "final_x": "3672143.22753",
    "final_y": "535099.549062",
    "longitude": "-90.09749379504704",
    "latitude": "29.965619026641203",
    "geocoded_column": {
      "latitude": "29.965619026641203",
      "longitude": "-90.09749379504704"
    }
  },
  {
    "service_request": "2024-1136029",
    "request_type": "Trash/Recycling",
    "request_reason": "Replace Recycling Cart",
    "date_created": "2024-09-26T17:37:43.000",
    "date_modified": "2024-09-26T17:37:43.000",
    "request_status": "Pending",
    "responsible_agency": "Department of Sanitation",
    "final_address": "7518 Hurst St",
    "address_councildis": "A",
    "status": "Pending",
    "rowid": "1136029",
    "final_x": "3661036.13363",
    "final_y": "524430.07238",
    "longitude": "-90.13292273119016",
    "latitude": "29.936606109768164",
    "geocoded_column": {
      "latitude": "29.936606109768164",
      "longitude": "-90.13292273119016"
    }
  },
  {
    "service_request": "2024-1136028",
    "request_type": "General Services",
    "request_reason": "General Service Request",
    "date_created": "2024-09-26T17:26:37.000",
    "date_modified": "2024-09-26T17:26:37.000",
    "request_status": "Pending",
    "responsible_agency": "Orleans Parish Communication District",
    "final_address": "N VILLERE ST & BASIN ST",
    "address_councildis": "C",
    "status": "Pending",
    "rowid": "1136028",
    "final_x": "3680428.7",
    "final_y": "534312.68",
    "longitude": "-90.07135597933677",
    "latitude": "29.963207087937313",
    "geocoded_column": {
      "latitude": "29.963207087937313",
      "longitude": "-90.07135597933677"
    }
  },
  {
    "service_request": "2024-1136027",
    "request_type": "Trash/Recycling",
    "request_reason": "Missed Trash Pick-Up",
    "date_created": "2024-09-26T17:25:13.000",
    "date_modified": "2024-09-26T17:25:14.000",
    "request_status": "Pending",
    "responsible_agency": "Department of Sanitation",
    "final_address": "6635 Coventry St",
    "address_councildis": "E",
    "status": "Assigned to Contractor",
    "contractor": "Waste Pro",
    "rowid": "1136027",
    "final_x": "3697730.2929",
    "final_y": "559373.122973",
    "longitude": "-90.01580992205524",
    "latitude": "30.03157874409579",
    "geocoded_column": {
      "latitude": "30.03157874409579",
      "longitude": "-90.01580992205524"
    }
  },
  {
    "service_request": "2024-1136026",
    "request_type": "Roads and Streets",
    "request_reason": "Sidewalk Damaged or Missing",
    "date_created": "2024-09-26T17:21:56.000",
    "date_modified": "2024-09-26T17:21:56.000",
    "request_status": "Pending",
    "responsible_agency": "Department of Public Works",
    "final_address": "N VILLERE ST & BASIN ST",
    "address_councildis": "C",
    "status": "Pending",
    "rowid": "1136026",
    "final_x": "3680428.7",
    "final_y": "534312.68",
    "longitude": "-90.07135597933677",
    "latitude": "29.963207087937313",
    "geocoded_column": {
      "latitude": "29.963207087937313",
      "longitude": "-90.07135597933677"
    }
  },
  {
    "service_request": "2024-1136025",
    "request_type": "Property Maintenance",
    "request_reason": "Property Maintenance",
    "date_created": "2024-09-26T17:18:14.000",
    "date_modified": "2024-09-26T17:18:14.000",
    "request_status": "Pending",
    "responsible_agency": "Department of Code Enforcement",
    "final_address": "2848 Mercedes Blvd",
    "address_councildis": "C",
    "status": "Pending",
    "rowid": "1136025",
    "final_x": "3698055.48419",
    "final_y": "520672.596345",
    "longitude": "-90.01618809412771",
    "latitude": "29.925156043705314",
    "geocoded_column": {
      "latitude": "29.925156043705314",
      "longitude": "-90.01618809412771"
    }
  },
  {
    "service_request": "2024-1136024",
    "request_type": "Trash/Recycling",
    "request_reason": "Damaged Caused By Contractor",
    "date_created": "2024-09-26T17:14:48.000",
    "date_modified": "2024-09-26T17:14:49.000",
    "request_status": "Pending",
    "responsible_agency": "Department of Sanitation",
    "final_address": "N VILLERE ST & BASIN ST",
    "address_councildis": "C",
    "status": "Assigned to Contractor",
    "contractor": "IV Waste",
    "rowid": "1136024",
    "final_x": "3680428.7",
    "final_y": "534312.68",
    "longitude": "-90.07135597933677",
    "latitude": "29.963207087937313",
    "geocoded_column": {
      "latitude": "29.963207087937313",
      "longitude": "-90.07135597933677"
    }
  },
  {
    "service_request": "2024-1136023",
    "request_type": "Trash/Recycling",
    "request_reason": "Replace Trash Cart",
    "date_created": "2024-09-26T17:08:24.000",
    "date_modified": "2024-09-26T17:08:25.000",
    "request_status": "Pending",
    "responsible_agency": "Department of Sanitation",
    "final_address": "1036 St Maurice Ave",
    "address_councildis": "E",
    "status": "Assigned to Contractor",
    "contractor": "Waste Pro",
    "rowid": "1136023",
    "final_x": "3699738.12132",
    "final_y": "533033.980484",
    "longitude": "-90.01042607339062",
    "latitude": "29.959092236569",
    "geocoded_column": {
      "latitude": "29.959092236569",
      "longitude": "-90.01042607339062"
    }
  },
  {
    "service_request": "2024-1136022",
    "request_type": "Property Maintenance",
    "request_reason": "Property Maintenance",
    "date_created": "2024-09-26T17:08:20.000",
    "date_modified": "2024-09-26T17:08:20.000",
    "request_status": "Pending",
    "responsible_agency": "Department of Code Enforcement",
    "final_address": "N VILLERE ST & BASIN ST",
    "address_councildis": "C",
    "status": "Pending",
    "rowid": "1136022",
    "final_x": "3680428.7",
    "final_y": "534312.68",
    "longitude": "-90.07135597933677",
    "latitude": "29.963207087937313",
    "geocoded_column": {
      "latitude": "29.963207087937313",
      "longitude": "-90.07135597933677"
    }
  },
  {
    "service_request": "2024-1136021",
    "request_type": "Abandoned Vehicles",
    "request_reason": "Abandoned/Junk Vehicles",
    "date_created": "2024-09-26T17:06:53.000",
    "date_modified": "2024-09-26T17:06:53.000",
    "request_status": "Pending",
    "responsible_agency": "Department of Public Works",
    "final_address": "4430 Burgundy St",
    "address_councildis": "C",
    "status": "Pending",
    "rowid": "1136021",
    "final_x": "3693066.58006",
    "final_y": "534123.279877",
    "longitude": "-90.03145398612445",
    "latitude": "29.962297533399788",
    "geocoded_column": {
      "latitude": "29.962297533399788",
      "longitude": "-90.03145398612445"
    }
  },
  {
    "service_request": "2024-1136020",
    "request_type": "Property Maintenance",
    "request_reason": "Property Maintenance",
    "date_created": "2024-09-26T17:02:20.000",
    "date_modified": "2024-09-26T17:02:20.000",
    "request_status": "Pending",
    "responsible_agency": "Department of Code Enforcement",
    "final_address": "1518 Thayer St",
    "address_councildis": "C",
    "status": "Pending",
    "rowid": "1136020",
    "final_x": "3689401.28195",
    "final_y": "525834.483581",
    "longitude": "-90.04332311182021",
    "latitude": "29.939620194087922",
    "geocoded_column": {
      "latitude": "29.939620194087922",
      "longitude": "-90.04332311182021"
    }
  },
  {
    "service_request": "2024-1136019",
    "request_type": "Trash/Recycling",
    "request_reason": "Request a Large Item Pick Up",
    "date_created": "2024-09-26T16:57:10.000",
    "date_modified": "2024-09-26T16:57:11.000",
    "request_status": "Pending",
    "responsible_agency": "Department of Sanitation",
    "final_address": "10900 Roger Dr",
    "address_councildis": "E",
    "status": "Assigned to Contractor",
    "contractor": "Waste Pro",
    "rowid": "1136019",
    "final_x": "3711926.30475",
    "final_y": "563227.913184",
    "longitude": "-89.9708054414871",
    "latitude": "30.041721415282215",
    "geocoded_column": {
      "latitude": "30.041721415282215",
      "longitude": "-89.9708054414871"
    }
  },
  {
    "service_request": "2024-1136018",
    "request_type": "Trash/Recycling",
    "request_reason": "Illegal Dumping",
    "date_created": "2024-09-26T16:54:27.000",
    "date_modified": "2024-09-26T16:54:28.000",
    "request_status": "Pending",
    "responsible_agency": "Department of Sanitation",
    "final_address": "1434 St Andrew St",
    "address_councildis": "B",
    "status": "Pending",
    "rowid": "1136018",
    "final_x": "3678618.71541",
    "final_y": "523589.703419",
    "longitude": "-90.07744284298361",
    "latitude": "29.93377717299945",
    "geocoded_column": {
      "latitude": "29.93377717299945",
      "longitude": "-90.07744284298361"
    }
  },
  {
    "service_request": "2024-1136017",
    "request_type": "Traffic Signals",
    "request_reason": "Traffic Signal Malfunctioning or Damaged",
    "date_created": "2024-09-26T16:49:34.000",
    "date_modified": "2024-09-26T16:49:36.000",
    "request_status": "Pending",
    "responsible_agency": "Department of Public Works",
    "final_address": "5501 Canal Blvd",
    "address_councildis": "A",
    "status": "Pending",
    "rowid": "1136017",
    "final_x": "3668310.57402",
    "final_y": "543921.843214",
    "longitude": "-90.10929958440802",
    "latitude": "29.98999046801561",
    "geocoded_column": {
      "latitude": "29.98999046801561",
      "longitude": "-90.10929958440802"
    }
  },
  {
    "service_request": "2024-1136016",
    "request_type": "Trash/Recycling",
    "request_reason": "Order Recycling Cart",
    "date_created": "2024-09-26T16:49:27.000",
    "date_modified": "2024-09-26T16:49:28.000",
    "request_status": "Pending",
    "responsible_agency": "Department of Sanitation",
    "final_address": "3927 DHemecourt St",
    "address_councildis": "B",
    "status": "Pending",
    "rowid": "1136016",
    "final_x": "3670444.30663",
    "final_y": "536398.344455",
    "longitude": "-90.1028148872264",
    "latitude": "29.969240553753504",
    "geocoded_column": {
      "latitude": "29.969240553753504",
      "longitude": "-90.1028148872264"
    }
  },
  {
    "service_request": "2024-1136015",
    "request_type": "Trash/Recycling",
    "request_reason": "Storm Debris Collection",
    "date_created": "2024-09-26T16:40:43.000",
    "date_modified": "2024-09-26T16:40:43.000",
    "request_status": "Pending",
    "responsible_agency": "Department of Sanitation",
    "final_address": "7300 Northgate Dr",
    "address_councildis": "E",
    "status": "Pending",
    "rowid": "1136015",
    "final_x": "3713294.61342",
    "final_y": "565478.634082",
    "longitude": "-89.9663962696994",
    "latitude": "30.047865178552136",
    "geocoded_column": {
      "latitude": "30.047865178552136",
      "longitude": "-89.9663962696994"
    }
  },
  {
    "service_request": "2024-1136014",
    "request_type": "Trash/Recycling",
    "request_reason": "Missed Trash Pick-Up",
    "date_created": "2024-09-26T16:38:16.000",
    "date_modified": "2024-09-26T16:38:17.000",
    "request_status": "Pending",
    "responsible_agency": "Department of Sanitation",
    "final_address": "2501 Amelia St",
    "address_councildis": "B",
    "status": "Assigned to Contractor",
    "contractor": "IV Waste",
    "rowid": "1136014",
    "final_x": "3672390.71553",
    "final_y": "524322.746748",
    "longitude": "-90.09707941732725",
    "latitude": "29.93597903240438",
    "geocoded_column": {
      "latitude": "29.93597903240438",
      "longitude": "-90.09707941732725"
    }
  },
  {
    "service_request": "2024-1136013",
    "request_type": "Trash/Recycling",
    "request_reason": "Request a Large Item Pick Up",
    "date_created": "2024-09-26T16:38:04.000",
    "date_modified": "2024-09-26T16:38:05.000",
    "request_status": "Pending",
    "responsible_agency": "Department of Sanitation",
    "final_address": "7220 Thornley Dr",
    "address_councildis": "E",
    "status": "Assigned to Contractor",
    "contractor": "Waste Pro",
    "rowid": "1136013",
    "final_x": "3702894.56247",
    "final_y": "560033.846749",
    "longitude": "-89.99946639193918",
    "latitude": "30.033231192157377",
    "geocoded_column": {
      "latitude": "30.033231192157377",
      "longitude": "-89.99946639193918"
    }
  },
  {
    "service_request": "2024-1136012",
    "request_type": "Trash/Recycling",
    "request_reason": "Request a Large Item Pick Up",
    "date_created": "2024-09-26T16:32:11.000",
    "date_modified": "2024-09-26T16:32:12.000",
    "request_status": "Pending",
    "responsible_agency": "Department of Sanitation",
    "final_address": "1903 Gallier St",
    "address_councildis": "D",
    "status": "Assigned to Contractor",
    "contractor": "IV Waste",
    "rowid": "1136012",
    "final_x": "3691266.21718",
    "final_y": "538674.548233",
    "longitude": "-90.03697664866544",
    "latitude": "29.97486803958168",
    "geocoded_column": {
      "latitude": "29.97486803958168",
      "longitude": "-90.03697664866544"
    }
  },
  {
    "service_request": "2024-1136011",
    "request_type": "Trash/Recycling",
    "request_reason": "Order Recycling Cart",
    "date_created": "2024-09-26T16:19:22.000",
    "date_modified": "2024-09-26T16:19:22.000",
    "request_status": "Pending",
    "responsible_agency": "Department of Sanitation",
    "final_address": "1922 Joliet St",
    "address_councildis": "A",
    "status": "Pending",
    "rowid": "1136011",
    "final_x": "3662649.74669",
    "final_y": "531308.542914",
    "longitude": "-90.12759995426684",
    "latitude": "29.955473121145975",
    "geocoded_column": {
      "latitude": "29.955473121145975",
      "longitude": "-90.12759995426684"
    }
  },
  {
    "service_request": "2024-1136010",
    "request_type": "Trash/Recycling",
    "request_reason": "Order Trash Cart",
    "date_created": "2024-09-26T16:18:34.000",
    "date_modified": "2024-09-26T16:18:35.000",
    "request_status": "Pending",
    "responsible_agency": "Department of Sanitation",
    "final_address": "1922 Joliet St",
    "address_councildis": "A",
    "status": "Assigned to Contractor",
    "contractor": "IV Waste",
    "rowid": "1136010",
    "final_x": "3662649.74669",
    "final_y": "531308.542914",
    "longitude": "-90.12759995426684",
    "latitude": "29.955473121145975",
    "geocoded_column": {
      "latitude": "29.955473121145975",
      "longitude": "-90.12759995426684"
    }
  },
  {
    "service_request": "2024-1136009",
    "request_type": "Trash/Recycling",
    "request_reason": "Order Trash Cart",
    "date_created": "2024-09-26T16:16:45.000",
    "date_modified": "2024-09-26T16:16:46.000",
    "request_status": "Pending",
    "responsible_agency": "Department of Sanitation",
    "final_address": "1229 Southlawn Blvd",
    "address_councildis": "C",
    "status": "Assigned to Contractor",
    "contractor": "Richards Disposal",
    "rowid": "1136009",
    "final_x": "3695134.10595",
    "final_y": "527083.023551",
    "longitude": "-90.02517888437778",
    "latitude": "29.942874536042325",
    "geocoded_column": {
      "latitude": "29.942874536042325",
      "longitude": "-90.02517888437778"
    }
  },
  {
    "service_request": "2024-1136008",
    "request_type": "Trash/Recycling",
    "request_reason": "Return Recycling Cart",
    "date_created": "2024-09-26T16:16:19.000",
    "date_modified": "2024-09-26T16:16:20.000",
    "request_status": "Pending",
    "responsible_agency": "Department of Sanitation",
    "final_address": "1129 Eleonore St",
    "address_councildis": "A",
    "status": "Pending",
    "rowid": "1136008",
    "final_x": "3665554.88071",
    "final_y": "520305.639608",
    "longitude": "-90.11879481420523",
    "latitude": "29.925134284616966",
    "geocoded_column": {
      "latitude": "29.925134284616966",
      "longitude": "-90.11879481420523"
    }
  },
  {
    "service_request": "2024-1136007",
    "request_type": "Trash/Recycling",
    "request_reason": "Return Trash Cart",
    "date_created": "2024-09-26T16:16:08.000",
    "date_modified": "2024-09-26T16:16:10.000",
    "request_status": "Pending",
    "responsible_agency": "Department of Sanitation",
    "final_address": "1129 Eleonore St",
    "address_councildis": "A",
    "status": "Assigned to Contractor",
    "contractor": "IV Waste",
    "rowid": "1136007",
    "final_x": "3665554.88071",
    "final_y": "520305.639608",
    "longitude": "-90.11879481420523",
    "latitude": "29.925134284616966",
    "geocoded_column": {
      "latitude": "29.925134284616966",
      "longitude": "-90.11879481420523"
    }
  },
  {
    "service_request": "2024-1136006",
    "request_type": "Parks & Parkways",
    "request_reason": "Request Tree Service (Right of Way/Public Property)",
    "date_created": "2024-09-26T16:13:37.000",
    "date_modified": "2024-09-26T16:13:38.000",
    "request_status": "Pending",
    "responsible_agency": "Department of Parks & Parkway",
    "final_address": "2030 Tupelo St",
    "address_councildis": "E",
    "status": "Pending",
    "rowid": "1136006",
    "final_x": "3700787.51985",
    "final_y": "536785.53556",
    "longitude": "-90.00697522585044",
    "latitude": "29.96937431074915",
    "geocoded_column": {
      "latitude": "29.96937431074915",
      "longitude": "-90.00697522585044"
    }
  },
  {
    "service_request": "2024-1136005",
    "request_type": "Streetlights",
    "request_reason": "Streetlight Outage/Malfunction",
    "date_created": "2024-09-26T16:12:24.000",
    "date_modified": "2024-09-26T16:13:22.000",
    "request_status": "Pending",
    "responsible_agency": "Department of Public Works",
    "final_address": "2435 Marais St",
    "address_councildis": "C",
    "status": "Pending",
    "contractor": "Legacy Professional Services",
    "rowid": "1136005",
    "final_x": "3686788.53014",
    "final_y": "536849.23796",
    "longitude": "-90.05118279018279",
    "latitude": "29.96998760958644",
    "geocoded_column": {
      "latitude": "29.96998760958644",
      "longitude": "-90.05118279018279"
    }
  },
  {
    "service_request": "2024-1136004",
    "request_type": "Trash/Recycling",
    "request_reason": "Storm Debris Collection",
    "date_created": "2024-09-26T16:10:38.000",
    "date_modified": "2024-09-26T16:12:10.000",
    "request_status": "Pending",
    "responsible_agency": "Department of Sanitation",
    "final_address": "3549 Inwood Ave",
    "address_councildis": "C",
    "status": "Pending",
    "rowid": "1136004",
    "final_x": "3703572.2698",
    "final_y": "515172.461747",
    "longitude": "-89.99897568387162",
    "latitude": "29.90985704162849",
    "geocoded_column": {
      "latitude": "29.90985704162849",
      "longitude": "-89.99897568387162"
    }
  },
  {
    "service_request": "2024-1136003",
    "request_type": "Trash/Recycling",
    "request_reason": "Storm Debris Collection",
    "date_created": "2024-09-26T16:09:44.000",
    "date_modified": "2024-09-26T16:09:45.000",
    "request_status": "Pending",
    "responsible_agency": "Department of Sanitation",
    "final_address": "7530 Fieldston Rd",
    "address_councildis": "E",
    "status": "Pending",
    "rowid": "1136003",
    "final_x": "3700489.10832",
    "final_y": "560418.490014",
    "longitude": "-90.00705375159892",
    "latitude": "30.034365586851877",
    "geocoded_column": {
      "latitude": "30.034365586851877",
      "longitude": "-90.00705375159892"
    }
  },
  {
    "service_request": "2024-1136002",
    "request_type": "Trash/Recycling",
    "request_reason": "Storm Debris Collection",
    "date_created": "2024-09-26T16:08:19.000",
    "date_modified": "2024-09-26T16:08:19.000",
    "request_status": "Pending",
    "responsible_agency": "Department of Sanitation",
    "final_address": "5949 Louisville St",
    "address_councildis": "A",
    "status": "Pending",
    "rowid": "1136002",
    "final_x": "3667782.17978",
    "final_y": "547066.037585",
    "longitude": "-90.11086268696413",
    "latitude": "29.998651432998425",
    "geocoded_column": {
      "latitude": "29.998651432998425",
      "longitude": "-90.11086268696413"
    }
  },
  {
    "service_request": "2024-1136001",
    "request_type": "Trash/Recycling",
    "request_reason": "MIssed Recycling Pick-Up",
    "date_created": "2024-09-26T16:06:03.000",
    "date_modified": "2024-09-26T16:06:05.000",
    "request_status": "Pending",
    "responsible_agency": "Department of Sanitation",
    "final_address": "1461 Nashville Ave",
    "address_councildis": "A",
    "status": "Assigned to Contractor",
    "contractor": "IV Waste",
    "rowid": "1136001",
    "final_x": "3666124.3577",
    "final_y": "521412.214457",
    "longitude": "-90.1169600695963",
    "latitude": "29.928160406162593",
    "geocoded_column": {
      "latitude": "29.928160406162593",
      "longitude": "-90.1169600695963"
    }
  },
  {
    "service_request": "2024-1136000",
    "request_type": "Property Maintenance",
    "request_reason": "Property Maintenance",
    "date_created": "2024-09-26T16:02:48.000",
    "date_modified": "2024-09-26T16:02:49.000",
    "request_status": "Pending",
    "responsible_agency": "Department of Code Enforcement",
    "final_address": "7830 Hickory St",
    "address_councildis": "A",
    "status": "Pending",
    "rowid": "1136000",
    "final_x": "3664008.70477",
    "final_y": "529299.996609",
    "longitude": "-90.12337580724322",
    "latitude": "29.949910878998125",
    "geocoded_column": {
      "latitude": "29.949910878998125",
      "longitude": "-90.12337580724322"
    }
  },
  {
    "service_request": "2024-1135999",
    "request_type": "Trash/Recycling",
    "request_reason": "MIssed Recycling Pick-Up",
    "date_created": "2024-09-26T16:02:46.000",
    "date_modified": "2024-09-26T16:14:17.000",
    "case_close_date": "2024-09-26T11:14:17.000",
    "request_status": "Closed",
    "responsible_agency": "Department of Sanitation",
    "final_address": "4300 St Claude Ave",
    "address_councildis": "C",
    "status": "Invalid Request",
    "contractor": "IV Waste",
    "contractor_action": "Invalid",
    "rowid": "1135999",
    "final_x": "3692811.37366",
    "final_y": "534997.198534",
    "longitude": "-90.03222855107038",
    "latitude": "29.96470847271701",
    "geocoded_column": {
      "latitude": "29.96470847271701",
      "longitude": "-90.03222855107038"
    }
  },
  {
    "service_request": "2024-1135998",
    "request_type": "Trash/Recycling",
    "request_reason": "Request a Large Item Pick Up",
    "date_created": "2024-09-26T16:02:11.000",
    "date_modified": "2024-09-26T16:02:12.000",
    "request_status": "Pending",
    "responsible_agency": "Department of Sanitation",
    "final_address": "5048 St Ferdinand Dr",
    "address_councildis": "D",
    "status": "Assigned to Contractor",
    "contractor": "IV Waste",
    "rowid": "1135998",
    "final_x": "3689111.36003",
    "final_y": "551593.232917",
    "longitude": "-90.0433228721661",
    "latitude": "30.01045662485391",
    "geocoded_column": {
      "latitude": "30.01045662485391",
      "longitude": "-90.0433228721661"
    }
  },
  {
    "service_request": "2024-1135997",
    "request_type": "Trash/Recycling",
    "request_reason": "Replace Trash Cart",
    "date_created": "2024-09-26T16:00:00.000",
    "date_modified": "2024-09-26T16:00:01.000",
    "request_status": "Pending",
    "responsible_agency": "Department of Sanitation",
    "final_address": "1200 BLK N Carrollton Ave",
    "address_councildis": "A",
    "status": "Assigned to Contractor",
    "contractor": "IV Waste",
    "rowid": "1135997",
    "final_x": "3674421.29679",
    "final_y": "541717.041025",
    "longitude": "-90.09007298741892",
    "latitude": "29.983747119113552",
    "geocoded_column": {
      "latitude": "29.983747119113552",
      "longitude": "-90.09007298741892"
    }
  },
  {
    "service_request": "2024-1135996",
    "request_type": "Trash/Recycling",
    "request_reason": "Request a Large Item Pick Up",
    "date_created": "2024-09-26T15:57:16.000",
    "date_modified": "2024-09-26T15:57:17.000",
    "request_status": "Pending",
    "responsible_agency": "Department of Sanitation",
    "final_address": "2834 Law St",
    "address_councildis": "D",
    "status": "Assigned to Contractor",
    "contractor": "IV Waste",
    "rowid": "1135996",
    "final_x": "3688124.41814",
    "final_y": "542079.408972",
    "longitude": "-90.04677847798109",
    "latitude": "29.984327563088964",
    "geocoded_column": {
      "latitude": "29.984327563088964",
      "longitude": "-90.04677847798109"
    }
  },
  {
    "service_request": "2024-1135995",
    "request_type": "Roads and Streets",
    "request_reason": "Pothole",
    "date_created": "2024-09-26T15:57:12.000",
    "date_modified": "2024-09-26T15:57:13.000",
    "request_status": "Pending",
    "responsible_agency": "Department of Public Works",
    "final_address": "GENERAL DE GAULLE DR & L B LANDRY AVE",
    "address_councildis": "C",
    "status": "Pending",
    "rowid": "1135995",
    "final_x": "3689962.04",
    "final_y": "522588.35",
    "longitude": "-90.04166825472804",
    "latitude": "29.93067705501291",
    "geocoded_column": {
      "latitude": "29.93067705501291",
      "longitude": "-90.04166825472804"
    }
  },
  {
    "service_request": "2024-1135994",
    "request_type": "Trash/Recycling",
    "request_reason": "Replace Trash Cart",
    "date_created": "2024-09-26T15:56:00.000",
    "date_modified": "2024-09-26T15:56:01.000",
    "request_status": "Pending",
    "responsible_agency": "Department of Sanitation",
    "final_address": "2910 Wabash St",
    "address_councildis": "C",
    "status": "Assigned to Contractor",
    "contractor": "Richards Disposal",
    "rowid": "1135994",
    "final_x": "3694175.25123",
    "final_y": "520974.697529",
    "longitude": "-90.02842583205845",
    "latitude": "29.926108793762356",
    "geocoded_column": {
      "latitude": "29.926108793762356",
      "longitude": "-90.02842583205845"
    }
  },
  {
    "service_request": "2024-1135993",
    "request_type": "Roads and Streets",
    "request_reason": "Pothole",
    "date_created": "2024-09-26T15:54:16.000",
    "date_modified": "2024-09-26T15:54:16.000",
    "request_status": "Pending",
    "responsible_agency": "Department of Public Works",
    "final_address": "804 Webster St",
    "address_councildis": "A",
    "status": "Pending",
    "rowid": "1135993",
    "final_x": "3664124.39348",
    "final_y": "519522.014135",
    "longitude": "-90.1233365457699",
    "latitude": "29.923021174551675",
    "geocoded_column": {
      "latitude": "29.923021174551675",
      "longitude": "-90.1233365457699"
    }
  },
  {
    "service_request": "2024-1135992",
    "request_type": "Trash/Recycling",
    "request_reason": "Request a Large Item Pick Up",
    "date_created": "2024-09-26T15:47:24.000",
    "date_modified": "2024-09-26T15:47:32.000",
    "request_status": "Pending",
    "responsible_agency": "Department of Sanitation",
    "final_address": "10330 Chevy Chase Dr",
    "address_councildis": "E",
    "status": "Assigned to Contractor",
    "contractor": "Waste Pro",
    "rowid": "1135992",
    "final_x": "3710436.37643",
    "final_y": "563379.295264",
    "longitude": "-89.97550845144147",
    "latitude": "30.0421862857733",
    "geocoded_column": {
      "latitude": "30.0421862857733",
      "longitude": "-89.97550845144147"
    }
  },
  {
    "service_request": "2024-1135991",
    "request_type": "Roads and Streets",
    "request_reason": "Pothole",
    "date_created": "2024-09-26T15:43:27.000",
    "date_modified": "2024-09-26T15:43:28.000",
    "request_status": "Pending",
    "responsible_agency": "Department of Public Works",
    "final_address": "5700 BLK N Tonti St",
    "address_councildis": "E",
    "status": "Pending",
    "rowid": "1135991",
    "final_x": "3699703.98474",
    "final_y": "538138.360191",
    "longitude": "-90.01034776552343",
    "latitude": "29.97312853302595",
    "geocoded_column": {
      "latitude": "29.97312853302595",
      "longitude": "-90.01034776552343"
    }
  },
  {
    "service_request": "2024-1135990",
    "request_type": "Trash/Recycling",
    "request_reason": "Repair Trash Cart",
    "date_created": "2024-09-26T15:42:32.000",
    "date_modified": "2024-09-26T15:42:33.000",
    "request_status": "Pending",
    "responsible_agency": "Department of Sanitation",
    "final_address": "2115 Cadiz St",
    "address_councildis": "B",
    "status": "Assigned to Contractor",
    "contractor": "IV Waste",
    "rowid": "1135990",
    "final_x": "3669949.67354",
    "final_y": "522710.491514",
    "longitude": "-90.10484043397146",
    "latitude": "29.93161803993154",
    "geocoded_column": {
      "latitude": "29.93161803993154",
      "longitude": "-90.10484043397146"
    }
  },
  {
    "service_request": "2024-1135989",
    "request_type": "Trash/Recycling",
    "request_reason": "Illegal Dumping",
    "date_created": "2024-09-26T15:33:44.000",
    "date_modified": "2024-09-26T15:33:45.000",
    "request_status": "Pending",
    "responsible_agency": "Department of Sanitation",
    "final_address": "1955 N Johnson St",
    "address_councildis": "D",
    "status": "Pending",
    "rowid": "1135989",
    "final_x": "3683385.12066",
    "final_y": "539550.40097",
    "longitude": "-90.06183641862906",
    "latitude": "29.977519144054806",
    "geocoded_column": {
      "latitude": "29.977519144054806",
      "longitude": "-90.06183641862906"
    }
  },
  {
    "service_request": "2024-1135988",
    "request_type": "Trash/Recycling",
    "request_reason": "Request a Large Item Pick Up",
    "date_created": "2024-09-26T15:30:31.000",
    "date_modified": "2024-09-26T15:30:32.000",
    "request_status": "Pending",
    "responsible_agency": "Department of Sanitation",
    "final_address": "4422 S Liberty St",
    "address_councildis": "B",
    "status": "Assigned to Contractor",
    "contractor": "IV Waste",
    "rowid": "1135988",
    "final_x": "3670388.88871",
    "final_y": "523284.562491",
    "longitude": "-90.10343442647199",
    "latitude": "29.93318359523881",
    "geocoded_column": {
      "latitude": "29.93318359523881",
      "longitude": "-90.10343442647199"
    }
  },
  {
    "service_request": "2024-1135987",
    "request_type": "Trash/Recycling",
    "request_reason": "Request a Large Item Pick Up",
    "date_created": "2024-09-26T15:29:46.000",
    "date_modified": "2024-09-26T15:30:51.000",
    "request_status": "Pending",
    "responsible_agency": "Department of Sanitation",
    "final_address": "4943 Eunice Dr",
    "address_councildis": "E",
    "status": "Assigned to Contractor",
    "contractor": "Waste Pro",
    "rowid": "1135987",
    "final_x": "3710485.40069",
    "final_y": "557068.768602",
    "longitude": "-89.9755898359675",
    "latitude": "30.024833243525787",
    "geocoded_column": {
      "latitude": "30.024833243525787",
      "longitude": "-89.9755898359675"
    }
  },
  {
    "service_request": "2024-1135986",
    "request_type": "Traffic Signals",
    "request_reason": "Traffic Signal Malfunctioning or Damaged",
    "date_created": "2024-09-26T15:29:13.000",
    "date_modified": "2024-09-26T15:29:38.000",
    "request_status": "Pending",
    "responsible_agency": "Department of Public Works",
    "final_address": "406 N Carrollton Ave",
    "address_councildis": "A",
    "status": "Pending",
    "rowid": "1135986",
    "final_x": "3672104.62446",
    "final_y": "539263.966218",
    "longitude": "-90.09747385984652",
    "latitude": "29.977070913123086",
    "geocoded_column": {
      "latitude": "29.977070913123086",
      "longitude": "-90.09747385984652"
    }
  },
  {
    "service_request": "2024-1135985",
    "request_type": "Property Maintenance",
    "request_reason": "Property Maintenance",
    "date_created": "2024-09-26T15:25:49.000",
    "date_modified": "2024-09-26T15:25:50.000",
    "request_status": "Pending",
    "responsible_agency": "Department of Code Enforcement",
    "final_address": "4427 S Miro St",
    "address_councildis": "B",
    "status": "Pending",
    "rowid": "1135985",
    "final_x": "3669851.53223",
    "final_y": "527847.842111",
    "longitude": "-90.10497639599933",
    "latitude": "29.945746986732683",
    "geocoded_column": {
      "latitude": "29.945746986732683",
      "longitude": "-90.10497639599933"
    }
  },
  {
    "service_request": "2024-1135984",
    "request_type": "Trash/Recycling",
    "request_reason": "Missed Trash Pick-Up",
    "date_created": "2024-09-26T15:25:07.000",
    "date_modified": "2024-09-26T15:25:08.000",
    "request_status": "Pending",
    "responsible_agency": "Department of Sanitation",
    "final_address": "1133 Kerlerec St",
    "address_councildis": "C",
    "status": "Assigned to Contractor",
    "contractor": "IV Waste",
    "rowid": "1135984",
    "final_x": "3682926.53308",
    "final_y": "535776.890183",
    "longitude": "-90.06341687650826",
    "latitude": "29.967157282666644",
    "geocoded_column": {
      "latitude": "29.967157282666644",
      "longitude": "-90.06341687650826"
    }
  },
  {
    "service_request": "2024-1135983",
    "request_type": "Mosquito, Termite & Rodent Control",
    "request_reason": "Rodent Complaint (Rats)",
    "date_created": "2024-09-26T15:24:13.000",
    "date_modified": "2024-09-26T15:24:13.000",
    "request_status": "Pending",
    "responsible_agency": "Mosquito, Termite & Rodent Control Board",
    "final_address": "5900 Painters St",
    "address_councildis": "D",
    "status": "Pending",
    "rowid": "1135983",
    "final_x": "3686014.71062",
    "final_y": "554837.458712",
    "longitude": "-90.05299181489838",
    "latitude": "30.019472550883613",
    "geocoded_column": {
      "latitude": "30.019472550883613",
      "longitude": "-90.05299181489838"
    }
  },
  {
    "service_request": "2024-1135982",
    "request_type": "Trash/Recycling",
    "request_reason": "Repair Trash Cart",
    "date_created": "2024-09-26T15:20:44.000",
    "date_modified": "2024-09-26T15:20:45.000",
    "request_status": "Pending",
    "responsible_agency": "Department of Sanitation",
    "final_address": "2639 Aubry St",
    "address_councildis": "D",
    "status": "Assigned to Contractor",
    "contractor": "IV Waste",
    "rowid": "1135982",
    "final_x": "3679521.53883",
    "final_y": "541271.075404",
    "longitude": "-90.07397918208395",
    "latitude": "29.982367721068325",
    "geocoded_column": {
      "latitude": "29.982367721068325",
      "longitude": "-90.07397918208395"
    }
  },
  {
    "service_request": "2024-1135981",
    "request_type": "Trash/Recycling",
    "request_reason": "Request a Large Item Pick Up",
    "date_created": "2024-09-26T15:18:54.000",
    "date_modified": "2024-09-26T15:18:55.000",
    "request_status": "Pending",
    "responsible_agency": "Department of Sanitation",
    "final_address": "5059 W St Andrews Cir",
    "address_councildis": "E",
    "status": "Assigned to Contractor",
    "contractor": "Waste Pro",
    "rowid": "1135981",
    "final_x": "3719014.63397",
    "final_y": "559661.909725",
    "longitude": "-89.94854017837463",
    "latitude": "30.03168268848592",
    "geocoded_column": {
      "latitude": "30.03168268848592",
      "longitude": "-89.94854017837463"
    }
  },
  {
    "service_request": "2024-1135980",
    "request_type": "Trash/Recycling",
    "request_reason": "Request a Large Item Pick Up",
    "date_created": "2024-09-26T15:16:38.000",
    "date_modified": "2024-09-26T15:16:39.000",
    "request_status": "Pending",
    "responsible_agency": "Department of Sanitation",
    "final_address": "3326 Lancaster St",
    "address_councildis": "C",
    "status": "Assigned to Contractor",
    "contractor": "Richards Disposal",
    "rowid": "1135980",
    "final_x": "3709981.27973",
    "final_y": "518408.350134",
    "longitude": "-89.97862703749254",
    "latitude": "29.91854783109217",
    "geocoded_column": {
      "latitude": "29.91854783109217",
      "longitude": "-89.97862703749254"
    }
  },
  {
    "service_request": "2024-1135979",
    "request_type": "Trash/Recycling",
    "request_reason": "Request a Large Item Pick Up",
    "date_created": "2024-09-26T15:16:24.000",
    "date_modified": "2024-09-26T15:17:14.000",
    "request_status": "Pending",
    "responsible_agency": "Department of Sanitation",
    "final_address": "4810 Cernay St",
    "address_councildis": "E",
    "status": "Assigned to Contractor",
    "contractor": "Waste Pro",
    "rowid": "1135979",
    "final_x": "3727599.99533",
    "final_y": "561671.851999",
    "longitude": "-89.92133214021176",
    "latitude": "30.036921112198126",
    "geocoded_column": {
      "latitude": "30.036921112198126",
      "longitude": "-89.92133214021176"
    }
  },
  {
    "service_request": "2024-1135978",
    "request_type": "Trash/Recycling",
    "request_reason": "Request a Large Item Pick Up",
    "date_created": "2024-09-26T15:15:41.000",
    "date_modified": "2024-09-26T15:15:42.000",
    "request_status": "Pending",
    "responsible_agency": "Department of Sanitation",
    "final_address": "7095 Edgefield Dr",
    "address_councildis": "E",
    "status": "Assigned to Contractor",
    "contractor": "Waste Pro",
    "rowid": "1135978",
    "final_x": "3718586.25023",
    "final_y": "569528.63703",
    "longitude": "-89.94951732889695",
    "latitude": "30.05882637719464",
    "geocoded_column": {
      "latitude": "30.05882637719464",
      "longitude": "-89.94951732889695"
    }
  },
  {
    "service_request": "2024-1135977",
    "request_type": "Trash/Recycling",
    "request_reason": "Replace Trash Cart",
    "date_created": "2024-09-26T15:13:59.000",
    "date_modified": "2024-09-26T15:43:16.000",
    "case_close_date": "2024-09-26T10:43:16.000",
    "request_status": "Closed",
    "responsible_agency": "Department of Sanitation",
    "final_address": "617 S Cortez St",
    "address_councildis": "B",
    "status": "Invalid Request",
    "contractor": "IV Waste",
    "contractor_action": "Invalid",
    "rowid": "1135977",
    "final_x": "3670749.7467",
    "final_y": "535930.047687",
    "longitude": "-90.10186617651965",
    "latitude": "29.967943871903827",
    "geocoded_column": {
      "latitude": "29.967943871903827",
      "longitude": "-90.10186617651965"
    }
  },
  {
    "service_request": "2024-1135976",
    "request_type": "Trash/Recycling",
    "request_reason": "Order Recycling Cart",
    "date_created": "2024-09-26T15:13:28.000",
    "date_modified": "2024-09-26T15:13:28.000",
    "request_status": "Pending",
    "responsible_agency": "Department of Sanitation",
    "final_address": "4212 Clio St",
    "address_councildis": "B",
    "status": "Pending",
    "rowid": "1135976",
    "final_x": "3671477.73921",
    "final_y": "531502.883395",
    "longitude": "-90.09971766766989",
    "latitude": "29.95574911219406",
    "geocoded_column": {
      "latitude": "29.95574911219406",
      "longitude": "-90.09971766766989"
    }
  },
  {
    "service_request": "2024-1135975",
    "request_type": "Streetlights",
    "request_reason": "Streetlight Outage/Malfunction",
    "date_created": "2024-09-26T15:11:59.000",
    "date_modified": "2024-09-26T15:12:00.000",
    "request_status": "Pending",
    "responsible_agency": "Department of Public Works",
    "final_address": "2309 Fourth St",
    "address_councildis": "B",
    "status": "Pending",
    "contractor": "Legacy Professional Services",
    "rowid": "1135975",
    "final_x": "3674787.10389",
    "final_y": "524877.193404",
    "longitude": "-90.08949495428129",
    "latitude": "29.937432270044404",
    "geocoded_column": {
      "latitude": "29.937432270044404",
      "longitude": "-90.08949495428129"
    }
  },
  {
    "service_request": "2024-1135974",
    "request_type": "Trash/Recycling",
    "request_reason": "Order Recycling Cart",
    "date_created": "2024-09-26T15:08:12.000",
    "date_modified": "2024-09-26T15:08:12.000",
    "request_status": "Pending",
    "responsible_agency": "Department of Sanitation",
    "final_address": "4224 Clio St",
    "address_councildis": "B",
    "status": "Pending",
    "rowid": "1135974",
    "final_x": "3671432.56884",
    "final_y": "531538.787587",
    "longitude": "-90.0998590796906",
    "latitude": "29.955849173942532",
    "geocoded_column": {
      "latitude": "29.955849173942532",
      "longitude": "-90.0998590796906"
    }
  },
  {
    "service_request": "2024-1135973",
    "request_type": "Trash/Recycling",
    "request_reason": "Illegal Dumping",
    "date_created": "2024-09-26T15:07:41.000",
    "date_modified": "2024-09-26T15:07:42.000",
    "request_status": "Pending",
    "responsible_agency": "Department of Sanitation",
    "final_address": "1801 Lapeyrouse St",
    "address_councildis": "D",
    "status": "Pending",
    "rowid": "1135973",
    "final_x": "3681591.16098",
    "final_y": "538266.297161",
    "longitude": "-90.06754714533103",
    "latitude": "29.974042919454615",
    "geocoded_column": {
      "latitude": "29.974042919454615",
      "longitude": "-90.06754714533103"
    }
  },
  {
    "service_request": "2024-1135972",
    "request_type": "Trash/Recycling",
    "request_reason": "Request a Large Item Pick Up",
    "date_created": "2024-09-26T15:07:33.000",
    "date_modified": "2024-09-26T15:07:35.000",
    "request_status": "Pending",
    "responsible_agency": "Department of Sanitation",
    "final_address": "1210 Congress St",
    "address_councildis": "C",
    "status": "Assigned to Contractor",
    "contractor": "IV Waste",
    "rowid": "1135972",
    "final_x": "3690787.09052",
    "final_y": "536018.019079",
    "longitude": "-90.03858464955259",
    "latitude": "29.967578418558002",
    "geocoded_column": {
      "latitude": "29.967578418558002",
      "longitude": "-90.03858464955259"
    }
  },
  {
    "service_request": "2024-1135971",
    "request_type": "Trash/Recycling",
    "request_reason": "Request a Large Item Pick Up",
    "date_created": "2024-09-26T15:06:45.000",
    "date_modified": "2024-09-26T15:06:46.000",
    "request_status": "Pending",
    "responsible_agency": "Department of Sanitation",
    "final_address": "8633 S Claiborne Ave",
    "address_councildis": "A",
    "status": "Assigned to Contractor",
    "contractor": "IV Waste",
    "rowid": "1135971",
    "final_x": "3663393.23149",
    "final_y": "532987.754628",
    "longitude": "-90.12519638024321",
    "latitude": "29.96006887450437",
    "geocoded_column": {
      "latitude": "29.96006887450437",
      "longitude": "-90.12519638024321"
    }
  },
  {
    "service_request": "2024-1135970",
    "request_type": "Trash/Recycling",
    "request_reason": "Illegal Dumping",
    "date_created": "2024-09-26T15:06:21.000",
    "date_modified": "2024-09-26T15:06:21.000",
    "request_status": "Pending",
    "responsible_agency": "Department of Sanitation",
    "final_address": "118 S Clark St",
    "address_councildis": "B",
    "status": "Pending",
    "rowid": "1135970",
    "final_x": "3672792.32526",
    "final_y": "536793.814472",
    "longitude": "-90.09538616115914",
    "latitude": "29.970258420249166",
    "geocoded_column": {
      "latitude": "29.970258420249166",
      "longitude": "-90.09538616115914"
    }
  },
  {
    "service_request": "2024-1135969",
    "request_type": "Property Maintenance",
    "request_reason": "Property Maintenance",
    "date_created": "2024-09-26T15:05:42.000",
    "date_modified": "2024-09-26T15:21:53.000",
    "case_close_date": "2024-09-26T10:21:53.000",
    "request_status": "Closed",
    "responsible_agency": "Department of Code Enforcement",
    "final_address": "7633 Devine Ave",
    "address_councildis": "E",
    "status": "Referred to Code Enforcement",
    "rowid": "1135969",
    "final_x": "3705729.59166",
    "final_y": "563090.628704",
    "longitude": "-89.99039427348838",
    "latitude": "30.041545088582016",
    "geocoded_column": {
      "latitude": "30.041545088582016",
      "longitude": "-89.99039427348838"
    }
  },
  {
    "service_request": "2024-1135968",
    "request_type": "Streetlights",
    "request_reason": "Streetlight Outage/Malfunction",
    "date_created": "2024-09-26T15:04:27.000",
    "date_modified": "2024-09-26T15:04:28.000",
    "request_status": "Pending",
    "responsible_agency": "Department of Public Works",
    "final_address": "1323 Congress St",
    "address_councildis": "D",
    "status": "Pending",
    "contractor": "Legacy Professional Services",
    "rowid": "1135968",
    "final_x": "3690977.57628",
    "final_y": "536466.571847",
    "longitude": "-90.03796707957615",
    "latitude": "29.968805861017692",
    "geocoded_column": {
      "latitude": "29.968805861017692",
      "longitude": "-90.03796707957615"
    }
  },
  {
    "service_request": "2024-1135967",
    "request_type": "Roads and Streets",
    "request_reason": "Pothole",
    "date_created": "2024-09-26T15:03:52.000",
    "date_modified": "2024-09-26T15:03:52.000",
    "request_status": "Pending",
    "responsible_agency": "Department of Public Works",
    "final_address": "542 S Norman C Francis Prkwy",
    "address_councildis": "B",
    "status": "Pending",
    "rowid": "1135967",
    "final_x": "3672143.22753",
    "final_y": "535099.549062",
    "longitude": "-90.09749379504704",
    "latitude": "29.965619026641203",
    "geocoded_column": {
      "latitude": "29.965619026641203",
      "longitude": "-90.09749379504704"
    }
  },
  {
    "service_request": "2024-1135966",
    "request_type": "Trash/Recycling",
    "request_reason": "Storm Debris Collection",
    "date_created": "2024-09-26T15:03:17.000",
    "date_modified": "2024-09-26T15:03:17.000",
    "request_status": "Pending",
    "responsible_agency": "Department of Sanitation",
    "final_address": "2028 Mandeville St",
    "address_councildis": "D",
    "status": "Pending",
    "rowid": "1135966",
    "final_x": "3685450.93929",
    "final_y": "539943.600906",
    "longitude": "-90.05529802855881",
    "latitude": "29.978537112033457",
    "geocoded_column": {
      "latitude": "29.978537112033457",
      "longitude": "-90.05529802855881"
    }
  },
  {
    "service_request": "2024-1135965",
    "request_type": "Safety & Permits",
    "request_reason": "Zoning Enforcement",
    "date_created": "2024-09-26T15:01:55.000",
    "date_modified": "2024-09-26T15:01:55.000",
    "request_status": "Pending",
    "responsible_agency": "Safety and Permits",
    "final_address": "2420 Spain St",
    "address_councildis": "D",
    "rowid": "1135965",
    "final_x": "3685689.7501",
    "final_y": "541407.133004",
    "longitude": "-90.05449218834279",
    "latitude": "29.982553983254686",
    "geocoded_column": {
      "latitude": "29.982553983254686",
      "longitude": "-90.05449218834279"
    }
  },
  {
    "service_request": "2024-1135964",
    "request_type": "Trash/Recycling",
    "request_reason": "Request a Large Item Pick Up",
    "date_created": "2024-09-26T15:01:52.000",
    "date_modified": "2024-09-26T15:01:54.000",
    "request_status": "Pending",
    "responsible_agency": "Department of Sanitation",
    "final_address": "4854 Magazine St",
    "address_councildis": "B",
    "status": "Assigned to Contractor",
    "contractor": "IV Waste",
    "rowid": "1135964",
    "final_x": "3669111.44628",
    "final_y": "518552.919287",
    "longitude": "-90.10762702677295",
    "latitude": "29.92021072254405",
    "geocoded_column": {
      "latitude": "29.92021072254405",
      "longitude": "-90.10762702677295"
    }
  },
  {
    "service_request": "2024-1135963",
    "request_type": "Abandoned Vehicles",
    "request_reason": "Abandoned/Junk Vehicles",
    "date_created": "2024-09-26T15:01:36.000",
    "date_modified": "2024-09-26T15:01:37.000",
    "request_status": "Pending",
    "responsible_agency": "Department of Public Works",
    "final_address": "1900 BLK Bartholomew St",
    "address_councildis": "D",
    "status": "Pending",
    "rowid": "1135963",
    "final_x": "3692594.80605",
    "final_y": "538498.263014",
    "longitude": "-90.03278696541669",
    "latitude": "29.974341920783793",
    "geocoded_column": {
      "latitude": "29.974341920783793",
      "longitude": "-90.03278696541669"
    }
  },
  {
    "service_request": "2024-1135962",
    "request_type": "Abandoned Vehicles",
    "request_reason": "Abandoned/Junk Vehicles",
    "date_created": "2024-09-26T14:59:27.000",
    "date_modified": "2024-09-26T14:59:28.000",
    "request_status": "Pending",
    "responsible_agency": "Department of Public Works",
    "final_address": "1500 BLK Marigny St",
    "address_councildis": "C",
    "status": "Pending",
    "rowid": "1135962",
    "final_x": "3685285.54442",
    "final_y": "537994.568812",
    "longitude": "-90.05588903334282",
    "latitude": "29.973183027837635",
    "geocoded_column": {
      "latitude": "29.973183027837635",
      "longitude": "-90.05588903334282"
    }
  },
  {
    "service_request": "2024-1135961",
    "request_type": "Trash/Recycling",
    "request_reason": "Request a Large Item Pick Up",
    "date_created": "2024-09-26T14:58:12.000",
    "date_modified": "2024-09-26T14:58:13.000",
    "request_status": "Pending",
    "responsible_agency": "Department of Sanitation",
    "final_address": "7111 E Laverne St",
    "address_councildis": "D",
    "status": "Assigned to Contractor",
    "contractor": "Waste Pro",
    "rowid": "1135961",
    "final_x": "3697172.48151",
    "final_y": "557098.219418",
    "longitude": "-90.01765516688695",
    "latitude": "30.02534125388553",
    "geocoded_column": {
      "latitude": "30.02534125388553",
      "longitude": "-90.01765516688695"
    }
  },
  {
    "service_request": "2024-1135960",
    "request_type": "Roads and Streets",
    "request_reason": "Pothole",
    "date_created": "2024-09-26T14:56:36.000",
    "date_modified": "2024-09-26T14:57:02.000",
    "case_close_date": "2024-09-26T09:57:02.000",
    "request_status": "Closed",
    "responsible_agency": "Department of Public Works",
    "final_address": "8515 Cohn St",
    "address_councildis": "A",
    "status": "Resolved",
    "rowid": "1135960",
    "final_x": "3662474.60147",
    "final_y": "531281.519874",
    "longitude": "-90.12815389989834",
    "latitude": "29.9554038830041",
    "geocoded_column": {
      "latitude": "29.9554038830041",
      "longitude": "-90.12815389989834"
    }
  },
  {
    "service_request": "2024-1135959",
    "request_type": "Roads and Streets",
    "request_reason": "Pothole",
    "date_created": "2024-09-26T14:53:56.000",
    "date_modified": "2024-09-26T14:54:20.000",
    "case_close_date": "2024-09-26T09:54:20.000",
    "request_status": "Closed",
    "responsible_agency": "Department of Public Works",
    "final_address": "2000 BLK Joliet St",
    "address_councildis": "A",
    "status": "Resolved",
    "rowid": "1135959",
    "final_x": "3662916.75517",
    "final_y": "531543.677842",
    "longitude": "-90.12674901542961",
    "latitude": "29.956111937710173",
    "geocoded_column": {
      "latitude": "29.956111937710173",
      "longitude": "-90.12674901542961"
    }
  },
  {
    "service_request": "2024-1135958",
    "request_type": "Trash/Recycling",
    "request_reason": "Replace Trash Cart",
    "date_created": "2024-09-26T14:53:35.000",
    "date_modified": "2024-09-26T14:53:36.000",
    "request_status": "Pending",
    "responsible_agency": "Department of Sanitation",
    "final_address": "1548 N Roman St",
    "address_councildis": "D",
    "status": "Assigned to Contractor",
    "contractor": "IV Waste",
    "rowid": "1135958",
    "final_x": "3681441.16879",
    "final_y": "537950.476681",
    "longitude": "-90.06803186858481",
    "latitude": "29.97317907758484",
    "geocoded_column": {
      "latitude": "29.97317907758484",
      "longitude": "-90.06803186858481"
    }
  },
  {
    "service_request": "2024-1135957",
    "request_type": "Drainage",
    "request_reason": "Catch Basin Clogged",
    "date_created": "2024-09-26T14:52:45.000",
    "date_modified": "2024-09-26T14:52:45.000",
    "request_status": "Pending",
    "responsible_agency": "Department of Public Works",
    "final_address": "1221 Cambronne St",
    "address_councildis": "A",
    "status": "Pending",
    "rowid": "1135957",
    "final_x": "3661324.46227",
    "final_y": "529213.839488",
    "longitude": "-90.13185410146949",
    "latitude": "29.949751639370586",
    "geocoded_column": {
      "latitude": "29.949751639370586",
      "longitude": "-90.13185410146949"
    }
  },
  {
    "service_request": "2024-1135956",
    "request_type": "Streetlights",
    "request_reason": "Streetlight Outage/Malfunction",
    "date_created": "2024-09-26T14:49:53.000",
    "date_modified": "2024-09-26T14:49:54.000",
    "request_status": "Pending",
    "responsible_agency": "Department of Public Works",
    "final_address": "3001 Republic St",
    "address_councildis": "D",
    "status": "Pending",
    "contractor": "Legacy Professional Services",
    "rowid": "1135956",
    "final_x": "3680665.03579",
    "final_y": "543395.838094",
    "longitude": "-90.07029348491005",
    "latitude": "29.988175467867116",
    "geocoded_column": {
      "latitude": "29.988175467867116",
      "longitude": "-90.07029348491005"
    }
  },
  {
    "service_request": "2024-1135955",
    "request_type": "Parks & Parkways",
    "request_reason": "Request Tree Service (Right of Way/Public Property)",
    "date_created": "2024-09-26T14:49:10.000",
    "date_modified": "2024-09-26T14:49:11.000",
    "request_status": "Pending",
    "responsible_agency": "Department of Parks & Parkway",
    "final_address": "5401 Berkley Dr",
    "address_councildis": "C",
    "status": "Pending",
    "rowid": "1135955",
    "final_x": "3703907.24663",
    "final_y": "518094.586806",
    "longitude": "-89.99781094420956",
    "latitude": "29.917881152515232",
    "geocoded_column": {
      "latitude": "29.917881152515232",
      "longitude": "-89.99781094420956"
    }
  },
  {
    "service_request": "2024-1135954",
    "request_type": "Trash/Recycling",
    "request_reason": "Request a Large Item Pick Up",
    "date_created": "2024-09-26T14:47:34.000",
    "date_modified": "2024-09-26T14:47:35.000",
    "request_status": "Pending",
    "responsible_agency": "Department of Sanitation",
    "final_address": "3218 Chippewa St",
    "address_councildis": "B",
    "status": "Assigned to Contractor",
    "contractor": "IV Waste",
    "rowid": "1135954",
    "final_x": "3676376.08405",
    "final_y": "518526.716407",
    "longitude": "-90.0846969060357",
    "latitude": "29.919922997164928",
    "geocoded_column": {
      "latitude": "29.919922997164928",
      "longitude": "-90.0846969060357"
    }
  },
  {
    "service_request": "2024-1135953",
    "request_type": "Drainage",
    "request_reason": "Catch Basin Clogged",
    "date_created": "2024-09-26T14:47:31.000",
    "date_modified": "2024-09-26T14:47:32.000",
    "request_status": "Pending",
    "responsible_agency": "Department of Public Works",
    "final_address": "500 S Gayoso St",
    "address_councildis": "B",
    "status": "Pending",
    "rowid": "1135953",
    "final_x": "3673379.19099",
    "final_y": "534541.839493",
    "longitude": "-90.09360972003024",
    "latitude": "29.96404880070456",
    "geocoded_column": {
      "latitude": "29.96404880070456",
      "longitude": "-90.09360972003024"
    }
  },
  {
    "service_request": "2024-1135952",
    "request_type": "Trash/Recycling",
    "request_reason": "Storm Debris Collection",
    "date_created": "2024-09-26T14:47:29.000",
    "date_modified": "2024-09-26T14:47:30.000",
    "request_status": "Pending",
    "responsible_agency": "Department of Sanitation",
    "final_address": "BERMUDA ST & ALIX ST",
    "address_councildis": "C",
    "status": "Pending",
    "rowid": "1135952",
    "final_x": "3686720.3",
    "final_y": "530180.58",
    "longitude": "-90.0516338403775",
    "latitude": "29.951653203604813",
    "geocoded_column": {
      "latitude": "29.951653203604813",
      "longitude": "-90.0516338403775"
    }
  },
  {
    "service_request": "2024-1135951",
    "request_type": "Trash/Recycling",
    "request_reason": "Repair Trash Cart",
    "date_created": "2024-09-26T14:46:09.000",
    "date_modified": "2024-09-26T14:49:26.000",
    "request_status": "Pending",
    "responsible_agency": "Department of Sanitation",
    "final_address": "5401 Berkley Dr",
    "address_councildis": "C",
    "status": "Assigned to Contractor",
    "contractor": "Richards Disposal",
    "rowid": "1135951",
    "final_x": "3703907.24663",
    "final_y": "518094.586806",
    "longitude": "-89.99781094420956",
    "latitude": "29.917881152515232",
    "geocoded_column": {
      "latitude": "29.917881152515232",
      "longitude": "-89.99781094420956"
    }
  },
  {
    "service_request": "2024-1135950",
    "request_type": "Trash/Recycling",
    "request_reason": "Illegal Dumping",
    "date_created": "2024-09-26T14:45:08.000",
    "date_modified": "2024-09-26T14:45:09.000",
    "request_status": "Pending",
    "responsible_agency": "Department of Sanitation",
    "final_address": "9000 BLK Old Gentilly Rd",
    "address_councildis": "E",
    "status": "Pending",
    "rowid": "1135950",
    "final_x": "3708488.82314",
    "final_y": "553503.257939",
    "longitude": "-89.98203150012014",
    "latitude": "30.01509437570584",
    "geocoded_column": {
      "latitude": "30.01509437570584",
      "longitude": "-89.98203150012014"
    }
  },
  {
    "service_request": "2024-1135949",
    "request_type": "Streetlights",
    "request_reason": "Streetlight Outage/Malfunction",
    "date_created": "2024-09-26T14:40:09.000",
    "date_modified": "2024-09-26T14:40:11.000",
    "request_status": "Pending",
    "responsible_agency": "Department of Public Works",
    "final_address": "3044 Sullen Pl",
    "address_councildis": "C",
    "status": "Pending",
    "contractor": "Legacy Professional Services",
    "rowid": "1135949",
    "final_x": "3707872.74392",
    "final_y": "519356.727863",
    "longitude": "-89.98524729154133",
    "latitude": "29.921223916726845",
    "geocoded_column": {
      "latitude": "29.921223916726845",
      "longitude": "-89.98524729154133"
    }
  },
  {
    "service_request": "2024-1135948",
    "request_type": "Street and Traffic Signs",
    "request_reason": "Stop Sign Missing or Damaged",
    "date_created": "2024-09-26T14:37:25.000",
    "date_modified": "2024-09-26T14:37:26.000",
    "request_status": "Pending",
    "responsible_agency": "Department of Public Works",
    "final_address": "ALABAMA ST & MORRISON RD",
    "address_councildis": "D",
    "status": "Pending",
    "rowid": "1135948",
    "final_x": "3695244.0",
    "final_y": "557490.88",
    "longitude": "-90.02373467108085",
    "latitude": "30.02648166599986",
    "geocoded_column": {
      "latitude": "30.02648166599986",
      "longitude": "-90.02373467108085"
    }
  },
  {
    "service_request": "2024-1135947",
    "request_type": "Trash/Recycling",
    "request_reason": "Repair Trash Cart",
    "date_created": "2024-09-26T14:37:13.000",
    "date_modified": "2024-09-26T14:37:14.000",
    "request_status": "Pending",
    "responsible_agency": "Department of Sanitation",
    "final_address": "8613 Nelson St",
    "address_councildis": "A",
    "status": "Assigned to Contractor",
    "contractor": "IV Waste",
    "rowid": "1135947",
    "final_x": "3663740.90099",
    "final_y": "533148.14554",
    "longitude": "-90.12409316476523",
    "latitude": "29.960499813094994",
    "geocoded_column": {
      "latitude": "29.960499813094994",
      "longitude": "-90.12409316476523"
    }
  },
  {
    "service_request": "2024-1135946",
    "request_type": "Trash/Recycling",
    "request_reason": "Request a Large Item Pick Up",
    "date_created": "2024-09-26T14:34:13.000",
    "date_modified": "2024-09-26T14:34:14.000",
    "request_status": "Pending",
    "responsible_agency": "Department of Sanitation",
    "final_address": "7442 Burke Ave",
    "address_councildis": "E",
    "status": "Assigned to Contractor",
    "contractor": "Waste Pro",
    "rowid": "1135946",
    "final_x": "3705717.86039",
    "final_y": "562344.782559",
    "longitude": "-89.9904589729099",
    "latitude": "30.03949468480141",
    "geocoded_column": {
      "latitude": "30.03949468480141",
      "longitude": "-89.9904589729099"
    }
  },
  {
    "service_request": "2024-1135945",
    "request_type": "Streetlights",
    "request_reason": "Streetlight Outage/Malfunction",
    "date_created": "2024-09-26T14:31:24.000",
    "date_modified": "2024-09-26T14:31:26.000",
    "request_status": "Pending",
    "responsible_agency": "Department of Public Works",
    "final_address": "3721 Magazine St",
    "address_councildis": "B",
    "status": "Pending",
    "contractor": "Legacy Professional Services",
    "rowid": "1135945",
    "final_x": "3673453.13921",
    "final_y": "519114.055223",
    "longitude": "-90.09390318673886",
    "latitude": "29.92162524945412",
    "geocoded_column": {
      "latitude": "29.92162524945412",
      "longitude": "-90.09390318673886"
    }
  },
  {
    "service_request": "2024-1135944",
    "request_type": "Roads and Streets",
    "request_reason": "Pothole",
    "date_created": "2024-09-26T14:29:15.000",
    "date_modified": "2024-09-26T14:30:19.000",
    "case_close_date": "2024-09-26T09:30:19.000",
    "request_status": "Closed",
    "responsible_agency": "Department of Public Works",
    "final_address": "8300 BLK Zimpel St",
    "address_councildis": "A",
    "status": "Resolved",
    "rowid": "1135944",
    "final_x": "3661058.52037",
    "final_y": "528718.703833",
    "longitude": "-90.13271018757729",
    "latitude": "29.948397839669724",
    "geocoded_column": {
      "latitude": "29.948397839669724",
      "longitude": "-90.13271018757729"
    }
  },
  {
    "service_request": "2024-1135943",
    "request_type": "Trash/Recycling",
    "request_reason": "Replace Trash Cart",
    "date_created": "2024-09-26T14:29:08.000",
    "date_modified": "2024-09-26T14:29:09.000",
    "request_status": "Pending",
    "responsible_agency": "Department of Sanitation",
    "final_address": "207 Pinewood Ct",
    "address_councildis": "C",
    "status": "Assigned to Contractor",
    "contractor": "Richards Disposal",
    "rowid": "1135943",
    "final_x": "3696139.96803",
    "final_y": "523627.697851",
    "longitude": "-90.02212798910293",
    "latitude": "29.933341968486037",
    "geocoded_column": {
      "latitude": "29.933341968486037",
      "longitude": "-90.02212798910293"
    }
  },
  {
    "service_request": "2024-1135942",
    "request_type": "Trash/Recycling",
    "request_reason": "Request a Large Item Pick Up",
    "date_created": "2024-09-26T14:27:40.000",
    "date_modified": "2024-09-26T14:28:31.000",
    "request_status": "Pending",
    "responsible_agency": "Department of Sanitation",
    "final_address": "2322 Treasure St",
    "address_councildis": "D",
    "status": "Assigned to Contractor",
    "contractor": "IV Waste",
    "rowid": "1135942",
    "final_x": "3685373.01775",
    "final_y": "544069.194958",
    "longitude": "-90.0553988103455",
    "latitude": "29.989883425997387",
    "geocoded_column": {
      "latitude": "29.989883425997387",
      "longitude": "-90.0553988103455"
    }
  },
  {
    "service_request": "2024-1135941",
    "request_type": "Parks & Parkways",
    "request_reason": "Request Tree Service (Right of Way/Public Property)",
    "date_created": "2024-09-26T14:27:10.000",
    "date_modified": "2024-09-26T14:28:16.000",
    "request_status": "Pending",
    "responsible_agency": "Department of Parks & Parkway",
    "final_address": "1219 Short St",
    "address_councildis": "A",
    "status": "Pending",
    "rowid": "1135941",
    "final_x": "3662474.16551",
    "final_y": "528163.987583",
    "longitude": "-90.12825880589268",
    "latitude": "29.946831685262104",
    "geocoded_column": {
      "latitude": "29.946831685262104",
      "longitude": "-90.12825880589268"
    }
  },
  {
    "service_request": "2024-1135940",
    "request_type": "Roads and Streets",
    "request_reason": "Pothole",
    "date_created": "2024-09-26T14:26:59.000",
    "date_modified": "2024-09-26T14:27:22.000",
    "case_close_date": "2024-09-26T09:27:22.000",
    "request_status": "Closed",
    "responsible_agency": "Department of Public Works",
    "final_address": "1600 BLK Monroe St",
    "address_councildis": "A",
    "status": "Resolved",
    "rowid": "1135940",
    "final_x": "3661449.92345",
    "final_y": "530976.915524",
    "longitude": "-90.1313995672924",
    "latitude": "29.954595913841864",
    "geocoded_column": {
      "latitude": "29.954595913841864",
      "longitude": "-90.1313995672924"
    }
  },
  {
    "service_request": "2024-1135939",
    "request_type": "Trash/Recycling",
    "request_reason": "Return Recycling Cart",
    "date_created": "2024-09-26T14:25:59.000",
    "date_modified": "2024-09-26T14:26:00.000",
    "request_status": "Pending",
    "responsible_agency": "Department of Sanitation",
    "final_address": "1435 Dauphine St",
    "address_councildis": "C",
    "status": "Pending",
    "rowid": "1135939",
    "final_x": "3683642.08866",
    "final_y": "535131.157382",
    "longitude": "-90.06117978890099",
    "latitude": "29.965359915026934",
    "geocoded_column": {
      "latitude": "29.965359915026934",
      "longitude": "-90.06117978890099"
    }
  },
  {
    "service_request": "2024-1135938",
    "request_type": "Trash/Recycling",
    "request_reason": "Return Trash Cart",
    "date_created": "2024-09-26T14:25:26.000",
    "date_modified": "2024-09-26T14:25:27.000",
    "request_status": "Pending",
    "responsible_agency": "Department of Sanitation",
    "final_address": "1435 Dauphine St",
    "address_councildis": "C",
    "status": "Assigned to Contractor",
    "contractor": "IV Waste",
    "rowid": "1135938",
    "final_x": "3683642.08866",
    "final_y": "535131.157382",
    "longitude": "-90.06117978890099",
    "latitude": "29.965359915026934",
    "geocoded_column": {
      "latitude": "29.965359915026934",
      "longitude": "-90.06117978890099"
    }
  },
  {
    "service_request": "2024-1135937",
    "request_type": "Roads and Streets",
    "request_reason": "Pothole",
    "date_created": "2024-09-26T14:23:42.000",
    "date_modified": "2024-09-26T14:24:04.000",
    "case_close_date": "2024-09-26T09:24:04.000",
    "request_status": "Closed",
    "responsible_agency": "Department of Public Works",
    "final_address": "2200 BLK Magazine St",
    "address_councildis": "B",
    "status": "Resolved",
    "rowid": "1135937",
    "final_x": "3678693.6616",
    "final_y": "521953.885998",
    "longitude": "-90.07726285131018",
    "latitude": "29.929276952400937",
    "geocoded_column": {
      "latitude": "29.929276952400937",
      "longitude": "-90.07726285131018"
    }
  },
  {
    "service_request": "2024-1135936",
    "request_type": "Roads and Streets",
    "request_reason": "Pothole",
    "date_created": "2024-09-26T14:21:52.000",
    "date_modified": "2024-09-26T14:22:22.000",
    "case_close_date": "2024-09-26T09:22:22.000",
    "request_status": "Closed",
    "responsible_agency": "Department of Public Works",
    "final_address": "2100 BLK N Robertson St",
    "address_councildis": "C",
    "status": "Resolved",
    "rowid": "1135936",
    "final_x": "3684657.18413",
    "final_y": "537755.827491",
    "longitude": "-90.057881910091",
    "latitude": "29.97254581959484",
    "geocoded_column": {
      "latitude": "29.97254581959484",
      "longitude": "-90.057881910091"
    }
  },
  {
    "service_request": "2024-1135935",
    "request_type": "Roads and Streets",
    "request_reason": "Pothole",
    "date_created": "2024-09-26T14:20:22.000",
    "date_modified": "2024-09-26T14:20:47.000",
    "case_close_date": "2024-09-26T09:20:47.000",
    "request_status": "Closed",
    "responsible_agency": "Department of Public Works",
    "final_address": "2200 BLK Seventh St",
    "address_councildis": "B",
    "status": "Resolved",
    "rowid": "1135935",
    "final_x": "3673969.7137",
    "final_y": "524016.94552",
    "longitude": "-90.092104934642",
    "latitude": "29.935091240936824",
    "geocoded_column": {
      "latitude": "29.935091240936824",
      "longitude": "-90.092104934642"
    }
  },
  {
    "service_request": "2024-1135934",
    "request_type": "Trash/Recycling",
    "request_reason": "Repair Trash Cart",
    "date_created": "2024-09-26T14:19:11.000",
    "date_modified": "2024-09-26T14:19:12.000",
    "request_status": "Pending",
    "responsible_agency": "Department of Sanitation",
    "final_address": "4655 Marigny St",
    "address_councildis": "D",
    "status": "Assigned to Contractor",
    "contractor": "IV Waste",
    "rowid": "1135934",
    "final_x": "3684531.35932",
    "final_y": "549916.750868",
    "longitude": "-90.05785176999528",
    "latitude": "30.00598789113426",
    "geocoded_column": {
      "latitude": "30.00598789113426",
      "longitude": "-90.05785176999528"
    }
  },
  {
    "service_request": "2024-1135933",
    "request_type": "Roads and Streets",
    "request_reason": "Sidewalk Damaged or Missing",
    "date_created": "2024-09-26T14:18:29.000",
    "date_modified": "2024-09-26T14:18:29.000",
    "request_status": "Pending",
    "responsible_agency": "Department of Public Works",
    "final_address": "212 Chartres St",
    "address_councildis": "C",
    "status": "Pending",
    "rowid": "1135933",
    "final_x": "3681816.15548",
    "final_y": "530868.939714",
    "longitude": "-90.06709473543549",
    "latitude": "29.95369588469772",
    "geocoded_column": {
      "latitude": "29.95369588469772",
      "longitude": "-90.06709473543549"
    }
  },
  {
    "service_request": "2024-1135932",
    "request_type": "Property Maintenance",
    "request_reason": "Property Maintenance",
    "date_created": "2024-09-26T14:13:29.000",
    "date_modified": "2024-09-26T15:08:46.000",
    "case_close_date": "2024-09-26T10:08:46.000",
    "request_status": "Closed",
    "responsible_agency": "Department of Code Enforcement",
    "final_address": "8600 BLK Lake Forest Blvd",
    "address_councildis": "E",
    "status": "Referred to Code Enforcement",
    "rowid": "1135932",
    "final_x": "3706193.97865",
    "final_y": "558145.618733",
    "longitude": "-89.98910999065649",
    "latitude": "30.027933283225224",
    "geocoded_column": {
      "latitude": "30.027933283225224",
      "longitude": "-89.98910999065649"
    }
  },
  {
    "service_request": "2024-1135931",
    "request_type": "Trash/Recycling",
    "request_reason": "Request a Large Item Pick Up",
    "date_created": "2024-09-26T14:13:19.000",
    "date_modified": "2024-09-26T14:13:21.000",
    "request_status": "Pending",
    "responsible_agency": "Department of Sanitation",
    "final_address": "6820 Coventry St",
    "address_councildis": "E",
    "status": "Assigned to Contractor",
    "contractor": "Waste Pro",
    "rowid": "1135931",
    "final_x": "3698629.67511",
    "final_y": "559619.430749",
    "longitude": "-90.0129588782469",
    "latitude": "30.032227529938645",
    "geocoded_column": {
      "latitude": "30.032227529938645",
      "longitude": "-90.0129588782469"
    }
  },
  {
    "service_request": "2024-1135930",
    "request_type": "Trash/Recycling",
    "request_reason": "Repair Recycling Cart",
    "date_created": "2024-09-26T14:12:10.000",
    "date_modified": "2024-09-26T14:12:11.000",
    "request_status": "Pending",
    "responsible_agency": "Department of Sanitation",
    "final_address": "2011 Milan St",
    "address_councildis": "B",
    "status": "Pending",
    "rowid": "1135930",
    "final_x": "3671487.25569",
    "final_y": "522498.564218",
    "longitude": "-90.09999365457837",
    "latitude": "29.930989890357544",
    "geocoded_column": {
      "latitude": "29.930989890357544",
      "longitude": "-90.09999365457837"
    }
  },
  {
    "service_request": "2024-1135929",
    "request_type": "Trash/Recycling",
    "request_reason": "Request a Large Item Pick Up",
    "date_created": "2024-09-26T14:11:45.000",
    "date_modified": "2024-09-26T14:11:47.000",
    "request_status": "Pending",
    "responsible_agency": "Department of Sanitation",
    "final_address": "1224 Bartholomew St",
    "address_councildis": "D",
    "status": "Assigned to Contractor",
    "contractor": "IV Waste",
    "rowid": "1135929",
    "final_x": "3691909.07228",
    "final_y": "535876.568071",
    "longitude": "-90.03504648137738",
    "latitude": "29.96715457061806",
    "geocoded_column": {
      "latitude": "29.96715457061806",
      "longitude": "-90.03504648137738"
    }
  },
  {
    "service_request": "2024-1135928",
    "request_type": "Trash/Recycling",
    "request_reason": "Repair Trash Cart",
    "date_created": "2024-09-26T14:11:16.000",
    "date_modified": "2024-09-26T14:11:17.000",
    "request_status": "Pending",
    "responsible_agency": "Department of Sanitation",
    "final_address": "2701 Aubry St",
    "address_councildis": "D",
    "status": "Assigned to Contractor",
    "contractor": "IV Waste",
    "rowid": "1135928",
    "final_x": "3679456.58939",
    "final_y": "541316.890444",
    "longitude": "-90.0741827340894",
    "latitude": "29.982495659128496",
    "geocoded_column": {
      "latitude": "29.982495659128496",
      "longitude": "-90.0741827340894"
    }
  },
  {
    "service_request": "2024-1135927",
    "request_type": "Mosquito, Termite & Rodent Control",
    "request_reason": "Rodent Complaint (Rats)",
    "date_created": "2024-09-26T14:08:42.000",
    "date_modified": "2024-09-26T14:08:43.000",
    "request_status": "Pending",
    "responsible_agency": "Mosquito, Termite & Rodent Control Board",
    "final_address": "4229 Mendez St",
    "address_councildis": "D",
    "status": "Pending",
    "rowid": "1135927",
    "final_x": "3689687.89718",
    "final_y": "553944.109912",
    "longitude": "-90.04141763654849",
    "latitude": "30.016902807523945",
    "geocoded_column": {
      "latitude": "30.016902807523945",
      "longitude": "-90.04141763654849"
    }
  },
  {
    "service_request": "2024-1135926",
    "request_type": "Trash/Recycling",
    "request_reason": "Repair Trash Cart",
    "date_created": "2024-09-26T14:08:40.000",
    "date_modified": "2024-09-26T14:08:41.000",
    "request_status": "Pending",
    "responsible_agency": "Department of Sanitation",
    "final_address": "5249 Camp St",
    "address_councildis": "B",
    "status": "Assigned to Contractor",
    "contractor": "IV Waste",
    "rowid": "1135926",
    "final_x": "3667632.30113",
    "final_y": "519083.352439",
    "longitude": "-90.1122781574787",
    "latitude": "29.921712670369974",
    "geocoded_column": {
      "latitude": "29.921712670369974",
      "longitude": "-90.1122781574787"
    }
  },
  {
    "service_request": "2024-1135925",
    "request_type": "Trash/Recycling",
    "request_reason": "Request a Large Item Pick Up",
    "date_created": "2024-09-26T14:06:08.000",
    "date_modified": "2024-09-26T14:06:09.000",
    "request_status": "Pending",
    "responsible_agency": "Department of Sanitation",
    "final_address": "2262 Benefit St",
    "address_councildis": "D",
    "status": "Assigned to Contractor",
    "contractor": "IV Waste",
    "rowid": "1135925",
    "final_x": "3684947.01333",
    "final_y": "544411.132495",
    "longitude": "-90.056732406784",
    "latitude": "29.990836689647942",
    "geocoded_column": {
      "latitude": "29.990836689647942",
      "longitude": "-90.056732406784"
    }
  },
  {
    "service_request": "2024-1135924",
    "request_type": "Trash/Recycling",
    "request_reason": "Request a Large Item Pick Up",
    "date_created": "2024-09-26T14:05:17.000",
    "date_modified": "2024-09-26T14:05:18.000",
    "request_status": "Pending",
    "responsible_agency": "Department of Sanitation",
    "final_address": "6241 Kingston Ct",
    "address_councildis": "C",
    "status": "Assigned to Contractor",
    "contractor": "Richards Disposal",
    "rowid": "1135924",
    "final_x": "3707160.04561",
    "final_y": "517745.210038",
    "longitude": "-89.98755668816732",
    "latitude": "29.916815839726723",
    "geocoded_column": {
      "latitude": "29.916815839726723",
      "longitude": "-89.98755668816732"
    }
  },
  {
    "service_request": "2024-1135923",
    "request_type": "Trash/Recycling",
    "request_reason": "Missed Trash Pick-Up",
    "date_created": "2024-09-26T14:04:38.000",
    "date_modified": "2024-09-26T14:04:39.000",
    "request_status": "Pending",
    "responsible_agency": "Department of Sanitation",
    "final_address": "8512 Chase St",
    "address_councildis": "E",
    "status": "Assigned to Contractor",
    "contractor": "Waste Pro",
    "rowid": "1135923",
    "final_x": "3703438.44382",
    "final_y": "563274.158816",
    "longitude": "-89.99762832075831",
    "latitude": "30.042123359243714",
    "geocoded_column": {
      "latitude": "30.042123359243714",
      "longitude": "-89.99762832075831"
    }
  },