[
  {
    "service_request": "2026-1276381",
    "request_type": "General Services",
    "request_reason": "General Service Request",
    "date_created": "2026-04-24T22:45:54.000",
    "date_modified": "2026-04-24T22:45:55.000",
    "request_status": "Pending",
    "responsible_agency": "Orleans Parish Communication District",
    "final_address": "1841 Elysian Fields Ave",
    "address_councildis": "D",
    "status": "Pending",
    "rowid": "1276381",
    "final_x": "3684925.66479",
    "final_y": "539220.266698",
    "longitude": "-90.05698248407646",
    "latitude": "29.976564295648593",
    "geocoded_column": {
      "latitude": "29.976564295648593",
      "longitude": "-90.05698248407646"
    }
  },
  {
    "service_request": "2026-1276380",
    "request_type": "Roads and Streets",
    "request_reason": "Curb Damage",
    "date_created": "2026-04-24T21:47:17.000",
    "date_modified": "2026-04-24T21:47:19.000",
    "request_status": "Pending",
    "responsible_agency": "Department of Public Works",
    "final_address": "1734 Amelia St",
    "address_councildis": "B",
    "status": "Pending",
    "rowid": "1276380",
    "final_x": "3672937.68731",
    "final_y": "521811.80473",
    "longitude": "-90.0954382513887",
    "latitude": "29.92905851592285",
    "geocoded_column": {
      "latitude": "29.92905851592285",
      "longitude": "-90.0954382513887"
    }
  },
  {
    "service_request": "2026-1276379",
    "request_type": "Health Related Request",
    "request_reason": "Noise Ordinance Complaint",
    "date_created": "2026-04-24T21:45:02.000",
    "date_modified": "2026-04-24T21:45:03.000",
    "request_status": "Pending",
    "responsible_agency": "Health Department",
    "final_address": "800 Bourbon St, New Orleans, Louisiana, 70116",
    "address_councildis": "C",
    "status": "Pending",
    "rowid": "1276379",
    "final_x": "3682553.51528",
    "final_y": "533013.631428",
    "longitude": "-90.06469148499534",
    "latitude": "29.95957063099051",
    "geocoded_column": {
      "latitude": "29.95957063099051",
      "longitude": "-90.06469148499534"
    }
  },
  {
    "service_request": "2026-1276378",
    "request_type": "Roads and Streets",
    "request_reason": "Pothole",
    "date_created": "2026-04-24T21:43:34.000",
    "date_modified": "2026-04-24T21:43:35.000",
    "request_status": "Pending",
    "responsible_agency": "Department of Public Works",
    "final_address": "977 N Carrollton Ave",
    "address_councildis": "A",
    "status": "Pending",
    "rowid": "1276378",
    "final_x": "3673488.93064",
    "final_y": "541086.234572",
    "longitude": "-90.0930394693642",
    "latitude": "29.98204040144654",
    "geocoded_column": {
      "latitude": "29.98204040144654",
      "longitude": "-90.0930394693642"
    }
  },
  {
    "service_request": "2026-1276377",
    "request_type": "Roads and Streets",
    "request_reason": "Pothole",
    "date_created": "2026-04-24T21:42:00.000",
    "date_modified": "2026-04-24T21:42:04.000",
    "request_status": "Pending",
    "responsible_agency": "Department of Public Works",
    "final_address": "6800 BLK Leake Ave",
    "address_councildis": "A",
    "status": "Pending",
    "rowid": "1276377",
    "final_x": "3660861.18874",
    "final_y": "520666.136933",
    "longitude": "-90.13359946087044",
    "latitude": "29.926261504845776",
    "geocoded_column": {
      "latitude": "29.926261504845776",
      "longitude": "-90.13359946087044"
    }
  },
  {
    "service_request": "2026-1276376",
    "request_type": "Trash/Recycling",
    "request_reason": "Request a Large Item Pick Up",
    "date_created": "2026-04-24T21:14:51.000",
    "date_modified": "2026-04-24T21:14:52.000",
    "request_status": "Pending",
    "responsible_agency": "Department of Sanitation",
    "final_address": "7843 Sand St",
    "address_councildis": "E",
    "status": "Assigned to Contractor",
    "contractor": "Waste Pro",
    "rowid": "1276376",
    "final_x": "3720201.6341",
    "final_y": "574325.145194",
    "longitude": "-89.94422750751573",
    "latitude": "30.071961018254406",
    "geocoded_column": {
      "latitude": "30.071961018254406",
      "longitude": "-89.94422750751573"
    }
  },
  {
    "service_request": "2026-1276375",
    "request_type": "Alley Ways",
    "request_reason": "Alley Way Issues",
    "date_created": "2026-04-24T21:12:44.000",
    "date_modified": "2026-04-24T21:12:46.000",
    "request_status": "Pending",
    "responsible_agency": "Department of Public Works",
    "final_address": "1510 Broadway St",
    "address_councildis": "A",
    "status": "Pending",
    "rowid": "1276375",
    "final_x": "3664843.79629",
    "final_y": "527505.020607",
    "longitude": "-90.12079899984586",
    "latitude": "29.944951000080092",
    "geocoded_column": {
      "latitude": "29.944951000080092",
      "longitude": "-90.12079899984586"
    }
  },
  {
    "service_request": "2026-1276374",
    "request_type": "Trash/Recycling",
    "request_reason": "Missed Trash Pick-Up",
    "date_created": "2026-04-24T20:42:08.000",
    "date_modified": "2026-04-24T20:42:10.000",
    "request_status": "Pending",
    "responsible_agency": "Department of Sanitation",
    "final_address": "2224 Royal St",
    "address_councildis": "C",
    "status": "Assigned to Contractor",
    "contractor": "IV Waste",
    "rowid": "1276374",
    "final_x": "3685394.18882",
    "final_y": "534853.095302",
    "longitude": "-90.05565654242851",
    "latitude": "29.96454173662454",
    "geocoded_column": {
      "latitude": "29.96454173662454",
      "longitude": "-90.05565654242851"
    }
  },
  {
    "service_request": "2026-1276373",
    "request_type": "Trash/Recycling",
    "request_reason": "Repair Recycling Cart",
    "date_created": "2026-04-24T20:15:45.000",
    "date_modified": "2026-04-24T20:15:48.000",
    "request_status": "Pending",
    "responsible_agency": "Department of Sanitation",
    "final_address": "13511 Dwyer Blvd",
    "address_councildis": "E",
    "status": "Pending",
    "rowid": "1276373",
    "final_x": "3725954.58809",
    "final_y": "562107.552031",
    "longitude": "-89.92651500341378",
    "latitude": "30.03817475627309",
    "geocoded_column": {
      "latitude": "30.03817475627309",
      "longitude": "-89.92651500341378"
    }
  },
  {
    "service_request": "2026-1276372",
    "request_type": "Trash/Recycling",
    "request_reason": "Replace Recycling Cart",
    "date_created": "2026-04-24T20:08:56.000",
    "date_modified": "2026-04-24T20:08:58.000",
    "request_status": "Pending",
    "responsible_agency": "Department of Sanitation",
    "final_address": "13501 Dwyer Blvd",
    "address_councildis": "E",
    "status": "Pending",
    "rowid": "1276372",
    "final_x": "3725893.49651",
    "final_y": "562085.326815",
    "longitude": "-89.9267089279096",
    "latitude": "30.03811570833668",
    "geocoded_column": {
      "latitude": "30.03811570833668",
      "longitude": "-89.9267089279096"
    }
  },
  {
    "service_request": "2026-1276370",
    "request_type": "Graffiti Removal",
    "request_reason": "Graffiti Removal",
    "date_created": "2026-04-24T19:48:29.000",
    "date_modified": "2026-04-24T19:48:31.000",
    "request_status": "Pending",
    "responsible_agency": "Department of Code Enforcement",
    "final_address": "4649 Reynes St",
    "address_councildis": "E",
    "status": "Pending",
    "rowid": "1276370",
    "final_x": "3699271.54845",
    "final_y": "554532.102104",
    "longitude": "-90.01111603507255",
    "latitude": "30.01821897194828",
    "geocoded_column": {
      "latitude": "30.01821897194828",
      "longitude": "-90.01111603507255"
    }
  },
  {
    "service_request": "2026-1276369",
    "request_type": "Roads and Streets",
    "request_reason": "Curb Damage",
    "date_created": "2026-04-24T19:44:34.000",
    "date_modified": "2026-04-24T19:44:35.000",
    "request_status": "Pending",
    "responsible_agency": "Department of Public Works",
    "final_address": "600 N Claiborne Ave",
    "address_councildis": "C",
    "status": "Pending",
    "rowid": "1276369",
    "final_x": "3679685.40226",
    "final_y": "534417.705349",
    "longitude": "-90.07369958102653",
    "latitude": "29.963518360611847",
    "geocoded_column": {
      "latitude": "29.963518360611847",
      "longitude": "-90.07369958102653"
    }
  },
  {
    "service_request": "2026-1276368",
    "request_type": "General Services",
    "request_reason": "General Service Request",
    "date_created": "2026-04-24T19:44:01.000",
    "date_modified": "2026-04-24T19:44:03.000",
    "request_status": "Pending",
    "responsible_agency": "Orleans Parish Communication District",
    "final_address": "5205 St Claude Ave",
    "address_councildis": "E",
    "status": "Pending",
    "rowid": "1276368",
    "final_x": "3696638.59069",
    "final_y": "534265.221253",
    "longitude": "-90.02016901798207",
    "latitude": "29.96257574522653",
    "geocoded_column": {
      "latitude": "29.96257574522653",
      "longitude": "-90.02016901798207"
    }
  },
  {
    "service_request": "2026-1276367",
    "request_type": "General Services",
    "request_reason": "General Service Request",
    "date_created": "2026-04-24T19:21:09.000",
    "date_modified": "2026-04-24T19:21:11.000",
    "request_status": "Pending",
    "responsible_agency": "Orleans Parish Communication District",
    "final_address": "2544 Dumaine St",
    "address_councildis": "C",
    "status": "Pending",
    "rowid": "1276367",
    "final_x": "3677652.67042",
    "final_y": "537080.595336",
    "longitude": "-90.08002675719123",
    "latitude": "29.9709016889274",
    "geocoded_column": {
      "latitude": "29.9709016889274",
      "longitude": "-90.08002675719123"
    }
  },
  {
    "service_request": "2026-1276366",
    "request_type": "Street and Traffic Signs",
    "request_reason": "Additional Signage Request",
    "date_created": "2026-04-24T18:54:08.000",
    "date_modified": "2026-04-24T18:54:11.000",
    "request_status": "Pending",
    "responsible_agency": "Department of Public Works",
    "final_address": "1821 Fats Domino Ave",
    "address_councildis": "E",
    "status": "Pending",
    "rowid": "1276366",
    "final_x": "3698834.69636",
    "final_y": "536549.889927",
    "longitude": "-90.01315093351631",
    "latitude": "29.968788380577333",
    "geocoded_column": {
      "latitude": "29.968788380577333",
      "longitude": "-90.01315093351631"
    }
  },
  {
    "service_request": "2026-1276365",
    "request_type": "Roads and Streets",
    "request_reason": "Street Subsidence (Sinking)",
    "date_created": "2026-04-24T18:47:49.000",
    "date_modified": "2026-04-24T18:47:50.000",
    "request_status": "Pending",
    "responsible_agency": "Sewerage & Water Board",
    "final_address": "1821 Fats Domino Ave",
    "address_councildis": "E",
    "status": "Pending",
    "rowid": "1276365",
    "final_x": "3698834.69636",
    "final_y": "536549.889927",
    "longitude": "-90.01315093351631",
    "latitude": "29.968788380577333",
    "geocoded_column": {
      "latitude": "29.968788380577333",
      "longitude": "-90.01315093351631"
    }
  },
  {
    "service_request": "2026-1276364",
    "request_type": "Roads and Streets",
    "request_reason": "Street Subsidence (Sinking)",
    "date_created": "2026-04-24T18:44:43.000",
    "date_modified": "2026-04-24T18:44:45.000",
    "request_status": "Pending",
    "responsible_agency": "Sewerage & Water Board",
    "final_address": "8434 Edinburgh St",
    "address_councildis": "A",
    "status": "Pending",
    "rowid": "1276364",
    "final_x": "3666438.80282",
    "final_y": "535330.68423",
    "longitude": "-90.11550045229326",
    "latitude": "29.96642251111864",
    "geocoded_column": {
      "latitude": "29.96642251111864",
      "longitude": "-90.11550045229326"
    }
  },
  {
    "service_request": "2026-1276363",
    "request_type": "Trash/Recycling",
    "request_reason": "Dead Animal Pick Up",
    "date_created": "2026-04-24T18:29:54.000",
    "date_modified": "2026-04-24T18:29:56.000",
    "request_status": "Pending",
    "responsible_agency": "Department of Sanitation",
    "final_address": "1017 Verret St",
    "address_councildis": "C",
    "status": "Assigned to Contractor",
    "contractor": "Richards Disposal",
    "rowid": "1276363",
    "final_x": "3687193.08956",
    "final_y": "527815.174335",
    "longitude": "-90.05022463776932",
    "latitude": "29.945134595076734",
    "geocoded_column": {
      "latitude": "29.945134595076734",
      "longitude": "-90.05022463776932"
    }
  },
  {
    "service_request": "2026-1276362",
    "request_type": "Trash/Recycling",
    "request_reason": "Order Second Trash Cart",
    "date_created": "2026-04-24T18:26:30.000",
    "date_modified": "2026-04-24T18:26:31.000",
    "request_status": "Pending",
    "responsible_agency": "Department of Sanitation",
    "final_address": "9009 S Claiborne Ave",
    "address_councildis": "A",
    "status": "Assigned to Contractor",
    "contractor": "IV Waste",
    "rowid": "1276362",
    "final_x": "3662497.19207",
    "final_y": "533810.998917",
    "longitude": "-90.12799854762616",
    "latitude": "29.962358475291765",
    "geocoded_column": {
      "latitude": "29.962358475291765",
      "longitude": "-90.12799854762616"
    }
  },
  {
    "service_request": "2026-1276361",
    "request_type": "Mosquito, Termite & Rodent Control",
    "request_reason": "Mosquito Complaint",
    "date_created": "2026-04-24T18:22:52.000",
    "date_modified": "2026-04-24T18:22:53.000",
    "request_status": "Pending",
    "responsible_agency": "Mosquito, Termite & Rodent Control Board",
    "final_address": "2400 Filmore Ave",
    "address_councildis": "D",
    "status": "Pending",
    "rowid": "1276361",
    "final_x": "3685234.46364",
    "final_y": "552467.72591",
    "longitude": "-90.05554062793307",
    "latitude": "30.012980604678486",
    "geocoded_column": {
      "latitude": "30.012980604678486",
      "longitude": "-90.05554062793307"
    }
  },
  {
    "service_request": "2026-1276360",
    "request_type": "Trash/Recycling",
    "request_reason": "Request a Large Item Pick Up",
    "date_created": "2026-04-24T18:02:42.000",
    "date_modified": "2026-04-24T18:02:44.000",
    "request_status": "Pending",
    "responsible_agency": "Department of Sanitation",
    "final_address": "7329 Birch St",
    "address_councildis": "A",
    "status": "Assigned to Contractor",
    "contractor": "IV Waste",
    "rowid": "1276360",
    "final_x": "3664517.36864",
    "final_y": "528006.330623",
    "longitude": "-90.1218129012352",
    "latitude": "29.94633893556247",
    "geocoded_column": {
      "latitude": "29.94633893556247",
      "longitude": "-90.1218129012352"
    }
  },
  {
    "service_request": "2026-1276359",
    "request_type": "Trash/Recycling",
    "request_reason": "Replace Trash Cart",
    "date_created": "2026-04-24T17:53:11.000",
    "date_modified": "2026-04-24T17:53:13.000",
    "request_status": "Pending",
    "responsible_agency": "Department of Sanitation",
    "final_address": "8542 Dinkins St",
    "address_councildis": "E",
    "status": "Assigned to Contractor",
    "contractor": "Waste Pro",
    "rowid": "1276359",
    "final_x": "3703765.5425",
    "final_y": "562879.354336",
    "longitude": "-89.99660912736299",
    "latitude": "30.041027314304287",
    "geocoded_column": {
      "latitude": "30.041027314304287",
      "longitude": "-89.99660912736299"
    }
  },
  {
    "service_request": "2026-1276358",
    "request_type": "Streetlights",
    "request_reason": "Streetlight Outage/Malfunction",
    "date_created": "2026-04-24T17:48:59.000",
    "date_modified": "2026-04-24T17:49:00.000",
    "request_status": "Pending",
    "responsible_agency": "Department of Public Works",
    "final_address": "3630 Rue Denise",
    "address_councildis": "C",
    "status": "Pending",
    "rowid": "1276358",
    "final_x": "3704310.76529",
    "final_y": "517182.625845",
    "longitude": "-89.99657084944063",
    "latitude": "29.915360635652995",
    "geocoded_column": {
      "latitude": "29.915360635652995",
      "longitude": "-89.99657084944063"
    }
  },
  {
    "service_request": "2026-1276357",
    "request_type": "Trash/Recycling",
    "request_reason": "Order Recycling Cart",
    "date_created": "2026-04-24T17:47:20.000",
    "date_modified": "2026-04-24T17:47:24.000",
    "request_status": "Pending",
    "responsible_agency": "Department of Sanitation",
    "final_address": "4540 Urquhart St",
    "address_councildis": "D",
    "status": "Pending",
    "rowid": "1276357",
    "final_x": "3693816.22141",
    "final_y": "535536.25959",
    "longitude": "-90.0290359478065",
    "latitude": "29.96615928809815",
    "geocoded_column": {
      "latitude": "29.96615928809815",
      "longitude": "-90.0290359478065"
    }
  },
  {
    "service_request": "2026-1276356",
    "request_type": "General Services",
    "request_reason": "General Service Request",
    "date_created": "2026-04-24T17:43:22.000",
    "date_modified": "2026-04-24T17:43:23.000",
    "request_status": "Pending",
    "responsible_agency": "Orleans Parish Communication District",
    "final_address": "3005 Paris Ave",
    "address_councildis": "D",
    "status": "Pending",
    "rowid": "1276356",
    "final_x": "3679966.9508",
    "final_y": "543428.862734",
    "longitude": "-90.07249735966575",
    "latitude": "29.988287413764898",
    "geocoded_column": {
      "latitude": "29.988287413764898",
      "longitude": "-90.07249735966575"
    }
  },
  {
    "service_request": "2026-1276355",
    "request_type": "Utility Poles",
    "request_reason": "Wires Sagging/Hanging Low",
    "date_created": "2026-04-24T17:29:19.000",
    "date_modified": "2026-04-24T17:29:22.000",
    "request_status": "Pending",
    "responsible_agency": "Utility Company Collective",
    "final_address": "2821 N Tonti St",
    "address_councildis": "D",
    "status": "Pending",
    "rowid": "1276355",
    "final_x": "3688772.19132",
    "final_y": "540899.304139",
    "longitude": "-90.04477437523916",
    "latitude": "29.981062680142834",
    "geocoded_column": {
      "latitude": "29.981062680142834",
      "longitude": "-90.04477437523916"
    }
  },
  {
    "service_request": "2026-1276354",
    "request_type": "Trash/Recycling",
    "request_reason": "Illegal Dumping",
    "date_created": "2026-04-24T17:15:07.000",
    "date_modified": "2026-04-24T17:15:08.000",
    "request_status": "Pending",
    "responsible_agency": "Department of Sanitation",
    "final_address": "4107 N Galvez St",
    "address_councildis": "D",
    "status": "Pending",
    "rowid": "1276354",
    "final_x": "3693178.01078",
    "final_y": "539017.35009",
    "longitude": "-90.03092644095187",
    "latitude": "29.97575101100628",
    "geocoded_column": {
      "latitude": "29.97575101100628",
      "longitude": "-90.03092644095187"
    }
  },
  {
    "service_request": "2026-1276353",
    "request_type": "Trash/Recycling",
    "request_reason": "Replace Recycling Cart",
    "date_created": "2026-04-24T17:10:47.000",
    "date_modified": "2026-04-24T17:11:01.000",
    "request_status": "Pending",
    "responsible_agency": "Department of Sanitation",
    "final_address": "2614 Dublin St",
    "address_councildis": "A",
    "status": "Pending",
    "rowid": "1276353",
    "final_x": "3665155.44954",
    "final_y": "532465.468484",
    "longitude": "-90.11964912116049",
    "latitude": "29.958581551334223",
    "geocoded_column": {
      "latitude": "29.958581551334223",
      "longitude": "-90.11964912116049"
    }
  },
  {
    "service_request": "2026-1276352",
    "request_type": "Trash/Recycling",
    "request_reason": "Replace Recycling Cart",
    "date_created": "2026-04-24T17:03:06.000",
    "date_modified": "2026-04-24T17:03:07.000",
    "request_status": "Pending",
    "responsible_agency": "Department of Sanitation",
    "final_address": "2614 Dublin St",
    "address_councildis": "A",
    "status": "Pending",
    "rowid": "1276352",
    "final_x": "3665155.44954",
    "final_y": "532465.468484",
    "longitude": "-90.11964912116049",
    "latitude": "29.958581551334223",
    "geocoded_column": {
      "latitude": "29.958581551334223",
      "longitude": "-90.11964912116049"
    }
  },
  {
    "service_request": "2026-1276351",
    "request_type": "Abandoned Vehicles",
    "request_reason": "Abandoned/Junk Vehicles",
    "date_created": "2026-04-24T16:56:39.000",
    "date_modified": "2026-04-24T16:56:41.000",
    "request_status": "Pending",
    "responsible_agency": "Department of Public Works",
    "final_address": "5201 Canal Blvd",
    "address_councildis": "A",
    "status": "Pending",
    "rowid": "1276351",
    "final_x": "3668099.38842",
    "final_y": "542064.352268",
    "longitude": "-90.1100293050557",
    "latitude": "29.98488920224858",
    "geocoded_column": {
      "latitude": "29.98488920224858",
      "longitude": "-90.1100293050557"
    }
  },
  {
    "service_request": "2026-1276350",
    "request_type": "Trash/Recycling",
    "request_reason": "Request a Large Item Pick Up",
    "date_created": "2026-04-24T16:54:53.000",
    "date_modified": "2026-04-24T16:54:55.000",
    "request_status": "Pending",
    "responsible_agency": "Department of Sanitation",
    "final_address": "3118 Jena St",
    "address_councildis": "B",
    "status": "Assigned to Contractor",
    "contractor": "IV Waste",
    "rowid": "1276350",
    "final_x": "3669810.1913",
    "final_y": "526411.30739",
    "longitude": "-90.10515553877808",
    "latitude": "29.941798201673596",
    "geocoded_column": {
      "latitude": "29.941798201673596",
      "longitude": "-90.10515553877808"
    }
  },
  {
    "service_request": "2026-1276349",
    "request_type": "Trash/Recycling",
    "request_reason": "Return Recycling Cart",
    "date_created": "2026-04-24T16:37:48.000",
    "date_modified": "2026-04-24T16:37:49.000",
    "request_status": "Pending",
    "responsible_agency": "Department of Sanitation",
    "final_address": "901 Stewart Ct",
    "address_councildis": "A",
    "status": "Pending",
    "rowid": "1276349",
    "final_x": "3673010.33992",
    "final_y": "540754.678475",
    "longitude": "-90.09456241286665",
    "latitude": "29.981142971358693",
    "geocoded_column": {
      "latitude": "29.981142971358693",
      "longitude": "-90.09456241286665"
    }
  },
  {
    "service_request": "2026-1276348",
    "request_type": "Trash/Recycling",
    "request_reason": "Request a Large Item Pick Up",
    "date_created": "2026-04-24T16:33:33.000",
    "date_modified": "2026-04-24T16:33:35.000",
    "request_status": "Pending",
    "responsible_agency": "Department of Sanitation",
    "final_address": "406 S Hennessey St",
    "address_councildis": "A",
    "status": "Assigned to Contractor",
    "contractor": "IV Waste",
    "rowid": "1276348",
    "final_x": "3669533.24954",
    "final_y": "537887.594697",
    "longitude": "-90.10564169071753",
    "latitude": "29.973362363246398",
    "geocoded_column": {
      "latitude": "29.973362363246398",
      "longitude": "-90.10564169071753"
    }
  },
  {
    "service_request": "2026-1276347",
    "request_type": "Traffic Signals",
    "request_reason": "Traffic Signal Malfunctioning or Damaged",
    "date_created": "2026-04-24T16:20:12.000",
    "date_modified": "2026-04-24T16:21:42.000",
    "request_status": "Pending",
    "responsible_agency": "Department of Public Works",
    "final_address": "READ BLVD & I 10 E",
    "address_councildis": "E",
    "status": "Pending",
    "rowid": "1276347",
    "final_x": "3710318.3",
    "final_y": "561494.18",
    "longitude": "-89.97595219034005",
    "latitude": "30.03700681831435",
    "geocoded_column": {
      "latitude": "30.03700681831435",
      "longitude": "-89.97595219034005"
    }
  },
  {
    "service_request": "2026-1276346",
    "request_type": "Trash/Recycling",
    "request_reason": "Illegal Dumping",
    "date_created": "2026-04-24T16:19:26.000",
    "date_modified": "2026-04-24T16:19:29.000",
    "request_status": "Pending",
    "responsible_agency": "Department of Sanitation",
    "final_address": "1 Andry St Wharf",
    "address_councildis": "E",
    "status": "Pending",
    "rowid": "1276346",
    "final_x": "3696525.82115",
    "final_y": "531143.320066",
    "longitude": "-90.020638067924",
    "latitude": "29.953995171978537",
    "geocoded_column": {
      "latitude": "29.953995171978537",
      "longitude": "-90.020638067924"
    }
  },
  {
    "service_request": "2026-1276345",
    "request_type": "Abandoned Vehicles",
    "request_reason": "Abandoned/Junk Vehicles",
    "date_created": "2026-04-24T16:18:16.000",
    "date_modified": "2026-04-24T16:18:17.000",
    "request_status": "Pending",
    "responsible_agency": "Department of Public Works",
    "final_address": "3613 Cambronne St Apt 1202",
    "address_councildis": "A",
    "status": "Pending",
    "rowid": "1276345",
    "final_x": "3667168.77844",
    "final_y": "535600.737478",
    "longitude": "-90.11318611016937",
    "latitude": "29.96714371482522",
    "geocoded_column": {
      "latitude": "29.96714371482522",
      "longitude": "-90.11318611016937"
    }
  },
  {
    "service_request": "2026-1276344",
    "request_type": "Trash/Recycling",
    "request_reason": "Replace Trash Cart",
    "date_created": "2026-04-24T16:11:10.000",
    "date_modified": "2026-04-24T16:11:12.000",
    "request_status": "Pending",
    "responsible_agency": "Department of Sanitation",
    "final_address": "6158 Louis Xiv St",
    "address_councildis": "A",
    "status": "Assigned to Contractor",
    "contractor": "IV Waste",
    "rowid": "1276344",
    "final_x": "3668112.35431",
    "final_y": "548376.42421",
    "longitude": "-90.10977545729533",
    "latitude": "30.002244852727433",
    "geocoded_column": {
      "latitude": "30.002244852727433",
      "longitude": "-90.10977545729533"
    }
  },
  {
    "service_request": "2026-1276343",
    "request_type": "Trash/Recycling",
    "request_reason": "MIssed Recycling Pick-Up",
    "date_created": "2026-04-24T16:06:02.000",
    "date_modified": "2026-04-24T16:06:04.000",
    "request_status": "Pending",
    "responsible_agency": "Department of Sanitation",
    "final_address": "7201 Spring Lake Dr",
    "address_councildis": "E",
    "status": "Assigned to Contractor",
    "contractor": "Waste Pro",
    "rowid": "1276343",
    "final_x": "3700169.42397",
    "final_y": "558994.22774",
    "longitude": "-90.00811604595594",
    "latitude": "30.030459587327485",
    "geocoded_column": {
      "latitude": "30.030459587327485",
      "longitude": "-90.00811604595594"
    }
  },
  {
    "service_request": "2026-1276342",
    "request_type": "Property Maintenance",
    "request_reason": "Property Maintenance",
    "date_created": "2026-04-24T16:05:16.000",
    "date_modified": "2026-04-24T16:05:18.000",
    "request_status": "Pending",
    "responsible_agency": "Department of Code Enforcement",
    "final_address": "6143 Carlisle Ct",
    "address_councildis": "C",
    "status": "Pending",
    "rowid": "1276342",
    "final_x": "3706713.38231",
    "final_y": "516405.041269",
    "longitude": "-89.98901615983992",
    "latitude": "29.913145256534676",
    "geocoded_column": {
      "latitude": "29.913145256534676",
      "longitude": "-89.98901615983992"
    }
  },
  {
    "service_request": "2026-1276341",
    "request_type": "Trash/Recycling",
    "request_reason": "Request a Large Item Pick Up",
    "date_created": "2026-04-24T15:53:08.000",
    "date_modified": "2026-04-24T15:53:10.000",
    "request_status": "Pending",
    "responsible_agency": "Department of Sanitation",
    "final_address": "4561 Francisco Verrett Dr",
    "address_councildis": "E",
    "status": "Assigned to Contractor",
    "contractor": "Waste Pro",
    "rowid": "1276341",
    "final_x": "3704392.21009",
    "final_y": "553971.293528",
    "longitude": "-89.99495748454189",
    "latitude": "30.016513497493005",
    "geocoded_column": {
      "latitude": "30.016513497493005",
      "longitude": "-89.99495748454189"
    }
  },
  {
    "service_request": "2026-1276340",
    "request_type": "Trash/Recycling",
    "request_reason": "Request a Large Item Pick Up",
    "date_created": "2026-04-24T15:50:58.000",
    "date_modified": "2026-04-24T15:51:00.000",
    "request_status": "Pending",
    "responsible_agency": "Department of Sanitation",
    "final_address": "1229 Governor Nicholls St",
    "address_councildis": "C",
    "status": "Assigned to Contractor",
    "contractor": "IV Waste",
    "rowid": "1276340",
    "final_x": "3682014.20962",
    "final_y": "535274.299718",
    "longitude": "-90.06631555004992",
    "latitude": "29.965803102282084",
    "geocoded_column": {
      "latitude": "29.965803102282084",
      "longitude": "-90.06631555004992"
    }
  },
  {
    "service_request": "2026-1276339",
    "request_type": "Trash/Recycling",
    "request_reason": "Replace Recycling Cart",
    "date_created": "2026-04-24T15:44:49.000",
    "date_modified": "2026-04-24T15:44:51.000",
    "request_status": "Pending",
    "responsible_agency": "Department of Sanitation",
    "final_address": "211 Alix St",
    "address_councildis": "C",
    "status": "Pending",
    "rowid": "1276339",
    "final_x": "3686226.34895",
    "final_y": "529773.691137",
    "longitude": "-90.05320784976348",
    "latitude": "29.95054958125698",
    "geocoded_column": {
      "latitude": "29.95054958125698",
      "longitude": "-90.05320784976348"
    }
  },
  {
    "service_request": "2026-1276338",
    "request_type": "Trash/Recycling",
    "request_reason": "Return Trash Cart",
    "date_created": "2026-04-24T15:44:29.000",
    "date_modified": "2026-04-24T15:44:31.000",
    "request_status": "Pending",
    "responsible_agency": "Department of Sanitation",
    "final_address": "211 Alix St",
    "address_councildis": "C",
    "status": "Assigned to Contractor",
    "contractor": "Richards Disposal",
    "rowid": "1276338",
    "final_x": "3686226.34895",
    "final_y": "529773.691137",
    "longitude": "-90.05320784976348",
    "latitude": "29.95054958125698",
    "geocoded_column": {
      "latitude": "29.95054958125698",
      "longitude": "-90.05320784976348"
    }
  },
  {
    "service_request": "2026-1276337",
    "request_type": "Trash/Recycling",
    "request_reason": "Repair Trash Cart",
    "date_created": "2026-04-24T15:41:35.000",
    "date_modified": "2026-04-24T15:41:37.000",
    "request_status": "Pending",
    "responsible_agency": "Department of Sanitation",
    "final_address": "1422 Melpomene St",
    "address_councildis": "B",
    "status": "Assigned to Contractor",
    "contractor": "IV Waste",
    "rowid": "1276337",
    "final_x": "3679828.56482",
    "final_y": "525085.630077",
    "longitude": "-90.07357148522154",
    "latitude": "29.937853959829017",
    "geocoded_column": {
      "latitude": "29.937853959829017",
      "longitude": "-90.07357148522154"
    }
  },
  {
    "service_request": "2026-1276336",
    "request_type": "Abandoned Vehicles",
    "request_reason": "Abandoned/Junk Vehicles",
    "date_created": "2026-04-24T15:40:17.000",
    "date_modified": "2026-04-24T15:40:19.000",
    "request_status": "Pending",
    "responsible_agency": "Department of Public Works",
    "final_address": "4129 Magnolia St",
    "address_councildis": "B",
    "status": "Pending",
    "rowid": "1276336",
    "final_x": "3671285.53159",
    "final_y": "524860.478332",
    "longitude": "-90.10055025172751",
    "latitude": "29.937490360775083",
    "geocoded_column": {
      "latitude": "29.937490360775083",
      "longitude": "-90.10055025172751"
    }
  },
  {
    "service_request": "2026-1276335",
    "request_type": "Streetlights",
    "request_reason": "Streetlight Outage/Malfunction",
    "date_created": "2026-04-24T15:36:45.000",
    "date_modified": "2026-04-24T15:38:02.000",
    "request_status": "Pending",
    "responsible_agency": "Department of Public Works",
    "final_address": "7923 Arcadia Ln",
    "address_councildis": "E",
    "status": "Pending",
    "rowid": "1276335",
    "final_x": "3711852.05893",
    "final_y": "567922.627237",
    "longitude": "-89.97086366314305",
    "latitude": "30.054632406627285",
    "geocoded_column": {
      "latitude": "30.054632406627285",
      "longitude": "-89.97086366314305"
    }
  },
  {
    "service_request": "2026-1276334",
    "request_type": "Trash/Recycling",
    "request_reason": "Replace Trash Cart",
    "date_created": "2026-04-24T15:26:03.000",
    "date_modified": "2026-04-24T15:26:04.000",
    "request_status": "Pending",
    "responsible_agency": "Department of Sanitation",
    "final_address": "7819 Sail St",
    "address_councildis": "E",
    "status": "Assigned to Contractor",
    "contractor": "Waste Pro",
    "rowid": "1276334",
    "final_x": "3720160.35052",
    "final_y": "574015.922986",
    "longitude": "-89.94436986644598",
    "latitude": "30.07111216410976",
    "geocoded_column": {
      "latitude": "30.07111216410976",
      "longitude": "-89.94436986644598"
    }
  },
  {
    "service_request": "2026-1276333",
    "request_type": "Trash/Recycling",
    "request_reason": "Request a Large Item Pick Up",
    "date_created": "2026-04-24T15:24:50.000",
    "date_modified": "2026-04-24T15:24:51.000",
    "request_status": "Pending",
    "responsible_agency": "Department of Sanitation",
    "final_address": "3646 Fairmont Dr",
    "address_councildis": "D",
    "status": "Assigned to Contractor",
    "contractor": "IV Waste",
    "rowid": "1276333",
    "final_x": "3685386.60789",
    "final_y": "545927.132048",
    "longitude": "-90.05529042463023",
    "latitude": "29.994991672787993",
    "geocoded_column": {
      "latitude": "29.994991672787993",
      "longitude": "-90.05529042463023"
    }
  },
  {
    "service_request": "2026-1276332",
    "request_type": "Tree Service",
    "request_reason": "Tree Trim",
    "date_created": "2026-04-24T15:22:10.000",
    "date_modified": "2026-04-24T15:22:11.000",
    "request_status": "Pending",
    "responsible_agency": "Department of Parks & Parkways",
    "final_address": "2701 Comet St",
    "address_councildis": "C",
    "status": "Pending",
    "rowid": "1276332",
    "final_x": "3699778.03037",
    "final_y": "521039.127353",
    "longitude": "-90.0107372464012",
    "latitude": "29.92610932030299",
    "geocoded_column": {
      "latitude": "29.92610932030299",
      "longitude": "-90.0107372464012"
    }
  },
  {
    "service_request": "2026-1276331",
    "request_type": "Trash/Recycling",
    "request_reason": "Replace Trash Cart",
    "date_created": "2026-04-24T15:20:50.000",
    "date_modified": "2026-04-24T15:20:52.000",
    "request_status": "Pending",
    "responsible_agency": "Department of Sanitation",
    "final_address": "2607 S Dorgenois St",
    "address_councildis": "B",
    "status": "Assigned to Contractor",
    "contractor": "IV Waste",
    "rowid": "1276331",
    "final_x": "3671928.11111",
    "final_y": "529574.622081",
    "longitude": "-90.0983611726984",
    "latitude": "29.950433690347257",
    "geocoded_column": {
      "latitude": "29.950433690347257",
      "longitude": "-90.0983611726984"
    }
  },
  {
    "service_request": "2026-1276330",
    "request_type": "Traffic Signals",
    "request_reason": "Traffic Signal Malfunctioning or Damaged",
    "date_created": "2026-04-24T15:19:46.000",
    "date_modified": "2026-04-24T15:19:47.000",
    "request_status": "Pending",
    "responsible_agency": "Department of Public Works",
    "final_address": "10001 N Interstate 10 Service Rd",
    "address_councildis": "E",
    "status": "Pending",
    "rowid": "1276330",
    "final_x": "3710410.12318",
    "final_y": "561990.881439",
    "longitude": "-89.97564341271013",
    "latitude": "30.038369558096832",
    "geocoded_column": {
      "latitude": "30.038369558096832",
      "longitude": "-89.97564341271013"
    }
  },
  {
    "service_request": "2026-1276329",
    "request_type": "Abandoned Vehicles",
    "request_reason": "Abandoned/Junk Vehicles",
    "date_created": "2026-04-24T15:12:12.000",
    "date_modified": "2026-04-24T15:12:14.000",
    "request_status": "Pending",
    "responsible_agency": "Department of Public Works",
    "final_address": "2600 BLK Thalia St",
    "address_councildis": "B",
    "status": "Pending",
    "rowid": "1276329",
    "final_x": "3676183.24438",
    "final_y": "527803.324102",
    "longitude": "-90.08498659496506",
    "latitude": "29.945436419397534",
    "geocoded_column": {
      "latitude": "29.945436419397534",
      "longitude": "-90.08498659496506"
    }
  },
  {
    "service_request": "2026-1276328",
    "request_type": "Trash/Recycling",
    "request_reason": "Order Trash Cart",
    "date_created": "2026-04-24T15:07:36.000",
    "date_modified": "2026-04-24T15:07:38.000",
    "request_status": "Pending",
    "responsible_agency": "Department of Sanitation",
    "final_address": "2630 Choctaw Ct",
    "address_councildis": "E",
    "status": "Assigned to Contractor",
    "contractor": "Waste Pro",
    "rowid": "1276328",
    "final_x": "3698984.14199",
    "final_y": "539788.702794",
    "longitude": "-90.01256107931754",
    "latitude": "29.977689211536607",
    "geocoded_column": {
      "latitude": "29.977689211536607",
      "longitude": "-90.01256107931754"
    }
  },
  {
    "service_request": "2026-1276327",
    "request_type": "Trash/Recycling",
    "request_reason": "Replace Trash Cart",
    "date_created": "2026-04-24T15:06:06.000",
    "date_modified": "2026-04-24T15:06:08.000",
    "request_status": "Pending",
    "responsible_agency": "Department of Sanitation",
    "final_address": "4812 Chestnut St",
    "address_councildis": "B",
    "status": "Assigned to Contractor",
    "contractor": "IV Waste",
    "rowid": "1276327",
    "final_x": "3669414.92986",
    "final_y": "519323.645367",
    "longitude": "-90.10664302606075",
    "latitude": "29.922321045377622",
    "geocoded_column": {
      "latitude": "29.922321045377622",
      "longitude": "-90.10664302606075"
    }
  },
  {
    "service_request": "2026-1276326",
    "request_type": "Trash/Recycling",
    "request_reason": "Missed Trash Pick-Up",
    "date_created": "2026-04-24T15:03:30.000",
    "date_modified": "2026-04-24T16:29:35.000",
    "case_close_date": "2026-04-24T11:29:34.000",
    "request_status": "Closed",
    "responsible_agency": "Department of Sanitation",
    "final_address": "3120 Washington Ave",
    "address_councildis": "B",
    "status": "Invalid Request",
    "contractor": "IV Waste",
    "contractor_action": "Invalid Request",
    "rowid": "1276326",
    "final_x": "3672806.82241",
    "final_y": "527159.083327",
    "longitude": "-90.0956690364537",
    "latitude": "29.943765682402507",
    "geocoded_column": {
      "latitude": "29.943765682402507",
      "longitude": "-90.0956690364537"
    }
  },
  {
    "service_request": "2026-1276325",
    "request_type": "Street and Traffic Signs",
    "request_reason": "Crosswalk Signage Damaged or Missing",
    "date_created": "2026-04-24T15:03:16.000",
    "date_modified": "2026-04-24T15:03:17.000",
    "request_status": "Pending",
    "responsible_agency": "Department of Public Works",
    "final_address": "ST CHARLES AVE & CANAL ST & ROYAL ST",
    "address_councildis": "B",
    "status": "Pending",
    "rowid": "1276325",
    "final_x": "3681162.9",
    "final_y": "530640.88",
    "longitude": "-90.06916538739762",
    "latitude": "29.9530886310985",
    "geocoded_column": {
      "latitude": "29.9530886310985",
      "longitude": "-90.06916538739762"
    }
  },
  {
    "service_request": "2026-1276324",
    "request_type": "Tree Service",
    "request_reason": "Tree Trim",
    "date_created": "2026-04-24T15:02:48.000",
    "date_modified": "2026-04-24T15:02:50.000",
    "request_status": "Pending",
    "responsible_agency": "Department of Parks & Parkways",
    "final_address": "2626 Jackson Ave",
    "address_councildis": "B",
    "status": "Pending",
    "rowid": "1276324",
    "final_x": "3675021.74254",
    "final_y": "526956.201726",
    "longitude": "-90.08868288732242",
    "latitude": "29.943141855403514",
    "geocoded_column": {
      "latitude": "29.943141855403514",
      "longitude": "-90.08868288732242"
    }
  },
  {
    "service_request": "2026-1276323",
    "request_type": "Tree Service",
    "request_reason": "Dead or Dying Tree",
    "date_created": "2026-04-24T14:55:33.000",
    "date_modified": "2026-04-24T14:55:34.000",
    "request_status": "Pending",
    "responsible_agency": "Department of Parks & Parkways",
    "final_address": "2445 N Villere St",
    "address_councildis": "C",
    "status": "Pending",
    "rowid": "1276323",
    "final_x": "3686859.58876",
    "final_y": "537604.373448",
    "longitude": "-90.05093169049088",
    "latitude": "29.972061781653462",
    "geocoded_column": {
      "latitude": "29.972061781653462",
      "longitude": "-90.05093169049088"
    }
  },
  {
    "service_request": "2026-1276322",
    "request_type": "Trash/Recycling",
    "request_reason": "Request a Large Item Pick Up",
    "date_created": "2026-04-24T14:54:53.000",
    "date_modified": "2026-04-24T14:54:55.000",
    "request_status": "Pending",
    "responsible_agency": "Department of Sanitation",
    "final_address": "7351 Poitevent Ave",
    "address_councildis": "E",
    "status": "Assigned to Contractor",
    "contractor": "Waste Pro",
    "rowid": "1276322",
    "final_x": "3707457.91595",
    "final_y": "563345.138336",
    "longitude": "-89.98492272100248",
    "latitude": "30.042189078808644",
    "geocoded_column": {
      "latitude": "30.042189078808644",
      "longitude": "-89.98492272100248"
    }
  },
  {
    "service_request": "2026-1276321",
    "request_type": "Healthy Homes",
    "request_reason": "Healthy Homes",
    "date_created": "2026-04-24T14:48:56.000",
    "date_modified": "2026-04-24T15:20:41.000",
    "request_status": "Pending",
    "responsible_agency": "Department of Code Enforcement",
    "final_address": "3601 Dante St",
    "address_councildis": "A",
    "status": "Pending",
    "rowid": "1276321",
    "final_x": "3667243.65524",
    "final_y": "535194.324166",
    "longitude": "-90.11296331714422",
    "latitude": "29.966024020422974",
    "geocoded_column": {
      "latitude": "29.966024020422974",
      "longitude": "-90.11296331714422"
    }
  },
  {
    "service_request": "2026-1276320",
    "request_type": "Trash/Recycling",
    "request_reason": "Illegal Dumping",
    "date_created": "2026-04-24T14:48:41.000",
    "date_modified": "2026-04-24T14:48:43.000",
    "request_status": "Pending",
    "responsible_agency": "Department of Sanitation",
    "final_address": "2229 Fats Domino Ave",
    "address_councildis": "E",
    "status": "Pending",
    "rowid": "1276320",
    "final_x": "3699248.21751",
    "final_y": "538106.217545",
    "longitude": "-90.01178833047793",
    "latitude": "29.973054613918663",
    "geocoded_column": {
      "latitude": "29.973054613918663",
      "longitude": "-90.01178833047793"
    }
  },
  {
    "service_request": "2026-1276319",
    "request_type": "Trash/Recycling",
    "request_reason": "Request a Large Item Pick Up",
    "date_created": "2026-04-24T14:47:15.000",
    "date_modified": "2026-04-24T14:47:17.000",
    "request_status": "Pending",
    "responsible_agency": "Department of Sanitation",
    "final_address": "3108 Cleveland Ave",
    "address_councildis": "B",
    "status": "Assigned to Contractor",
    "contractor": "IV Waste",
    "rowid": "1276319",
    "final_x": "3673715.37704",
    "final_y": "535769.403271",
    "longitude": "-90.09250609388405",
    "latitude": "29.967414182248476",
    "geocoded_column": {
      "latitude": "29.967414182248476",
      "longitude": "-90.09250609388405"
    }
  },
  {
    "service_request": "2026-1276318",
    "request_type": "Trash/Recycling",
    "request_reason": "Repair Trash Cart",
    "date_created": "2026-04-24T14:46:22.000",
    "date_modified": "2026-04-24T14:46:24.000",
    "request_status": "Pending",
    "responsible_agency": "Department of Sanitation",
    "final_address": "3818 Magazine St",
    "address_councildis": "B",
    "status": "Assigned to Contractor",
    "contractor": "IV Waste",
    "rowid": "1276318",
    "final_x": "3673238.341",
    "final_y": "518967.953271",
    "longitude": "-90.09458619897596",
    "latitude": "29.921229902710596",
    "geocoded_column": {
      "latitude": "29.921229902710596",
      "longitude": "-90.09458619897596"
    }
  },
  {
    "service_request": "2026-1276317",
    "request_type": "Abandoned Vehicles",
    "request_reason": "Abandoned/Junk Vehicles",
    "date_created": "2026-04-24T14:43:44.000",
    "date_modified": "2026-04-24T14:43:45.000",
    "request_status": "Pending",
    "responsible_agency": "Department of Public Works",
    "final_address": "2625 Thalia St",
    "address_councildis": "B",
    "status": "Pending",
    "rowid": "1276317",
    "final_x": "3676269.30235",
    "final_y": "527930.931135",
    "longitude": "-90.08471049166761",
    "latitude": "29.945784718224935",
    "geocoded_column": {
      "latitude": "29.945784718224935",
      "longitude": "-90.08471049166761"
    }
  },
  {
    "service_request": "2026-1276316",
    "request_type": "Trash/Recycling",
    "request_reason": "Missed Trash Pick-Up",
    "date_created": "2026-04-24T14:41:42.000",
    "date_modified": "2026-04-24T14:41:52.000",
    "request_status": "Pending",
    "responsible_agency": "Department of Sanitation",
    "final_address": "1831 Egania St",
    "address_councildis": "E",
    "status": "Assigned to Contractor",
    "contractor": "Waste Pro",
    "rowid": "1276316",
    "final_x": "3697665.41411",
    "final_y": "536930.527816",
    "longitude": "-90.01682976541184",
    "latitude": "29.96987198965822",
    "geocoded_column": {
      "latitude": "29.96987198965822",
      "longitude": "-90.01682976541184"
    }
  },
  {
    "service_request": "2026-1276315",
    "request_type": "Trash/Recycling",
    "request_reason": "Order Recycling Cart",
    "date_created": "2026-04-24T14:41:33.000",
    "date_modified": "2026-04-24T14:41:35.000",
    "request_status": "Pending",
    "responsible_agency": "Department of Sanitation",
    "final_address": "5028 St Ferdinand Dr",
    "address_councildis": "D",
    "status": "Pending",
    "rowid": "1276315",
    "final_x": "3689181.17987",
    "final_y": "551433.415317",
    "longitude": "-90.04310797092641",
    "latitude": "30.010015023711084",
    "geocoded_column": {
      "latitude": "30.010015023711084",
      "longitude": "-90.04310797092641"
    }
  },
  {
    "service_request": "2026-1276314",
    "request_type": "Roads and Streets",
    "request_reason": "Pothole",
    "date_created": "2026-04-24T14:40:57.000",
    "date_modified": "2026-04-24T14:42:41.000",
    "request_status": "Pending",
    "responsible_agency": "Department of Public Works",
    "final_address": "LURLINE ST & HAMMOND ST",
    "address_councildis": "E",
    "status": "Pending",
    "rowid": "1276314",
    "final_x": "3711952.5",
    "final_y": "556319.08",
    "longitude": "-89.97098225650771",
    "latitude": "30.02272401355742",
    "geocoded_column": {
      "latitude": "30.02272401355742",
      "longitude": "-89.97098225650771"
    }
  },
  {
    "service_request": "2026-1276313",
    "request_type": "Abandoned Vehicles",
    "request_reason": "Abandoned/Junk Vehicles",
    "date_created": "2026-04-24T14:25:02.000",
    "date_modified": "2026-04-24T14:25:04.000",
    "request_status": "Pending",
    "responsible_agency": "Department of Public Works",
    "final_address": "3307 Martin Luther King, Jr. Blvd",
    "address_councildis": "B",
    "status": "Pending",
    "rowid": "1276313",
    "final_x": "3674115.9394",
    "final_y": "528838.123776",
    "longitude": "-90.09147834201143",
    "latitude": "29.948343544671967",
    "geocoded_column": {
      "latitude": "29.948343544671967",
      "longitude": "-90.09147834201143"
    }
  },
  {
    "service_request": "2026-1276312",
    "request_type": "Trash/Recycling",
    "request_reason": "Request a Large Item Pick Up",
    "date_created": "2026-04-24T14:22:51.000",
    "date_modified": "2026-04-24T14:22:52.000",
    "request_status": "Pending",
    "responsible_agency": "Department of Sanitation",
    "final_address": "7061 Boston Dr",
    "address_councildis": "E",
    "status": "Assigned to Contractor",
    "contractor": "Waste Pro",
    "rowid": "1276312",
    "final_x": "3706406.14711",
    "final_y": "560856.285086",
    "longitude": "-89.98833901576947",
    "latitude": "30.0353797069109",
    "geocoded_column": {
      "latitude": "30.0353797069109",
      "longitude": "-89.98833901576947"
    }
  },
  {
    "service_request": "2026-1276311",
    "request_type": "Roads and Streets",
    "request_reason": "Debris in Driving Lanes",
    "date_created": "2026-04-24T14:12:47.000",
    "date_modified": "2026-04-24T14:12:48.000",
    "request_status": "Pending",
    "responsible_agency": "Department of Public Works",
    "final_address": "2000 BLK Lauradale Dr",
    "address_councildis": "C",
    "status": "Pending",
    "rowid": "1276311",
    "final_x": "3692699.65295",
    "final_y": "523705.91235",
    "longitude": "-90.03298600706563",
    "latitude": "29.933664832652223",
    "geocoded_column": {
      "latitude": "29.933664832652223",
      "longitude": "-90.03298600706563"
    }
  },
  {
    "service_request": "2026-1276310",
    "request_type": "Trash/Recycling",
    "request_reason": "Order Trash Cart",
    "date_created": "2026-04-24T14:11:01.000",
    "date_modified": "2026-04-24T14:11:03.000",
    "request_status": "Pending",
    "responsible_agency": "Department of Sanitation",
    "final_address": "2227 Iberville St",
    "address_councildis": "B",
    "status": "Assigned to Contractor",
    "contractor": "IV Waste",
    "rowid": "1276310",
    "final_x": "3677053.51342",
    "final_y": "534396.271813",
    "longitude": "-90.08201155095402",
    "latitude": "29.963538718037114",
    "geocoded_column": {
      "latitude": "29.963538718037114",
      "longitude": "-90.08201155095402"
    }
  },
  {
    "service_request": "2026-1276309",
    "request_type": "Trash/Recycling",
    "request_reason": "Request a Large Item Pick Up",
    "date_created": "2026-04-24T14:10:36.000",
    "date_modified": "2026-04-24T14:10:40.000",
    "request_status": "Pending",
    "responsible_agency": "Department of Sanitation",
    "final_address": "6930 Queensway Dr",
    "address_councildis": "E",
    "status": "Assigned to Contractor",
    "contractor": "Waste Pro",
    "rowid": "1276309",
    "final_x": "3719546.04044",
    "final_y": "568891.027685",
    "longitude": "-89.9465079475778",
    "latitude": "30.05704131050695",
    "geocoded_column": {
      "latitude": "30.05704131050695",
      "longitude": "-89.9465079475778"
    }
  },
  {
    "service_request": "2026-1276308",
    "request_type": "Trash/Recycling",
    "request_reason": "Repair Recycling Cart",
    "date_created": "2026-04-24T14:06:34.000",
    "date_modified": "2026-04-24T14:06:35.000",
    "request_status": "Pending",
    "responsible_agency": "Department of Sanitation",
    "final_address": "2935 St Ann St",
    "address_councildis": "A",
    "status": "Pending",
    "rowid": "1276308",
    "final_x": "3676011.23649",
    "final_y": "537956.924041",
    "longitude": "-90.08518047295817",
    "latitude": "29.9733605587481",
    "geocoded_column": {
      "latitude": "29.9733605587481",
      "longitude": "-90.08518047295817"
    }
  },
  {
    "service_request": "2026-1276307",
    "request_type": "Trash/Recycling",
    "request_reason": "Request a Large Item Pick Up",
    "date_created": "2026-04-24T14:05:41.000",
    "date_modified": "2026-04-24T14:05:44.000",
    "request_status": "Pending",
    "responsible_agency": "Department of Sanitation",
    "final_address": "195 Pinewood Ct",
    "address_councildis": "C",
    "status": "Assigned to Contractor",
    "contractor": "Richards Disposal",
    "rowid": "1276307",
    "final_x": "3696079.84266",
    "final_y": "523630.312251",
    "longitude": "-90.02231770581209",
    "latitude": "29.933351048891375",
    "geocoded_column": {
      "latitude": "29.933351048891375",
      "longitude": "-90.02231770581209"
    }
  },
  {
    "service_request": "2026-1276306",
    "request_type": "Trash/Recycling",
    "request_reason": "Request a Large Item Pick Up",
    "date_created": "2026-04-24T14:03:04.000",
    "date_modified": "2026-04-24T14:03:05.000",
    "request_status": "Pending",
    "responsible_agency": "Department of Sanitation",
    "final_address": "2653 Republic St",
    "address_councildis": "D",
    "status": "Assigned to Contractor",
    "contractor": "IV Waste",
    "rowid": "1276306",
    "final_x": "3680771.66248",
    "final_y": "542118.847692",
    "longitude": "-90.0700011580005",
    "latitude": "29.984660959965037",
    "geocoded_column": {
      "latitude": "29.984660959965037",
      "longitude": "-90.0700011580005"
    }
  },
  {
    "service_request": "2026-1276305",
    "request_type": "Streetlights",
    "request_reason": "Streetlight Outage/Malfunction",
    "date_created": "2026-04-24T14:01:07.000",
    "date_modified": "2026-04-24T14:04:24.000",
    "request_status": "Pending",
    "responsible_agency": "Department of Public Works",
    "final_address": "1837 Lizardi St",
    "address_councildis": "E",
    "status": "Pending",
    "rowid": "1276305",
    "final_x": "3697409.46512",
    "final_y": "537058.426824",
    "longitude": "-90.01763343411287",
    "latitude": "29.970231749530335",
    "geocoded_column": {
      "latitude": "29.970231749530335",
      "longitude": "-90.01763343411287"
    }
  },
  {
    "service_request": "2026-1276304",
    "request_type": "Business Issues",
    "request_reason": "Illegal Business",
    "date_created": "2026-04-24T14:00:34.000",
    "date_modified": "2026-04-24T14:31:45.000",
    "request_status": "Pending",
    "responsible_agency": "Bureau of Revenue",
    "final_address": "13245 St Helena Pl",
    "address_councildis": "E",
    "status": "Pending",
    "rowid": "1276304",
    "final_x": "3727033.43232",
    "final_y": "564208.263457",
    "longitude": "-89.92302391922969",
    "latitude": "30.04391437581324",
    "geocoded_column": {
      "latitude": "30.04391437581324",
      "longitude": "-89.92302391922969"
    }
  },
  {
    "service_request": "2026-1276303",
    "request_type": "Trash/Recycling",
    "request_reason": "Request a Large Item Pick Up",
    "date_created": "2026-04-24T13:55:06.000",
    "date_modified": "2026-04-24T13:55:07.000",
    "request_status": "Pending",
    "responsible_agency": "Department of Sanitation",
    "final_address": "936 Fats Domino Ave",
    "address_councildis": "E",
    "status": "Assigned to Contractor",
    "contractor": "Waste Pro",
    "rowid": "1276303",
    "final_x": "3697816.67357",
    "final_y": "533260.180612",
    "longitude": "-90.01648528832968",
    "latitude": "29.95977506436175",
    "geocoded_column": {
      "latitude": "29.95977506436175",
      "longitude": "-90.01648528832968"
    }
  },
  {
    "service_request": "2026-1276302",
    "request_type": "Safety & Permits",
    "request_reason": "Licenses & Permits",
    "date_created": "2026-04-24T13:54:46.000",
    "date_modified": "2026-04-24T13:54:50.000",
    "request_status": "Pending",
    "responsible_agency": "Safety and Permits",
    "final_address": "1835 Short St",
    "address_councildis": "A",
    "status": "Pending",
    "rowid": "1276302",
    "final_x": "3663922.10554",
    "final_y": "529795.103489",
    "longitude": "-90.12363273827232",
    "latitude": "29.951274777234598",
    "geocoded_column": {
      "latitude": "29.951274777234598",
      "longitude": "-90.12363273827232"
    }
  },
  {
    "service_request": "2026-1276301",
    "request_type": "Trash/Recycling",
    "request_reason": "Illegal Dumping",
    "date_created": "2026-04-24T13:51:31.000",
    "date_modified": "2026-04-24T13:51:33.000",
    "request_status": "Pending",
    "responsible_agency": "Department of Sanitation",
    "final_address": "MONROE ST & S CLAIBORNE AVE",
    "address_councildis": "A",
    "status": "Pending",
    "rowid": "1276301",
    "final_x": "3663300.1",
    "final_y": "533007.08",
    "longitude": "-90.12548982753978",
    "latitude": "29.960124712678134",
    "geocoded_column": {
      "latitude": "29.960124712678134",
      "longitude": "-90.12548982753978"
    }
  },
  {
    "service_request": "2026-1276300",
    "request_type": "Trash/Recycling",
    "request_reason": "Order Trash Cart",
    "date_created": "2026-04-24T13:49:00.000",
    "date_modified": "2026-04-24T13:49:01.000",
    "request_status": "Pending",
    "responsible_agency": "Department of Sanitation",
    "final_address": "4224 S Derbigny St",
    "address_councildis": "B",
    "status": "Assigned to Contractor",
    "contractor": "IV Waste",
    "rowid": "1276300",
    "final_x": "3670799.36827",
    "final_y": "526238.527998",
    "longitude": "-90.10203835673275",
    "latitude": "29.941293923860634",
    "geocoded_column": {
      "latitude": "29.941293923860634",
      "longitude": "-90.10203835673275"
    }
  },
  {
    "service_request": "2026-1276299",
    "request_type": "Trash/Recycling",
    "request_reason": "Replace Trash Cart",
    "date_created": "2026-04-24T13:46:39.000",
    "date_modified": "2026-04-24T13:46:40.000",
    "request_status": "Pending",
    "responsible_agency": "Department of Sanitation",
    "final_address": "3110 Somerset Dr",
    "address_councildis": "C",
    "status": "Assigned to Contractor",
    "contractor": "Richards Disposal",
    "rowid": "1276299",
    "final_x": "3702620.15972",
    "final_y": "519688.361912",
    "longitude": "-90.00181508176902",
    "latitude": "29.922304671969766",
    "geocoded_column": {
      "latitude": "29.922304671969766",
      "longitude": "-90.00181508176902"
    }
  },
  {
    "service_request": "2026-1276298",
    "request_type": "Trash/Recycling",
    "request_reason": "Missed Trash Pick-Up",
    "date_created": "2026-04-24T13:39:00.000",
    "date_modified": "2026-04-24T15:12:42.000",
    "case_close_date": "2026-04-24T10:12:40.000",
    "request_status": "Closed",
    "responsible_agency": "Department of Sanitation",
    "final_address": "5903 Perrier St",
    "address_councildis": "A",
    "status": "Invalid Request",
    "contractor": "IV Waste",
    "contractor_action": "Invalid Request",
    "rowid": "1276298",
    "final_x": "3665482.85453",
    "final_y": "520449.337208",
    "longitude": "-90.11901737154504",
    "latitude": "29.92553150681425",
    "geocoded_column": {
      "latitude": "29.92553150681425",
      "longitude": "-90.11901737154504"
    }
  },
  {
    "service_request": "2026-1276297",
    "request_type": "Streetlights",
    "request_reason": "Streetlight Outage/Malfunction",
    "date_created": "2026-04-24T13:36:59.000",
    "date_modified": "2026-04-24T13:37:00.000",
    "request_status": "Pending",
    "responsible_agency": "Department of Public Works",
    "final_address": "13232 St Helena Pl",
    "address_councildis": "E",
    "status": "Pending",
    "rowid": "1276297",
    "final_x": "3726904.27821",
    "final_y": "564379.889569",
    "longitude": "-89.92342542265821",
    "latitude": "30.044390646381757",
    "geocoded_column": {
      "latitude": "30.044390646381757",
      "longitude": "-89.92342542265821"
    }
  },
  {
    "service_request": "2026-1276296",
    "request_type": "Trash/Recycling",
    "request_reason": "Repair Trash Cart",
    "date_created": "2026-04-24T13:35:55.000",
    "date_modified": "2026-04-24T13:35:57.000",
    "request_status": "Pending",
    "responsible_agency": "Department of Sanitation",
    "final_address": "2724 Ap Tureaud Ave",
    "address_councildis": "D",
    "status": "Assigned to Contractor",
    "contractor": "IV Waste",
    "rowid": "1276296",
    "final_x": "3681417.35893",
    "final_y": "542452.983501",
    "longitude": "-90.06795003150931",
    "latitude": "29.985560125558113",
    "geocoded_column": {
      "latitude": "29.985560125558113",
      "longitude": "-90.06795003150931"
    }
  },
  {
    "service_request": "2026-1276295",
    "request_type": "Trash/Recycling",
    "request_reason": "Illegal Dumping",
    "date_created": "2026-04-24T13:35:02.000",
    "date_modified": "2026-04-24T13:40:56.000",
    "request_status": "Pending",
    "responsible_agency": "Department of Sanitation",
    "final_address": "10001 Lake Forest Blvd",
    "address_councildis": "E",
    "status": "Pending",
    "rowid": "1276295",
    "final_x": "3711453.36011",
    "final_y": "560237.804253",
    "longitude": "-89.97241234265768",
    "latitude": "30.033515264974778",
    "geocoded_column": {
      "latitude": "30.033515264974778",
      "longitude": "-89.97241234265768"
    }
  },
  {
    "service_request": "2026-1276294",
    "request_type": "Trash/Recycling",
    "request_reason": "Replace Recycling Cart",
    "date_created": "2026-04-24T13:30:33.000",
    "date_modified": "2026-04-24T13:30:35.000",
    "request_status": "Pending",
    "responsible_agency": "Department of Sanitation",
    "final_address": "7412 General Haig St",
    "address_councildis": "D",
    "status": "Pending",
    "rowid": "1276294",
    "final_x": "3671218.75886",
    "final_y": "555632.160153",
    "longitude": "-90.0997151529906",
    "latitude": "30.02210398634269",
    "geocoded_column": {
      "latitude": "30.02210398634269",
      "longitude": "-90.0997151529906"
    }
  },
  {
    "service_request": "2026-1276293",
    "request_type": "Trash/Recycling",
    "request_reason": "Request a Large Item Pick Up",
    "date_created": "2026-04-24T13:21:48.000",
    "date_modified": "2026-04-24T13:21:50.000",
    "request_status": "Pending",
    "responsible_agency": "Department of Sanitation",
    "final_address": "3304 Piedmont Dr",
    "address_councildis": "D",
    "status": "Assigned to Contractor",
    "contractor": "IV Waste",
    "rowid": "1276293",
    "final_x": "3686552.56796",
    "final_y": "545004.799951",
    "longitude": "-90.05163988295756",
    "latitude": "29.992419780042958",
    "geocoded_column": {
      "latitude": "29.992419780042958",
      "longitude": "-90.05163988295756"
    }
  },
  {
    "service_request": "2026-1276292",
    "request_type": "Trash/Recycling",
    "request_reason": "Request a Large Item Pick Up",
    "date_created": "2026-04-24T13:20:41.000",
    "date_modified": "2026-04-24T13:20:42.000",
    "request_status": "Pending",
    "responsible_agency": "Department of Sanitation",
    "final_address": "2835 Dryades St",
    "address_councildis": "B",
    "status": "Assigned to Contractor",
    "contractor": "IV Waste",
    "rowid": "1276292",
    "final_x": "3675052.88225",
    "final_y": "523303.223611",
    "longitude": "-90.08870984796887",
    "latitude": "29.93309643073968",
    "geocoded_column": {
      "latitude": "29.93309643073968",
      "longitude": "-90.08870984796887"
    }
  },
  {
    "service_request": "2026-1276291",
    "request_type": "Trash/Recycling",
    "request_reason": "Request a Large Item Pick Up",
    "date_created": "2026-04-24T13:12:25.000",
    "date_modified": "2026-04-24T13:13:01.000",
    "request_status": "Pending",
    "responsible_agency": "Department of Sanitation",
    "final_address": "10686 Lincoln Beach Blvd",
    "address_councildis": "E",
    "status": "Assigned to Contractor",
    "contractor": "Waste Pro",
    "rowid": "1276291",
    "final_x": "3708762.40542",
    "final_y": "566466.163299",
    "longitude": "-89.9806836312591",
    "latitude": "30.05072837167034",
    "geocoded_column": {
      "latitude": "30.05072837167034",
      "longitude": "-89.9806836312591"
    }
  },
  {
    "service_request": "2026-1276290",
    "request_type": "Trash/Recycling",
    "request_reason": "Replace Trash Cart",
    "date_created": "2026-04-24T13:11:42.000",
    "date_modified": "2026-04-24T13:11:43.000",
    "request_status": "Pending",
    "responsible_agency": "Department of Sanitation",
    "final_address": "4816 Annunciation St",
    "address_councildis": "B",
    "status": "Assigned to Contractor",
    "contractor": "IV Waste",
    "rowid": "1276290",
    "final_x": "3669549.96174",
    "final_y": "517549.366902",
    "longitude": "-90.10627676093588",
    "latitude": "29.917438364872705",
    "geocoded_column": {
      "latitude": "29.917438364872705",
      "longitude": "-90.10627676093588"
    }
  },
  {
    "service_request": "2026-1276289",
    "request_type": "Trash/Recycling",
    "request_reason": "Request a Large Item Pick Up",
    "date_created": "2026-04-24T13:10:51.000",
    "date_modified": "2026-04-24T13:10:52.000",
    "request_status": "Pending",
    "responsible_agency": "Department of Sanitation",
    "final_address": "4419 Eastview Dr",
    "address_councildis": "E",
    "status": "Assigned to Contractor",
    "contractor": "Waste Pro",
    "rowid": "1276289",
    "final_x": "3705331.78827",
    "final_y": "553497.404823",
    "longitude": "-89.99200637137268",
    "latitude": "30.015180276232794",
    "geocoded_column": {
      "latitude": "30.015180276232794",
      "longitude": "-89.99200637137268"
    }
  },
  {
    "service_request": "2026-1276288",
    "request_type": "Abandoned Vehicles",
    "request_reason": "Abandoned/Junk Vehicles",
    "date_created": "2026-04-24T13:10:20.000",
    "date_modified": "2026-04-24T13:10:22.000",
    "request_status": "Pending",
    "responsible_agency": "Department of Public Works",
    "final_address": "2000 BLK Philip St",
    "address_councildis": "B",
    "status": "Pending",
    "rowid": "1276288",
    "final_x": "3676254.42633",
    "final_y": "524682.938283",
    "longitude": "-90.0848691947947",
    "latitude": "29.936854253418108",
    "geocoded_column": {
      "latitude": "29.936854253418108",
      "longitude": "-90.0848691947947"
    }
  },
  {
    "service_request": "2026-1276287",
    "request_type": "Taxi Issues",
    "request_reason": "Taxi Lost & Found Item",
    "date_created": "2026-04-24T13:10:06.000",
    "date_modified": "2026-04-24T13:19:21.000",
    "request_status": "Pending",
    "responsible_agency": "Department of Public Works",
    "final_address": "1 Port Of New Orleans Pl Wharf",
    "address_councildis": "C",
    "status": "Pending",
    "rowid": "1276287",
    "final_x": "3683307.42114",
    "final_y": "529170.794816",
    "longitude": "-90.06244541823632",
    "latitude": "29.948981164338356",
    "geocoded_column": {
      "latitude": "29.948981164338356",
      "longitude": "-90.06244541823632"
    }
  },
  {
    "service_request": "2026-1276286",
    "request_type": "Trash/Recycling",
    "request_reason": "Illegal Dumping",
    "date_created": "2026-04-24T13:04:36.000",
    "date_modified": "2026-04-24T13:05:25.000",
    "case_close_date": "2026-04-24T08:05:24.000",
    "request_status": "Closed",
    "responsible_agency": "Department of Sanitation",
    "final_address": "4623 Alcee Fortier Blvd",
    "address_councildis": "E",
    "status": "Resolved",
    "rowid": "1276286",
    "final_x": "3730703.30266",
    "final_y": "561796.300959",
    "longitude": "-89.91152029415102",
    "latitude": "30.037157780240236",
    "geocoded_column": {
      "latitude": "30.037157780240236",
      "longitude": "-89.91152029415102"
    }
  },
  {
    "service_request": "2026-1276285",
    "request_type": "Trash/Recycling",
    "request_reason": "Request a Large Item Pick Up",
    "date_created": "2026-04-24T13:00:58.000",
    "date_modified": "2026-04-24T13:01:22.000",
    "request_status": "Pending",
    "responsible_agency": "Department of Sanitation",
    "final_address": "5329 Douglass St",
    "address_councildis": "E",
    "status": "Pending",
    "rowid": "1276285",
    "final_x": "3696478.01936",
    "final_y": "531902.595587",
    "longitude": "-90.0207615423317",
    "latitude": "29.956084418340833",
    "geocoded_column": {
      "latitude": "29.956084418340833",
      "longitude": "-90.0207615423317"
    }
  },
  {
    "service_request": "2026-1276284",
    "request_type": "Trash/Recycling",
    "request_reason": "Illegal Dumping",
    "date_created": "2026-04-24T12:53:29.000",
    "date_modified": "2026-04-24T12:54:22.000",
    "case_close_date": "2026-04-24T07:54:21.000",
    "request_status": "Closed",
    "responsible_agency": "Department of Sanitation",
    "final_address": "PACIFIC AVE & SOCRATES ST",
    "address_councildis": "C",
    "status": "Resolved",
    "rowid": "1276284",
    "final_x": "3688356.0",
    "final_y": "526417.38",
    "longitude": "-90.04660253598715",
    "latitude": "29.941255278189054",
    "geocoded_column": {
      "latitude": "29.941255278189054",
      "longitude": "-90.04660253598715"
    }
  },
  {
    "service_request": "2026-1276283",
    "request_type": "Trash/Recycling",
    "request_reason": "Request a Large Item Pick Up",
    "date_created": "2026-04-24T12:52:39.000",
    "date_modified": "2026-04-24T12:52:44.000",
    "request_status": "Pending",
    "responsible_agency": "Department of Sanitation",
    "final_address": "4767 Galahad Dr",
    "address_councildis": "E",
    "status": "Assigned to Contractor",
    "contractor": "Waste Pro",
    "rowid": "1276283",
    "final_x": "3707265.35998",
    "final_y": "555655.171097",
    "longitude": "-89.9858170739248",
    "latitude": "30.021050920203344",
    "geocoded_column": {
      "latitude": "30.021050920203344",
      "longitude": "-89.9858170739248"
    }
  },
  {
    "service_request": "2026-1276282",
    "request_type": "Trash/Recycling",
    "request_reason": "Illegal Dumping",
    "date_created": "2026-04-24T12:51:26.000",
    "date_modified": "2026-04-24T12:51:59.000",
    "case_close_date": "2026-04-24T07:51:58.000",
    "request_status": "Closed",
    "responsible_agency": "Department of Sanitation",
    "final_address": "4331 Stephen Girard Ave",
    "address_councildis": "D",
    "status": "Resolved",
    "rowid": "1276282",
    "final_x": "3690423.77744",
    "final_y": "550170.899348",
    "longitude": "-90.03922721272099",
    "latitude": "30.00650503866869",
    "geocoded_column": {
      "latitude": "30.00650503866869",
      "longitude": "-90.03922721272099"
    }
  },
  {
    "service_request": "2026-1276281",
    "request_type": "Trash/Recycling",
    "request_reason": "Illegal Dumping",
    "date_created": "2026-04-24T12:46:53.000",
    "date_modified": "2026-04-24T12:49:30.000",
    "case_close_date": "2026-04-24T07:49:29.000",
    "request_status": "Closed",
    "responsible_agency": "Department of Sanitation",
    "final_address": "3239 Feliciana St",
    "address_councildis": "D",
    "status": "Resolved",
    "rowid": "1276281",
    "final_x": "3690967.70352",
    "final_y": "544639.915919",
    "longitude": "-90.03770639755574",
    "latitude": "29.991279948017652",
    "geocoded_column": {
      "latitude": "29.991279948017652",
      "longitude": "-90.03770639755574"
    }
  },
  {
    "service_request": "2026-1276280",
    "request_type": "Trash/Recycling",
    "request_reason": "Illegal Dumping",
    "date_created": "2026-04-24T12:44:46.000",
    "date_modified": "2026-04-24T12:45:37.000",
    "case_close_date": "2026-04-24T07:45:35.000",
    "request_status": "Closed",
    "responsible_agency": "Department of Sanitation",
    "final_address": "1000 BLK Spain St",
    "address_councildis": "C",
    "status": "Resolved",
    "rowid": "1276280",
    "final_x": "3686148.32977",
    "final_y": "536214.54186",
    "longitude": "-90.05322699477739",
    "latitude": "29.968262098250964",
    "geocoded_column": {
      "latitude": "29.968262098250964",
      "longitude": "-90.05322699477739"
    }
  },
  {
    "service_request": "2026-1276279",
    "request_type": "Trash/Recycling",
    "request_reason": "Illegal Dumping",
    "date_created": "2026-04-24T12:43:17.000",
    "date_modified": "2026-04-24T12:44:01.000",
    "case_close_date": "2026-04-24T07:44:00.000",
    "request_status": "Closed",
    "responsible_agency": "Department of Sanitation",
    "final_address": "3400 BLK Conti St",
    "address_councildis": "B",
    "status": "Resolved",
    "rowid": "1276279",
    "final_x": "3673311.48175",
    "final_y": "538120.816263",
    "longitude": "-90.09370126796384",
    "latitude": "29.97389179291125",
    "geocoded_column": {
      "latitude": "29.97389179291125",
      "longitude": "-90.09370126796384"
    }
  },
  {
    "service_request": "2026-1276278",
    "request_type": "Trash/Recycling",
    "request_reason": "Illegal Dumping",
    "date_created": "2026-04-24T12:36:36.000",
    "date_modified": "2026-04-24T12:36:37.000",
    "request_status": "Pending",
    "responsible_agency": "Department of Sanitation",
    "final_address": "5439 N Derbigny St",
    "address_councildis": "E",
    "status": "Pending",
    "rowid": "1276278",
    "final_x": "3698103.23331",
    "final_y": "536168.435783",
    "longitude": "-90.0154747796003",
    "latitude": "29.967762670935134",
    "geocoded_column": {
      "latitude": "29.967762670935134",
      "longitude": "-90.0154747796003"
    }
  },
  {
    "service_request": "2026-1276276",
    "request_type": "Trash/Recycling",
    "request_reason": "Request a Large Item Pick Up",
    "date_created": "2026-04-24T12:21:37.000",
    "date_modified": "2026-04-24T12:21:38.000",
    "request_status": "Pending",
    "responsible_agency": "Department of Sanitation",
    "final_address": "85 Marywood Ct",
    "address_councildis": "E",
    "status": "Assigned to Contractor",
    "contractor": "Waste Pro",
    "rowid": "1276276",
    "final_x": "3712488.37022",
    "final_y": "566313.341923",
    "longitude": "-89.96891301329562",
    "latitude": "30.050186708044382",
    "geocoded_column": {
      "latitude": "30.050186708044382",
      "longitude": "-89.96891301329562"
    }
  },
  {
    "service_request": "2026-1276275",
    "request_type": "Trash/Recycling",
    "request_reason": "Request a Large Item Pick Up",
    "date_created": "2026-04-24T12:20:52.000",
    "date_modified": "2026-04-24T12:20:54.000",
    "request_status": "Pending",
    "responsible_agency": "Department of Sanitation",
    "final_address": "14800 N Little Woods Dr",
    "address_councildis": "E",
    "status": "Assigned to Contractor",
    "contractor": "Waste Pro",
    "rowid": "1276275",
    "final_x": "3720020.52473",
    "final_y": "574919.195883",
    "longitude": "-89.94477728860764",
    "latitude": "30.073600441723677",
    "geocoded_column": {
      "latitude": "30.073600441723677",
      "longitude": "-89.94477728860764"
    }
  },
  {
    "service_request": "2026-1276274",
    "request_type": "Trash/Recycling",
    "request_reason": "Order Recycling Cart",
    "date_created": "2026-04-24T12:14:31.000",
    "date_modified": "2026-04-24T12:14:33.000",
    "request_status": "Pending",
    "responsible_agency": "Department of Sanitation",
    "final_address": "2118 Fern St",
    "address_councildis": "A",
    "status": "Pending",
    "rowid": "1276274",
    "final_x": "3664746.04416",
    "final_y": "530333.316034",
    "longitude": "-90.12101315558556",
    "latitude": "29.952730743399037",
    "geocoded_column": {
      "latitude": "29.952730743399037",
      "longitude": "-90.12101315558556"
    }
  },
  {
    "service_request": "2026-1276273",
    "request_type": "Trash/Recycling",
    "request_reason": "Order Trash Cart",
    "date_created": "2026-04-24T12:12:02.000",
    "date_modified": "2026-04-24T12:12:04.000",
    "request_status": "Pending",
    "responsible_agency": "Department of Sanitation",
    "final_address": "2327 Laurel St",
    "address_councildis": "B",
    "status": "Assigned to Contractor",
    "contractor": "IV Waste",
    "rowid": "1276273",
    "final_x": "3678787.79982",
    "final_y": "521140.593145",
    "longitude": "-90.07699382474395",
    "latitude": "29.927037824881587",
    "geocoded_column": {
      "latitude": "29.927037824881587",
      "longitude": "-90.07699382474395"
    }
  },
  {
    "service_request": "2026-1276272",
    "request_type": "Trash/Recycling",
    "request_reason": "Order Recycling Cart",
    "date_created": "2026-04-24T12:09:12.000",
    "date_modified": "2026-04-24T12:09:13.000",
    "request_status": "Pending",
    "responsible_agency": "Department of Sanitation",
    "final_address": "7410 Northgate Dr",
    "address_councildis": "E",
    "status": "Pending",
    "rowid": "1276272",
    "final_x": "3713009.48645",
    "final_y": "565949.495587",
    "longitude": "-89.9672796805832",
    "latitude": "30.049169206163146",
    "geocoded_column": {
      "latitude": "30.049169206163146",
      "longitude": "-89.9672796805832"
    }
  },
  {
    "service_request": "2026-1276271",
    "request_type": "Trash/Recycling",
    "request_reason": "Repair Trash Cart",
    "date_created": "2026-04-24T12:05:50.000",
    "date_modified": "2026-04-24T12:05:51.000",
    "request_status": "Pending",
    "responsible_agency": "Department of Sanitation",
    "final_address": "2327 Laurel St",
    "address_councildis": "B",
    "status": "Assigned to Contractor",
    "contractor": "IV Waste",
    "rowid": "1276271",
    "final_x": "3678787.79982",
    "final_y": "521140.593145",
    "longitude": "-90.07699382474395",
    "latitude": "29.927037824881587",
    "geocoded_column": {
      "latitude": "29.927037824881587",
      "longitude": "-90.07699382474395"
    }
  },
  {
    "service_request": "2026-1276270",
    "request_type": "Trash/Recycling",
    "request_reason": "Order Recycling Cart",
    "date_created": "2026-04-24T12:02:32.000",
    "date_modified": "2026-04-24T12:02:33.000",
    "request_status": "Pending",
    "responsible_agency": "Department of Sanitation",
    "final_address": "6029 West End Blvd",
    "address_councildis": "A",
    "status": "Pending",
    "rowid": "1276270",
    "final_x": "3666546.81812",
    "final_y": "547861.50069",
    "longitude": "-90.11473849227077",
    "latitude": "30.000874864372157",
    "geocoded_column": {
      "latitude": "30.000874864372157",
      "longitude": "-90.11473849227077"
    }
  },
  {
    "service_request": "2026-1276269",
    "request_type": "Trash/Recycling",
    "request_reason": "Order Second Trash Cart",
    "date_created": "2026-04-24T12:02:30.000",
    "date_modified": "2026-04-24T12:02:32.000",
    "request_status": "Pending",
    "responsible_agency": "Department of Sanitation",
    "final_address": "7410 Northgate Dr",
    "address_councildis": "E",
    "status": "Assigned to Contractor",
    "contractor": "Waste Pro",
    "rowid": "1276269",
    "final_x": "3713009.48645",
    "final_y": "565949.495587",
    "longitude": "-89.9672796805832",
    "latitude": "30.049169206163146",
    "geocoded_column": {
      "latitude": "30.049169206163146",
      "longitude": "-89.9672796805832"
    }
  },
  {
    "service_request": "2026-1276268",
    "request_type": "Street and Traffic Signs",
    "request_reason": "Traffic or Parking Sign Damaged or Missing",
    "date_created": "2026-04-24T12:00:04.000",
    "date_modified": "2026-04-24T12:00:06.000",
    "request_status": "Pending",
    "responsible_agency": "Department of Public Works",
    "final_address": "0 BLK Allard Blvd",
    "address_councildis": "A",
    "status": "Pending",
    "rowid": "1276268",
    "final_x": "3672821.79572",
    "final_y": "540498.945693",
    "longitude": "-90.09516664976555",
    "latitude": "29.98044539706053",
    "geocoded_column": {
      "latitude": "29.98044539706053",
      "longitude": "-90.09516664976555"
    }
  },
  {
    "service_request": "2026-1276267",
    "request_type": "Trash/Recycling",
    "request_reason": "Order Second Trash Cart",
    "date_created": "2026-04-24T11:56:03.000",
    "date_modified": "2026-04-24T11:56:05.000",
    "request_status": "Pending",
    "responsible_agency": "Department of Sanitation",
    "final_address": "6959 Colbert St",
    "address_councildis": "A",
    "status": "Assigned to Contractor",
    "contractor": "IV Waste",
    "rowid": "1276267",
    "final_x": "3668100.07533",
    "final_y": "553875.214871",
    "longitude": "-90.10962873012464",
    "latitude": "30.017364962402652",
    "geocoded_column": {
      "latitude": "30.017364962402652",
      "longitude": "-90.10962873012464"
    }
  },
  {
    "service_request": "2026-1276266",
    "request_type": "Roads and Streets",
    "request_reason": "Pothole",
    "date_created": "2026-04-24T11:53:48.000",
    "date_modified": "2026-04-24T13:01:08.000",
    "request_status": "Pending",
    "responsible_agency": "Department of Public Works",
    "final_address": "2400 BLK S Robertson St",
    "address_councildis": "B",
    "status": "Pending",
    "rowid": "1276266",
    "final_x": "3674827.29007",
    "final_y": "526149.078723",
    "longitude": "-90.08932448911875",
    "latitude": "29.940928338696583",
    "geocoded_column": {
      "latitude": "29.940928338696583",
      "longitude": "-90.08932448911875"
    }
  },
  {
    "service_request": "2026-1276265",
    "request_type": "Trash/Recycling",
    "request_reason": "Order Trash Cart",
    "date_created": "2026-04-24T11:53:37.000",
    "date_modified": "2026-04-24T11:53:39.000",
    "request_status": "Pending",
    "responsible_agency": "Department of Sanitation",
    "final_address": "6959 Colbert St",
    "address_councildis": "A",
    "status": "Assigned to Contractor",
    "contractor": "IV Waste",
    "rowid": "1276265",
    "final_x": "3668100.07533",
    "final_y": "553875.214871",
    "longitude": "-90.10962873012464",
    "latitude": "30.017364962402652",
    "geocoded_column": {
      "latitude": "30.017364962402652",
      "longitude": "-90.10962873012464"
    }
  },
  {
    "service_request": "2026-1276264",
    "request_type": "Trash/Recycling",
    "request_reason": "Request a Large Item Pick Up",
    "date_created": "2026-04-24T11:49:29.000",
    "date_modified": "2026-04-24T11:49:31.000",
    "request_status": "Pending",
    "responsible_agency": "Department of Sanitation",
    "final_address": "2935 Paris Ave",
    "address_councildis": "D",
    "status": "Assigned to Contractor",
    "contractor": "IV Waste",
    "rowid": "1276264",
    "final_x": "3679982.06683",
    "final_y": "543229.332302",
    "longitude": "-90.07245654827149",
    "latitude": "29.98773831769654",
    "geocoded_column": {
      "latitude": "29.98773831769654",
      "longitude": "-90.07245654827149"
    }
  },
  {
    "service_request": "2026-1276263",
    "request_type": "Property Maintenance",
    "request_reason": "Property Maintenance",
    "date_created": "2026-04-24T11:48:13.000",
    "date_modified": "2026-04-24T13:30:06.000",
    "case_close_date": "2026-04-24T08:30:06.000",
    "request_status": "Closed",
    "responsible_agency": "Department of Code Enforcement",
    "final_address": "4801 Longfellow Dr",
    "address_councildis": "E",
    "status": "Referred to Code Enforcement",
    "rowid": "1276263",
    "final_x": "3709654.2467",
    "final_y": "556171.344602",
    "longitude": "-89.97824965592493",
    "latitude": "30.022392732732495",
    "geocoded_column": {
      "latitude": "30.022392732732495",
      "longitude": "-89.97824965592493"
    }
  },
  {
    "service_request": "2026-1276262",
    "request_type": "Trash/Recycling",
    "request_reason": "MIssed Recycling Pick-Up",
    "date_created": "2026-04-24T11:48:09.000",
    "date_modified": "2026-04-24T11:48:10.000",
    "request_status": "Pending",
    "responsible_agency": "Department of Sanitation",
    "final_address": "7411 Lake Barrington Dr",
    "address_councildis": "E",
    "status": "Assigned to Contractor",
    "contractor": "Waste Pro",
    "rowid": "1276262",
    "final_x": "3712537.8293",
    "final_y": "565054.42237",
    "longitude": "-89.96880407646782",
    "latitude": "30.046723570158136",
    "geocoded_column": {
      "latitude": "30.046723570158136",
      "longitude": "-89.96880407646782"
    }
  },
  {
    "service_request": "2026-1276261",
    "request_type": "Street and Traffic Signs",
    "request_reason": "Stop Sign Missing or Damaged",
    "date_created": "2026-04-24T11:46:28.000",
    "date_modified": "2026-04-24T11:46:30.000",
    "request_status": "Pending",
    "responsible_agency": "Department of Public Works",
    "final_address": "4718 Marque Dr",
    "address_councildis": "E",
    "status": "Pending",
    "rowid": "1276261",
    "final_x": "3710035.94859",
    "final_y": "555538.187353",
    "longitude": "-89.97706726218014",
    "latitude": "30.020639380374185",
    "geocoded_column": {
      "latitude": "30.020639380374185",
      "longitude": "-89.97706726218014"
    }
  },
  {
    "service_request": "2026-1276260",
    "request_type": "Property Maintenance",
    "request_reason": "Property Maintenance",
    "date_created": "2026-04-24T11:45:00.000",
    "date_modified": "2026-04-24T14:04:44.000",
    "case_close_date": "2026-04-24T09:04:43.000",
    "request_status": "Closed",
    "responsible_agency": "Department of Code Enforcement",
    "final_address": "4726 Marque Dr",
    "address_councildis": "E",
    "status": "Referred to Code Enforcement",
    "rowid": "1276260",
    "final_x": "3710029.38974",
    "final_y": "555596.079449",
    "longitude": "-89.9770858208891",
    "latitude": "30.02079877448541",
    "geocoded_column": {
      "latitude": "30.02079877448541",
      "longitude": "-89.9770858208891"
    }
  },
  {
    "service_request": "2026-1276259",
    "request_type": "Tree Service",
    "request_reason": "Tree Trim",
    "date_created": "2026-04-24T11:44:15.000",
    "date_modified": "2026-04-24T11:44:17.000",
    "request_status": "Pending",
    "responsible_agency": "Department of Parks & Parkways",
    "final_address": "7910 Plum St",
    "address_councildis": "A",
    "status": "Pending",
    "rowid": "1276259",
    "final_x": "3662686.40915",
    "final_y": "528146.935487",
    "longitude": "-90.12758923835077",
    "latitude": "29.946778658062975",
    "geocoded_column": {
      "latitude": "29.946778658062975",
      "longitude": "-90.12758923835077"
    }
  },
  {
    "service_request": "2026-1276258",
    "request_type": "Trash/Recycling",
    "request_reason": "Missed Trash Pick-Up",
    "date_created": "2026-04-24T11:38:32.000",
    "date_modified": "2026-04-24T12:33:09.000",
    "case_close_date": "2026-04-24T07:33:08.000",
    "request_status": "Closed",
    "responsible_agency": "Department of Sanitation",
    "final_address": "1319 Mystery St",
    "address_councildis": "A",
    "status": "Invalid Request",
    "contractor": "IV Waste",
    "contractor_action": "Invalid Request",
    "rowid": "1276258",
    "final_x": "3676064.04917",
    "final_y": "540511.145355",
    "longitude": "-90.08492579118047",
    "latitude": "29.980382209460775",
    "geocoded_column": {
      "latitude": "29.980382209460775",
      "longitude": "-90.08492579118047"
    }
  },
  {
    "service_request": "2026-1276257",
    "request_type": "Property Maintenance",
    "request_reason": "Property Maintenance",
    "date_created": "2026-04-24T11:37:30.000",
    "date_modified": "2026-04-24T14:14:02.000",
    "case_close_date": "2026-04-24T09:14:02.000",
    "request_status": "Closed",
    "responsible_agency": "Department of Code Enforcement",
    "final_address": "9321 Hammond St",
    "address_councildis": "E",
    "status": "Referred to Code Enforcement",
    "rowid": "1276257",
    "final_x": "3709779.42635",
    "final_y": "556183.10057",
    "longitude": "-89.9778536829056",
    "latitude": "30.02242098593665",
    "geocoded_column": {
      "latitude": "30.02242098593665",
      "longitude": "-89.9778536829056"
    }
  },
  {
    "service_request": "2026-1276256",
    "request_type": "Trash/Recycling",
    "request_reason": "Request a Large Item Pick Up",
    "date_created": "2026-04-24T11:36:26.000",
    "date_modified": "2026-04-24T11:36:27.000",
    "request_status": "Pending",
    "responsible_agency": "Department of Sanitation",
    "final_address": "4900 Brittany Ct",
    "address_councildis": "E",
    "status": "Assigned to Contractor",
    "contractor": "Waste Pro",
    "rowid": "1276256",
    "final_x": "3726964.21862",
    "final_y": "562082.674591",
    "longitude": "-89.92332532669958",
    "latitude": "30.03807223114714",
    "geocoded_column": {
      "latitude": "30.03807223114714",
      "longitude": "-89.92332532669958"
    }
  },
  {
    "service_request": "2026-1276255",
    "request_type": "Trash/Recycling",
    "request_reason": "MIssed Recycling Pick-Up",
    "date_created": "2026-04-24T11:36:20.000",
    "date_modified": "2026-04-24T12:28:19.000",
    "case_close_date": "2026-04-24T07:28:18.000",
    "request_status": "Closed",
    "responsible_agency": "Department of Sanitation",
    "final_address": "1132 Felicity St",
    "address_councildis": "B",
    "status": "Invalid Request",
    "contractor": "IV Waste",
    "contractor_action": "Invalid Request",
    "rowid": "1276255",
    "final_x": "3679761.60591",
    "final_y": "523200.126971",
    "longitude": "-90.0738483106944",
    "latitude": "29.932671472626353",
    "geocoded_column": {
      "latitude": "29.932671472626353",
      "longitude": "-90.0738483106944"
    }
  },
  {
    "service_request": "2026-1276254",
    "request_type": "Trash/Recycling",
    "request_reason": "Order Second Trash Cart",
    "date_created": "2026-04-24T11:34:29.000",
    "date_modified": "2026-04-24T11:34:31.000",
    "request_status": "Pending",
    "responsible_agency": "Department of Sanitation",
    "final_address": "527 Elysian Fields Ave",
    "address_councildis": "C",
    "status": "Assigned to Contractor",
    "contractor": "IV Waste",
    "rowid": "1276254",
    "final_x": "3685254.46197",
    "final_y": "534382.565957",
    "longitude": "-90.0561143513319",
    "latitude": "29.963252226806528",
    "geocoded_column": {
      "latitude": "29.963252226806528",
      "longitude": "-90.0561143513319"
    }
  },
  {
    "service_request": "2026-1276253",
    "request_type": "Abandoned Vehicles",
    "request_reason": "Abandoned/Junk Vehicles",
    "date_created": "2026-04-24T11:33:56.000",
    "date_modified": "2026-04-24T11:33:58.000",
    "request_status": "Pending",
    "responsible_agency": "Department of Public Works",
    "final_address": "5324 St Bernard Ave",
    "address_councildis": "D",
    "status": "Pending",
    "rowid": "1276253",
    "final_x": "3676620.31547",
    "final_y": "551588.663509",
    "longitude": "-90.08278701629808",
    "latitude": "30.010824818850157",
    "geocoded_column": {
      "latitude": "30.010824818850157",
      "longitude": "-90.08278701629808"
    }
  },
  {
    "service_request": "2026-1276252",
    "request_type": "Trash/Recycling",
    "request_reason": "Request a Large Item Pick Up",
    "date_created": "2026-04-24T11:32:54.000",
    "date_modified": "2026-04-24T11:32:56.000",
    "request_status": "Pending",
    "responsible_agency": "Department of Sanitation",
    "final_address": "9843 E Rockton Cir",
    "address_councildis": "E",
    "status": "Assigned to Contractor",
    "contractor": "Waste Pro",
    "rowid": "1276252",
    "final_x": "3708586.82507",
    "final_y": "563004.311584",
    "longitude": "-89.98136767513898",
    "latitude": "30.04121536451164",
    "geocoded_column": {
      "latitude": "30.04121536451164",
      "longitude": "-89.98136767513898"
    }
  },
  {
    "service_request": "2026-1276251",
    "request_type": "Tree Service",
    "request_reason": "Tree Trim",
    "date_created": "2026-04-24T11:31:44.000",
    "date_modified": "2026-04-24T11:32:09.000",
    "request_status": "Pending",
    "responsible_agency": "Department of Parks & Parkways",
    "final_address": "7210 Briarheath Dr",
    "address_councildis": "E",
    "status": "Pending",
    "rowid": "1276251",
    "final_x": "3714459.93253",
    "final_y": "566060.730019",
    "longitude": "-89.96269123682549",
    "latitude": "30.049427429433926",
    "geocoded_column": {
      "latitude": "30.049427429433926",
      "longitude": "-89.96269123682549"
    }
  },
  {
    "service_request": "2026-1276250",
    "request_type": "Abandoned Vehicles",
    "request_reason": "Abandoned/Junk Vehicles",
    "date_created": "2026-04-24T11:30:27.000",
    "date_modified": "2026-04-24T11:30:29.000",
    "request_status": "Pending",
    "responsible_agency": "Department of Public Works",
    "final_address": "10 Mandeville St",
    "address_councildis": "D",
    "status": "Pending",
    "rowid": "1276250",
    "final_x": "3685597.11778",
    "final_y": "539615.48225",
    "longitude": "-90.05484790668602",
    "latitude": "29.977630417105065",
    "geocoded_column": {
      "latitude": "29.977630417105065",
      "longitude": "-90.05484790668602"
    }
  },
  {
    "service_request": "2026-1276249",
    "request_type": "Trash/Recycling",
    "request_reason": "Request a Large Item Pick Up",
    "date_created": "2026-04-24T11:30:05.000",
    "date_modified": "2026-04-24T11:30:07.000",
    "request_status": "Pending",
    "responsible_agency": "Department of Sanitation",
    "final_address": "6320 Baccich St",
    "address_councildis": "D",
    "status": "Assigned to Contractor",
    "contractor": "IV Waste",
    "rowid": "1276249",
    "final_x": "3687331.46818",
    "final_y": "556645.961306",
    "longitude": "-90.04876725104843",
    "latitude": "30.02440473980137",
    "geocoded_column": {
      "latitude": "30.02440473980137",
      "longitude": "-90.04876725104843"
    }
  },
  {
    "service_request": "2026-1276248",
    "request_type": "Trash/Recycling",
    "request_reason": "Replace Trash Cart",
    "date_created": "2026-04-24T11:29:05.000",
    "date_modified": "2026-04-24T11:29:07.000",
    "request_status": "Pending",
    "responsible_agency": "Department of Sanitation",
    "final_address": "2326 Bartholomew St",
    "address_councildis": "D",
    "status": "Assigned to Contractor",
    "contractor": "IV Waste",
    "rowid": "1276248",
    "final_x": "3692928.97801",
    "final_y": "540039.733131",
    "longitude": "-90.03167627249324",
    "latitude": "29.97856997990579",
    "geocoded_column": {
      "latitude": "29.97856997990579",
      "longitude": "-90.03167627249324"
    }
  },
  {
    "service_request": "2026-1276247",
    "request_type": "Streetlights",
    "request_reason": "Streetlight Outage/Malfunction",
    "date_created": "2026-04-24T11:26:03.000",
    "date_modified": "2026-04-24T11:26:31.000",
    "request_status": "Pending",
    "responsible_agency": "Department of Public Works",
    "final_address": "821 St Mary St",
    "address_councildis": "B",
    "status": "Pending",
    "rowid": "1276247",
    "final_x": "3680418.51899",
    "final_y": "522142.295674",
    "longitude": "-90.07181125713305",
    "latitude": "29.929742913927853",
    "geocoded_column": {
      "latitude": "29.929742913927853",
      "longitude": "-90.07181125713305"
    }
  },
  {
    "service_request": "2026-1276246",
    "request_type": "Safety & Permits",
    "request_reason": "Licenses & Permits",
    "date_created": "2026-04-24T11:25:24.000",
    "date_modified": "2026-04-24T13:49:41.000",
    "case_close_date": "2026-04-24T08:49:40.000",
    "request_status": "Closed",
    "responsible_agency": "Department of Public Works",
    "final_address": "907 Washington Ave Unit 1",
    "address_councildis": "B",
    "status": "Resolved",
    "rowid": "1276246",
    "final_x": "3677473.3645",
    "final_y": "520297.219448",
    "longitude": "-90.08117225054109",
    "latitude": "29.924758383769806",
    "geocoded_column": {
      "latitude": "29.924758383769806",
      "longitude": "-90.08117225054109"
    }
  },
  {
    "service_request": "2026-1276245",
    "request_type": "Tree Service",
    "request_reason": "Tree Trim",
    "date_created": "2026-04-24T11:22:50.000",
    "date_modified": "2026-04-24T11:29:26.000",
    "request_status": "Pending",
    "responsible_agency": "Department of Parks & Parkways",
    "final_address": "6334 Louisville St",
    "address_councildis": "A",
    "status": "Pending",
    "rowid": "1276245",
    "final_x": "3667864.22567",
    "final_y": "549687.340628",
    "longitude": "-90.11051513241343",
    "latitude": "30.00585670046995",
    "geocoded_column": {
      "latitude": "30.00585670046995",
      "longitude": "-90.11051513241343"
    }
  },
  {
    "service_request": "2026-1276244",
    "request_type": "Trash/Recycling",
    "request_reason": "Repair Trash Cart",
    "date_created": "2026-04-24T11:15:20.000",
    "date_modified": "2026-04-24T11:15:21.000",
    "request_status": "Pending",
    "responsible_agency": "Department of Sanitation",
    "final_address": "1503 State St",
    "address_councildis": "A",
    "status": "Assigned to Contractor",
    "contractor": "IV Waste",
    "rowid": "1276244",
    "final_x": "3665621.95661",
    "final_y": "521843.406778",
    "longitude": "-90.11853161230759",
    "latitude": "29.929360703933106",
    "geocoded_column": {
      "latitude": "29.929360703933106",
      "longitude": "-90.11853161230759"
    }
  },
  {
    "service_request": "2026-1276243",
    "request_type": "Property Maintenance",
    "request_reason": "Property Maintenance",
    "date_created": "2026-04-24T11:13:02.000",
    "date_modified": "2026-04-24T14:19:47.000",
    "case_close_date": "2026-04-24T09:19:46.000",
    "request_status": "Closed",
    "responsible_agency": "Department of Code Enforcement",
    "final_address": "4935 Warren Dr",
    "address_councildis": "E",
    "status": "Referred to Code Enforcement",
    "rowid": "1276243",
    "final_x": "3713421.70098",
    "final_y": "557332.457371",
    "longitude": "-89.9663017703026",
    "latitude": "30.02546228827129",
    "geocoded_column": {
      "latitude": "30.02546228827129",
      "longitude": "-89.9663017703026"
    }
  },
  {
    "service_request": "2026-1276242",
    "request_type": "Roads and Streets",
    "request_reason": "Street Subsidence (Sinking)",
    "date_created": "2026-04-24T11:12:28.000",
    "date_modified": "2026-04-24T11:12:30.000",
    "request_status": "Pending",
    "responsible_agency": "Sewerage & Water Board",
    "final_address": "4611 Reynes St",
    "address_councildis": "E",
    "status": "Pending",
    "rowid": "1276242",
    "final_x": "3699299.59709",
    "final_y": "554241.642968",
    "longitude": "-90.01103800310578",
    "latitude": "30.017419429675115",
    "geocoded_column": {
      "latitude": "30.017419429675115",
      "longitude": "-90.01103800310578"
    }
  },
  {
    "service_request": "2026-1276241",
    "request_type": "Trash/Recycling",
    "request_reason": "Request a Large Item Pick Up",
    "date_created": "2026-04-24T11:12:09.000",
    "date_modified": "2026-04-24T11:12:21.000",
    "request_status": "Pending",
    "responsible_agency": "Department of Sanitation",
    "final_address": "6921 Bunker Hill Rd",
    "address_councildis": "E",
    "status": "Assigned to Contractor",
    "contractor": "Waste Pro",
    "rowid": "1276241",
    "final_x": "3706147.64497",
    "final_y": "560034.909725",
    "longitude": "-89.98918636850031",
    "latitude": "30.033129588289334",
    "geocoded_column": {
      "latitude": "30.033129588289334",
      "longitude": "-89.98918636850031"
    }
  },