[
  {
    "service_request": "2024-1157452",
    "request_type": "Utility Poles",
    "request_reason": "Wires Sagging/Hanging Low",
    "date_created": "2024-12-26T23:55:35.000",
    "date_modified": "2024-12-26T23:55:39.000",
    "request_status": "Pending",
    "responsible_agency": "Utility Company Collective",
    "final_address": "18TH ST & FLEUR DE LIS DR",
    "address_councildis": "A",
    "status": "Pending",
    "rowid": "1157452",
    "final_x": "3665180.0",
    "final_y": "548726.68",
    "longitude": "-90.11902742833395",
    "latitude": "30.00329370761558",
    "geocoded_column": {
      "latitude": "30.00329370761558",
      "longitude": "-90.11902742833395"
    }
  },
  {
    "service_request": "2024-1157451",
    "request_type": "Trash/Recycling",
    "request_reason": "Order Recycling Cart",
    "date_created": "2024-12-26T22:41:37.000",
    "date_modified": "2024-12-26T22:41:37.000",
    "request_status": "Pending",
    "responsible_agency": "Department of Sanitation",
    "final_address": "1629 Toledano St",
    "address_councildis": "B",
    "status": "Pending",
    "rowid": "1157451",
    "final_x": "3674514.39444",
    "final_y": "521996.579066",
    "longitude": "-90.09045456264599",
    "latitude": "29.929519654095575",
    "geocoded_column": {
      "latitude": "29.929519654095575",
      "longitude": "-90.09045456264599"
    }
  },
  {
    "service_request": "2024-1157450",
    "request_type": "Streetlights",
    "request_reason": "Streetlight Outage/Malfunction",
    "date_created": "2024-12-26T21:48:43.000",
    "date_modified": "2024-12-26T21:48:44.000",
    "request_status": "Pending",
    "responsible_agency": "Department of Public Works",
    "final_address": "2317 N Villere St",
    "address_councildis": "C",
    "status": "Pending",
    "contractor": "Legacy Professional Services",
    "rowid": "1157450",
    "final_x": "3685842.71458",
    "final_y": "537515.765896",
    "longitude": "-90.05414626360479",
    "latitude": "29.97184939550031",
    "geocoded_column": {
      "latitude": "29.97184939550031",
      "longitude": "-90.05414626360479"
    }
  },
  {
    "service_request": "2024-1157449",
    "request_type": "Streetlights",
    "request_reason": "Streetlight Outage/Malfunction",
    "date_created": "2024-12-26T20:06:45.000",
    "date_modified": "2024-12-26T20:06:46.000",
    "request_status": "Pending",
    "responsible_agency": "Department of Public Works",
    "final_address": "5213 Lafaye St",
    "address_councildis": "D",
    "status": "Pending",
    "contractor": "Legacy Professional Services",
    "rowid": "1157449",
    "final_x": "3687336.60924",
    "final_y": "552419.804886",
    "longitude": "-90.04890069701615",
    "latitude": "30.012784214296545",
    "geocoded_column": {
      "latitude": "30.012784214296545",
      "longitude": "-90.04890069701615"
    }
  },
  {
    "service_request": "2024-1157448",
    "request_type": "Trash/Recycling",
    "request_reason": "Order Trash Cart",
    "date_created": "2024-12-26T19:50:37.000",
    "date_modified": "2024-12-26T19:50:38.000",
    "request_status": "Pending",
    "responsible_agency": "Department of Sanitation",
    "final_address": "1658 Lafreniere St",
    "address_councildis": "D",
    "status": "Assigned to Contractor",
    "contractor": "IV Waste",
    "rowid": "1157448",
    "final_x": "3680306.60379",
    "final_y": "545149.944207",
    "longitude": "-90.07136463264925",
    "latitude": "29.99300950094765",
    "geocoded_column": {
      "latitude": "29.99300950094765",
      "longitude": "-90.07136463264925"
    }
  },
  {
    "service_request": "2024-1157447",
    "request_type": "Streetlights",
    "request_reason": "Streetlight Outage/Malfunction",
    "date_created": "2024-12-26T19:25:43.000",
    "date_modified": "2024-12-26T19:25:44.000",
    "request_status": "Pending",
    "responsible_agency": "Department of Public Works",
    "final_address": "3923 Pauger St",
    "address_councildis": "D",
    "status": "Pending",
    "contractor": "Legacy Professional Services",
    "rowid": "1157447",
    "final_x": "3683229.22978",
    "final_y": "545239.629391",
    "longitude": "-90.06212943014468",
    "latitude": "29.993167273185446",
    "geocoded_column": {
      "latitude": "29.993167273185446",
      "longitude": "-90.06212943014468"
    }
  },
  {
    "service_request": "2024-1157446",
    "request_type": "Safety & Permits",
    "request_reason": "Licenses & Permits",
    "date_created": "2024-12-26T19:08:42.000",
    "date_modified": "2024-12-26T19:08:42.000",
    "request_status": "Pending",
    "responsible_agency": "Safety and Permits",
    "final_address": "433 Dauphine St",
    "address_councildis": "C",
    "status": "Pending",
    "rowid": "1157446",
    "final_x": "3681461.64392",
    "final_y": "532258.876483",
    "longitude": "-90.06816567541351",
    "latitude": "29.957528506849698",
    "geocoded_column": {
      "latitude": "29.957528506849698",
      "longitude": "-90.06816567541351"
    }
  },
  {
    "service_request": "2024-1157445",
    "request_type": "Trash/Recycling",
    "request_reason": "Request a Large Item Pick Up",
    "date_created": "2024-12-26T18:57:00.000",
    "date_modified": "2024-12-26T18:57:01.000",
    "request_status": "Pending",
    "responsible_agency": "Department of Sanitation",
    "final_address": "5415 St Ferdinand Dr",
    "address_councildis": "D",
    "status": "Assigned to Contractor",
    "contractor": "IV Waste",
    "rowid": "1157445",
    "final_x": "3689055.04982",
    "final_y": "553234.506263",
    "longitude": "-90.04344240408513",
    "latitude": "30.014971264308564",
    "geocoded_column": {
      "latitude": "30.014971264308564",
      "longitude": "-90.04344240408513"
    }
  },
  {
    "service_request": "2024-1157444",
    "request_type": "Trash/Recycling",
    "request_reason": "Request a Large Item Pick Up",
    "date_created": "2024-12-26T18:56:00.000",
    "date_modified": "2024-12-26T18:56:01.000",
    "request_status": "Pending",
    "responsible_agency": "Department of Sanitation",
    "final_address": "1636 N Prieur St",
    "address_councildis": "D",
    "status": "Assigned to Contractor",
    "contractor": "IV Waste",
    "rowid": "1157444",
    "final_x": "3681552.95567",
    "final_y": "538648.624713",
    "longitude": "-90.06765446866586",
    "latitude": "29.975095348138122",
    "geocoded_column": {
      "latitude": "29.975095348138122",
      "longitude": "-90.06765446866586"
    }
  },
  {
    "service_request": "2024-1157443",
    "request_type": "Abandoned Vehicles",
    "request_reason": "Abandoned/Junk Vehicles",
    "date_created": "2024-12-26T18:38:02.000",
    "date_modified": "2024-12-26T18:38:02.000",
    "request_status": "Pending",
    "responsible_agency": "Department of Public Works",
    "final_address": "6211 S Rocheblave St",
    "address_councildis": "A",
    "status": "Pending",
    "rowid": "1157443",
    "final_x": "3667572.11911",
    "final_y": "528762.19808",
    "longitude": "-90.11214251599904",
    "latitude": "29.94832816206141",
    "geocoded_column": {
      "latitude": "29.94832816206141",
      "longitude": "-90.11214251599904"
    }
  },
  {
    "service_request": "2024-1157442",
    "request_type": "Trash/Recycling",
    "request_reason": "Illegal Dumping",
    "date_created": "2024-12-26T18:16:18.000",
    "date_modified": "2024-12-26T18:16:18.000",
    "request_status": "Pending",
    "responsible_agency": "Department of Sanitation",
    "final_address": "1808 Allen St",
    "address_councildis": "D",
    "status": "Pending",
    "rowid": "1157442",
    "final_x": "3682423.56706",
    "final_y": "538787.522761",
    "longitude": "-90.06489999797404",
    "latitude": "29.97545079830909",
    "geocoded_column": {
      "latitude": "29.97545079830909",
      "longitude": "-90.06489999797404"
    }
  },
  {
    "service_request": "2024-1157441",
    "request_type": "Christmas Tree Recycle Pick Up",
    "request_reason": "Christmas Tree Recycle Pick Up",
    "date_created": "2024-12-26T18:06:19.000",
    "date_modified": "2024-12-26T18:06:19.000",
    "request_status": "Pending",
    "responsible_agency": "Office of Resilience and Sustainability",
    "final_address": "616 Delaronde St",
    "address_councildis": "C",
    "status": "Pending",
    "rowid": "1157441",
    "final_x": "3687372.21244",
    "final_y": "531236.979714",
    "longitude": "-90.04953804812723",
    "latitude": "29.954537873504975",
    "geocoded_column": {
      "latitude": "29.954537873504975",
      "longitude": "-90.04953804812723"
    }
  },
  {
    "service_request": "2024-1157440",
    "request_type": "Trash/Recycling",
    "request_reason": "Request a Large Item Pick Up",
    "date_created": "2024-12-26T18:05:39.000",
    "date_modified": "2024-12-26T18:05:40.000",
    "request_status": "Pending",
    "responsible_agency": "Department of Sanitation",
    "final_address": "2737 Amelia St",
    "address_councildis": "B",
    "status": "Assigned to Contractor",
    "contractor": "IV Waste",
    "rowid": "1157440",
    "final_x": "3672144.70196",
    "final_y": "525274.596541",
    "longitude": "-90.09782368759977",
    "latitude": "29.938603606485994",
    "geocoded_column": {
      "latitude": "29.938603606485994",
      "longitude": "-90.09782368759977"
    }
  },
  {
    "service_request": "2024-1157439",
    "request_type": "Property Maintenance",
    "request_reason": "Property Maintenance",
    "date_created": "2024-12-26T18:02:53.000",
    "date_modified": "2024-12-26T18:02:53.000",
    "request_status": "Pending",
    "responsible_agency": "Department of Code Enforcement",
    "final_address": "3000 BLK Republic St",
    "address_councildis": "D",
    "status": "Pending",
    "rowid": "1157439",
    "final_x": "3680619.05277",
    "final_y": "543549.629224",
    "longitude": "-90.07043337619885",
    "latitude": "29.988599733046392",
    "geocoded_column": {
      "latitude": "29.988599733046392",
      "longitude": "-90.07043337619885"
    }
  },
  {
    "service_request": "2024-1157438",
    "request_type": "Property Maintenance",
    "request_reason": "Property Maintenance",
    "date_created": "2024-12-26T17:54:05.000",
    "date_modified": "2024-12-26T17:54:05.000",
    "request_status": "Pending",
    "responsible_agency": "Department of Code Enforcement",
    "final_address": "14200 BLK Michoud Blvd",
    "address_councildis": "E",
    "status": "Pending",
    "rowid": "1157438",
    "final_x": "3726703.67648",
    "final_y": "572789.612082",
    "longitude": "-89.92373244084271",
    "latitude": "30.067520620713697",
    "geocoded_column": {
      "latitude": "30.067520620713697",
      "longitude": "-89.92373244084271"
    }
  },
  {
    "service_request": "2024-1157437",
    "request_type": "Trash/Recycling",
    "request_reason": "Illegal Dumping",
    "date_created": "2024-12-26T17:49:11.000",
    "date_modified": "2024-12-26T17:49:11.000",
    "request_status": "Pending",
    "responsible_agency": "Department of Sanitation",
    "final_address": "LOMBARD ST & PEOPLES AVE",
    "address_councildis": "D",
    "status": "Pending",
    "rowid": "1157437",
    "final_x": "3688250.9",
    "final_y": "549766.38",
    "longitude": "-90.04610622373151",
    "latitude": "30.005460056379203",
    "geocoded_column": {
      "latitude": "30.005460056379203",
      "longitude": "-90.04610622373151"
    }
  },
  {
    "service_request": "2024-1157436",
    "request_type": "Trash/Recycling",
    "request_reason": "Illegal Dumping",
    "date_created": "2024-12-26T17:45:28.000",
    "date_modified": "2024-12-26T17:45:28.000",
    "request_status": "Pending",
    "responsible_agency": "Department of Sanitation",
    "final_address": "4601 Peoples Ave, New Orleans, Louisiana, 70126",
    "status": "Pending",
    "rowid": "1157436",
    "longitude": "0.0",
    "latitude": "0.0",
    "geocoded_column": {
      "latitude": "0.0",
      "longitude": "0.0"
    }
  },
  {
    "service_request": "2024-1157435",
    "request_type": "Trash/Recycling",
    "request_reason": "Request a Large Item Pick Up",
    "date_created": "2024-12-26T17:44:00.000",
    "date_modified": "2024-12-26T17:44:01.000",
    "request_status": "Pending",
    "responsible_agency": "Department of Sanitation",
    "final_address": "326 36Th St",
    "address_councildis": "A",
    "status": "Assigned to Contractor",
    "contractor": "IV Waste",
    "rowid": "1157435",
    "final_x": "3665139.42554",
    "final_y": "551879.162838",
    "longitude": "-90.11905006912215",
    "latitude": "30.011963124447195",
    "geocoded_column": {
      "latitude": "30.011963124447195",
      "longitude": "-90.11905006912215"
    }
  },
  {
    "service_request": "2024-1157434",
    "request_type": "Trash/Recycling",
    "request_reason": "Replace Recycling Cart",
    "date_created": "2024-12-26T17:36:31.000",
    "date_modified": "2024-12-26T17:36:31.000",
    "request_status": "Pending",
    "responsible_agency": "Department of Sanitation",
    "final_address": "5701 Laurel St",
    "address_councildis": "A",
    "status": "Pending",
    "rowid": "1157434",
    "final_x": "3665548.42023",
    "final_y": "517976.964854",
    "longitude": "-90.11889311771719",
    "latitude": "29.91873134765509",
    "geocoded_column": {
      "latitude": "29.91873134765509",
      "longitude": "-90.11889311771719"
    }
  },
  {
    "service_request": "2024-1157433",
    "request_type": "Roads and Streets",
    "request_reason": "Pothole",
    "date_created": "2024-12-26T17:33:54.000",
    "date_modified": "2024-12-26T17:33:54.000",
    "request_status": "Pending",
    "responsible_agency": "Department of Public Works",
    "final_address": "3642 Clermont Dr",
    "address_councildis": "D",
    "status": "Pending",
    "rowid": "1157433",
    "final_x": "3685706.48617",
    "final_y": "545862.914192",
    "longitude": "-90.05428223070795",
    "latitude": "29.9948052825103",
    "geocoded_column": {
      "latitude": "29.9948052825103",
      "longitude": "-90.05428223070795"
    }
  },
  {
    "service_request": "2024-1157432",
    "request_type": "Streetlights",
    "request_reason": "Streetlight Outage/Malfunction",
    "date_created": "2024-12-26T17:33:20.000",
    "date_modified": "2024-12-26T17:33:21.000",
    "request_status": "Pending",
    "responsible_agency": "Department of Public Works",
    "final_address": "1000 BLK S Carrollton Ave",
    "address_councildis": "A",
    "status": "Pending",
    "contractor": "Legacy Professional Services",
    "rowid": "1157432",
    "final_x": "3661632.98772",
    "final_y": "527960.970112",
    "longitude": "-90.13092145216136",
    "latitude": "29.946297750574555",
    "geocoded_column": {
      "latitude": "29.946297750574555",
      "longitude": "-90.13092145216136"
    }
  },
  {
    "service_request": "2024-1157431",
    "request_type": "Streetlights",
    "request_reason": "Streetlight Outage/Malfunction",
    "date_created": "2024-12-26T17:32:56.000",
    "date_modified": "2024-12-26T17:32:57.000",
    "request_status": "Pending",
    "responsible_agency": "Department of Public Works",
    "final_address": "2747 Ramsey Dr",
    "address_councildis": "C",
    "status": "Pending",
    "contractor": "Legacy Professional Services",
    "rowid": "1157431",
    "final_x": "3703045.57713",
    "final_y": "520594.222136",
    "longitude": "-90.00043896126392",
    "latitude": "29.924781874415988",
    "geocoded_column": {
      "latitude": "29.924781874415988",
      "longitude": "-90.00043896126392"
    }
  },
  {
    "service_request": "2024-1157430",
    "request_type": "Property Maintenance",
    "request_reason": "Property Maintenance",
    "date_created": "2024-12-26T17:23:26.000",
    "date_modified": "2024-12-26T17:23:26.000",
    "request_status": "Pending",
    "responsible_agency": "Department of Code Enforcement",
    "final_address": "2102 St Anthony St",
    "address_councildis": "D",
    "status": "Pending",
    "rowid": "1157430",
    "final_x": "3683139.41372",
    "final_y": "539902.278986",
    "longitude": "-90.06260011817353",
    "latitude": "29.97849418038282",
    "geocoded_column": {
      "latitude": "29.97849418038282",
      "longitude": "-90.06260011817353"
    }
  },
  {
    "service_request": "2024-1157429",
    "request_type": "Streetlights",
    "request_reason": "Streetlight Outage/Malfunction",
    "date_created": "2024-12-26T17:22:31.000",
    "date_modified": "2024-12-26T17:22:32.000",
    "request_status": "Pending",
    "responsible_agency": "Department of Public Works",
    "final_address": "HUDSON PL & RAMSEY DR",
    "address_councildis": "C",
    "status": "Pending",
    "contractor": "Legacy Professional Services",
    "rowid": "1157429",
    "final_x": "3703304.0",
    "final_y": "520206.68",
    "longitude": "-89.99963745108248",
    "latitude": "29.92370799943913",
    "geocoded_column": {
      "latitude": "29.92370799943913",
      "longitude": "-89.99963745108248"
    }
  },
  {
    "service_request": "2024-1157428",
    "request_type": "Property Maintenance",
    "request_reason": "Property Maintenance",
    "date_created": "2024-12-26T17:21:09.000",
    "date_modified": "2024-12-26T17:21:09.000",
    "request_status": "Pending",
    "responsible_agency": "Department of Code Enforcement",
    "final_address": "1901 N Galvez St",
    "address_councildis": "D",
    "status": "Pending",
    "rowid": "1157428",
    "final_x": "3682905.047",
    "final_y": "539915.504842",
    "longitude": "-90.06333987065351",
    "latitude": "29.978537691460293",
    "geocoded_column": {
      "latitude": "29.978537691460293",
      "longitude": "-90.06333987065351"
    }
  },
  {
    "service_request": "2024-1157427",
    "request_type": "Streetlights",
    "request_reason": "Streetlight Outage/Malfunction",
    "date_created": "2024-12-26T17:20:06.000",
    "date_modified": "2024-12-26T17:20:07.000",
    "request_status": "Pending",
    "responsible_agency": "Department of Public Works",
    "final_address": "HUDSON PL & RAMSEY DR",
    "address_councildis": "C",
    "status": "Pending",
    "contractor": "Legacy Professional Services",
    "rowid": "1157427",
    "final_x": "3703304.0",
    "final_y": "520206.68",
    "longitude": "-89.99963745108248",
    "latitude": "29.92370799943913",
    "geocoded_column": {
      "latitude": "29.92370799943913",
      "longitude": "-89.99963745108248"
    }
  },
  {
    "service_request": "2024-1157426",
    "request_type": "Streetlights",
    "request_reason": "Streetlight Outage/Malfunction",
    "date_created": "2024-12-26T16:51:45.000",
    "date_modified": "2024-12-26T16:51:46.000",
    "request_status": "Pending",
    "responsible_agency": "Department of Public Works",
    "final_address": "4226 St Anthony Ave",
    "address_councildis": "D",
    "status": "Pending",
    "contractor": "Legacy Professional Services",
    "rowid": "1157426",
    "final_x": "3682429.29333",
    "final_y": "548190.229522",
    "longitude": "-90.06455308816032",
    "latitude": "30.00130474900608",
    "geocoded_column": {
      "latitude": "30.00130474900608",
      "longitude": "-90.06455308816032"
    }
  },
  {
    "service_request": "2024-1157425",
    "request_type": "Trash/Recycling",
    "request_reason": "Request a Large Item Pick Up",
    "date_created": "2024-12-26T16:44:58.000",
    "date_modified": "2024-12-26T16:44:59.000",
    "request_status": "Pending",
    "responsible_agency": "Department of Sanitation",
    "final_address": "7134 Tudor Ct",
    "address_councildis": "E",
    "status": "Assigned to Contractor",
    "contractor": "Waste Pro",
    "rowid": "1157425",
    "final_x": "3703681.59626",
    "final_y": "559806.025053",
    "longitude": "-89.99698770064765",
    "latitude": "30.03257955638533",
    "geocoded_column": {
      "latitude": "30.03257955638533",
      "longitude": "-89.99698770064765"
    }
  },
  {
    "service_request": "2024-1157424",
    "request_type": "Trash/Recycling",
    "request_reason": "Order Recycling Cart",
    "date_created": "2024-12-26T16:40:37.000",
    "date_modified": "2024-12-26T16:40:38.000",
    "request_status": "Pending",
    "responsible_agency": "Department of Sanitation",
    "final_address": "2527 Piety St",
    "address_councildis": "D",
    "status": "Pending",
    "rowid": "1157424",
    "final_x": "3691240.75152",
    "final_y": "541262.550476",
    "longitude": "-90.03696460226257",
    "latitude": "29.98198491569719",
    "geocoded_column": {
      "latitude": "29.98198491569719",
      "longitude": "-90.03696460226257"
    }
  },
  {
    "service_request": "2024-1157423",
    "request_type": "Trash/Recycling",
    "request_reason": "Order Trash Cart",
    "date_created": "2024-12-26T16:40:14.000",
    "date_modified": "2024-12-26T16:40:15.000",
    "request_status": "Pending",
    "responsible_agency": "Department of Sanitation",
    "final_address": "2527 Piety St",
    "address_councildis": "D",
    "status": "Assigned to Contractor",
    "contractor": "IV Waste",
    "rowid": "1157423",
    "final_x": "3691240.75152",
    "final_y": "541262.550476",
    "longitude": "-90.03696460226257",
    "latitude": "29.98198491569719",
    "geocoded_column": {
      "latitude": "29.98198491569719",
      "longitude": "-90.03696460226257"
    }
  },
  {
    "service_request": "2024-1157422",
    "request_type": "Trash/Recycling",
    "request_reason": "Request a Large Item Pick Up",
    "date_created": "2024-12-26T16:39:54.000",
    "date_modified": "2024-12-26T16:39:55.000",
    "request_status": "Pending",
    "responsible_agency": "Department of Sanitation",
    "final_address": "3766 Lang St",
    "address_councildis": "C",
    "status": "Assigned to Contractor",
    "contractor": "Richards Disposal",
    "rowid": "1157422",
    "final_x": "3701953.65021",
    "final_y": "517021.326133",
    "longitude": "-90.00401663174411",
    "latitude": "29.914992518317725",
    "geocoded_column": {
      "latitude": "29.914992518317725",
      "longitude": "-90.00401663174411"
    }
  },
  {
    "service_request": "2024-1157421",
    "request_type": "Trash/Recycling",
    "request_reason": "Illegal Dumping",
    "date_created": "2024-12-26T16:37:56.000",
    "date_modified": "2024-12-26T16:37:57.000",
    "request_status": "Pending",
    "responsible_agency": "Department of Sanitation",
    "final_address": "S NORMAN C FRANCIS PKWY & EARHART BLVD",
    "address_councildis": "B",
    "status": "Pending",
    "rowid": "1157421",
    "final_x": "3669948.4",
    "final_y": "531942.38",
    "longitude": "-90.10453191326465",
    "latitude": "29.957002767260953",
    "geocoded_column": {
      "latitude": "29.957002767260953",
      "longitude": "-90.10453191326465"
    }
  },
  {
    "service_request": "2024-1157420",
    "request_type": "Streetlights",
    "request_reason": "Streetlight Outage/Malfunction",
    "date_created": "2024-12-26T16:33:07.000",
    "date_modified": "2024-12-26T16:33:08.000",
    "request_status": "Pending",
    "responsible_agency": "Department of Public Works",
    "final_address": "100 Atlantic Ave",
    "address_councildis": "C",
    "status": "Pending",
    "contractor": "Legacy Professional Services",
    "rowid": "1157420",
    "final_x": "3688826.88099",
    "final_y": "531308.754498",
    "longitude": "-90.0449422379718",
    "latitude": "29.95469033512445",
    "geocoded_column": {
      "latitude": "29.95469033512445",
      "longitude": "-90.0449422379718"
    }
  },
  {
    "service_request": "2024-1157419",
    "request_type": "Drainage",
    "request_reason": "Drainage Manhole Cover Missing or Damaged",
    "date_created": "2024-12-26T16:30:52.000",
    "date_modified": "2024-12-26T16:30:54.000",
    "request_status": "Pending",
    "responsible_agency": "Department of Public Works",
    "final_address": "1022 Kerlerec St",
    "address_councildis": "C",
    "status": "Pending",
    "rowid": "1157419",
    "final_x": "3683230.52252",
    "final_y": "535454.237126",
    "longitude": "-90.06246817750893",
    "latitude": "29.966260830759243",
    "geocoded_column": {
      "latitude": "29.966260830759243",
      "longitude": "-90.06246817750893"
    }
  },
  {
    "service_request": "2024-1157418",
    "request_type": "Christmas Tree Recycle Pick Up",
    "request_reason": "Christmas Tree Recycle Pick Up",
    "date_created": "2024-12-26T16:30:30.000",
    "date_modified": "2024-12-26T16:30:31.000",
    "request_status": "Pending",
    "responsible_agency": "Office of Resilience and Sustainability",
    "final_address": "5931 Constance St",
    "address_councildis": "A",
    "status": "Pending",
    "rowid": "1157418",
    "final_x": "3664915.43565",
    "final_y": "518843.540343",
    "longitude": "-90.12086218361084",
    "latitude": "29.921132591416264",
    "geocoded_column": {
      "latitude": "29.921132591416264",
      "longitude": "-90.12086218361084"
    }
  },
  {
    "service_request": "2024-1157417",
    "request_type": "Trash/Recycling",
    "request_reason": "Order Trash Cart",
    "date_created": "2024-12-26T16:25:21.000",
    "date_modified": "2024-12-26T16:25:22.000",
    "request_status": "Pending",
    "responsible_agency": "Department of Sanitation",
    "final_address": "5001 Prentiss Ave",
    "address_councildis": "D",
    "status": "Assigned to Contractor",
    "contractor": "IV Waste",
    "rowid": "1157417",
    "final_x": "3691514.03856",
    "final_y": "555442.084697",
    "longitude": "-90.03559420717015",
    "latitude": "30.02096493874108",
    "geocoded_column": {
      "latitude": "30.02096493874108",
      "longitude": "-90.03559420717015"
    }
  },
  {
    "service_request": "2024-1157416",
    "request_type": "Trash/Recycling",
    "request_reason": "Request a Large Item Pick Up",
    "date_created": "2024-12-26T16:24:03.000",
    "date_modified": "2024-12-26T16:24:04.000",
    "request_status": "Pending",
    "responsible_agency": "Department of Sanitation",
    "final_address": "7191 Queensway Dr",
    "address_councildis": "E",
    "status": "Assigned to Contractor",
    "contractor": "Waste Pro",
    "rowid": "1157416",
    "final_x": "3718776.74316",
    "final_y": "570077.507687",
    "longitude": "-89.94889424304824",
    "latitude": "30.06032921603417",
    "geocoded_column": {
      "latitude": "30.06032921603417",
      "longitude": "-89.94889424304824"
    }
  },
  {
    "service_request": "2024-1157415",
    "request_type": "Trash/Recycling",
    "request_reason": "Replace Trash Cart",
    "date_created": "2024-12-26T16:23:58.000",
    "date_modified": "2024-12-26T16:23:59.000",
    "request_status": "Pending",
    "responsible_agency": "Department of Sanitation",
    "final_address": "904 Dumaine St",
    "address_councildis": "C",
    "status": "Assigned to Contractor",
    "rowid": "1157415",
    "final_x": "3682370.1174",
    "final_y": "533502.122052",
    "longitude": "-90.06525354155305",
    "latitude": "29.96091939530869",
    "geocoded_column": {
      "latitude": "29.96091939530869",
      "longitude": "-90.06525354155305"
    }
  },
  {
    "service_request": "2024-1157414",
    "request_type": "Trash/Recycling",
    "request_reason": "Request a Large Item Pick Up",
    "date_created": "2024-12-26T16:16:58.000",
    "date_modified": "2024-12-26T16:16:59.000",
    "request_status": "Pending",
    "responsible_agency": "Department of Sanitation",
    "final_address": "7424 Dogwood Dr",
    "address_councildis": "E",
    "status": "Assigned to Contractor",
    "contractor": "Waste Pro",
    "rowid": "1157414",
    "final_x": "3701419.47351",
    "final_y": "560484.67587",
    "longitude": "-90.00411126379704",
    "latitude": "30.034517929435506",
    "geocoded_column": {
      "latitude": "30.034517929435506",
      "longitude": "-90.00411126379704"
    }
  },
  {
    "service_request": "2024-1157413",
    "request_type": "Trash/Recycling",
    "request_reason": "Request a Large Item Pick Up",
    "date_created": "2024-12-26T16:16:39.000",
    "date_modified": "2024-12-26T16:16:40.000",
    "request_status": "Pending",
    "responsible_agency": "Department of Sanitation",
    "final_address": "3315 Burgundy St",
    "address_councildis": "C",
    "status": "Assigned to Contractor",
    "contractor": "IV Waste",
    "rowid": "1157413",
    "final_x": "3689754.61513",
    "final_y": "535003.90663",
    "longitude": "-90.04188131493734",
    "latitude": "29.964822002975385",
    "geocoded_column": {
      "latitude": "29.964822002975385",
      "longitude": "-90.04188131493734"
    }
  },
  {
    "service_request": "2024-1157412",
    "request_type": "Trash/Recycling",
    "request_reason": "Request a Large Item Pick Up",
    "date_created": "2024-12-26T16:15:14.000",
    "date_modified": "2024-12-26T16:15:15.000",
    "request_status": "Pending",
    "responsible_agency": "Department of Sanitation",
    "final_address": "9972 E Rockton Cir",
    "address_councildis": "E",
    "status": "Assigned to Contractor",
    "contractor": "Waste Pro",
    "rowid": "1157412",
    "final_x": "3708972.87953",
    "final_y": "562911.759712",
    "longitude": "-89.98015107183622",
    "latitude": "30.040948353558647",
    "geocoded_column": {
      "latitude": "30.040948353558647",
      "longitude": "-89.98015107183622"
    }
  },
  {
    "service_request": "2024-1157411",
    "request_type": "Trash/Recycling",
    "request_reason": "Request a Large Item Pick Up",
    "date_created": "2024-12-26T16:13:38.000",
    "date_modified": "2024-12-26T16:13:39.000",
    "request_status": "Pending",
    "responsible_agency": "Department of Sanitation",
    "final_address": "2228 Governor Nicholls St",
    "address_councildis": "D",
    "status": "Assigned to Contractor",
    "contractor": "IV Waste",
    "rowid": "1157411",
    "final_x": "3679225.66581",
    "final_y": "537251.087176",
    "longitude": "-90.0750531246099",
    "latitude": "29.971323080709496",
    "geocoded_column": {
      "latitude": "29.971323080709496",
      "longitude": "-90.0750531246099"
    }
  },
  {
    "service_request": "2024-1157410",
    "request_type": "Trash/Recycling",
    "request_reason": "Order Second Trash Cart",
    "date_created": "2024-12-26T16:11:48.000",
    "date_modified": "2024-12-26T16:11:49.000",
    "request_status": "Pending",
    "responsible_agency": "Department of Sanitation",
    "final_address": "6437 Argonne Blvd",
    "address_councildis": "A",
    "status": "Assigned to Contractor",
    "contractor": "IV Waste",
    "rowid": "1157410",
    "final_x": "3670518.26849",
    "final_y": "550222.426068",
    "longitude": "-90.10211220353818",
    "latitude": "30.007249851438004",
    "geocoded_column": {
      "latitude": "30.007249851438004",
      "longitude": "-90.10211220353818"
    }
  },
  {
    "service_request": "2024-1157409",
    "request_type": "Trash/Recycling",
    "request_reason": "Illegal Dumping",
    "date_created": "2024-12-26T16:11:14.000",
    "date_modified": "2024-12-26T16:11:15.000",
    "request_status": "Pending",
    "responsible_agency": "Department of Sanitation",
    "final_address": "4634 Lonely Oak Dr",
    "address_councildis": "E",
    "status": "Pending",
    "rowid": "1157409",
    "final_x": "3702338.61303",
    "final_y": "553755.776407",
    "longitude": "-90.00145384001848",
    "latitude": "30.015986702204447",
    "geocoded_column": {
      "latitude": "30.015986702204447",
      "longitude": "-90.00145384001848"
    }
  },
  {
    "service_request": "2024-1157408",
    "request_type": "Christmas Tree Recycle Pick Up",
    "request_reason": "Christmas Tree Recycle Pick Up",
    "date_created": "2024-12-26T16:06:37.000",
    "date_modified": "2024-12-26T16:06:38.000",
    "request_status": "Pending",
    "responsible_agency": "Office of Resilience and Sustainability",
    "final_address": "640 Governor Nicholls St",
    "address_councildis": "C",
    "status": "Pending",
    "rowid": "1157408",
    "final_x": "3683706.3558",
    "final_y": "533838.545989",
    "longitude": "-90.06102216212089",
    "latitude": "29.961803716347145",
    "geocoded_column": {
      "latitude": "29.961803716347145",
      "longitude": "-90.06102216212089"
    }
  },
  {
    "service_request": "2024-1157407",
    "request_type": "Trash/Recycling",
    "request_reason": "Order Trash Cart",
    "date_created": "2024-12-26T16:05:22.000",
    "date_modified": "2024-12-26T16:05:23.000",
    "request_status": "Pending",
    "responsible_agency": "Department of Sanitation",
    "final_address": "8238 Sycamore St",
    "address_councildis": "A",
    "status": "Assigned to Contractor",
    "contractor": "IV Waste",
    "rowid": "1157407",
    "final_x": "3663805.3833",
    "final_y": "531396.535235",
    "longitude": "-90.12394792157542",
    "latitude": "29.955681583770282",
    "geocoded_column": {
      "latitude": "29.955681583770282",
      "longitude": "-90.12394792157542"
    }
  },
  {
    "service_request": "2024-1157406",
    "request_type": "Abandoned Vehicles",
    "request_reason": "Abandoned/Junk Vehicles",
    "date_created": "2024-12-26T16:05:19.000",
    "date_modified": "2024-12-26T16:05:19.000",
    "request_status": "Pending",
    "responsible_agency": "Department of Public Works",
    "final_address": "2535 Esplanade Ave",
    "address_councildis": "D",
    "status": "Pending",
    "rowid": "1157406",
    "final_x": "3678606.41787",
    "final_y": "538743.581577",
    "longitude": "-90.07695711507003",
    "latitude": "29.975445610914935",
    "geocoded_column": {
      "latitude": "29.975445610914935",
      "longitude": "-90.07695711507003"
    }
  },
  {
    "service_request": "2024-1157405",
    "request_type": "Streetlights",
    "request_reason": "Streetlight Outage/Malfunction",
    "date_created": "2024-12-26T16:05:11.000",
    "date_modified": "2024-12-26T16:05:12.000",
    "request_status": "Pending",
    "responsible_agency": "Department of Public Works",
    "final_address": "W PONTCHARTRAIN EXPRESSWAY & CARONDELET ST & CAMP EXIT",
    "address_councildis": "B",
    "status": "Pending",
    "contractor": "Legacy Professional Services",
    "rowid": "1157405",
    "final_x": "3679535.6",
    "final_y": "526935.48",
    "longitude": "-90.07443223526995",
    "latitude": "29.942949286628917",
    "geocoded_column": {
      "latitude": "29.942949286628917",
      "longitude": "-90.07443223526995"
    }
  },
  {
    "service_request": "2024-1157404",
    "request_type": "Trash/Recycling",
    "request_reason": "Start Trash Service",
    "date_created": "2024-12-26T16:05:07.000",
    "date_modified": "2024-12-26T16:05:08.000",
    "request_status": "Pending",
    "responsible_agency": "Department of Sanitation",
    "final_address": "8238 Sycamore St",
    "address_councildis": "A",
    "status": "Assigned to Contractor",
    "contractor": "IV Waste",
    "rowid": "1157404",
    "final_x": "3663805.3833",
    "final_y": "531396.535235",
    "longitude": "-90.12394792157542",
    "latitude": "29.955681583770282",
    "geocoded_column": {
      "latitude": "29.955681583770282",
      "longitude": "-90.12394792157542"
    }
  },
  {
    "service_request": "2024-1157403",
    "request_type": "Trash/Recycling",
    "request_reason": "Request a Large Item Pick Up",
    "date_created": "2024-12-26T16:04:10.000",
    "date_modified": "2024-12-26T16:04:11.000",
    "request_status": "Pending",
    "responsible_agency": "Department of Sanitation",
    "final_address": "4634 Wilson Ave New Orleans, LA",
    "address_councildis": "E",
    "status": "Assigned to Contractor",
    "contractor": "Waste Pro",
    "rowid": "1157403",
    "final_x": "3703012.43748",
    "final_y": "554361.40604",
    "longitude": "-89.99930259250651",
    "latitude": "30.017630398879504",
    "geocoded_column": {
      "latitude": "30.017630398879504",
      "longitude": "-89.99930259250651"
    }
  },
  {
    "service_request": "2024-1157402",
    "request_type": "Road Striping",
    "request_reason": "Lane Striping or other Pavement Markings",
    "date_created": "2024-12-26T16:03:48.000",
    "date_modified": "2024-12-26T16:03:49.000",
    "request_status": "Pending",
    "responsible_agency": "Department of Public Works",
    "final_address": "SHIRLEY DR & GENERAL DE GAULLE DR",
    "address_councildis": "C",
    "status": "Pending",
    "rowid": "1157402",
    "final_x": "3692972.8",
    "final_y": "522303.38",
    "longitude": "-90.03217397827613",
    "latitude": "29.929799819265966",
    "geocoded_column": {
      "latitude": "29.929799819265966",
      "longitude": "-90.03217397827613"
    }
  },
  {
    "service_request": "2024-1157401",
    "request_type": "Trash/Recycling",
    "request_reason": "Request a Large Item Pick Up",
    "date_created": "2024-12-26T16:02:34.000",
    "date_modified": "2024-12-26T16:02:34.000",
    "request_status": "Pending",
    "responsible_agency": "Department of Sanitation",
    "final_address": "6437 Argonne Blvd",
    "address_councildis": "A",
    "status": "Assigned to Contractor",
    "contractor": "IV Waste",
    "rowid": "1157401",
    "final_x": "3670518.26849",
    "final_y": "550222.426068",
    "longitude": "-90.10211220353818",
    "latitude": "30.007249851438004",
    "geocoded_column": {
      "latitude": "30.007249851438004",
      "longitude": "-90.10211220353818"
    }
  },
  {
    "service_request": "2024-1157400",
    "request_type": "Trash/Recycling",
    "request_reason": "Missed Trash Pick-Up",
    "date_created": "2024-12-26T15:57:33.000",
    "date_modified": "2024-12-26T15:57:34.000",
    "request_status": "Pending",
    "responsible_agency": "Department of Sanitation",
    "final_address": "4501 Jacobs Dr",
    "address_councildis": "E",
    "status": "Assigned to Contractor",
    "contractor": "Waste Pro",
    "rowid": "1157400",
    "final_x": "3785075.02674",
    "final_y": "607387.049673",
    "longitude": "-89.73769326258454",
    "latitude": "30.160542337306424",
    "geocoded_column": {
      "latitude": "30.160542337306424",
      "longitude": "-89.73769326258454"
    }
  },
  {
    "service_request": "2024-1157399",
    "request_type": "Trash/Recycling",
    "request_reason": "Repair Trash Cart",
    "date_created": "2024-12-26T15:57:16.000",
    "date_modified": "2024-12-26T15:57:17.000",
    "request_status": "Pending",
    "responsible_agency": "Department of Sanitation",
    "final_address": "7527 Willow St",
    "address_councildis": "A",
    "status": "Assigned to Contractor",
    "contractor": "IV Waste",
    "rowid": "1157399",
    "final_x": "3663913.50451",
    "final_y": "527595.479551",
    "longitude": "-90.12373321426689",
    "latitude": "29.945226769223698",
    "geocoded_column": {
      "latitude": "29.945226769223698",
      "longitude": "-90.12373321426689"
    }
  },
  {
    "service_request": "2024-1157398",
    "request_type": "Trash/Recycling",
    "request_reason": "Request a Large Item Pick Up",
    "date_created": "2024-12-26T15:50:40.000",
    "date_modified": "2024-12-26T15:50:41.000",
    "request_status": "Pending",
    "responsible_agency": "Department of Sanitation",
    "final_address": "5601 Durham Dr",
    "address_councildis": "C",
    "status": "Assigned to Contractor",
    "contractor": "Richards Disposal",
    "rowid": "1157398",
    "final_x": "3704645.38199",
    "final_y": "518677.718007",
    "longitude": "-89.99545958429145",
    "latitude": "29.91946088512268",
    "geocoded_column": {
      "latitude": "29.91946088512268",
      "longitude": "-89.99545958429145"
    }
  },
  {
    "service_request": "2024-1157397",
    "request_type": "Trash/Recycling",
    "request_reason": "Missed Trash Pick-Up",
    "date_created": "2024-12-26T15:49:56.000",
    "date_modified": "2024-12-26T15:49:57.000",
    "request_status": "Pending",
    "responsible_agency": "Department of Sanitation",
    "final_address": "21 Eugenie Ct",
    "address_councildis": "C",
    "status": "Assigned to Contractor",
    "contractor": "Richards Disposal",
    "rowid": "1157397",
    "final_x": "3700065.70858",
    "final_y": "511845.265712",
    "longitude": "-90.01016427289468",
    "latitude": "29.900820189659868",
    "geocoded_column": {
      "latitude": "29.900820189659868",
      "longitude": "-90.01016427289468"
    }
  },
  {
    "service_request": "2024-1157396",
    "request_type": "Property Maintenance",
    "request_reason": "Property Maintenance",
    "date_created": "2024-12-26T15:48:10.000",
    "date_modified": "2024-12-26T15:48:11.000",
    "request_status": "Pending",
    "responsible_agency": "Department of Code Enforcement",
    "final_address": "2714 S Galvez St",
    "address_councildis": "B",
    "status": "Pending",
    "rowid": "1157396",
    "final_x": "3672331.20596",
    "final_y": "528123.343039",
    "longitude": "-90.09713784355057",
    "latitude": "29.946431198081935",
    "geocoded_column": {
      "latitude": "29.946431198081935",
      "longitude": "-90.09713784355057"
    }
  },
  {
    "service_request": "2024-1157395",
    "request_type": "Trash/Recycling",
    "request_reason": "Missed Trash Pick-Up",
    "date_created": "2024-12-26T15:42:24.000",
    "date_modified": "2024-12-26T15:42:25.000",
    "request_status": "Pending",
    "responsible_agency": "Department of Sanitation",
    "final_address": "4666 Arthur Dr",
    "address_councildis": "E",
    "status": "Assigned to Contractor",
    "contractor": "Waste Pro",
    "rowid": "1157395",
    "final_x": "3707670.07825",
    "final_y": "554964.51388",
    "longitude": "-89.98456397830365",
    "latitude": "30.019138787889656",
    "geocoded_column": {
      "latitude": "30.019138787889656",
      "longitude": "-89.98456397830365"
    }
  },
  {
    "service_request": "2024-1157394",
    "request_type": "Streetlights",
    "request_reason": "Streetlight Outage/Malfunction",
    "date_created": "2024-12-26T15:40:27.000",
    "date_modified": "2024-12-26T15:40:28.000",
    "request_status": "Pending",
    "responsible_agency": "Department of Public Works",
    "final_address": "4026 Dale St",
    "address_councildis": "E",
    "status": "Pending",
    "contractor": "Legacy Professional Services",
    "rowid": "1157394",
    "final_x": "3699722.86154",
    "final_y": "551482.158229",
    "longitude": "-90.00980137435833",
    "latitude": "30.00981845356199",
    "geocoded_column": {
      "latitude": "30.00981845356199",
      "longitude": "-90.00980137435833"
    }
  },
  {
    "service_request": "2024-1157393",
    "request_type": "Christmas Tree Recycle Pick Up",
    "request_reason": "Christmas Tree Recycle Pick Up",
    "date_created": "2024-12-26T15:37:40.000",
    "date_modified": "2024-12-26T15:37:40.000",
    "request_status": "Pending",
    "responsible_agency": "Office of Resilience and Sustainability",
    "final_address": "1000 St Charles Ave",
    "address_councildis": "B",
    "status": "Pending",
    "rowid": "1157393",
    "final_x": "3680334.074",
    "final_y": "526964.819646",
    "longitude": "-90.0719102399457",
    "latitude": "29.943005814995683",
    "geocoded_column": {
      "latitude": "29.943005814995683",
      "longitude": "-90.0719102399457"
    }
  },
  {
    "service_request": "2024-1157392",
    "request_type": "Trash/Recycling",
    "request_reason": "Request a Large Item Pick Up",
    "date_created": "2024-12-26T15:37:26.000",
    "date_modified": "2024-12-26T15:37:27.000",
    "request_status": "Pending",
    "responsible_agency": "Department of Sanitation",
    "final_address": "5601 Durham Dr",
    "address_councildis": "C",
    "status": "Assigned to Contractor",
    "contractor": "Richards Disposal",
    "rowid": "1157392",
    "final_x": "3704645.38199",
    "final_y": "518677.718007",
    "longitude": "-89.99545958429145",
    "latitude": "29.91946088512268",
    "geocoded_column": {
      "latitude": "29.91946088512268",
      "longitude": "-89.99545958429145"
    }
  },
  {
    "service_request": "2024-1157391",
    "request_type": "Parks & Parkways",
    "request_reason": "Request Tree Service (Right of Way/Public Property)",
    "date_created": "2024-12-26T15:34:27.000",
    "date_modified": "2024-12-26T15:34:28.000",
    "request_status": "Pending",
    "responsible_agency": "Department of Parks & Parkway",
    "final_address": "8422 Pritchard Pl",
    "address_councildis": "A",
    "status": "Pending",
    "rowid": "1157391",
    "final_x": "3665096.33261",
    "final_y": "533713.202181",
    "longitude": "-90.11979406962979",
    "latitude": "29.962014132016293",
    "geocoded_column": {
      "latitude": "29.962014132016293",
      "longitude": "-90.11979406962979"
    }
  },
  {
    "service_request": "2024-1157390",
    "request_type": "Streetlights",
    "request_reason": "Streetlight Outage/Malfunction",
    "date_created": "2024-12-26T15:32:12.000",
    "date_modified": "2024-12-26T15:32:13.000",
    "request_status": "Pending",
    "responsible_agency": "Department of Public Works",
    "final_address": "1100 Michael St",
    "address_councildis": "C",
    "status": "Pending",
    "contractor": "Legacy Professional Services",
    "rowid": "1157390",
    "final_x": "3697294.67165",
    "final_y": "527332.925823",
    "longitude": "-90.01834844210458",
    "latitude": "29.94349367977194",
    "geocoded_column": {
      "latitude": "29.94349367977194",
      "longitude": "-90.01834844210458"
    }
  },
  {
    "service_request": "2024-1157389",
    "request_type": "Trash/Recycling",
    "request_reason": "Request a Large Item Pick Up",
    "date_created": "2024-12-26T15:31:02.000",
    "date_modified": "2024-12-26T15:31:03.000",
    "request_status": "Pending",
    "responsible_agency": "Department of Sanitation",
    "final_address": "3535 Huntlee Dr",
    "address_councildis": "C",
    "status": "Assigned to Contractor",
    "contractor": "Richards Disposal",
    "rowid": "1157389",
    "final_x": "3701645.7473",
    "final_y": "517941.413302",
    "longitude": "-90.00495480945071",
    "latitude": "29.91753226178205",
    "geocoded_column": {
      "latitude": "29.91753226178205",
      "longitude": "-90.00495480945071"
    }
  },
  {
    "service_request": "2024-1157388",
    "request_type": "Trash/Recycling",
    "request_reason": "Repair Recycling Cart",
    "date_created": "2024-12-26T15:28:11.000",
    "date_modified": "2024-12-26T15:28:12.000",
    "request_status": "Pending",
    "responsible_agency": "Department of Sanitation",
    "final_address": "4261 Trieste St",
    "address_councildis": "E",
    "status": "Pending",
    "rowid": "1157388",
    "final_x": "3760154.47049",
    "final_y": "573079.150057",
    "longitude": "-89.81797891540721",
    "latitude": "30.06714279680244",
    "geocoded_column": {
      "latitude": "30.06714279680244",
      "longitude": "-89.81797891540721"
    }
  },
  {
    "service_request": "2024-1157387",
    "request_type": "Christmas Tree Recycle Pick Up",
    "request_reason": "Christmas Tree Recycle Pick Up",
    "date_created": "2024-12-26T15:28:10.000",
    "date_modified": "2024-12-26T15:28:10.000",
    "request_status": "Pending",
    "responsible_agency": "Office of Resilience and Sustainability",
    "final_address": "2124 Camp St",
    "address_councildis": "B",
    "status": "Pending",
    "rowid": "1157387",
    "final_x": "3678793.04117",
    "final_y": "522464.221242",
    "longitude": "-90.07693146400749",
    "latitude": "29.930677211414945",
    "geocoded_column": {
      "latitude": "29.930677211414945",
      "longitude": "-90.07693146400749"
    }
  },
  {
    "service_request": "2024-1157386",
    "request_type": "Trash/Recycling",
    "request_reason": "Request a Large Item Pick Up",
    "date_created": "2024-12-26T15:27:28.000",
    "date_modified": "2024-12-26T15:27:29.000",
    "request_status": "Pending",
    "responsible_agency": "Department of Sanitation",
    "final_address": "2124 Camp St",
    "address_councildis": "B",
    "status": "Assigned to Contractor",
    "contractor": "IV Waste",
    "rowid": "1157386",
    "final_x": "3678793.04117",
    "final_y": "522464.221242",
    "longitude": "-90.07693146400749",
    "latitude": "29.930677211414945",
    "geocoded_column": {
      "latitude": "29.930677211414945",
      "longitude": "-90.07693146400749"
    }
  },
  {
    "service_request": "2024-1157385",
    "request_type": "Property Maintenance",
    "request_reason": "Property Maintenance",
    "date_created": "2024-12-26T15:20:36.000",
    "date_modified": "2024-12-26T15:20:36.000",
    "request_status": "Pending",
    "responsible_agency": "Department of Code Enforcement",
    "final_address": "2832 Carver St",
    "address_councildis": "C",
    "status": "Pending",
    "rowid": "1157385",
    "final_x": "3708607.57841",
    "final_y": "519831.32012",
    "longitude": "-89.98291011135929",
    "latitude": "29.922505086972016",
    "geocoded_column": {
      "latitude": "29.922505086972016",
      "longitude": "-89.98291011135929"
    }
  },
  {
    "service_request": "2024-1157384",
    "request_type": "Trash/Recycling",
    "request_reason": "Request a Large Item Pick Up",
    "date_created": "2024-12-26T15:20:28.000",
    "date_modified": "2024-12-26T15:20:29.000",
    "request_status": "Pending",
    "responsible_agency": "Department of Sanitation",
    "final_address": "7416 Edward St",
    "address_councildis": "E",
    "status": "Assigned to Contractor",
    "contractor": "Waste Pro",
    "rowid": "1157384",
    "final_x": "3701192.91805",
    "final_y": "560327.220893",
    "longitude": "-90.00483297536326",
    "latitude": "30.03409221390936",
    "geocoded_column": {
      "latitude": "30.03409221390936",
      "longitude": "-90.00483297536326"
    }
  },
  {
    "service_request": "2024-1157383",
    "request_type": "Trash/Recycling",
    "request_reason": "Request a Large Item Pick Up",
    "date_created": "2024-12-26T15:19:28.000",
    "date_modified": "2024-12-26T15:19:29.000",
    "request_status": "Pending",
    "responsible_agency": "Department of Sanitation",
    "final_address": "5140 Lakeview Ct",
    "address_councildis": "E",
    "status": "Assigned to Contractor",
    "contractor": "Waste Pro",
    "rowid": "1157383",
    "final_x": "3698789.7946",
    "final_y": "556323.081114",
    "longitude": "-90.01257296103665",
    "latitude": "30.023158759132535",
    "geocoded_column": {
      "latitude": "30.023158759132535",
      "longitude": "-90.01257296103665"
    }
  },
  {
    "service_request": "2024-1157382",
    "request_type": "Trash/Recycling",
    "request_reason": "Repair Trash Cart",
    "date_created": "2024-12-26T15:14:50.000",
    "date_modified": "2024-12-26T15:14:50.000",
    "request_status": "Pending",
    "responsible_agency": "Department of Sanitation",
    "final_address": "1725 Wagner St",
    "address_councildis": "C",
    "status": "Assigned to Contractor",
    "contractor": "Richards Disposal",
    "rowid": "1157382",
    "final_x": "3690282.27548",
    "final_y": "524488.980156",
    "longitude": "-90.04058962884032",
    "latitude": "29.935893215229626",
    "geocoded_column": {
      "latitude": "29.935893215229626",
      "longitude": "-90.04058962884032"
    }
  },
  {
    "service_request": "2024-1157381",
    "request_type": "Trash/Recycling",
    "request_reason": "Illegal Dumping",
    "date_created": "2024-12-26T15:12:27.000",
    "date_modified": "2024-12-26T15:12:27.000",
    "request_status": "Pending",
    "responsible_agency": "Department of Sanitation",
    "final_address": "2800 Kabel Dr",
    "address_councildis": "C",
    "status": "Pending",
    "rowid": "1157381",
    "final_x": "3700773.06775",
    "final_y": "520865.974393",
    "longitude": "-90.00760254667757",
    "latitude": "29.925601591062037",
    "geocoded_column": {
      "latitude": "29.925601591062037",
      "longitude": "-90.00760254667757"
    }
  },
  {
    "service_request": "2024-1157380",
    "request_type": "Trash/Recycling",
    "request_reason": "Missed Trash Pick-Up",
    "date_created": "2024-12-26T15:11:51.000",
    "date_modified": "2024-12-26T16:06:50.000",
    "case_close_date": "2024-12-26T10:06:50.000",
    "request_status": "Closed",
    "responsible_agency": "Department of Sanitation",
    "final_address": "5169 St Anthony Ave",
    "address_councildis": "D",
    "status": "Invalid Request",
    "contractor": "IV Waste",
    "contractor_action": "Invalid Request",
    "rowid": "1157380",
    "final_x": "3682326.5974",
    "final_y": "551904.977942",
    "longitude": "-90.06474759026266",
    "latitude": "30.011522094767976",
    "geocoded_column": {
      "latitude": "30.011522094767976",
      "longitude": "-90.06474759026266"
    }
  },
  {
    "service_request": "2024-1157379",
    "request_type": "Trash/Recycling",
    "request_reason": "Request a Large Item Pick Up",
    "date_created": "2024-12-26T15:07:08.000",
    "date_modified": "2024-12-26T15:07:09.000",
    "request_status": "Pending",
    "responsible_agency": "Department of Sanitation",
    "final_address": "4874 Sandalwood St",
    "address_councildis": "E",
    "status": "Assigned to Contractor",
    "contractor": "Waste Pro",
    "rowid": "1157379",
    "final_x": "3712075.01406",
    "final_y": "556942.08169",
    "longitude": "-89.97057173243995",
    "latitude": "30.024433017145608",
    "geocoded_column": {
      "latitude": "30.024433017145608",
      "longitude": "-89.97057173243995"
    }
  },
  {
    "service_request": "2024-1157377",
    "request_type": "Trash/Recycling",
    "request_reason": "Request a Large Item Pick Up",
    "date_created": "2024-12-26T14:55:52.000",
    "date_modified": "2024-12-26T14:56:10.000",
    "request_status": "Pending",
    "responsible_agency": "Department of Sanitation",
    "final_address": "7601 Ebbtide Dr",
    "address_councildis": "E",
    "status": "Assigned to Contractor",
    "contractor": "Waste Pro",
    "rowid": "1157377",
    "final_x": "3702308.20285",
    "final_y": "561374.145502",
    "longitude": "-90.00127009626208",
    "latitude": "30.036935246114254",
    "geocoded_column": {
      "latitude": "30.036935246114254",
      "longitude": "-90.00127009626208"
    }
  },
  {
    "service_request": "2024-1157376",
    "request_type": "Streetlights",
    "request_reason": "Streetlight Outage/Malfunction",
    "date_created": "2024-12-26T14:55:51.000",
    "date_modified": "2024-12-26T14:55:52.000",
    "request_status": "Pending",
    "responsible_agency": "Department of Public Works",
    "final_address": "5016 Mirabeau Ave",
    "address_councildis": "D",
    "status": "Pending",
    "contractor": "Legacy Professional Services",
    "rowid": "1157376",
    "final_x": "3692385.82115",
    "final_y": "552072.633558",
    "longitude": "-90.03296045881203",
    "latitude": "30.0116730282238",
    "geocoded_column": {
      "latitude": "30.0116730282238",
      "longitude": "-90.03296045881203"
    }
  },
  {
    "service_request": "2024-1157375",
    "request_type": "Trash/Recycling",
    "request_reason": "Replace Trash Cart",
    "date_created": "2024-12-26T14:46:14.000",
    "date_modified": "2024-12-26T14:46:15.000",
    "request_status": "Pending",
    "responsible_agency": "Department of Sanitation",
    "final_address": "6314 Constance St",
    "address_councildis": "A",
    "status": "Assigned to Contractor",
    "contractor": "IV Waste",
    "rowid": "1157375",
    "final_x": "3663166.83027",
    "final_y": "519424.313463",
    "longitude": "-90.12636246490183",
    "latitude": "29.922780297606344",
    "geocoded_column": {
      "latitude": "29.922780297606344",
      "longitude": "-90.12636246490183"
    }
  },
  {
    "service_request": "2024-1157374",
    "request_type": "Trash/Recycling",
    "request_reason": "Repair Recycling Cart",
    "date_created": "2024-12-26T14:45:08.000",
    "date_modified": "2024-12-26T14:45:09.000",
    "request_status": "Pending",
    "responsible_agency": "Department of Sanitation",
    "final_address": "6314 Constance St",
    "address_councildis": "A",
    "status": "Pending",
    "rowid": "1157374",
    "final_x": "3663166.83027",
    "final_y": "519424.313463",
    "longitude": "-90.12636246490183",
    "latitude": "29.922780297606344",
    "geocoded_column": {
      "latitude": "29.922780297606344",
      "longitude": "-90.12636246490183"
    }
  },
  {
    "service_request": "2024-1157373",
    "request_type": "Trash/Recycling",
    "request_reason": "Replace Trash Cart",
    "date_created": "2024-12-26T14:44:23.000",
    "date_modified": "2024-12-26T14:44:24.000",
    "request_status": "Pending",
    "responsible_agency": "Department of Sanitation",
    "final_address": "3801 LaSalle St",
    "address_councildis": "B",
    "status": "Assigned to Contractor",
    "contractor": "IV Waste",
    "rowid": "1157373",
    "final_x": "3672148.77275",
    "final_y": "523907.806076",
    "longitude": "-90.09785736227678",
    "latitude": "29.934845255271412",
    "geocoded_column": {
      "latitude": "29.934845255271412",
      "longitude": "-90.09785736227678"
    }
  },
  {
    "service_request": "2024-1157372",
    "request_type": "Trash/Recycling",
    "request_reason": "Request a Large Item Pick Up",
    "date_created": "2024-12-26T14:42:22.000",
    "date_modified": "2024-12-26T14:42:23.000",
    "request_status": "Pending",
    "responsible_agency": "Department of Sanitation",
    "final_address": "1225 Odeon St",
    "address_councildis": "C",
    "status": "Assigned to Contractor",
    "contractor": "Richards Disposal",
    "rowid": "1157372",
    "final_x": "3695965.32106",
    "final_y": "526785.57747",
    "longitude": "-90.02256529464756",
    "latitude": "29.942030542977303",
    "geocoded_column": {
      "latitude": "29.942030542977303",
      "longitude": "-90.02256529464756"
    }
  },
  {
    "service_request": "2024-1157371",
    "request_type": "Drainage",
    "request_reason": "Alley Way Drainage Issue",
    "date_created": "2024-12-26T14:42:10.000",
    "date_modified": "2024-12-26T14:42:10.000",
    "request_status": "Pending",
    "responsible_agency": "Department of Public Works",
    "final_address": "5454 Pontchartrain Blvd",
    "address_councildis": "A",
    "status": "Pending",
    "rowid": "1157371",
    "final_x": "3665421.84992",
    "final_y": "543722.775758",
    "longitude": "-90.11843099333836",
    "latitude": "29.98952763408522",
    "geocoded_column": {
      "latitude": "29.98952763408522",
      "longitude": "-90.11843099333836"
    }
  },
  {
    "service_request": "2024-1157370",
    "request_type": "Trash/Recycling",
    "request_reason": "Request a Large Item Pick Up",
    "date_created": "2024-12-26T14:36:53.000",
    "date_modified": "2024-12-26T14:36:54.000",
    "request_status": "Pending",
    "responsible_agency": "Department of Sanitation",
    "final_address": "1225 Odeon St",
    "address_councildis": "C",
    "status": "Assigned to Contractor",
    "contractor": "Richards Disposal",
    "rowid": "1157370",
    "final_x": "3695965.32106",
    "final_y": "526785.57747",
    "longitude": "-90.02256529464756",
    "latitude": "29.942030542977303",
    "geocoded_column": {
      "latitude": "29.942030542977303",
      "longitude": "-90.02256529464756"
    }
  },
  {
    "service_request": "2024-1157369",
    "request_type": "Trash/Recycling",
    "request_reason": "Request a Large Item Pick Up",
    "date_created": "2024-12-26T14:36:04.000",
    "date_modified": "2024-12-26T14:36:06.000",
    "request_status": "Pending",
    "responsible_agency": "Department of Sanitation",
    "final_address": "8612 Chase St",
    "address_councildis": "E",
    "status": "Assigned to Contractor",
    "contractor": "Waste Pro",
    "rowid": "1157369",
    "final_x": "3703703.13412",
    "final_y": "563403.099168",
    "longitude": "-89.99678705114428",
    "latitude": "30.042469407740093",
    "geocoded_column": {
      "latitude": "30.042469407740093",
      "longitude": "-89.99678705114428"
    }
  },
  {
    "service_request": "2024-1157368",
    "request_type": "Trash/Recycling",
    "request_reason": "Request a Large Item Pick Up",
    "date_created": "2024-12-26T14:23:40.000",
    "date_modified": "2024-12-26T15:29:45.000",
    "case_close_date": "2024-12-26T09:29:45.000",
    "request_status": "Closed",
    "responsible_agency": "Department of Sanitation",
    "final_address": "4648 Crowder Blvd",
    "address_councildis": "E",
    "status": "Duplicate Request",
    "contractor": "Waste Pro",
    "contractor_action": "Duplicate",
    "rowid": "1157368",
    "final_x": "3706370.96907",
    "final_y": "555199.976025",
    "longitude": "-89.98865994933384",
    "latitude": "30.019828200556795",
    "geocoded_column": {
      "latitude": "30.019828200556795",
      "longitude": "-89.98865994933384"
    }
  },
  {
    "service_request": "2024-1157367",
    "request_type": "General Services",
    "request_reason": "General Service Request",
    "date_created": "2024-12-26T14:22:25.000",
    "date_modified": "2024-12-26T14:24:08.000",
    "case_close_date": "2024-12-26T08:24:08.000",
    "request_status": "Closed",
    "responsible_agency": "Orleans Parish Communication District",
    "final_address": "919 Robert St",
    "address_councildis": "B",
    "status": "Referred to Risk Management",
    "rowid": "1157367",
    "final_x": "3668699.00826",
    "final_y": "518761.095479",
    "longitude": "-90.10892187957232",
    "latitude": "29.920795266093204",
    "geocoded_column": {
      "latitude": "29.920795266093204",
      "longitude": "-90.10892187957232"
    }
  },
  {
    "service_request": "2024-1157366",
    "request_type": "Roads and Streets",
    "request_reason": "Pothole",
    "date_created": "2024-12-26T14:15:33.000",
    "date_modified": "2024-12-26T14:15:34.000",
    "request_status": "Pending",
    "responsible_agency": "Department of Public Works",
    "final_address": "919 Robert St",
    "address_councildis": "B",
    "status": "Pending",
    "rowid": "1157366",
    "final_x": "3668699.00826",
    "final_y": "518761.095479",
    "longitude": "-90.10892187957232",
    "latitude": "29.920795266093204",
    "geocoded_column": {
      "latitude": "29.920795266093204",
      "longitude": "-90.10892187957232"
    }
  },
  {
    "service_request": "2024-1157365",
    "request_type": "Trash/Recycling",
    "request_reason": "Repair Trash Cart",
    "date_created": "2024-12-26T14:13:42.000",
    "date_modified": "2024-12-26T14:13:43.000",
    "request_status": "Pending",
    "responsible_agency": "Department of Sanitation",
    "final_address": "5620 Rhodes Ave",
    "address_councildis": "C",
    "status": "Assigned to Contractor",
    "contractor": "Richards Disposal",
    "rowid": "1157365",
    "final_x": "3704325.97406",
    "final_y": "519877.76812",
    "longitude": "-89.99642359166207",
    "latitude": "29.922770858369592",
    "geocoded_column": {
      "latitude": "29.922770858369592",
      "longitude": "-89.99642359166207"
    }
  },
  {
    "service_request": "2024-1157364",
    "request_type": "Trash/Recycling",
    "request_reason": "Request a Large Item Pick Up",
    "date_created": "2024-12-26T14:12:56.000",
    "date_modified": "2024-12-26T14:52:06.000",
    "case_close_date": "2024-12-26T08:52:06.000",
    "request_status": "Closed",
    "responsible_agency": "Department of Sanitation",
    "final_address": "9830 Morrison Rd",
    "address_councildis": "E",
    "status": "Duplicate Request",
    "contractor": "Waste Pro",
    "contractor_action": "Duplicate",
    "rowid": "1157364",
    "final_x": "3707910.13188",
    "final_y": "562926.344224",
    "longitude": "-89.98350914893025",
    "latitude": "30.041022921529713",
    "geocoded_column": {
      "latitude": "30.041022921529713",
      "longitude": "-89.98350914893025"
    }
  },
  {
    "service_request": "2024-1157363",
    "request_type": "Trash/Recycling",
    "request_reason": "Request a Large Item Pick Up",
    "date_created": "2024-12-26T14:08:45.000",
    "date_modified": "2024-12-26T14:08:46.000",
    "request_status": "Pending",
    "responsible_agency": "Department of Sanitation",
    "final_address": "1032 Bourbon St",
    "address_councildis": "C",
    "status": "Assigned to Contractor",
    "rowid": "1157363",
    "final_x": "3683117.50517",
    "final_y": "533759.093893",
    "longitude": "-90.06288443750766",
    "latitude": "29.961603215673943",
    "geocoded_column": {
      "latitude": "29.961603215673943",
      "longitude": "-90.06288443750766"
    }
  },
  {
    "service_request": "2024-1157362",
    "request_type": "Trash/Recycling",
    "request_reason": "Damaged Caused By Contractor",
    "date_created": "2024-12-26T14:08:42.000",
    "date_modified": "2024-12-26T14:37:41.000",
    "case_close_date": "2024-12-26T08:37:41.000",
    "request_status": "Closed",
    "responsible_agency": "Department of Sanitation",
    "final_address": "1034 Milan St",
    "address_councildis": "B",
    "status": "Invalid Request",
    "contractor": "IV Waste",
    "contractor_action": "Invalid",
    "rowid": "1157362",
    "final_x": "3671699.18126",
    "final_y": "519502.728631",
    "longitude": "-90.09942647602084",
    "latitude": "29.9227460282912",
    "geocoded_column": {
      "latitude": "29.9227460282912",
      "longitude": "-90.09942647602084"
    }
  },
  {
    "service_request": "2024-1157361",
    "request_type": "Trash/Recycling",
    "request_reason": "Order Trash Cart",
    "date_created": "2024-12-26T13:58:51.000",
    "date_modified": "2024-12-26T13:58:52.000",
    "request_status": "Pending",
    "responsible_agency": "Department of Sanitation",
    "final_address": "5401 Desire Dr",
    "address_councildis": "D",
    "status": "Assigned to Contractor",
    "contractor": "IV Waste",
    "rowid": "1157361",
    "final_x": "3691098.91548",
    "final_y": "553605.180119",
    "longitude": "-90.03697153736209",
    "latitude": "30.015927057321665",
    "geocoded_column": {
      "latitude": "30.015927057321665",
      "longitude": "-90.03697153736209"
    }
  },
  {
    "service_request": "2024-1157360",
    "request_type": "Trash/Recycling",
    "request_reason": "Request a Large Item Pick Up",
    "date_created": "2024-12-26T13:58:48.000",
    "date_modified": "2024-12-26T13:58:49.000",
    "request_status": "Pending",
    "responsible_agency": "Department of Sanitation",
    "final_address": "5901 Spain St",
    "address_councildis": "D",
    "status": "Assigned to Contractor",
    "contractor": "IV Waste",
    "rowid": "1157360",
    "final_x": "3684743.07849",
    "final_y": "554733.805272",
    "longitude": "-90.05701338833678",
    "latitude": "30.019226550297507",
    "geocoded_column": {
      "latitude": "30.019226550297507",
      "longitude": "-90.05701338833678"
    }
  },
  {
    "service_request": "2024-1157359",
    "request_type": "Trash/Recycling",
    "request_reason": "Request a Large Item Pick Up",
    "date_created": "2024-12-26T13:56:54.000",
    "date_modified": "2024-12-26T13:56:55.000",
    "request_status": "Pending",
    "responsible_agency": "Department of Sanitation",
    "final_address": "821 Alix St",
    "address_councildis": "C",
    "status": "Assigned to Contractor",
    "contractor": "Richards Disposal",
    "rowid": "1157359",
    "final_x": "3688062.6847",
    "final_y": "530288.358337",
    "longitude": "-90.04739142835726",
    "latitude": "29.95190820129533",
    "geocoded_column": {
      "latitude": "29.95190820129533",
      "longitude": "-90.04739142835726"
    }
  },
  {
    "service_request": "2024-1157358",
    "request_type": "Trash/Recycling",
    "request_reason": "Replace Trash Cart",
    "date_created": "2024-12-26T13:55:10.000",
    "date_modified": "2024-12-26T13:55:11.000",
    "request_status": "Pending",
    "responsible_agency": "Department of Sanitation",
    "final_address": "2404 S Galvez St",
    "address_councildis": "B",
    "status": "Assigned to Contractor",
    "contractor": "IV Waste",
    "rowid": "1157358",
    "final_x": "3673229.52859",
    "final_y": "528721.233088",
    "longitude": "-90.09428110355285",
    "latitude": "29.94804851971",
    "geocoded_column": {
      "latitude": "29.94804851971",
      "longitude": "-90.09428110355285"
    }
  },
  {
    "service_request": "2024-1157357",
    "request_type": "Drainage",
    "request_reason": "Catch Basin Clogged",
    "date_created": "2024-12-26T13:53:23.000",
    "date_modified": "2024-12-26T13:53:24.000",
    "request_status": "Pending",
    "responsible_agency": "Department of Public Works",
    "final_address": "1780 Rosiere St",
    "address_councildis": "D",
    "status": "Pending",
    "rowid": "1157357",
    "final_x": "3678807.61749",
    "final_y": "542024.949836",
    "longitude": "-90.0762079724432",
    "latitude": "29.98446216924547",
    "geocoded_column": {
      "latitude": "29.98446216924547",
      "longitude": "-90.0762079724432"
    }
  },
  {
    "service_request": "2024-1157356",
    "request_type": "Trash/Recycling",
    "request_reason": "Request a Large Item Pick Up",
    "date_created": "2024-12-26T13:49:50.000",
    "date_modified": "2024-12-26T13:49:51.000",
    "request_status": "Pending",
    "responsible_agency": "Department of Sanitation",
    "final_address": "7708 Woodbine Dr",
    "address_councildis": "E",
    "status": "Assigned to Contractor",
    "contractor": "Waste Pro",
    "rowid": "1157356",
    "final_x": "3701815.91549",
    "final_y": "561577.244639",
    "longitude": "-90.00281836829033",
    "latitude": "30.037509416136853",
    "geocoded_column": {
      "latitude": "30.037509416136853",
      "longitude": "-90.00281836829033"
    }
  },
  {
    "service_request": "2024-1157355",
    "request_type": "Street and Traffic Signs",
    "request_reason": "Crosswalk Signage Damaged or Missing",
    "date_created": "2024-12-26T13:32:16.000",
    "date_modified": "2024-12-26T13:32:16.000",
    "request_status": "Pending",
    "responsible_agency": "Department of Public Works",
    "final_address": "934 City Park Ave",
    "address_councildis": "A",
    "status": "Pending",
    "rowid": "1157355",
    "final_x": "3672199.11451",
    "final_y": "541549.475468",
    "longitude": "-90.0970975507627",
    "latitude": "29.98335248133385",
    "geocoded_column": {
      "latitude": "29.98335248133385",
      "longitude": "-90.0970975507627"
    }
  },
  {
    "service_request": "2024-1157354",
    "request_type": "Trash/Recycling",
    "request_reason": "Request a Large Item Pick Up",
    "date_created": "2024-12-26T13:28:33.000",
    "date_modified": "2024-12-26T13:28:34.000",
    "request_status": "Pending",
    "responsible_agency": "Department of Sanitation",
    "final_address": "13134 Calais St",
    "address_councildis": "E",
    "status": "Assigned to Contractor",
    "contractor": "Waste Pro",
    "rowid": "1157354",
    "final_x": "3724560.39814",
    "final_y": "560677.854174",
    "longitude": "-89.93097623627068",
    "latitude": "30.034290666837236",
    "geocoded_column": {
      "latitude": "30.034290666837236",
      "longitude": "-89.93097623627068"
    }
  },
  {
    "service_request": "2024-1157353",
    "request_type": "Drainage",
    "request_reason": "Catch Basin Clogged",
    "date_created": "2024-12-26T13:15:48.000",
    "date_modified": "2024-12-26T13:15:48.000",
    "request_status": "Pending",
    "responsible_agency": "Department of Public Works",
    "final_address": "540 Napoleon Ave",
    "address_councildis": "B",
    "status": "Pending",
    "rowid": "1157353",
    "final_x": "3671081.94081",
    "final_y": "517677.653558",
    "longitude": "-90.10143680160265",
    "latitude": "29.91774591342626",
    "geocoded_column": {
      "latitude": "29.91774591342626",
      "longitude": "-90.10143680160265"
    }
  },
  {
    "service_request": "2024-1157352",
    "request_type": "Trash/Recycling",
    "request_reason": "Request a Large Item Pick Up",
    "date_created": "2024-12-26T13:14:48.000",
    "date_modified": "2024-12-26T13:14:49.000",
    "request_status": "Pending",
    "responsible_agency": "Department of Sanitation",
    "final_address": "1035 St Peter St",
    "address_councildis": "C",
    "status": "Assigned to Contractor",
    "rowid": "1157352",
    "final_x": "3681432.84604",
    "final_y": "533303.058244",
    "longitude": "-90.06822020624126",
    "latitude": "29.960400525569714",
    "geocoded_column": {
      "latitude": "29.960400525569714",
      "longitude": "-90.06822020624126"
    }
  },
  {
    "service_request": "2024-1157351",
    "request_type": "Drainage",
    "request_reason": "Catch Basin Clogged",
    "date_created": "2024-12-26T13:14:05.000",
    "date_modified": "2024-12-26T13:14:05.000",
    "request_status": "Pending",
    "responsible_agency": "Department of Public Works",
    "final_address": "522 Napoleon Ave",
    "address_councildis": "B",
    "status": "Pending",
    "rowid": "1157351",
    "final_x": "3671090.57102",
    "final_y": "517585.869366",
    "longitude": "-90.10141267550951",
    "latitude": "29.91749328082708",
    "geocoded_column": {
      "latitude": "29.91749328082708",
      "longitude": "-90.10141267550951"
    }
  },
  {
    "service_request": "2024-1157350",
    "request_type": "Trash/Recycling",
    "request_reason": "Missed Trash Pick-Up",
    "date_created": "2024-12-26T13:11:54.000",
    "date_modified": "2024-12-26T14:23:49.000",
    "case_close_date": "2024-12-26T08:23:49.000",
    "request_status": "Closed",
    "responsible_agency": "Department of Sanitation",
    "final_address": "521 Exposition Blvd",
    "address_councildis": "A",
    "status": "Invalid Request",
    "contractor": "IV Waste",
    "contractor_action": "Invalid",
    "rowid": "1157350",
    "final_x": "3662811.2137",
    "final_y": "519047.120311",
    "longitude": "-90.12749754136198",
    "latitude": "29.92175342914945",
    "geocoded_column": {
      "latitude": "29.92175342914945",
      "longitude": "-90.12749754136198"
    }
  },
  {
    "service_request": "2024-1157349",
    "request_type": "Christmas Tree Recycle Pick Up",
    "request_reason": "Christmas Tree Recycle Pick Up",
    "date_created": "2024-12-26T13:08:47.000",
    "date_modified": "2024-12-26T13:08:48.000",
    "request_status": "Pending",
    "responsible_agency": "Office of Resilience and Sustainability",
    "final_address": "2516 Calhoun St",
    "address_councildis": "A",
    "status": "Pending",
    "rowid": "1157349",
    "final_x": "3666220.44244",
    "final_y": "526247.932094",
    "longitude": "-90.11649463893934",
    "latitude": "29.941454283028495",
    "geocoded_column": {
      "latitude": "29.941454283028495",
      "longitude": "-90.11649463893934"
    }
  },
  {
    "service_request": "2024-1157348",
    "request_type": "Trash/Recycling",
    "request_reason": "Request a Large Item Pick Up",
    "date_created": "2024-12-26T13:06:39.000",
    "date_modified": "2024-12-26T13:06:40.000",
    "request_status": "Pending",
    "responsible_agency": "Department of Sanitation",
    "final_address": "220 S Telemachus St",
    "address_councildis": "B",
    "status": "Assigned to Contractor",
    "contractor": "IV Waste",
    "rowid": "1157348",
    "final_x": "3672059.42235",
    "final_y": "536880.356744",
    "longitude": "-90.09769780470698",
    "latitude": "29.970518134218025",
    "geocoded_column": {
      "latitude": "29.970518134218025",
      "longitude": "-90.09769780470698"
    }
  },
  {
    "service_request": "2024-1157347",
    "request_type": "Streetlights",
    "request_reason": "Streetlight Outage/Malfunction",
    "date_created": "2024-12-26T13:01:34.000",
    "date_modified": "2024-12-26T13:01:35.000",
    "request_status": "Pending",
    "responsible_agency": "Department of Public Works",
    "final_address": "4300 S Derbigny St",
    "address_councildis": "B",
    "status": "Pending",
    "contractor": "Legacy Professional Services",
    "rowid": "1157347",
    "final_x": "3670672.83227",
    "final_y": "526241.678014",
    "longitude": "-90.10243774918898",
    "latitude": "29.941306323579067",
    "geocoded_column": {
      "latitude": "29.941306323579067",
      "longitude": "-90.10243774918898"
    }
  },
  {
    "service_request": "2024-1157346",
    "request_type": "Roads and Streets",
    "request_reason": "Pothole",
    "date_created": "2024-12-26T12:59:24.000",
    "date_modified": "2024-12-26T12:59:49.000",
    "case_close_date": "2024-12-26T06:59:49.000",
    "request_status": "Closed",
    "responsible_agency": "Department of Public Works",
    "final_address": "7300 BLK Warfield St",
    "address_councildis": "E",
    "status": "Resolved",
    "rowid": "1157346",
    "final_x": "3702539.00663",
    "final_y": "553145.450583",
    "longitude": "-90.00084311470168",
    "latitude": "30.01430213281619",
    "geocoded_column": {
      "latitude": "30.01430213281619",
      "longitude": "-90.00084311470168"
    }
  },
  {
    "service_request": "2024-1157345",
    "request_type": "Trash/Recycling",
    "request_reason": "Request a Large Item Pick Up",
    "date_created": "2024-12-26T12:55:31.000",
    "date_modified": "2024-12-26T14:36:33.000",
    "case_close_date": "2024-12-26T08:36:33.000",
    "request_status": "Closed",
    "responsible_agency": "Department of Sanitation",
    "final_address": "4112 S Derbigny St",
    "address_councildis": "B",
    "status": "Duplicate Request",
    "contractor": "IV Waste",
    "contractor_action": "Invalid Request",
    "rowid": "1157345",
    "final_x": "3671253.8619",
    "final_y": "526307.35923",
    "longitude": "-90.10060109236817",
    "latitude": "29.9414697504494",
    "geocoded_column": {
      "latitude": "29.9414697504494",
      "longitude": "-90.10060109236817"
    }
  },
  {
    "service_request": "2024-1157344",
    "request_type": "Trash/Recycling",
    "request_reason": "Request a Large Item Pick Up",
    "date_created": "2024-12-26T12:53:45.000",
    "date_modified": "2024-12-26T12:53:45.000",
    "request_status": "Pending",
    "responsible_agency": "Department of Sanitation",
    "final_address": "4220 Cleveland Ave",
    "address_councildis": "A",
    "status": "Assigned to Contractor",
    "contractor": "IV Waste",
    "rowid": "1157344",
    "final_x": "3670174.49665",
    "final_y": "538463.158601",
    "longitude": "-90.10359698678779",
    "latitude": "29.97492606279656",
    "geocoded_column": {
      "latitude": "29.97492606279656",
      "longitude": "-90.10359698678779"
    }
  },
  {
    "service_request": "2024-1157343",
    "request_type": "Trash/Recycling",
    "request_reason": "Request a Large Item Pick Up",
    "date_created": "2024-12-26T12:53:15.000",
    "date_modified": "2024-12-26T12:53:16.000",
    "request_status": "Pending",
    "responsible_agency": "Department of Sanitation",
    "final_address": "3310 Broadway St",
    "address_councildis": "B",
    "status": "Assigned to Contractor",
    "contractor": "IV Waste",
    "rowid": "1157343",
    "final_x": "3668367.56167",
    "final_y": "532831.499972",
    "longitude": "-90.10949373615723",
    "latitude": "29.95949407458266",
    "geocoded_column": {
      "latitude": "29.95949407458266",
      "longitude": "-90.10949373615723"
    }
  },
  {
    "service_request": "2024-1157342",
    "request_type": "Trash/Recycling",
    "request_reason": "Request a Large Item Pick Up",
    "date_created": "2024-12-26T12:52:48.000",
    "date_modified": "2024-12-26T12:52:49.000",
    "request_status": "Pending",
    "responsible_agency": "Department of Sanitation",
    "final_address": "4112 S Derbigny St",
    "address_councildis": "B",
    "status": "Assigned to Contractor",
    "contractor": "IV Waste",
    "rowid": "1157342",
    "final_x": "3671253.8619",
    "final_y": "526307.35923",
    "longitude": "-90.10060109236817",
    "latitude": "29.9414697504494",
    "geocoded_column": {
      "latitude": "29.9414697504494",
      "longitude": "-90.10060109236817"
    }
  },
  {
    "service_request": "2024-1157341",
    "request_type": "Health Related Request",
    "request_reason": "Homeless Encampment Complaint",
    "date_created": "2024-12-26T12:50:46.000",
    "date_modified": "2024-12-26T12:50:47.000",
    "request_status": "Pending",
    "responsible_agency": "Health Department",
    "final_address": "BARRACKS ST & CHARTRES ST",
    "address_councildis": "C",
    "status": "Pending",
    "rowid": "1157341",
    "final_x": "3684159.8",
    "final_y": "533976.18",
    "longitude": "-90.05958542885114",
    "latitude": "29.962168310437804",
    "geocoded_column": {
      "latitude": "29.962168310437804",
      "longitude": "-90.05958542885114"
    }
  },
  {
    "service_request": "2024-1157340",
    "request_type": "Trash/Recycling",
    "request_reason": "MIssed Recycling Pick-Up",
    "date_created": "2024-12-26T12:47:31.000",
    "date_modified": "2024-12-26T14:19:16.000",
    "case_close_date": "2024-12-26T08:19:16.000",
    "request_status": "Closed",
    "responsible_agency": "Department of Sanitation",
    "final_address": "4430 Lancelot Dr, New Orleans, Louisiana, 70127",
    "address_councildis": "E",
    "status": "Invalid Request",
    "contractor": "Waste Pro",
    "contractor_action": "Invalid Request",
    "rowid": "1157340",
    "final_x": "3707544.13688",
    "final_y": "553760.070743",
    "longitude": "-89.98500668723098",
    "latitude": "30.01583111096896",
    "geocoded_column": {
      "latitude": "30.01583111096896",
      "longitude": "-89.98500668723098"
    }
  },
  {
    "service_request": "2024-1157339",
    "request_type": "Roads and Streets",
    "request_reason": "Pothole",
    "date_created": "2024-12-26T12:46:18.000",
    "date_modified": "2024-12-26T14:07:35.000",
    "request_status": "Pending",
    "responsible_agency": "Department of Public Works",
    "final_address": "6327 Mandeville St",
    "address_councildis": "D",
    "status": "Inspected",
    "rowid": "1157339",
    "final_x": "3684199.18089",
    "final_y": "556470.308826",
    "longitude": "-90.05867087988969",
    "latitude": "30.024017942072888",
    "geocoded_column": {
      "latitude": "30.024017942072888",
      "longitude": "-90.05867087988969"
    }
  },
  {
    "service_request": "2024-1157338",
    "request_type": "Trash/Recycling",
    "request_reason": "Request a Large Item Pick Up",
    "date_created": "2024-12-26T12:40:43.000",
    "date_modified": "2024-12-26T12:40:44.000",
    "request_status": "Pending",
    "responsible_agency": "Department of Sanitation",
    "final_address": "6911 Manchester St",
    "address_councildis": "E",
    "status": "Assigned to Contractor",
    "contractor": "Waste Pro",
    "rowid": "1157338",
    "final_x": "3698700.83069",
    "final_y": "560109.602013",
    "longitude": "-90.01271617062565",
    "latitude": "30.03357305699327",
    "geocoded_column": {
      "latitude": "30.03357305699327",
      "longitude": "-90.01271617062565"
    }
  },
  {
    "service_request": "2024-1157337",
    "request_type": "Trash/Recycling",
    "request_reason": "Request a Large Item Pick Up",
    "date_created": "2024-12-26T12:38:53.000",
    "date_modified": "2024-12-26T12:38:54.000",
    "request_status": "Pending",
    "responsible_agency": "Department of Sanitation",
    "final_address": "7220 Cove Dr",
    "address_councildis": "E",
    "status": "Assigned to Contractor",
    "contractor": "Waste Pro",
    "rowid": "1157337",
    "final_x": "3700027.25597",
    "final_y": "558958.079132",
    "longitude": "-90.00856661653798",
    "latitude": "30.030364712884634",
    "geocoded_column": {
      "latitude": "30.030364712884634",
      "longitude": "-90.00856661653798"
    }
  },
  {
    "service_request": "2024-1157336",
    "request_type": "Trash/Recycling",
    "request_reason": "Repair Trash Cart",
    "date_created": "2024-12-26T12:34:46.000",
    "date_modified": "2024-12-26T12:34:47.000",
    "request_status": "Pending",
    "responsible_agency": "Department of Sanitation",
    "final_address": "4601 Toulouse St",
    "address_councildis": "A",
    "status": "Assigned to Contractor",
    "contractor": "IV Waste",
    "rowid": "1157336",
    "final_x": "3670475.26759",
    "final_y": "541095.92974",
    "longitude": "-90.10255775989921",
    "latitude": "29.98215641170608",
    "geocoded_column": {
      "latitude": "29.98215641170608",
      "longitude": "-90.10255775989921"
    }
  },
  {
    "service_request": "2024-1157335",
    "request_type": "Trash/Recycling",
    "request_reason": "Request a Large Item Pick Up",
    "date_created": "2024-12-26T12:34:16.000",
    "date_modified": "2024-12-26T17:03:32.000",
    "case_close_date": "2024-12-26T11:03:32.000",
    "request_status": "Closed",
    "responsible_agency": "Department of Sanitation",
    "final_address": "1326 Gordon Street, New Orleans 70117 ",
    "address_councildis": "E",
    "status": "Duplicate Request",
    "contractor": "Waste Pro",
    "contractor_action": "Duplicate",
    "rowid": "1157335",
    "final_x": "3699490.37303",
    "final_y": "534390.301253",
    "longitude": "-90.01115897636232",
    "latitude": "29.96282949763429",
    "geocoded_column": {
      "latitude": "29.96282949763429",
      "longitude": "-90.01115897636232"
    }
  },
  {
    "service_request": "2024-1157334",
    "request_type": "Utility Poles",
    "request_reason": "Wires Sagging/Hanging Low",
    "date_created": "2024-12-26T12:33:52.000",
    "date_modified": "2024-12-26T12:34:04.000",
    "request_status": "Pending",
    "responsible_agency": "Utility Company Collective",
    "final_address": "4929 Tulip St",
    "address_councildis": "E",
    "status": "Pending",
    "rowid": "1157334",
    "final_x": "3702018.51383",
    "final_y": "555349.447065",
    "longitude": "-90.00240671766797",
    "latitude": "30.020378913791866",
    "geocoded_column": {
      "latitude": "30.020378913791866",
      "longitude": "-90.00240671766797"
    }
  },
  {
    "service_request": "2024-1157333",
    "request_type": "Trash/Recycling",
    "request_reason": "Missed Trash Pick-Up",
    "date_created": "2024-12-26T12:33:38.000",
    "date_modified": "2024-12-26T17:43:06.000",
    "case_close_date": "2024-12-26T11:43:06.000",
    "request_status": "Closed",
    "responsible_agency": "Department of Sanitation",
    "final_address": "8614 Grant St",
    "address_councildis": "E",
    "status": "Invalid Request",
    "contractor": "Waste Pro",
    "contractor_action": "Trash Cart Not Curbside",
    "rowid": "1157333",
    "final_x": "3707222.73252",
    "final_y": "554303.67164",
    "longitude": "-89.98600197600724",
    "latitude": "30.0173361986526",
    "geocoded_column": {
      "latitude": "30.0173361986526",
      "longitude": "-89.98600197600724"
    }
  },
  {
    "service_request": "2024-1157332",
    "request_type": "Trash/Recycling",
    "request_reason": "Replace Trash Cart",
    "date_created": "2024-12-26T12:31:31.000",
    "date_modified": "2024-12-26T12:31:32.000",
    "request_status": "Pending",
    "responsible_agency": "Department of Sanitation",
    "final_address": "1208 N Miro St",
    "address_councildis": "D",
    "status": "Assigned to Contractor",
    "contractor": "IV Waste",
    "rowid": "1157332",
    "final_x": "3679278.66434",
    "final_y": "537416.286472",
    "longitude": "-90.07488001782122",
    "latitude": "29.97177572164487",
    "geocoded_column": {
      "latitude": "29.97177572164487",
      "longitude": "-90.07488001782122"
    }
  },
  {
    "service_request": "2024-1157331",
    "request_type": "Trash/Recycling",
    "request_reason": "Request a Large Item Pick Up",
    "date_created": "2024-12-26T12:31:25.000",
    "date_modified": "2024-12-26T17:04:30.000",
    "case_close_date": "2024-12-26T11:04:30.000",
    "request_status": "Closed",
    "responsible_agency": "Department of Sanitation",
    "final_address": "1326 Gordon St",
    "address_councildis": "E",
    "status": "Duplicate Request",
    "contractor": "Waste Pro",
    "contractor_action": "Duplicate",
    "rowid": "1157331",
    "final_x": "3699490.37303",
    "final_y": "534390.301253",
    "longitude": "-90.01115897636232",
    "latitude": "29.96282949763429",
    "geocoded_column": {
      "latitude": "29.96282949763429",
      "longitude": "-90.01115897636232"
    }
  },
  {
    "service_request": "2024-1157330",
    "request_type": "Abandoned Vehicles",
    "request_reason": "Abandoned/Junk Vehicles",
    "date_created": "2024-12-26T12:30:57.000",
    "date_modified": "2024-12-26T12:30:58.000",
    "request_status": "Pending",
    "responsible_agency": "Department of Public Works",
    "final_address": "2715 Jackson Ave",
    "address_councildis": "B",
    "status": "Pending",
    "rowid": "1157330",
    "final_x": "3675012.33928",
    "final_y": "527205.896511",
    "longitude": "-90.08870401262764",
    "latitude": "29.94382871472536",
    "geocoded_column": {
      "latitude": "29.94382871472536",
      "longitude": "-90.08870401262764"
    }
  },
  {
    "service_request": "2024-1157329",
    "request_type": "Trash/Recycling",
    "request_reason": "Order Recycling Cart",
    "date_created": "2024-12-26T12:30:48.000",
    "date_modified": "2024-12-26T12:30:48.000",
    "request_status": "Pending",
    "responsible_agency": "Department of Sanitation",
    "final_address": "1208 N Miro St",
    "address_councildis": "D",
    "status": "Pending",
    "rowid": "1157329",
    "final_x": "3679278.66434",
    "final_y": "537416.286472",
    "longitude": "-90.07488001782122",
    "latitude": "29.97177572164487",
    "geocoded_column": {
      "latitude": "29.97177572164487",
      "longitude": "-90.07488001782122"
    }
  },
  {
    "service_request": "2024-1157328",
    "request_type": "Christmas Tree Recycle Pick Up",
    "request_reason": "Christmas Tree Recycle Pick Up",
    "date_created": "2024-12-26T12:30:37.000",
    "date_modified": "2024-12-26T12:30:37.000",
    "request_status": "Pending",
    "responsible_agency": "Office of Resilience and Sustainability",
    "final_address": "5421 S Miro St",
    "address_councildis": "A",
    "status": "Pending",
    "rowid": "1157328",
    "final_x": "3668571.24526",
    "final_y": "527701.448767",
    "longitude": "-90.1090236378354",
    "latitude": "29.94538212928248",
    "geocoded_column": {
      "latitude": "29.94538212928248",
      "longitude": "-90.1090236378354"
    }
  },
  {
    "service_request": "2024-1157327",
    "request_type": "Trash/Recycling",
    "request_reason": "Request a Large Item Pick Up",
    "date_created": "2024-12-26T12:30:01.000",
    "date_modified": "2024-12-26T12:30:02.000",
    "request_status": "Pending",
    "responsible_agency": "Department of Sanitation",
    "final_address": "1326 Gordon St",
    "address_councildis": "E",
    "status": "Assigned to Contractor",
    "contractor": "Waste Pro",
    "rowid": "1157327",
    "final_x": "3699490.37303",
    "final_y": "534390.301253",
    "longitude": "-90.01115897636232",
    "latitude": "29.96282949763429",
    "geocoded_column": {
      "latitude": "29.96282949763429",
      "longitude": "-90.01115897636232"
    }
  },
  {
    "service_request": "2024-1157326",
    "request_type": "Trash/Recycling",
    "request_reason": "Replace Trash Cart",
    "date_created": "2024-12-26T12:28:13.000",
    "date_modified": "2024-12-26T12:28:14.000",
    "request_status": "Pending",
    "responsible_agency": "Department of Sanitation",
    "final_address": "1407 Poland Ave",
    "address_councildis": "D",
    "status": "Assigned to Contractor",
    "contractor": "IV Waste",
    "rowid": "1157326",
    "final_x": "3693396.64304",
    "final_y": "536163.909639",
    "longitude": "-90.03033842148659",
    "latitude": "29.96789822947276",
    "geocoded_column": {
      "latitude": "29.96789822947276",
      "longitude": "-90.03033842148659"
    }
  },
  {
    "service_request": "2024-1157325",
    "request_type": "Trash/Recycling",
    "request_reason": "Order Recycling Cart",
    "date_created": "2024-12-26T12:27:49.000",
    "date_modified": "2024-12-26T12:27:49.000",
    "request_status": "Pending",
    "responsible_agency": "Department of Sanitation",
    "final_address": "128 S Bernadotte St",
    "address_councildis": "A",
    "status": "Pending",
    "rowid": "1157325",
    "final_x": "3668636.74503",
    "final_y": "539759.378186",
    "longitude": "-90.10840985017066",
    "latitude": "29.9785355192202",
    "geocoded_column": {
      "latitude": "29.9785355192202",
      "longitude": "-90.10840985017066"
    }
  },
  {
    "service_request": "2024-1157324",
    "request_type": "Trash/Recycling",
    "request_reason": "Request a Large Item Pick Up",
    "date_created": "2024-12-26T12:27:02.000",
    "date_modified": "2024-12-26T12:27:03.000",
    "request_status": "Pending",
    "responsible_agency": "Department of Sanitation",
    "final_address": "1718 N Robertson St",
    "address_councildis": "C",
    "status": "Assigned to Contractor",
    "contractor": "IV Waste",
    "rowid": "1157324",
    "final_x": "3683196.38293",
    "final_y": "537543.145736",
    "longitude": "-90.06250282642286",
    "latitude": "29.97200564817391",
    "geocoded_column": {
      "latitude": "29.97200564817391",
      "longitude": "-90.06250282642286"
    }
  },
  {
    "service_request": "2024-1157323",
    "request_type": "Trash/Recycling",
    "request_reason": "Order Trash Cart",
    "date_created": "2024-12-26T12:26:47.000",
    "date_modified": "2024-12-26T12:27:06.000",
    "request_status": "Pending",
    "responsible_agency": "Department of Sanitation",
    "final_address": "1527 Deslonde St",
    "address_councildis": "E",
    "status": "Assigned to Contractor",
    "contractor": "Waste Pro",
    "rowid": "1157323",
    "final_x": "3695894.03389",
    "final_y": "536099.915079",
    "longitude": "-90.02245393302734",
    "latitude": "29.96764394311479",
    "geocoded_column": {
      "latitude": "29.96764394311479",
      "longitude": "-90.02245393302734"
    }
  },
  {
    "service_request": "2024-1157322",
    "request_type": "Trash/Recycling",
    "request_reason": "Request a Large Item Pick Up",
    "date_created": "2024-12-26T12:25:47.000",
    "date_modified": "2024-12-26T12:25:48.000",
    "request_status": "Pending",
    "responsible_agency": "Department of Sanitation",
    "final_address": "5300 Norgate Dr",
    "address_councildis": "E",
    "status": "Assigned to Contractor",
    "contractor": "Waste Pro",
    "rowid": "1157322",
    "final_x": "3707316.3642",
    "final_y": "557463.235931",
    "longitude": "-89.98558872040506",
    "latitude": "30.026020745012026",
    "geocoded_column": {
      "latitude": "30.026020745012026",
      "longitude": "-89.98558872040506"
    }
  },
  {
    "service_request": "2024-1157321",
    "request_type": "Trash/Recycling",
    "request_reason": "Missed Trash Pick-Up",
    "date_created": "2024-12-26T12:25:16.000",
    "date_modified": "2024-12-26T12:25:17.000",
    "request_status": "Pending",
    "responsible_agency": "Department of Sanitation",
    "final_address": "4663 Read Blvd",
    "address_councildis": "E",
    "status": "Assigned to Contractor",
    "contractor": "Waste Pro",
    "rowid": "1157321",
    "final_x": "3712908.58315",
    "final_y": "555778.032985",
    "longitude": "-89.96798165805949",
    "latitude": "30.02120505659953",
    "geocoded_column": {
      "latitude": "30.02120505659953",
      "longitude": "-89.96798165805949"
    }
  },
  {
    "service_request": "2024-1157320",
    "request_type": "Trash/Recycling",
    "request_reason": "Request a Large Item Pick Up",
    "date_created": "2024-12-26T12:23:08.000",
    "date_modified": "2024-12-26T12:23:09.000",
    "request_status": "Pending",
    "responsible_agency": "Department of Sanitation",
    "final_address": "13001 Sevres St",
    "address_councildis": "E",
    "status": "Assigned to Contractor",
    "contractor": "Waste Pro",
    "rowid": "1157320",
    "final_x": "3723874.14854",
    "final_y": "560182.019037",
    "longitude": "-89.93316399353245",
    "latitude": "30.032950398591936",
    "geocoded_column": {
      "latitude": "30.032950398591936",
      "longitude": "-89.93316399353245"
    }
  },
  {
    "service_request": "2024-1157319",
    "request_type": "Christmas Tree Recycle Pick Up",
    "request_reason": "Christmas Tree Recycle Pick Up",
    "date_created": "2024-12-26T12:21:47.000",
    "date_modified": "2024-12-26T12:21:47.000",
    "request_status": "Pending",
    "responsible_agency": "Office of Resilience and Sustainability",
    "final_address": "5958 Louis Xiv St",
    "address_councildis": "A",
    "status": "Pending",
    "rowid": "1157319",
    "final_x": "3667963.60993",
    "final_y": "547118.412881",
    "longitude": "-90.1102877800883",
    "latitude": "29.998790123410615",
    "geocoded_column": {
      "latitude": "29.998790123410615",
      "longitude": "-90.1102877800883"
    }
  },
  {
    "service_request": "2024-1157318",
    "request_type": "Road Striping",
    "request_reason": "Lane Striping or other Pavement Markings",
    "date_created": "2024-12-26T12:21:21.000",
    "date_modified": "2024-12-26T12:21:21.000",
    "request_status": "Pending",
    "responsible_agency": "Department of Public Works",
    "final_address": "928 St Ann St",
    "address_councildis": "C",
    "status": "Pending",
    "rowid": "1157318",
    "final_x": "3682002.70792",
    "final_y": "533310.100548",
    "longitude": "-90.0664204548366",
    "latitude": "29.960402576888974",
    "geocoded_column": {
      "latitude": "29.960402576888974",
      "longitude": "-90.0664204548366"
    }
  },
  {
    "service_request": "2024-1157317",
    "request_type": "Christmas Tree Recycle Pick Up",
    "request_reason": "Christmas Tree Recycle Pick Up",
    "date_created": "2024-12-26T12:17:03.000",
    "date_modified": "2024-12-26T12:17:04.000",
    "request_status": "Pending",
    "responsible_agency": "Office of Resilience and Sustainability",
    "final_address": "7151 Neptune Ct",
    "address_councildis": "E",
    "status": "Pending",
    "rowid": "1157317",
    "final_x": "3701695.5425",
    "final_y": "559604.498461",
    "longitude": "-90.00327113932906",
    "latitude": "30.03208897517481",
    "geocoded_column": {
      "latitude": "30.03208897517481",
      "longitude": "-90.00327113932906"
    }
  },
  {
    "service_request": "2024-1157316",
    "request_type": "Trash/Recycling",
    "request_reason": "Repair Trash Cart",
    "date_created": "2024-12-26T12:15:14.000",
    "date_modified": "2024-12-26T12:15:15.000",
    "request_status": "Pending",
    "responsible_agency": "Department of Sanitation",
    "final_address": "1022 Antonine St",
    "address_councildis": "B",
    "status": "Assigned to Contractor",
    "contractor": "IV Waste",
    "rowid": "1157316",
    "final_x": "3673893.32334",
    "final_y": "519019.744503",
    "longitude": "-90.09251693687122",
    "latitude": "29.921352825597875",
    "geocoded_column": {
      "latitude": "29.921352825597875",
      "longitude": "-90.09251693687122"
    }
  },