[
  {
    "service_request": "2025-1196977",
    "request_type": "Trash/Recycling",
    "request_reason": "Order Second Trash Cart",
    "date_created": "2025-06-01T23:23:46.000",
    "date_modified": "2025-06-01T23:23:48.000",
    "request_status": "Pending",
    "responsible_agency": "Department of Sanitation",
    "final_address": "2049 Pelopidas St",
    "address_councildis": "D",
    "status": "Assigned to Contractor",
    "contractor": "IV Waste",
    "rowid": "1196977",
    "final_x": "3683074.06856",
    "final_y": "548049.428434",
    "longitude": "-90.06252112072076",
    "latitude": "30.000897949562376",
    "geocoded_column": {
      "latitude": "30.000897949562376",
      "longitude": "-90.06252112072076"
    }
  },
  {
    "service_request": "2025-1196976",
    "request_type": "Streetlights",
    "request_reason": "Streetlight Outage/Malfunction",
    "date_created": "2025-06-01T23:18:18.000",
    "date_modified": "2025-06-01T23:18:21.000",
    "request_status": "Pending",
    "responsible_agency": "Department of Public Works",
    "final_address": "825 Lafayette St",
    "address_councildis": "B",
    "status": "Pending",
    "contractor": "Legacy Professional Services",
    "rowid": "1196976",
    "final_x": "3680023.26549",
    "final_y": "529078.1024",
    "longitude": "-90.07281813930165",
    "latitude": "29.94882604087949",
    "geocoded_column": {
      "latitude": "29.94882604087949",
      "longitude": "-90.07281813930165"
    }
  },
  {
    "service_request": "2025-1196975",
    "request_type": "Abandoned Vehicles",
    "request_reason": "Abandoned/Junk Vehicles",
    "date_created": "2025-06-01T23:09:35.000",
    "date_modified": "2025-06-01T23:09:38.000",
    "request_status": "Pending",
    "responsible_agency": "Department of Public Works",
    "final_address": "2603 Napoleon Ave",
    "address_councildis": "B",
    "status": "Pending",
    "rowid": "1196975",
    "final_x": "3670587.9579",
    "final_y": "524441.417532",
    "longitude": "-90.10276675490098",
    "latitude": "29.936358696922387",
    "geocoded_column": {
      "latitude": "29.936358696922387",
      "longitude": "-90.10276675490098"
    }
  },
  {
    "service_request": "2025-1196974",
    "request_type": "Trash/Recycling",
    "request_reason": "Illegal Dumping",
    "date_created": "2025-06-01T22:37:24.000",
    "date_modified": "2025-06-01T22:37:27.000",
    "request_status": "Pending",
    "responsible_agency": "Department of Sanitation",
    "final_address": "2038 St Ferdinand St",
    "address_councildis": "D",
    "status": "Pending",
    "rowid": "1196974",
    "final_x": "3688630.93391",
    "final_y": "540019.830987",
    "longitude": "-90.04525175421071",
    "latitude": "29.978648808020875",
    "geocoded_column": {
      "latitude": "29.978648808020875",
      "longitude": "-90.04525175421071"
    }
  },
  {
    "service_request": "2025-1196973",
    "request_type": "Parks & Parkways",
    "request_reason": "Request Grass Cutting Service (City Owned Property)",
    "date_created": "2025-06-01T22:25:12.000",
    "date_modified": "2025-06-01T22:25:14.000",
    "request_status": "Pending",
    "responsible_agency": "Department of Parks & Parkway",
    "final_address": "2038 St Ferdinand St",
    "address_councildis": "D",
    "status": "Pending",
    "rowid": "1196973",
    "final_x": "3688630.93391",
    "final_y": "540019.830987",
    "longitude": "-90.04525175421071",
    "latitude": "29.978648808020875",
    "geocoded_column": {
      "latitude": "29.978648808020875",
      "longitude": "-90.04525175421071"
    }
  },
  {
    "service_request": "2025-1196972",
    "request_type": "Trash/Recycling",
    "request_reason": "Request a Large Item Pick Up",
    "date_created": "2025-06-01T22:12:15.000",
    "date_modified": "2025-06-01T22:12:17.000",
    "request_status": "Pending",
    "responsible_agency": "Department of Sanitation",
    "final_address": "15 S Oak Ridge Ct",
    "address_councildis": "E",
    "status": "Assigned to Contractor",
    "contractor": "Waste Pro",
    "rowid": "1196972",
    "final_x": "3713572.95634",
    "final_y": "567615.680868",
    "longitude": "-89.96543592644186",
    "latitude": "30.05373205354316",
    "geocoded_column": {
      "latitude": "30.05373205354316",
      "longitude": "-89.96543592644186"
    }
  },
  {
    "service_request": "2025-1196971",
    "request_type": "Roads and Streets",
    "request_reason": "Street Subsidence (Sinking)",
    "date_created": "2025-06-01T21:53:36.000",
    "date_modified": "2025-06-01T21:53:38.000",
    "request_status": "Pending",
    "responsible_agency": "Department of Public Works",
    "final_address": "2400 N Broad St",
    "address_councildis": "D",
    "status": "Pending",
    "rowid": "1196971",
    "final_x": "3681949.93896",
    "final_y": "543915.765838",
    "longitude": "-90.06621673670527",
    "latitude": "29.989566079204355",
    "geocoded_column": {
      "latitude": "29.989566079204355",
      "longitude": "-90.06621673670527"
    }
  },
  {
    "service_request": "2025-1196970",
    "request_type": "Drainage",
    "request_reason": "Catch Basin Clogged",
    "date_created": "2025-06-01T21:43:18.000",
    "date_modified": "2025-06-01T21:43:20.000",
    "request_status": "Pending",
    "responsible_agency": "Sewerage & Water Board",
    "final_address": "4870 Cerise Ave",
    "address_councildis": "E",
    "status": "Pending",
    "rowid": "1196970",
    "final_x": "3708451.02276",
    "final_y": "556535.740634",
    "longitude": "-89.98203793898391",
    "latitude": "30.023433750459233",
    "geocoded_column": {
      "latitude": "30.023433750459233",
      "longitude": "-89.98203793898391"
    }
  },
  {
    "service_request": "2025-1196969",
    "request_type": "Street and Traffic Signs",
    "request_reason": "Street Name Sign Damaged or Missing",
    "date_created": "2025-06-01T21:14:08.000",
    "date_modified": "2025-06-01T21:14:10.000",
    "request_status": "Pending",
    "responsible_agency": "Department of Public Works",
    "final_address": "419 14Th St",
    "address_councildis": "A",
    "status": "Pending",
    "rowid": "1196969",
    "final_x": "3664623.24704",
    "final_y": "548199.27637",
    "longitude": "-90.12080393498131",
    "latitude": "30.001859740889465",
    "geocoded_column": {
      "latitude": "30.001859740889465",
      "longitude": "-90.12080393498131"
    }
  },
  {
    "service_request": "2025-1196968",
    "request_type": "Trash/Recycling",
    "request_reason": "Request a Large Item Pick Up",
    "date_created": "2025-06-01T21:04:52.000",
    "date_modified": "2025-06-01T21:04:54.000",
    "request_status": "Pending",
    "responsible_agency": "Department of Sanitation",
    "final_address": "1941 Congress St",
    "address_councildis": "D",
    "status": "Assigned to Contractor",
    "contractor": "IV Waste",
    "rowid": "1196968",
    "final_x": "3691583.58966",
    "final_y": "538904.589898",
    "longitude": "-90.03596608384248",
    "latitude": "29.97549069564322",
    "geocoded_column": {
      "latitude": "29.97549069564322",
      "longitude": "-90.03596608384248"
    }
  },
  {
    "service_request": "2025-1196967",
    "request_type": "Trash/Recycling",
    "request_reason": "Repair Trash Cart",
    "date_created": "2025-06-01T20:16:55.000",
    "date_modified": "2025-06-01T20:16:57.000",
    "request_status": "Pending",
    "responsible_agency": "Department of Sanitation",
    "final_address": "4324 Wellington Ave",
    "address_councildis": "D",
    "status": "Assigned to Contractor",
    "contractor": "IV Waste",
    "rowid": "1196967",
    "final_x": "3677166.9876",
    "final_y": "548258.534034",
    "longitude": "-90.08117483795439",
    "latitude": "30.001651731906986",
    "geocoded_column": {
      "latitude": "30.001651731906986",
      "longitude": "-90.08117483795439"
    }
  },
  {
    "service_request": "2025-1196966",
    "request_type": "Roads and Streets",
    "request_reason": "Pothole",
    "date_created": "2025-06-01T20:02:59.000",
    "date_modified": "2025-06-01T20:03:02.000",
    "request_status": "Pending",
    "responsible_agency": "Department of Public Works",
    "final_address": "703 N Broad St",
    "address_councildis": "A",
    "status": "Pending",
    "rowid": "1196966",
    "final_x": "3676607.6059",
    "final_y": "536951.748488",
    "longitude": "-90.08333164576663",
    "latitude": "29.970578793399966",
    "geocoded_column": {
      "latitude": "29.970578793399966",
      "longitude": "-90.08333164576663"
    }
  },
  {
    "service_request": "2025-1196965",
    "request_type": "Trash/Recycling",
    "request_reason": "Request a Large Item Pick Up",
    "date_created": "2025-06-01T19:49:21.000",
    "date_modified": "2025-06-01T19:49:24.000",
    "request_status": "Pending",
    "responsible_agency": "Department of Sanitation",
    "final_address": "3013 Orleans Ave",
    "address_councildis": "A",
    "status": "Assigned to Contractor",
    "contractor": "IV Waste",
    "rowid": "1196965",
    "final_x": "3675713.96033",
    "final_y": "537886.008201",
    "longitude": "-90.08612177089002",
    "latitude": "29.97317446497651",
    "geocoded_column": {
      "latitude": "29.97317446497651",
      "longitude": "-90.08612177089002"
    }
  },
  {
    "service_request": "2025-1196964",
    "request_type": "General Services",
    "request_reason": "General Service Request",
    "date_created": "2025-06-01T19:15:49.000",
    "date_modified": "2025-06-01T19:15:51.000",
    "request_status": "Pending",
    "responsible_agency": "Orleans Parish Communication District",
    "final_address": "941 Bourbon St",
    "address_councildis": "C",
    "status": "Pending",
    "rowid": "1196964",
    "final_x": "3682900.95292",
    "final_y": "533555.780869",
    "longitude": "-90.06357538722466",
    "latitude": "29.96105077470387",
    "geocoded_column": {
      "latitude": "29.96105077470387",
      "longitude": "-90.06357538722466"
    }
  },
  {
    "service_request": "2025-1196963",
    "request_type": "Trash/Recycling",
    "request_reason": "Request a Large Item Pick Up",
    "date_created": "2025-06-01T19:05:02.000",
    "date_modified": "2025-06-01T19:05:04.000",
    "request_status": "Pending",
    "responsible_agency": "Department of Sanitation",
    "final_address": "5400 St Claude Ave",
    "address_councildis": "E",
    "status": "Assigned to Contractor",
    "contractor": "Waste Pro",
    "rowid": "1196963",
    "final_x": "3697202.46218",
    "final_y": "533902.895493",
    "longitude": "-90.01840152863893",
    "latitude": "29.961561697367742",
    "geocoded_column": {
      "latitude": "29.961561697367742",
      "longitude": "-90.01840152863893"
    }
  },
  {
    "service_request": "2025-1196962",
    "request_type": "Trash/Recycling",
    "request_reason": "Request a Large Item Pick Up",
    "date_created": "2025-06-01T18:56:38.000",
    "date_modified": "2025-06-01T18:56:39.000",
    "request_status": "Pending",
    "responsible_agency": "Department of Sanitation",
    "final_address": "2730 Dumaine St",
    "address_councildis": "A",
    "status": "Assigned to Contractor",
    "contractor": "IV Waste",
    "rowid": "1196962",
    "final_x": "3676881.44475",
    "final_y": "537684.479624",
    "longitude": "-90.08244156792533",
    "latitude": "29.97258533684468",
    "geocoded_column": {
      "latitude": "29.97258533684468",
      "longitude": "-90.08244156792533"
    }
  },
  {
    "service_request": "2025-1196961",
    "request_type": "Trash/Recycling",
    "request_reason": "Request a Large Item Pick Up",
    "date_created": "2025-06-01T18:52:00.000",
    "date_modified": "2025-06-01T18:52:02.000",
    "request_status": "Pending",
    "responsible_agency": "Department of Sanitation",
    "final_address": "5413 Burgundy St",
    "address_councildis": "E",
    "status": "Assigned to Contractor",
    "contractor": "Waste Pro",
    "rowid": "1196961",
    "final_x": "3697069.76682",
    "final_y": "533200.837316",
    "longitude": "-90.0188459887216",
    "latitude": "29.95963547257295",
    "geocoded_column": {
      "latitude": "29.95963547257295",
      "longitude": "-90.0188459887216"
    }
  },
  {
    "service_request": "2025-1196960",
    "request_type": "Trash/Recycling",
    "request_reason": "Replace Trash Cart",
    "date_created": "2025-06-01T18:45:19.000",
    "date_modified": "2025-06-01T18:45:23.000",
    "request_status": "Pending",
    "responsible_agency": "Department of Sanitation",
    "final_address": "1835 Independence St",
    "address_councildis": "D",
    "status": "Assigned to Contractor",
    "contractor": "IV Waste",
    "rowid": "1196960",
    "final_x": "3691719.24176",
    "final_y": "538427.824649",
    "longitude": "-90.03555471331873",
    "latitude": "29.97417553669906",
    "geocoded_column": {
      "latitude": "29.97417553669906",
      "longitude": "-90.03555471331873"
    }
  },
  {
    "service_request": "2025-1196959",
    "request_type": "Trash/Recycling",
    "request_reason": "Request a Large Item Pick Up",
    "date_created": "2025-06-01T18:43:32.000",
    "date_modified": "2025-06-01T18:43:34.000",
    "request_status": "Pending",
    "responsible_agency": "Department of Sanitation",
    "final_address": "5027 Tchoupitoulas St",
    "address_councildis": "B",
    "status": "Assigned to Contractor",
    "contractor": "IV Waste",
    "rowid": "1196959",
    "final_x": "3668370.31521",
    "final_y": "517252.007477",
    "longitude": "-90.11001027262392",
    "latitude": "29.916655402742535",
    "geocoded_column": {
      "latitude": "29.916655402742535",
      "longitude": "-90.11001027262392"
    }
  },
  {
    "service_request": "2025-1196958",
    "request_type": "Trash/Recycling",
    "request_reason": "Order Trash Cart",
    "date_created": "2025-06-01T18:07:57.000",
    "date_modified": "2025-06-01T18:07:59.000",
    "request_status": "Pending",
    "responsible_agency": "Department of Sanitation",
    "final_address": "7941 Devine Ave",
    "address_councildis": "E",
    "status": "Assigned to Contractor",
    "contractor": "Waste Pro",
    "rowid": "1196958",
    "final_x": "3705165.00081",
    "final_y": "564101.731873",
    "longitude": "-89.99214116981864",
    "latitude": "30.044343404004003",
    "geocoded_column": {
      "latitude": "30.044343404004003",
      "longitude": "-89.99214116981864"
    }
  },
  {
    "service_request": "2025-1196957",
    "request_type": "Health Related Request",
    "request_reason": "Noise Ordinance Complaint",
    "date_created": "2025-06-01T18:06:39.000",
    "date_modified": "2025-06-01T18:06:40.000",
    "request_status": "Pending",
    "responsible_agency": "Health Department",
    "final_address": "3111 Grand-Route St John St",
    "address_councildis": "A",
    "status": "Pending",
    "rowid": "1196957",
    "final_x": "3676507.66805",
    "final_y": "540406.357323",
    "longitude": "-90.0835282619005",
    "latitude": "29.980080781175236",
    "geocoded_column": {
      "latitude": "29.980080781175236",
      "longitude": "-90.0835282619005"
    }
  },
  {
    "service_request": "2025-1196956",
    "request_type": "Trash/Recycling",
    "request_reason": "Return Recycling Cart",
    "date_created": "2025-06-01T18:04:43.000",
    "date_modified": "2025-06-01T18:04:44.000",
    "request_status": "Pending",
    "responsible_agency": "Department of Sanitation",
    "final_address": "1932 Bayou Rd",
    "address_councildis": "D",
    "status": "Pending",
    "rowid": "1196956",
    "final_x": "3680289.28936",
    "final_y": "536935.580296",
    "longitude": "-90.07170502383752",
    "latitude": "29.970423386610097",
    "geocoded_column": {
      "latitude": "29.970423386610097",
      "longitude": "-90.07170502383752"
    }
  },
  {
    "service_request": "2025-1196955",
    "request_type": "Trash/Recycling",
    "request_reason": "Request a Large Item Pick Up",
    "date_created": "2025-06-01T18:04:29.000",
    "date_modified": "2025-06-01T18:04:31.000",
    "request_status": "Pending",
    "responsible_agency": "Department of Sanitation",
    "final_address": "7941 Devine Ave",
    "address_councildis": "E",
    "status": "Assigned to Contractor",
    "contractor": "Waste Pro",
    "rowid": "1196955",
    "final_x": "3705165.00081",
    "final_y": "564101.731873",
    "longitude": "-89.99214116981864",
    "latitude": "30.044343404004003",
    "geocoded_column": {
      "latitude": "30.044343404004003",
      "longitude": "-89.99214116981864"
    }
  },
  {
    "service_request": "2025-1196954",
    "request_type": "Trash/Recycling",
    "request_reason": "Replace Trash Cart",
    "date_created": "2025-06-01T17:51:37.000",
    "date_modified": "2025-06-01T17:51:38.000",
    "request_status": "Pending",
    "responsible_agency": "Department of Sanitation",
    "final_address": "210 N Lopez St Apt A",
    "address_councildis": "B",
    "status": "Assigned to Contractor",
    "contractor": "IV Waste",
    "rowid": "1196954",
    "final_x": "3674214.13518",
    "final_y": "536627.313991",
    "longitude": "-90.09090162796316",
    "latitude": "29.969758286207966",
    "geocoded_column": {
      "latitude": "29.969758286207966",
      "longitude": "-90.09090162796316"
    }
  },
  {
    "service_request": "2025-1196953",
    "request_type": "Trash/Recycling",
    "request_reason": "Request a Large Item Pick Up",
    "date_created": "2025-06-01T17:46:34.000",
    "date_modified": "2025-06-01T17:46:36.000",
    "request_status": "Pending",
    "responsible_agency": "Department of Sanitation",
    "final_address": "7410 Shaw Ave",
    "address_councildis": "E",
    "status": "Assigned to Contractor",
    "contractor": "Waste Pro",
    "rowid": "1196953",
    "final_x": "3707480.01348",
    "final_y": "563643.234593",
    "longitude": "-89.98484179777543",
    "latitude": "30.04300800979971",
    "geocoded_column": {
      "latitude": "30.04300800979971",
      "longitude": "-89.98484179777543"
    }
  },
  {
    "service_request": "2025-1196952",
    "request_type": "Parks & Parkways",
    "request_reason": "Request Tree Service (Right of Way/Public Property)",
    "date_created": "2025-06-01T17:38:04.000",
    "date_modified": "2025-06-01T17:38:06.000",
    "request_status": "Pending",
    "responsible_agency": "Department of Parks & Parkway",
    "final_address": "1300 Treme St",
    "address_councildis": "C",
    "status": "Pending",
    "rowid": "1196952",
    "final_x": "3682185.7316",
    "final_y": "535554.563014",
    "longitude": "-90.06576409908153",
    "latitude": "29.96656851384437",
    "geocoded_column": {
      "latitude": "29.96656851384437",
      "longitude": "-90.06576409908153"
    }
  },
  {
    "service_request": "2025-1196951",
    "request_type": "Streetlights",
    "request_reason": "Streetlight Outage/Malfunction",
    "date_created": "2025-06-01T17:33:56.000",
    "date_modified": "2025-06-01T17:33:58.000",
    "request_status": "Pending",
    "responsible_agency": "Department of Public Works",
    "final_address": "99 Spanish Fort Blvd",
    "address_councildis": "D",
    "status": "Pending",
    "contractor": "Legacy Professional Services",
    "rowid": "1196951",
    "final_x": "3673971.11432",
    "final_y": "555852.578073",
    "longitude": "-90.09101083610955",
    "latitude": "30.022628291715133",
    "geocoded_column": {
      "latitude": "30.022628291715133",
      "longitude": "-90.09101083610955"
    }
  },
  {
    "service_request": "2025-1196950",
    "request_type": "Trash/Recycling",
    "request_reason": "Request a Large Item Pick Up",
    "date_created": "2025-06-01T17:24:20.000",
    "date_modified": "2025-06-01T17:24:22.000",
    "request_status": "Pending",
    "responsible_agency": "Department of Sanitation",
    "final_address": "7441 Hampson St",
    "address_councildis": "A",
    "status": "Assigned to Contractor",
    "contractor": "IV Waste",
    "rowid": "1196950",
    "final_x": "3662458.61024",
    "final_y": "525638.192957",
    "longitude": "-90.1283917818637",
    "latitude": "29.939887005445346",
    "geocoded_column": {
      "latitude": "29.939887005445346",
      "longitude": "-90.1283917818637"
    }
  },
  {
    "service_request": "2025-1196949",
    "request_type": "Street and Traffic Signs",
    "request_reason": "Stop Sign Missing or Damaged",
    "date_created": "2025-06-01T17:17:41.000",
    "date_modified": "2025-06-01T17:17:43.000",
    "request_status": "Pending",
    "responsible_agency": "Department of Public Works",
    "final_address": "2400 N Broad St",
    "address_councildis": "D",
    "status": "Pending",
    "rowid": "1196949",
    "final_x": "3681949.93896",
    "final_y": "543915.765838",
    "longitude": "-90.06621673670527",
    "latitude": "29.989566079204355",
    "geocoded_column": {
      "latitude": "29.989566079204355",
      "longitude": "-90.06621673670527"
    }
  },
  {
    "service_request": "2025-1196948",
    "request_type": "Streetlights",
    "request_reason": "Streetlight Outage/Malfunction",
    "date_created": "2025-06-01T17:00:52.000",
    "date_modified": "2025-06-01T17:00:54.000",
    "request_status": "Pending",
    "responsible_agency": "Department of Public Works",
    "final_address": "7160 Bundy Rd",
    "address_councildis": "E",
    "status": "Pending",
    "contractor": "Legacy Professional Services",
    "rowid": "1196948",
    "final_x": "3706547.28715",
    "final_y": "561519.965023",
    "longitude": "-89.987868365875",
    "latitude": "30.03720000887381",
    "geocoded_column": {
      "latitude": "30.03720000887381",
      "longitude": "-89.987868365875"
    }
  },
  {
    "service_request": "2025-1196947",
    "request_type": "General Services",
    "request_reason": "General Service Request",
    "date_created": "2025-06-01T17:00:00.000",
    "date_modified": "2025-06-01T17:00:02.000",
    "request_status": "Pending",
    "responsible_agency": "Orleans Parish Communication District",
    "final_address": "5505 Camp St",
    "address_councildis": "A",
    "status": "Pending",
    "rowid": "1196947",
    "final_x": "3666475.20897",
    "final_y": "519289.602423",
    "longitude": "-90.1159236981757",
    "latitude": "29.922313647058605",
    "geocoded_column": {
      "latitude": "29.922313647058605",
      "longitude": "-90.1159236981757"
    }
  },
  {
    "service_request": "2025-1196946",
    "request_type": "Property Maintenance",
    "request_reason": "Property Maintenance",
    "date_created": "2025-06-01T16:41:52.000",
    "date_modified": "2025-06-01T16:41:55.000",
    "request_status": "Pending",
    "responsible_agency": "Department of Code Enforcement",
    "final_address": "2141 Forstall St",
    "address_councildis": "E",
    "status": "Pending",
    "rowid": "1196946",
    "final_x": "3697424.94147",
    "final_y": "538259.149065",
    "longitude": "-90.01754101409578",
    "latitude": "29.973532815912566",
    "geocoded_column": {
      "latitude": "29.973532815912566",
      "longitude": "-90.01754101409578"
    }
  },
  {
    "service_request": "2025-1196945",
    "request_type": "Trash/Recycling",
    "request_reason": "Request a Large Item Pick Up",
    "date_created": "2025-06-01T16:38:49.000",
    "date_modified": "2025-06-01T16:38:51.000",
    "request_status": "Pending",
    "responsible_agency": "Department of Sanitation",
    "final_address": "941 Bartholomew St",
    "address_councildis": "C",
    "status": "Assigned to Contractor",
    "contractor": "IV Waste",
    "rowid": "1196945",
    "final_x": "3691720.00643",
    "final_y": "534830.13063",
    "longitude": "-90.03568097557593",
    "latitude": "29.964283124645387",
    "geocoded_column": {
      "latitude": "29.964283124645387",
      "longitude": "-90.03568097557593"
    }
  },
  {
    "service_request": "2025-1196944",
    "request_type": "General Services",
    "request_reason": "General Service Request",
    "date_created": "2025-06-01T16:22:54.000",
    "date_modified": "2025-06-01T16:22:56.000",
    "request_status": "Pending",
    "responsible_agency": "Orleans Parish Communication District",
    "final_address": "8523 Oak St",
    "address_councildis": "A",
    "status": "Pending",
    "rowid": "1196944",
    "final_x": "3660793.75469",
    "final_y": "529494.013249",
    "longitude": "-90.13352053449239",
    "latitude": "29.950537318127356",
    "geocoded_column": {
      "latitude": "29.950537318127356",
      "longitude": "-90.13352053449239"
    }
  },
  {
    "service_request": "2025-1196943",
    "request_type": "Abandoned Vehicles",
    "request_reason": "Abandoned/Junk Vehicles",
    "date_created": "2025-06-01T15:27:08.000",
    "date_modified": "2025-06-01T15:27:12.000",
    "request_status": "Pending",
    "responsible_agency": "Department of Public Works",
    "final_address": "2717 Sixth St",
    "address_councildis": "B",
    "status": "Pending",
    "rowid": "1196943",
    "final_x": "3673269.62619",
    "final_y": "525686.248125",
    "longitude": "-90.0942581230284",
    "latitude": "29.939702113847485",
    "geocoded_column": {
      "latitude": "29.939702113847485",
      "longitude": "-90.0942581230284"
    }
  },
  {
    "service_request": "2025-1196942",
    "request_type": "Trash/Recycling",
    "request_reason": "Return Trash Cart",
    "date_created": "2025-06-01T15:24:43.000",
    "date_modified": "2025-06-01T15:24:45.000",
    "request_status": "Pending",
    "responsible_agency": "Department of Sanitation",
    "final_address": "3300 BLK Magnolia St",
    "address_councildis": "B",
    "status": "Assigned to Contractor",
    "contractor": "IV Waste",
    "rowid": "1196942",
    "final_x": "3672825.382",
    "final_y": "525255.240288",
    "longitude": "-90.09567536484776",
    "latitude": "29.938530184398623",
    "geocoded_column": {
      "latitude": "29.938530184398623",
      "longitude": "-90.09567536484776"
    }
  },
  {
    "service_request": "2025-1196941",
    "request_type": "Abandoned Vehicles",
    "request_reason": "Abandoned/Junk Vehicles",
    "date_created": "2025-06-01T15:19:27.000",
    "date_modified": "2025-06-01T15:19:28.000",
    "request_status": "Pending",
    "responsible_agency": "Department of Public Works",
    "final_address": "2402 Seventh St",
    "address_councildis": "B",
    "status": "Pending",
    "rowid": "1196941",
    "final_x": "3673563.43342",
    "final_y": "524538.206588",
    "longitude": "-90.0933697534302",
    "latitude": "29.93653663450291",
    "geocoded_column": {
      "latitude": "29.93653663450291",
      "longitude": "-90.0933697534302"
    }
  },
  {
    "service_request": "2025-1196940",
    "request_type": "Property Maintenance",
    "request_reason": "Property Maintenance",
    "date_created": "2025-06-01T15:18:12.000",
    "date_modified": "2025-06-01T15:18:13.000",
    "request_status": "Pending",
    "responsible_agency": "Department of Code Enforcement",
    "final_address": "1440 Touro St",
    "address_councildis": "C",
    "status": "Pending",
    "rowid": "1196940",
    "final_x": "3684089.12111",
    "final_y": "537663.834376",
    "longitude": "-90.05967918177706",
    "latitude": "29.97231024489381",
    "geocoded_column": {
      "latitude": "29.97231024489381",
      "longitude": "-90.05967918177706"
    }
  },
  {
    "service_request": "2025-1196939",
    "request_type": "Streetlights",
    "request_reason": "Streetlight Knocked Down/Leaning",
    "date_created": "2025-06-01T15:17:13.000",
    "date_modified": "2025-06-01T15:17:15.000",
    "request_status": "Pending",
    "responsible_agency": "Department of Public Works",
    "final_address": "2806 S Robertson St",
    "address_councildis": "B",
    "status": "Pending",
    "contractor": "Legacy Professional Services",
    "rowid": "1196939",
    "final_x": "3673835.08891",
    "final_y": "525406.820349",
    "longitude": "-90.09248242845601",
    "latitude": "29.938916953122582",
    "geocoded_column": {
      "latitude": "29.938916953122582",
      "longitude": "-90.09248242845601"
    }
  },
  {
    "service_request": "2025-1196938",
    "request_type": "Street and Traffic Signs",
    "request_reason": "Street Name Sign Damaged or Missing",
    "date_created": "2025-06-01T15:15:15.000",
    "date_modified": "2025-06-01T15:15:18.000",
    "request_status": "Pending",
    "responsible_agency": "Department of Public Works",
    "final_address": "2400 BLK Toledano St",
    "address_councildis": "B",
    "status": "Pending",
    "rowid": "1196938",
    "final_x": "3673338.85276",
    "final_y": "524531.452693",
    "longitude": "-90.09407899544132",
    "latitude": "29.936524744061675",
    "geocoded_column": {
      "latitude": "29.936524744061675",
      "longitude": "-90.09407899544132"
    }
  },
  {
    "service_request": "2025-1196937",
    "request_type": "Property Maintenance",
    "request_reason": "Property Maintenance",
    "date_created": "2025-06-01T15:13:09.000",
    "date_modified": "2025-06-01T15:13:11.000",
    "request_status": "Pending",
    "responsible_agency": "Department of Code Enforcement",
    "final_address": "1440 Touro St",
    "address_councildis": "C",
    "status": "Pending",
    "rowid": "1196937",
    "final_x": "3684089.12111",
    "final_y": "537663.834376",
    "longitude": "-90.05967918177706",
    "latitude": "29.97231024489381",
    "geocoded_column": {
      "latitude": "29.97231024489381",
      "longitude": "-90.05967918177706"
    }
  },
  {
    "service_request": "2025-1196936",
    "request_type": "Street and Traffic Signs",
    "request_reason": "Stop Sign Missing or Damaged",
    "date_created": "2025-06-01T15:13:08.000",
    "date_modified": "2025-06-01T15:13:09.000",
    "request_status": "Pending",
    "responsible_agency": "Department of Public Works",
    "final_address": "4219 Clio St",
    "address_councildis": "B",
    "status": "Pending",
    "rowid": "1196936",
    "final_x": "3671468.16065",
    "final_y": "531591.879683",
    "longitude": "-90.09974488806519",
    "latitude": "29.955994106084443",
    "geocoded_column": {
      "latitude": "29.955994106084443",
      "longitude": "-90.09974488806519"
    }
  },
  {
    "service_request": "2025-1196935",
    "request_type": "Streetlights",
    "request_reason": "Streetlight Outage/Malfunction",
    "date_created": "2025-06-01T15:12:22.000",
    "date_modified": "2025-06-01T15:12:24.000",
    "request_status": "Pending",
    "responsible_agency": "Department of Public Works",
    "final_address": "3320 Clara St",
    "address_councildis": "B",
    "status": "Pending",
    "contractor": "Legacy Professional Services",
    "rowid": "1196935",
    "final_x": "3672649.03816",
    "final_y": "525562.157565",
    "longitude": "-90.09622164011266",
    "latitude": "29.93937934324095",
    "geocoded_column": {
      "latitude": "29.93937934324095",
      "longitude": "-90.09622164011266"
    }
  },
  {
    "service_request": "2025-1196934",
    "request_type": "Streetlights",
    "request_reason": "Streetlight Outage/Malfunction",
    "date_created": "2025-06-01T15:09:31.000",
    "date_modified": "2025-06-01T15:09:48.000",
    "request_status": "Pending",
    "responsible_agency": "Department of Public Works",
    "final_address": "3320 Clara St",
    "address_councildis": "B",
    "status": "Pending",
    "contractor": "Legacy Professional Services",
    "rowid": "1196934",
    "final_x": "3672649.03816",
    "final_y": "525562.157565",
    "longitude": "-90.09622164011266",
    "latitude": "29.93937934324095",
    "geocoded_column": {
      "latitude": "29.93937934324095",
      "longitude": "-90.09622164011266"
    }
  },
  {
    "service_request": "2025-1196933",
    "request_type": "Abandoned Vehicles",
    "request_reason": "Abandoned/Junk Vehicles",
    "date_created": "2025-06-01T15:04:46.000",
    "date_modified": "2025-06-01T15:04:49.000",
    "request_status": "Pending",
    "responsible_agency": "Department of Public Works",
    "final_address": "2800 BLK Clara St",
    "address_councildis": "B",
    "status": "Pending",
    "rowid": "1196933",
    "final_x": "3673364.50297",
    "final_y": "525932.034866",
    "longitude": "-90.09395018987766",
    "latitude": "29.94037512571826",
    "geocoded_column": {
      "latitude": "29.94037512571826",
      "longitude": "-90.09395018987766"
    }
  },
  {
    "service_request": "2025-1196932",
    "request_type": "Abandoned Vehicles",
    "request_reason": "Abandoned/Junk Vehicles",
    "date_created": "2025-06-01T15:03:40.000",
    "date_modified": "2025-06-01T15:03:43.000",
    "request_status": "Pending",
    "responsible_agency": "Department of Public Works",
    "final_address": "2800 BLK Clara St",
    "address_councildis": "B",
    "status": "Pending",
    "rowid": "1196932",
    "final_x": "3673364.50297",
    "final_y": "525932.034866",
    "longitude": "-90.09395018987766",
    "latitude": "29.94037512571826",
    "geocoded_column": {
      "latitude": "29.94037512571826",
      "longitude": "-90.09395018987766"
    }
  },
  {
    "service_request": "2025-1196931",
    "request_type": "Trash/Recycling",
    "request_reason": "Request a Large Item Pick Up",
    "date_created": "2025-06-01T14:58:32.000",
    "date_modified": "2025-06-01T14:58:33.000",
    "request_status": "Pending",
    "responsible_agency": "Department of Sanitation",
    "final_address": "117 28Th St",
    "address_councildis": "A",
    "status": "Assigned to Contractor",
    "contractor": "IV Waste",
    "rowid": "1196931",
    "final_x": "3666042.9881",
    "final_y": "550234.606548",
    "longitude": "-90.11625050656264",
    "latitude": "30.00741480787054",
    "geocoded_column": {
      "latitude": "30.00741480787054",
      "longitude": "-90.11625050656264"
    }
  },
  {
    "service_request": "2025-1196930",
    "request_type": "Abandoned Vehicles",
    "request_reason": "Abandoned/Junk Vehicles",
    "date_created": "2025-06-01T14:58:00.000",
    "date_modified": "2025-06-01T14:58:01.000",
    "request_status": "Pending",
    "responsible_agency": "Department of Public Works",
    "final_address": "2294 N Johnson St",
    "address_councildis": "D",
    "status": "Pending",
    "rowid": "1196930",
    "final_x": "3685477.16105",
    "final_y": "539645.946378",
    "longitude": "-90.05522569692589",
    "latitude": "29.97771786243697",
    "geocoded_column": {
      "latitude": "29.97771786243697",
      "longitude": "-90.05522569692589"
    }
  },
  {
    "service_request": "2025-1196929",
    "request_type": "Abandoned Vehicles",
    "request_reason": "Abandoned/Junk Vehicles",
    "date_created": "2025-06-01T14:55:12.000",
    "date_modified": "2025-06-01T14:55:15.000",
    "request_status": "Pending",
    "responsible_agency": "Department of Public Works",
    "final_address": "2294 N Johnson St",
    "address_councildis": "D",
    "status": "Pending",
    "rowid": "1196929",
    "final_x": "3685477.16105",
    "final_y": "539645.946378",
    "longitude": "-90.05522569692589",
    "latitude": "29.97771786243697",
    "geocoded_column": {
      "latitude": "29.97771786243697",
      "longitude": "-90.05522569692589"
    }
  },
  {
    "service_request": "2025-1196928",
    "request_type": "Property Maintenance",
    "request_reason": "Property Maintenance",
    "date_created": "2025-06-01T14:51:02.000",
    "date_modified": "2025-06-01T14:51:04.000",
    "request_status": "Pending",
    "responsible_agency": "Department of Code Enforcement",
    "final_address": "3101 Rabbits St",
    "address_councildis": "D",
    "status": "Pending",
    "rowid": "1196928",
    "final_x": "3688401.39433",
    "final_y": "544391.538063",
    "longitude": "-90.0458215775186",
    "latitude": "29.990676537212764",
    "geocoded_column": {
      "latitude": "29.990676537212764",
      "longitude": "-90.0458215775186"
    }
  },
  {
    "service_request": "2025-1196927",
    "request_type": "Property Maintenance",
    "request_reason": "Property Maintenance",
    "date_created": "2025-06-01T14:35:53.000",
    "date_modified": "2025-06-01T14:35:57.000",
    "request_status": "Pending",
    "responsible_agency": "Department of Code Enforcement",
    "final_address": "2709 Benefit St",
    "address_councildis": "D",
    "status": "Pending",
    "rowid": "1196927",
    "final_x": "3688077.20361",
    "final_y": "544738.881039",
    "longitude": "-90.04683329474578",
    "latitude": "29.991641618007403",
    "geocoded_column": {
      "latitude": "29.991641618007403",
      "longitude": "-90.04683329474578"
    }
  },
  {
    "service_request": "2025-1196926",
    "request_type": "Property Maintenance",
    "request_reason": "Property Maintenance",
    "date_created": "2025-06-01T14:29:33.000",
    "date_modified": "2025-06-01T14:29:35.000",
    "request_status": "Pending",
    "responsible_agency": "Department of Code Enforcement",
    "final_address": "2705 Benefit St",
    "address_councildis": "D",
    "status": "Pending",
    "rowid": "1196926",
    "final_x": "3688052.22499",
    "final_y": "544730.917647",
    "longitude": "-90.0469124790054",
    "latitude": "29.99162049265054",
    "geocoded_column": {
      "latitude": "29.99162049265054",
      "longitude": "-90.0469124790054"
    }
  },
  {
    "service_request": "2025-1196925",
    "request_type": "Property Maintenance",
    "request_reason": "Property Maintenance",
    "date_created": "2025-06-01T14:27:54.000",
    "date_modified": "2025-06-01T14:27:55.000",
    "request_status": "Pending",
    "responsible_agency": "Department of Code Enforcement",
    "final_address": "2701 Benefit St",
    "address_councildis": "D",
    "status": "Pending",
    "rowid": "1196925",
    "final_x": "3688015.72451",
    "final_y": "544727.040527",
    "longitude": "-90.0470279132857",
    "latitude": "29.991610958679264",
    "geocoded_column": {
      "latitude": "29.991610958679264",
      "longitude": "-90.0470279132857"
    }
  },
  {
    "service_request": "2025-1196924",
    "request_type": "Trash/Recycling",
    "request_reason": "Request a Large Item Pick Up",
    "date_created": "2025-06-01T14:26:26.000",
    "date_modified": "2025-06-01T14:26:27.000",
    "request_status": "Pending",
    "responsible_agency": "Department of Sanitation",
    "final_address": "2413 Joseph St",
    "address_councildis": "A",
    "status": "Assigned to Contractor",
    "contractor": "IV Waste",
    "rowid": "1196924",
    "final_x": "3667495.14401",
    "final_y": "524946.817213",
    "longitude": "-90.11251390940009",
    "latitude": "29.937839352117035",
    "geocoded_column": {
      "latitude": "29.937839352117035",
      "longitude": "-90.11251390940009"
    }
  },
  {
    "service_request": "2025-1196923",
    "request_type": "Property Maintenance",
    "request_reason": "Property Maintenance",
    "date_created": "2025-06-01T14:26:16.000",
    "date_modified": "2025-06-01T14:26:18.000",
    "request_status": "Pending",
    "responsible_agency": "Department of Code Enforcement",
    "final_address": "3214 Deers St",
    "address_councildis": "D",
    "status": "Pending",
    "rowid": "1196923",
    "final_x": "3687944.53987",
    "final_y": "544803.031951",
    "longitude": "-90.04725007532359",
    "latitude": "29.99182210489367",
    "geocoded_column": {
      "latitude": "29.99182210489367",
      "longitude": "-90.04725007532359"
    }
  },
  {
    "service_request": "2025-1196922",
    "request_type": "General Services",
    "request_reason": "General Service Request",
    "date_created": "2025-06-01T14:24:20.000",
    "date_modified": "2025-06-01T14:24:22.000",
    "request_status": "Pending",
    "responsible_agency": "Orleans Parish Communication District",
    "final_address": "5018 Constance St",
    "address_councildis": "B",
    "status": "Pending",
    "rowid": "1196922",
    "final_x": "3668479.48814",
    "final_y": "518157.039926",
    "longitude": "-90.10963516921593",
    "latitude": "29.919140751944695",
    "geocoded_column": {
      "latitude": "29.919140751944695",
      "longitude": "-90.10963516921593"
    }
  },
  {
    "service_request": "2025-1196921",
    "request_type": "Property Maintenance",
    "request_reason": "Property Maintenance",
    "date_created": "2025-06-01T14:22:18.000",
    "date_modified": "2025-06-01T14:22:19.000",
    "request_status": "Pending",
    "responsible_agency": "Department of Code Enforcement",
    "final_address": "2755 Benefit St",
    "address_councildis": "D",
    "status": "Pending",
    "rowid": "1196921",
    "final_x": "3688563.11388",
    "final_y": "544776.955919",
    "longitude": "-90.0452970615976",
    "latitude": "29.99173130035126",
    "geocoded_column": {
      "latitude": "29.99173130035126",
      "longitude": "-90.0452970615976"
    }
  },
  {
    "service_request": "2025-1196920",
    "request_type": "Trash/Recycling",
    "request_reason": "Request a Large Item Pick Up",
    "date_created": "2025-06-01T14:20:59.000",
    "date_modified": "2025-06-01T14:21:06.000",
    "request_status": "Pending",
    "responsible_agency": "Department of Sanitation",
    "final_address": "3131 Nashville Ave",
    "address_councildis": "A",
    "status": "Assigned to Contractor",
    "contractor": "IV Waste",
    "rowid": "1196920",
    "final_x": "3667903.09332",
    "final_y": "527431.291775",
    "longitude": "-90.1111423124738",
    "latitude": "29.944658898272397",
    "geocoded_column": {
      "latitude": "29.944658898272397",
      "longitude": "-90.1111423124738"
    }
  },
  {
    "service_request": "2025-1196919",
    "request_type": "Abandoned Vehicles",
    "request_reason": "Abandoned/Junk Vehicles",
    "date_created": "2025-06-01T14:18:33.000",
    "date_modified": "2025-06-01T14:18:35.000",
    "request_status": "Pending",
    "responsible_agency": "Department of Public Works",
    "final_address": "2757 Treasure St",
    "address_councildis": "D",
    "status": "Pending",
    "rowid": "1196919",
    "final_x": "3688525.78499",
    "final_y": "544406.131919",
    "longitude": "-90.04542814107542",
    "latitude": "29.99071282130257",
    "geocoded_column": {
      "latitude": "29.99071282130257",
      "longitude": "-90.04542814107542"
    }
  },
  {
    "service_request": "2025-1196918",
    "request_type": "Roads and Streets",
    "request_reason": "Pothole",
    "date_created": "2025-06-01T14:15:53.000",
    "date_modified": "2025-06-01T14:15:55.000",
    "request_status": "Pending",
    "responsible_agency": "Department of Public Works",
    "final_address": "1825 Bordeaux St",
    "address_councildis": "B",
    "status": "Pending",
    "rowid": "1196918",
    "final_x": "3669330.97505",
    "final_y": "521651.715897",
    "longitude": "-90.1068293767773",
    "latitude": "29.928724970225012",
    "geocoded_column": {
      "latitude": "29.928724970225012",
      "longitude": "-90.1068293767773"
    }
  },
  {
    "service_request": "2025-1196917",
    "request_type": "Abandoned Vehicles",
    "request_reason": "Abandoned/Junk Vehicles",
    "date_created": "2025-06-01T14:13:49.000",
    "date_modified": "2025-06-01T14:13:52.000",
    "request_status": "Pending",
    "responsible_agency": "Department of Public Works",
    "final_address": "3100 Peoples Ave",
    "address_councildis": "D",
    "status": "Pending",
    "rowid": "1196917",
    "final_x": "3688631.86799",
    "final_y": "544414.833999",
    "longitude": "-90.04509274284057",
    "latitude": "29.99073346991679",
    "geocoded_column": {
      "latitude": "29.99073346991679",
      "longitude": "-90.04509274284057"
    }
  },
  {
    "service_request": "2025-1196916",
    "request_type": "Property Maintenance",
    "request_reason": "Property Maintenance",
    "date_created": "2025-06-01T14:07:56.000",
    "date_modified": "2025-06-01T14:07:58.000",
    "request_status": "Pending",
    "responsible_agency": "Department of Code Enforcement",
    "final_address": "2669 Treasure St",
    "address_councildis": "D",
    "status": "Pending",
    "rowid": "1196916",
    "final_x": "3687970.52943",
    "final_y": "544362.079823",
    "longitude": "-90.04718361431419",
    "latitude": "29.99060884263078",
    "geocoded_column": {
      "latitude": "29.99060884263078",
      "longitude": "-90.04718361431419"
    }
  },
  {
    "service_request": "2025-1196915",
    "request_type": "Property Maintenance",
    "request_reason": "Property Maintenance",
    "date_created": "2025-06-01T14:03:02.000",
    "date_modified": "2025-06-01T14:03:04.000",
    "request_status": "Pending",
    "responsible_agency": "Department of Code Enforcement",
    "final_address": "3140 Deers St",
    "address_councildis": "D",
    "status": "Pending",
    "rowid": "1196915",
    "final_x": "3687947.08457",
    "final_y": "544656.478223",
    "longitude": "-90.04724723310059",
    "latitude": "29.991419056207963",
    "geocoded_column": {
      "latitude": "29.991419056207963",
      "longitude": "-90.04724723310059"
    }
  },
  {
    "service_request": "2025-1196914",
    "request_type": "Mosquito, Termite & Rodent Control",
    "request_reason": "Rodent Complaint (Mice & Rats)",
    "date_created": "2025-06-01T13:59:25.000",
    "date_modified": "2025-06-01T13:59:27.000",
    "request_status": "Pending",
    "responsible_agency": "Mosquito, Termite & Rodent Control Board",
    "final_address": "8618 Plum St",
    "address_councildis": "A",
    "status": "Pending",
    "rowid": "1196914",
    "final_x": "3660737.59949",
    "final_y": "529907.853825",
    "longitude": "-90.13368416395556",
    "latitude": "29.951676863774907",
    "geocoded_column": {
      "latitude": "29.951676863774907",
      "longitude": "-90.13368416395556"
    }
  },
  {
    "service_request": "2025-1196913",
    "request_type": "Property Maintenance",
    "request_reason": "Property Maintenance",
    "date_created": "2025-06-01T13:59:08.000",
    "date_modified": "2025-06-01T13:59:13.000",
    "request_status": "Pending",
    "responsible_agency": "Department of Code Enforcement",
    "final_address": "3131 Deers St",
    "address_councildis": "D",
    "status": "Pending",
    "rowid": "1196913",
    "final_x": "3688036.09481",
    "final_y": "544597.365967",
    "longitude": "-90.04696816658152",
    "latitude": "29.991253771392266",
    "geocoded_column": {
      "latitude": "29.991253771392266",
      "longitude": "-90.04696816658152"
    }
  },
  {
    "service_request": "2025-1196912",
    "request_type": "Trash/Recycling",
    "request_reason": "Replace Trash Cart",
    "date_created": "2025-06-01T13:58:00.000",
    "date_modified": "2025-06-01T13:58:02.000",
    "request_status": "Pending",
    "responsible_agency": "Department of Sanitation",
    "final_address": "1700 BLK Saint Roch Ave",
    "address_councildis": "D",
    "status": "Assigned to Contractor",
    "contractor": "IV Waste",
    "rowid": "1196912",
    "final_x": "3686261.9506",
    "final_y": "538814.549455",
    "longitude": "-90.05277641307016",
    "latitude": "29.97540771976965",
    "geocoded_column": {
      "latitude": "29.97540771976965",
      "longitude": "-90.05277641307016"
    }
  },
  {
    "service_request": "2025-1196911",
    "request_type": "Trash/Recycling",
    "request_reason": "Illegal Dumping",
    "date_created": "2025-06-01T13:51:52.000",
    "date_modified": "2025-06-01T13:51:54.000",
    "request_status": "Pending",
    "responsible_agency": "Department of Sanitation",
    "final_address": "3700 BLK Herschel St",
    "address_councildis": "C",
    "status": "Pending",
    "rowid": "1196911",
    "final_x": "3697173.57642",
    "final_y": "521107.91853",
    "longitude": "-90.01895621655463",
    "latitude": "29.926380876507952",
    "geocoded_column": {
      "latitude": "29.926380876507952",
      "longitude": "-90.01895621655463"
    }
  },
  {
    "service_request": "2025-1196910",
    "request_type": "Property Maintenance",
    "request_reason": "Property Maintenance",
    "date_created": "2025-06-01T13:51:02.000",
    "date_modified": "2025-06-01T13:51:04.000",
    "request_status": "Pending",
    "responsible_agency": "Department of Code Enforcement",
    "final_address": "3027 Eads St",
    "address_councildis": "D",
    "status": "Pending",
    "rowid": "1196910",
    "final_x": "3687703.32188",
    "final_y": "544153.24571",
    "longitude": "-90.04803505371585",
    "latitude": "29.990042867855838",
    "geocoded_column": {
      "latitude": "29.990042867855838",
      "longitude": "-90.04803505371585"
    }
  },
  {
    "service_request": "2025-1196909",
    "request_type": "Trash/Recycling",
    "request_reason": "Order Trash Cart",
    "date_created": "2025-06-01T13:47:12.000",
    "date_modified": "2025-06-01T13:47:14.000",
    "request_status": "Pending",
    "responsible_agency": "Department of Sanitation",
    "final_address": "1751 Holiday Dr",
    "address_councildis": "C",
    "status": "Assigned to Contractor",
    "contractor": "Richards Disposal",
    "rowid": "1196909",
    "final_x": "3698854.54839",
    "final_y": "524161.329468",
    "longitude": "-90.01353887254537",
    "latitude": "29.93472357772218",
    "geocoded_column": {
      "latitude": "29.93472357772218",
      "longitude": "-90.01353887254537"
    }
  },
  {
    "service_request": "2025-1196908",
    "request_type": "Property Maintenance",
    "request_reason": "Property Maintenance",
    "date_created": "2025-06-01T13:45:27.000",
    "date_modified": "2025-06-01T13:45:29.000",
    "request_status": "Pending",
    "responsible_agency": "Department of Code Enforcement",
    "final_address": "3039 Eads St",
    "address_councildis": "D",
    "status": "Pending",
    "rowid": "1196908",
    "final_x": "3687695.77807",
    "final_y": "544251.225742",
    "longitude": "-90.0480554109913",
    "latitude": "29.99031251052809",
    "geocoded_column": {
      "latitude": "29.99031251052809",
      "longitude": "-90.0480554109913"
    }
  },
  {
    "service_request": "2025-1196907",
    "request_type": "Trash/Recycling",
    "request_reason": "Order Trash Cart",
    "date_created": "2025-06-01T13:27:34.000",
    "date_modified": "2025-06-01T13:27:41.000",
    "request_status": "Pending",
    "responsible_agency": "Department of Sanitation",
    "final_address": "2827 General Taylor St",
    "address_councildis": "B",
    "status": "Assigned to Contractor",
    "contractor": "IV Waste",
    "rowid": "1196907",
    "final_x": "3671639.84193",
    "final_y": "525433.333885",
    "longitude": "-90.09941219084982",
    "latitude": "29.93905504133315",
    "geocoded_column": {
      "latitude": "29.93905504133315",
      "longitude": "-90.09941219084982"
    }
  },
  {
    "service_request": "2025-1196906",
    "request_type": "Trash/Recycling",
    "request_reason": "Repair Recycling Cart",
    "date_created": "2025-06-01T13:04:05.000",
    "date_modified": "2025-06-01T13:04:07.000",
    "request_status": "Pending",
    "responsible_agency": "Department of Sanitation",
    "final_address": "1657 Rousselin Dr",
    "address_councildis": "D",
    "status": "Pending",
    "rowid": "1196906",
    "final_x": "3679583.41442",
    "final_y": "540403.201163",
    "longitude": "-90.073813879894",
    "latitude": "29.97997949852187",
    "geocoded_column": {
      "latitude": "29.97997949852187",
      "longitude": "-90.073813879894"
    }
  },
  {
    "service_request": "2025-1196905",
    "request_type": "Trash/Recycling",
    "request_reason": "Order Trash Cart",
    "date_created": "2025-06-01T12:53:56.000",
    "date_modified": "2025-06-01T12:53:58.000",
    "request_status": "Pending",
    "responsible_agency": "Department of Sanitation",
    "final_address": "2227 Onzaga St",
    "address_councildis": "D",
    "status": "Assigned to Contractor",
    "contractor": "IV Waste",
    "rowid": "1196905",
    "final_x": "3680540.66728",
    "final_y": "539547.717258",
    "longitude": "-90.07082025046998",
    "latitude": "29.977598247822357",
    "geocoded_column": {
      "latitude": "29.977598247822357",
      "longitude": "-90.07082025046998"
    }
  },
  {
    "service_request": "2025-1196904",
    "request_type": "Trash/Recycling",
    "request_reason": "Request a Large Item Pick Up",
    "date_created": "2025-06-01T12:49:17.000",
    "date_modified": "2025-06-01T12:49:26.000",
    "request_status": "Pending",
    "responsible_agency": "Department of Sanitation",
    "final_address": "1648 N Tonti St",
    "address_councildis": "D",
    "status": "Assigned to Contractor",
    "contractor": "IV Waste",
    "rowid": "1196904",
    "final_x": "3680509.50555",
    "final_y": "539623.72961",
    "longitude": "-90.07091602477507",
    "latitude": "29.977808199464903",
    "geocoded_column": {
      "latitude": "29.977808199464903",
      "longitude": "-90.07091602477507"
    }
  },
  {
    "service_request": "2025-1196903",
    "request_type": "Trash/Recycling",
    "request_reason": "Replace Trash Cart",
    "date_created": "2025-06-01T12:46:37.000",
    "date_modified": "2025-06-01T12:46:39.000",
    "request_status": "Pending",
    "responsible_agency": "Department of Sanitation",
    "final_address": "2921 Preston Pl",
    "address_councildis": "C",
    "status": "Assigned to Contractor",
    "contractor": "Richards Disposal",
    "rowid": "1196903",
    "final_x": "3708574.12868",
    "final_y": "519060.175031",
    "longitude": "-89.9830443827841",
    "latitude": "29.920385791750356",
    "geocoded_column": {
      "latitude": "29.920385791750356",
      "longitude": "-89.9830443827841"
    }
  },
  {
    "service_request": "2025-1196902",
    "request_type": "Trash/Recycling",
    "request_reason": "Request a Large Item Pick Up",
    "date_created": "2025-06-01T12:45:14.000",
    "date_modified": "2025-06-01T12:45:16.000",
    "request_status": "Pending",
    "responsible_agency": "Department of Sanitation",
    "final_address": "2921 Preston Pl",
    "address_councildis": "C",
    "status": "Assigned to Contractor",
    "contractor": "Richards Disposal",
    "rowid": "1196902",
    "final_x": "3708574.12868",
    "final_y": "519060.175031",
    "longitude": "-89.9830443827841",
    "latitude": "29.920385791750356",
    "geocoded_column": {
      "latitude": "29.920385791750356",
      "longitude": "-89.9830443827841"
    }
  },
  {
    "service_request": "2025-1196901",
    "request_type": "Trash/Recycling",
    "request_reason": "Request a Large Item Pick Up",
    "date_created": "2025-06-01T12:42:20.000",
    "date_modified": "2025-06-01T12:42:21.000",
    "request_status": "Pending",
    "responsible_agency": "Department of Sanitation",
    "final_address": "7615 Stonewood St",
    "address_councildis": "E",
    "status": "Assigned to Contractor",
    "contractor": "Waste Pro",
    "rowid": "1196901",
    "final_x": "3719587.11807",
    "final_y": "572402.560105",
    "longitude": "-89.94624374568849",
    "latitude": "30.066695189517368",
    "geocoded_column": {
      "latitude": "30.066695189517368",
      "longitude": "-89.94624374568849"
    }
  },
  {
    "service_request": "2025-1196900",
    "request_type": "Property Maintenance",
    "request_reason": "Property Maintenance",
    "date_created": "2025-06-01T12:38:56.000",
    "date_modified": "2025-06-01T12:38:57.000",
    "request_status": "Pending",
    "responsible_agency": "Department of Code Enforcement",
    "final_address": "2722 Treasure St",
    "address_councildis": "D",
    "status": "Pending",
    "rowid": "1196900",
    "final_x": "3688212.56259",
    "final_y": "544290.797135",
    "longitude": "-90.04642162271406",
    "latitude": "29.990405368612272",
    "geocoded_column": {
      "latitude": "29.990405368612272",
      "longitude": "-90.04642162271406"
    }
  },
  {
    "service_request": "2025-1196899",
    "request_type": "Trash/Recycling",
    "request_reason": "Order Second Trash Cart",
    "date_created": "2025-06-01T12:37:59.000",
    "date_modified": "2025-06-01T12:38:01.000",
    "request_status": "Pending",
    "responsible_agency": "Department of Sanitation",
    "final_address": "118 Country Club Dr",
    "address_councildis": "A",
    "status": "Assigned to Contractor",
    "contractor": "IV Waste",
    "rowid": "1196899",
    "final_x": "3665699.36045",
    "final_y": "544226.010062",
    "longitude": "-90.11753754633409",
    "latitude": "29.990903263955975",
    "geocoded_column": {
      "latitude": "29.990903263955975",
      "longitude": "-90.11753754633409"
    }
  },
  {
    "service_request": "2025-1196898",
    "request_type": "Property Maintenance",
    "request_reason": "Property Maintenance",
    "date_created": "2025-06-01T12:34:39.000",
    "date_modified": "2025-06-01T12:34:40.000",
    "request_status": "Pending",
    "responsible_agency": "Department of Code Enforcement",
    "final_address": "2718 Treasure St",
    "address_councildis": "D",
    "status": "Pending",
    "rowid": "1196898",
    "final_x": "3688179.23868",
    "final_y": "544285.806671",
    "longitude": "-90.04652706118353",
    "latitude": "29.9903926756834",
    "geocoded_column": {
      "latitude": "29.9903926756834",
      "longitude": "-90.04652706118353"
    }
  },
  {
    "service_request": "2025-1196897",
    "request_type": "Trash/Recycling",
    "request_reason": "Request a Large Item Pick Up",
    "date_created": "2025-06-01T12:33:27.000",
    "date_modified": "2025-06-01T12:33:28.000",
    "request_status": "Pending",
    "responsible_agency": "Department of Sanitation",
    "final_address": "2302 Dante St",
    "address_councildis": "A",
    "status": "Assigned to Contractor",
    "contractor": "IV Waste",
    "rowid": "1196897",
    "final_x": "3663942.91539",
    "final_y": "531867.596355",
    "longitude": "-90.12349793678547",
    "latitude": "29.956972856629765",
    "geocoded_column": {
      "latitude": "29.956972856629765",
      "longitude": "-90.12349793678547"
    }
  },
  {
    "service_request": "2025-1196896",
    "request_type": "Trash/Recycling",
    "request_reason": "Request a Large Item Pick Up",
    "date_created": "2025-06-01T12:32:22.000",
    "date_modified": "2025-06-01T12:32:24.000",
    "request_status": "Pending",
    "responsible_agency": "Department of Sanitation",
    "final_address": "1612 Adams St",
    "address_councildis": "A",
    "status": "Assigned to Contractor",
    "contractor": "IV Waste",
    "rowid": "1196896",
    "final_x": "3664053.19245",
    "final_y": "528536.438848",
    "longitude": "-90.12326079896674",
    "latitude": "29.947810049444545",
    "geocoded_column": {
      "latitude": "29.947810049444545",
      "longitude": "-90.12326079896674"
    }
  },
  {
    "service_request": "2025-1196895",
    "request_type": "Property Maintenance",
    "request_reason": "Property Maintenance",
    "date_created": "2025-06-01T12:31:16.000",
    "date_modified": "2025-06-01T12:31:17.000",
    "request_status": "Pending",
    "responsible_agency": "Department of Code Enforcement",
    "final_address": "2712 Treasure St",
    "address_councildis": "D",
    "status": "Pending",
    "rowid": "1196895",
    "final_x": "3688108.65487",
    "final_y": "544296.186511",
    "longitude": "-90.04674964865046",
    "latitude": "29.990423395903637",
    "geocoded_column": {
      "latitude": "29.990423395903637",
      "longitude": "-90.04674964865046"
    }
  },
  {
    "service_request": "2025-1196894",
    "request_type": "Trash/Recycling",
    "request_reason": "Return Recycling Cart",
    "date_created": "2025-06-01T12:29:28.000",
    "date_modified": "2025-06-01T12:29:29.000",
    "request_status": "Pending",
    "responsible_agency": "Department of Sanitation",
    "final_address": "2811 Chelsea Dr",
    "address_councildis": "C",
    "status": "Pending",
    "rowid": "1196894",
    "final_x": "3704145.96702",
    "final_y": "520591.702072",
    "longitude": "-89.99696551508279",
    "latitude": "29.924739702849426",
    "geocoded_column": {
      "latitude": "29.924739702849426",
      "longitude": "-89.99696551508279"
    }
  },
  {
    "service_request": "2025-1196893",
    "request_type": "Property Maintenance",
    "request_reason": "Property Maintenance",
    "date_created": "2025-06-01T12:27:03.000",
    "date_modified": "2025-06-01T12:27:05.000",
    "request_status": "Pending",
    "responsible_agency": "Department of Code Enforcement",
    "final_address": "2729 Treasure St",
    "address_councildis": "D",
    "status": "Pending",
    "rowid": "1196893",
    "final_x": "3688223.33455",
    "final_y": "544384.769871",
    "longitude": "-90.04638426302951",
    "latitude": "29.990663427266906",
    "geocoded_column": {
      "latitude": "29.990663427266906",
      "longitude": "-90.04638426302951"
    }
  },
  {
    "service_request": "2025-1196892",
    "request_type": "Trash/Recycling",
    "request_reason": "Request a Large Item Pick Up",
    "date_created": "2025-06-01T12:24:51.000",
    "date_modified": "2025-06-01T12:24:52.000",
    "request_status": "Pending",
    "responsible_agency": "Department of Sanitation",
    "final_address": "2755 Banks St A",
    "address_councildis": "B",
    "status": "Assigned to Contractor",
    "contractor": "IV Waste",
    "rowid": "1196892",
    "final_x": "3674286.77454",
    "final_y": "534490.594053",
    "longitude": "-90.09074540304142",
    "latitude": "29.963880861602128",
    "geocoded_column": {
      "latitude": "29.963880861602128",
      "longitude": "-90.09074540304142"
    }
  },
  {
    "service_request": "2025-1196891",
    "request_type": "Trash/Recycling",
    "request_reason": "Request a Large Item Pick Up",
    "date_created": "2025-06-01T12:21:32.000",
    "date_modified": "2025-06-01T12:21:34.000",
    "request_status": "Pending",
    "responsible_agency": "Department of Sanitation",
    "final_address": "5520 S Tonti St",
    "address_councildis": "A",
    "status": "Assigned to Contractor",
    "contractor": "IV Waste",
    "rowid": "1196891",
    "final_x": "3668232.66369",
    "final_y": "527989.001087",
    "longitude": "-90.1100829593664",
    "latitude": "29.9461827479449",
    "geocoded_column": {
      "latitude": "29.9461827479449",
      "longitude": "-90.1100829593664"
    }
  },
  {
    "service_request": "2025-1196890",
    "request_type": "Property Maintenance",
    "request_reason": "Property Maintenance",
    "date_created": "2025-06-01T12:19:05.000",
    "date_modified": "2025-06-01T12:19:07.000",
    "request_status": "Pending",
    "responsible_agency": "Department of Code Enforcement",
    "final_address": "2723 Treasure St",
    "address_councildis": "D",
    "status": "Pending",
    "rowid": "1196890",
    "final_x": "3688162.57622",
    "final_y": "544394.959887",
    "longitude": "-90.04657582160084",
    "latitude": "29.990693322391746",
    "geocoded_column": {
      "latitude": "29.990693322391746",
      "longitude": "-90.04657582160084"
    }
  },
  {
    "service_request": "2025-1196889",
    "request_type": "Property Maintenance",
    "request_reason": "Property Maintenance",
    "date_created": "2025-06-01T12:16:55.000",
    "date_modified": "2025-06-01T12:16:57.000",
    "request_status": "Pending",
    "responsible_agency": "Department of Code Enforcement",
    "final_address": "3119 Deers St",
    "address_councildis": "D",
    "status": "Pending",
    "rowid": "1196889",
    "final_x": "3688034.55337",
    "final_y": "544496.997711",
    "longitude": "-90.04697659481823",
    "latitude": "29.99097784228066",
    "geocoded_column": {
      "latitude": "29.99097784228066",
      "longitude": "-90.04697659481823"
    }
  },
  {
    "service_request": "2025-1196888",
    "request_type": "Property Maintenance",
    "request_reason": "Property Maintenance",
    "date_created": "2025-06-01T12:06:15.000",
    "date_modified": "2025-06-01T12:06:17.000",
    "request_status": "Pending",
    "responsible_agency": "Department of Code Enforcement",
    "final_address": "1616 Tita St",
    "address_councildis": "C",
    "status": "Pending",
    "rowid": "1196888",
    "final_x": "3695682.70557",
    "final_y": "525361.834813",
    "longitude": "-90.02350895116741",
    "latitude": "29.93812462882885",
    "geocoded_column": {
      "latitude": "29.93812462882885",
      "longitude": "-90.02350895116741"
    }
  },
  {
    "service_request": "2025-1196887",
    "request_type": "Trash/Recycling",
    "request_reason": "Repair Trash Cart",
    "date_created": "2025-06-01T12:06:09.000",
    "date_modified": "2025-06-01T12:06:11.000",
    "request_status": "Pending",
    "responsible_agency": "Department of Sanitation",
    "final_address": "1210 Camp St Apt B",
    "address_councildis": "B",
    "status": "Assigned to Contractor",
    "contractor": "IV Waste",
    "rowid": "1196887",
    "final_x": "3680278.86152",
    "final_y": "525597.442813",
    "longitude": "-90.07213207703889",
    "latitude": "29.939247654735215",
    "geocoded_column": {
      "latitude": "29.939247654735215",
      "longitude": "-90.07213207703889"
    }
  },
  {
    "service_request": "2025-1196886",
    "request_type": "Property Maintenance",
    "request_reason": "Property Maintenance",
    "date_created": "2025-06-01T12:04:30.000",
    "date_modified": "2025-06-01T12:04:31.000",
    "request_status": "Pending",
    "responsible_agency": "Department of Code Enforcement",
    "final_address": "3119 Deers St",
    "address_councildis": "D",
    "status": "Pending",
    "rowid": "1196886",
    "final_x": "3688034.55337",
    "final_y": "544496.997711",
    "longitude": "-90.04697659481823",
    "latitude": "29.99097784228066",
    "geocoded_column": {
      "latitude": "29.99097784228066",
      "longitude": "-90.04697659481823"
    }
  },
  {
    "service_request": "2025-1196885",
    "request_type": "Property Maintenance",
    "request_reason": "Property Maintenance",
    "date_created": "2025-06-01T12:04:29.000",
    "date_modified": "2025-06-01T12:04:30.000",
    "request_status": "Pending",
    "responsible_agency": "Department of Code Enforcement",
    "final_address": "1616 Tita St",
    "address_councildis": "C",
    "status": "Pending",
    "rowid": "1196885",
    "final_x": "3695682.70557",
    "final_y": "525361.834813",
    "longitude": "-90.02350895116741",
    "latitude": "29.93812462882885",
    "geocoded_column": {
      "latitude": "29.93812462882885",
      "longitude": "-90.02350895116741"
    }
  },
  {
    "service_request": "2025-1196884",
    "request_type": "Trash/Recycling",
    "request_reason": "Order Trash Cart",
    "date_created": "2025-06-01T12:04:26.000",
    "date_modified": "2025-06-01T12:04:27.000",
    "request_status": "Pending",
    "responsible_agency": "Department of Sanitation",
    "final_address": "1112 Jena St",
    "address_councildis": "B",
    "status": "Assigned to Contractor",
    "contractor": "IV Waste",
    "rowid": "1196884",
    "final_x": "3670530.669",
    "final_y": "519608.829496",
    "longitude": "-90.10311142024668",
    "latitude": "29.923072319983156",
    "geocoded_column": {
      "latitude": "29.923072319983156",
      "longitude": "-90.10311142024668"
    }
  },
  {
    "service_request": "2025-1196883",
    "request_type": "Property Maintenance",
    "request_reason": "Property Maintenance",
    "date_created": "2025-06-01T12:02:20.000",
    "date_modified": "2025-06-01T12:02:23.000",
    "request_status": "Pending",
    "responsible_agency": "Department of Code Enforcement",
    "final_address": "1616 Tita St",
    "address_councildis": "C",
    "status": "Pending",
    "rowid": "1196883",
    "final_x": "3695682.70557",
    "final_y": "525361.834813",
    "longitude": "-90.02350895116741",
    "latitude": "29.93812462882885",
    "geocoded_column": {
      "latitude": "29.93812462882885",
      "longitude": "-90.02350895116741"
    }
  },
  {
    "service_request": "2025-1196882",
    "request_type": "Streetlights",
    "request_reason": "Streetlight Outage/Malfunction",
    "date_created": "2025-06-01T12:00:54.000",
    "date_modified": "2025-06-01T12:00:57.000",
    "request_status": "Pending",
    "responsible_agency": "Department of Public Works",
    "final_address": "4405 Crowder Blvd",
    "address_councildis": "E",
    "status": "Pending",
    "contractor": "Legacy Professional Services",
    "rowid": "1196882",
    "final_x": "3706717.86801",
    "final_y": "553881.128599",
    "longitude": "-89.98761281056476",
    "latitude": "30.01619068167714",
    "geocoded_column": {
      "latitude": "30.01619068167714",
      "longitude": "-89.98761281056476"
    }
  },
  {
    "service_request": "2025-1196881",
    "request_type": "Trash/Recycling",
    "request_reason": "Request a Large Item Pick Up",
    "date_created": "2025-06-01T11:34:34.000",
    "date_modified": "2025-06-01T11:34:36.000",
    "request_status": "Pending",
    "responsible_agency": "Department of Sanitation",
    "final_address": "1648 N Tonti St",
    "address_councildis": "D",
    "status": "Assigned to Contractor",
    "contractor": "IV Waste",
    "rowid": "1196881",
    "final_x": "3680509.50555",
    "final_y": "539623.72961",
    "longitude": "-90.07091602477507",
    "latitude": "29.977808199464903",
    "geocoded_column": {
      "latitude": "29.977808199464903",
      "longitude": "-90.07091602477507"
    }
  },
  {
    "service_request": "2025-1196880",
    "request_type": "Parks & Parkways",
    "request_reason": "Request Tree Service (Right of Way/Public Property)",
    "date_created": "2025-06-01T11:27:12.000",
    "date_modified": "2025-06-01T11:51:25.000",
    "request_status": "Pending",
    "responsible_agency": "Department of Parks & Parkway",
    "final_address": "4778 Baccich St",
    "address_councildis": "D",
    "status": "Pending",
    "rowid": "1196880",
    "final_x": "3687658.80649",
    "final_y": "550948.852373",
    "longitude": "-90.04793486671942",
    "latitude": "30.008729699606718",
    "geocoded_column": {
      "latitude": "30.008729699606718",
      "longitude": "-90.04793486671942"
    }
  },
  {
    "service_request": "2025-1196879",
    "request_type": "Trash/Recycling",
    "request_reason": "Request a Large Item Pick Up",
    "date_created": "2025-06-01T11:07:04.000",
    "date_modified": "2025-06-01T11:07:06.000",
    "request_status": "Pending",
    "responsible_agency": "Department of Sanitation",
    "final_address": "5525 West End Blvd",
    "address_councildis": "A",
    "status": "Assigned to Contractor",
    "contractor": "IV Waste",
    "rowid": "1196879",
    "final_x": "3666358.27969",
    "final_y": "544406.834447",
    "longitude": "-90.11545009927322",
    "latitude": "29.991381228808578",
    "geocoded_column": {
      "latitude": "29.991381228808578",
      "longitude": "-90.11545009927322"
    }
  },
  {
    "service_request": "2025-1196878",
    "request_type": "Trash/Recycling",
    "request_reason": "Replace Trash Cart",
    "date_created": "2025-06-01T11:05:29.000",
    "date_modified": "2025-06-01T11:05:30.000",
    "request_status": "Pending",
    "responsible_agency": "Department of Sanitation",
    "final_address": "342 Pacific Ave",
    "address_councildis": "C",
    "status": "Assigned to Contractor",
    "contractor": "Richards Disposal",
    "rowid": "1196878",
    "final_x": "3688570.04675",
    "final_y": "530377.650306",
    "longitude": "-90.0457862557931",
    "latitude": "29.95213805727556",
    "geocoded_column": {
      "latitude": "29.95213805727556",
      "longitude": "-90.0457862557931"
    }
  },
  {
    "service_request": "2025-1196877",
    "request_type": "Property Maintenance",
    "request_reason": "Property Maintenance",
    "date_created": "2025-06-01T11:04:42.000",
    "date_modified": "2025-06-01T11:04:43.000",
    "request_status": "Pending",
    "responsible_agency": "Department of Code Enforcement",
    "final_address": "3717 Annunciation St",
    "address_councildis": "B",
    "status": "Pending",
    "rowid": "1196877",
    "final_x": "3673757.29384",
    "final_y": "518105.676278",
    "longitude": "-90.09297755594055",
    "latitude": "29.918843479845528",
    "geocoded_column": {
      "latitude": "29.918843479845528",
      "longitude": "-90.09297755594055"
    }
  },
  {
    "service_request": "2025-1196876",
    "request_type": "Trash/Recycling",
    "request_reason": "Replace Trash Cart",
    "date_created": "2025-06-01T11:03:39.000",
    "date_modified": "2025-06-01T11:03:40.000",
    "request_status": "Pending",
    "responsible_agency": "Department of Sanitation",
    "final_address": "342 Pacific Ave",
    "address_councildis": "C",
    "status": "Assigned to Contractor",
    "contractor": "Richards Disposal",
    "rowid": "1196876",
    "final_x": "3688570.04675",
    "final_y": "530377.650306",
    "longitude": "-90.0457862557931",
    "latitude": "29.95213805727556",
    "geocoded_column": {
      "latitude": "29.95213805727556",
      "longitude": "-90.0457862557931"
    }
  },
  {
    "service_request": "2025-1196875",
    "request_type": "Trash/Recycling",
    "request_reason": "Repair Trash Cart",
    "date_created": "2025-06-01T10:56:50.000",
    "date_modified": "2025-06-01T10:56:52.000",
    "request_status": "Pending",
    "responsible_agency": "Department of Sanitation",
    "final_address": "1814 Lowerline St",
    "address_councildis": "A",
    "status": "Assigned to Contractor",
    "contractor": "IV Waste",
    "rowid": "1196875",
    "final_x": "3664873.61159",
    "final_y": "528746.99904",
    "longitude": "-90.1206633632439",
    "latitude": "29.948365173147952",
    "geocoded_column": {
      "latitude": "29.948365173147952",
      "longitude": "-90.1206633632439"
    }
  },
  {
    "service_request": "2025-1196874",
    "request_type": "General Services",
    "request_reason": "General Service Request",
    "date_created": "2025-06-01T10:43:06.000",
    "date_modified": "2025-06-01T10:43:09.000",
    "request_status": "Pending",
    "responsible_agency": "Orleans Parish Communication District",
    "final_address": "2100 BLK Murl St",
    "address_councildis": "C",
    "status": "Pending",
    "rowid": "1196874",
    "final_x": "3695069.98712",
    "final_y": "522385.104296",
    "longitude": "-90.02555060909924",
    "latitude": "29.929958884335033",
    "geocoded_column": {
      "latitude": "29.929958884335033",
      "longitude": "-90.02555060909924"
    }
  },
  {
    "service_request": "2025-1196873",
    "request_type": "General Services",
    "request_reason": "General Service Request",
    "date_created": "2025-06-01T10:28:49.000",
    "date_modified": "2025-06-01T10:28:52.000",
    "request_status": "Pending",
    "responsible_agency": "Orleans Parish Communication District",
    "final_address": "1400 Madrid St",
    "address_councildis": "D",
    "status": "Pending",
    "rowid": "1196873",
    "final_x": "3677516.27086",
    "final_y": "554462.814552",
    "longitude": "-90.07985700534257",
    "latitude": "30.01870078250994",
    "geocoded_column": {
      "latitude": "30.01870078250994",
      "longitude": "-90.07985700534257"
    }
  },
  {
    "service_request": "2025-1196872",
    "request_type": "Trash/Recycling",
    "request_reason": "Request a Large Item Pick Up",
    "date_created": "2025-06-01T10:14:49.000",
    "date_modified": "2025-06-01T10:14:51.000",
    "request_status": "Pending",
    "responsible_agency": "Department of Sanitation",
    "final_address": "2025 Franklin Ave",
    "address_councildis": "D",
    "status": "Assigned to Contractor",
    "contractor": "IV Waste",
    "rowid": "1196872",
    "final_x": "3687721.50966",
    "final_y": "540064.007691",
    "longitude": "-90.04812248244502",
    "latitude": "29.97879835716321",
    "geocoded_column": {
      "latitude": "29.97879835716321",
      "longitude": "-90.04812248244502"
    }
  },
  {
    "service_request": "2025-1196871",
    "request_type": "Trash/Recycling",
    "request_reason": "Missed Trash Pick-Up",
    "date_created": "2025-06-01T10:14:26.000",
    "date_modified": "2025-06-01T11:56:21.000",
    "case_close_date": "2025-06-01T06:56:19.000",
    "request_status": "Closed",
    "responsible_agency": "Department of Sanitation",
    "final_address": "1518 Religious St",
    "address_councildis": "B",
    "status": "Invalid Request",
    "contractor": "IV Waste",
    "contractor_action": "Invalid",
    "rowid": "1196871",
    "final_x": "3682069.67912",
    "final_y": "523210.179835",
    "longitude": "-90.06656156857525",
    "latitude": "29.932629154067644",
    "geocoded_column": {
      "latitude": "29.932629154067644",
      "longitude": "-90.06656156857525"
    }
  },
  {
    "service_request": "2025-1196870",
    "request_type": "Abandoned Vehicles",
    "request_reason": "Abandoned/Junk Vehicles",
    "date_created": "2025-06-01T10:08:52.000",
    "date_modified": "2025-06-01T10:08:53.000",
    "request_status": "Pending",
    "responsible_agency": "Department of Public Works",
    "final_address": "626 S Solomon St",
    "address_councildis": "A",
    "status": "Pending",
    "rowid": "1196870",
    "final_x": "3669294.27367",
    "final_y": "536963.585736",
    "longitude": "-90.10642767450895",
    "latitude": "29.97082868685423",
    "geocoded_column": {
      "latitude": "29.97082868685423",
      "longitude": "-90.10642767450895"
    }
  },
  {
    "service_request": "2025-1196869",
    "request_type": "Trash/Recycling",
    "request_reason": "Request a Large Item Pick Up",
    "date_created": "2025-06-01T10:08:15.000",
    "date_modified": "2025-06-01T10:08:18.000",
    "request_status": "Pending",
    "responsible_agency": "Department of Sanitation",
    "final_address": "3031 Chippewa St",
    "address_councildis": "B",
    "status": "Assigned to Contractor",
    "contractor": "IV Waste",
    "rowid": "1196869",
    "final_x": "3676963.07765",
    "final_y": "519014.525047",
    "longitude": "-90.08282724658535",
    "latitude": "29.9212467121667",
    "geocoded_column": {
      "latitude": "29.9212467121667",
      "longitude": "-90.08282724658535"
    }
  },
  {
    "service_request": "2025-1196868",
    "request_type": "Healthy Homes",
    "request_reason": "Healthy Homes",
    "date_created": "2025-06-01T10:07:57.000",
    "date_modified": "2025-06-01T10:07:59.000",
    "request_status": "Pending",
    "responsible_agency": "Department of Code Enforcement",
    "final_address": "4218 Franklin Ave",
    "address_councildis": "D",
    "status": "Pending",
    "rowid": "1196868",
    "final_x": "3686774.74601",
    "final_y": "548522.033874",
    "longitude": "-90.05081371139667",
    "latitude": "30.002084070902452",
    "geocoded_column": {
      "latitude": "30.002084070902452",
      "longitude": "-90.05081371139667"
    }
  },
  {
    "service_request": "2025-1196867",
    "request_type": "Abandoned Vehicles",
    "request_reason": "Abandoned/Junk Vehicles",
    "date_created": "2025-06-01T10:03:46.000",
    "date_modified": "2025-06-01T10:03:47.000",
    "request_status": "Pending",
    "responsible_agency": "Department of Public Works",
    "final_address": "626 S Solomon St",
    "address_councildis": "A",
    "status": "Pending",
    "rowid": "1196867",
    "final_x": "3669294.27367",
    "final_y": "536963.585736",
    "longitude": "-90.10642767450895",
    "latitude": "29.97082868685423",
    "geocoded_column": {
      "latitude": "29.97082868685423",
      "longitude": "-90.10642767450895"
    }
  },
  {
    "service_request": "2025-1196866",
    "request_type": "Trash/Recycling",
    "request_reason": "Request a Large Item Pick Up",
    "date_created": "2025-06-01T10:03:11.000",
    "date_modified": "2025-06-01T10:32:46.000",
    "request_status": "Pending",
    "responsible_agency": "Department of Sanitation",
    "final_address": "6225 Cartier Dr",
    "address_councildis": "D",
    "status": "Pending",
    "rowid": "1196866",
    "final_x": "3677678.31694",
    "final_y": "555774.017689",
    "longitude": "-90.07929965647656",
    "latitude": "30.022301240489288",
    "geocoded_column": {
      "latitude": "30.022301240489288",
      "longitude": "-90.07929965647656"
    }
  },
  {
    "service_request": "2025-1196865",
    "request_type": "Property Maintenance",
    "request_reason": "Property Maintenance",
    "date_created": "2025-06-01T10:00:50.000",
    "date_modified": "2025-06-01T10:00:53.000",
    "request_status": "Pending",
    "responsible_agency": "Department of Code Enforcement",
    "final_address": "4218 Franklin Ave",
    "address_councildis": "D",
    "status": "Pending",
    "rowid": "1196865",
    "final_x": "3686774.74601",
    "final_y": "548522.033874",
    "longitude": "-90.05081371139667",
    "latitude": "30.002084070902452",
    "geocoded_column": {
      "latitude": "30.002084070902452",
      "longitude": "-90.05081371139667"
    }
  },
  {
    "service_request": "2025-1196864",
    "request_type": "Property Maintenance",
    "request_reason": "Property Maintenance",
    "date_created": "2025-06-01T09:56:20.000",
    "date_modified": "2025-06-01T09:56:22.000",
    "request_status": "Pending",
    "responsible_agency": "Department of Code Enforcement",
    "final_address": "5920 Milne Blvd",
    "address_councildis": "A",
    "status": "Pending",
    "rowid": "1196864",
    "final_x": "3666916.46061",
    "final_y": "547196.099281",
    "longitude": "-90.11359313538397",
    "latitude": "29.99903442563815",
    "geocoded_column": {
      "latitude": "29.99903442563815",
      "longitude": "-90.11359313538397"
    }
  },
  {
    "service_request": "2025-1196863",
    "request_type": "General Services",
    "request_reason": "General Service Request",
    "date_created": "2025-06-01T09:36:09.000",
    "date_modified": "2025-06-01T09:36:11.000",
    "request_status": "Pending",
    "responsible_agency": "Orleans Parish Communication District",
    "final_address": "5516 Peoples Ave",
    "address_councildis": "D",
    "status": "Pending",
    "rowid": "1196863",
    "final_x": "3687908.00271",
    "final_y": "553581.629207",
    "longitude": "-90.04705420441046",
    "latitude": "30.015961179095253",
    "geocoded_column": {
      "latitude": "30.015961179095253",
      "longitude": "-90.04705420441046"
    }
  },
  {
    "service_request": "2025-1196862",
    "request_type": "General Services",
    "request_reason": "General Service Request",
    "date_created": "2025-06-01T09:29:52.000",
    "date_modified": "2025-06-01T09:29:54.000",
    "request_status": "Pending",
    "responsible_agency": "Orleans Parish Communication District",
    "final_address": "0 BLK Acadiana Pl",
    "address_councildis": "E",
    "status": "Pending",
    "rowid": "1196862",
    "final_x": "3725131.4083",
    "final_y": "564393.680055",
    "longitude": "-89.92902788187175",
    "latitude": "30.04448842646984",
    "geocoded_column": {
      "latitude": "30.04448842646984",
      "longitude": "-89.92902788187175"
    }
  },
  {
    "service_request": "2025-1196861",
    "request_type": "General Services",
    "request_reason": "General Service Request",
    "date_created": "2025-06-01T09:29:52.000",
    "date_modified": "2025-06-01T09:29:53.000",
    "request_status": "Pending",
    "responsible_agency": "Orleans Parish Communication District",
    "final_address": "0 BLK Acadiana Pl",
    "address_councildis": "E",
    "status": "Pending",
    "rowid": "1196861",
    "final_x": "3725131.4083",
    "final_y": "564393.680055",
    "longitude": "-89.92902788187175",
    "latitude": "30.04448842646984",
    "geocoded_column": {
      "latitude": "30.04448842646984",
      "longitude": "-89.92902788187175"
    }
  },
  {
    "service_request": "2025-1196860",
    "request_type": "Safety & Permits",
    "request_reason": "Zoning Enforcement",
    "date_created": "2025-06-01T09:06:45.000",
    "date_modified": "2025-06-01T09:06:47.000",
    "request_status": "Pending",
    "responsible_agency": "Safety and Permits",
    "final_address": "717 Verret St",
    "address_councildis": "C",
    "status": "Pending",
    "rowid": "1196860",
    "final_x": "3687063.2637",
    "final_y": "528929.282944",
    "longitude": "-90.05059515909802",
    "latitude": "29.94820201127332",
    "geocoded_column": {
      "latitude": "29.94820201127332",
      "longitude": "-90.05059515909802"
    }
  },
  {
    "service_request": "2025-1196859",
    "request_type": "Roads and Streets",
    "request_reason": "Street Subsidence (Sinking)",
    "date_created": "2025-06-01T09:00:04.000",
    "date_modified": "2025-06-01T09:00:07.000",
    "request_status": "Pending",
    "responsible_agency": "Department of Public Works",
    "final_address": "1034 Harmony St",
    "address_councildis": "B",
    "status": "Pending",
    "rowid": "1196859",
    "final_x": "3675804.99061",
    "final_y": "519898.334008",
    "longitude": "-90.08645245962325",
    "latitude": "29.923711603650222",
    "geocoded_column": {
      "latitude": "29.923711603650222",
      "longitude": "-90.08645245962325"
    }
  },
  {
    "service_request": "2025-1196858",
    "request_type": "Trash/Recycling",
    "request_reason": "Illegal Dumping",
    "date_created": "2025-06-01T08:58:48.000",
    "date_modified": "2025-06-01T08:58:49.000",
    "request_status": "Pending",
    "responsible_agency": "Department of Sanitation",
    "final_address": "511 Jackson Ave",
    "address_councildis": "B",
    "status": "Pending",
    "rowid": "1196858",
    "final_x": "3680174.4381",
    "final_y": "520445.8862",
    "longitude": "-90.07264069810714",
    "latitude": "29.925085730265863",
    "geocoded_column": {
      "latitude": "29.925085730265863",
      "longitude": "-90.07264069810714"
    }
  },
  {
    "service_request": "2025-1196857",
    "request_type": "Trash/Recycling",
    "request_reason": "Illegal Dumping",
    "date_created": "2025-06-01T08:58:27.000",
    "date_modified": "2025-06-01T08:58:28.000",
    "request_status": "Pending",
    "responsible_agency": "Department of Sanitation",
    "final_address": "511 Jackson Ave",
    "address_councildis": "B",
    "status": "Pending",
    "rowid": "1196857",
    "final_x": "3680174.4381",
    "final_y": "520445.8862",
    "longitude": "-90.07264069810714",
    "latitude": "29.925085730265863",
    "geocoded_column": {
      "latitude": "29.925085730265863",
      "longitude": "-90.07264069810714"
    }
  },
  {
    "service_request": "2025-1196856",
    "request_type": "Roads and Streets",
    "request_reason": "Abandoned Service Cut",
    "date_created": "2025-06-01T08:56:45.000",
    "date_modified": "2025-06-01T08:56:48.000",
    "request_status": "Pending",
    "responsible_agency": "Department of Public Works",
    "final_address": "2341 Mendez St",
    "address_councildis": "D",
    "status": "Pending",
    "rowid": "1196856",
    "final_x": "3684800.87548",
    "final_y": "553546.050775",
    "longitude": "-90.05687257701973",
    "latitude": "30.015958891368566",
    "geocoded_column": {
      "latitude": "30.015958891368566",
      "longitude": "-90.05687257701973"
    }
  },
  {
    "service_request": "2025-1196855",
    "request_type": "Property Maintenance",
    "request_reason": "Property Maintenance",
    "date_created": "2025-06-01T08:43:37.000",
    "date_modified": "2025-06-01T08:43:40.000",
    "request_status": "Pending",
    "responsible_agency": "Department of Code Enforcement",
    "final_address": "6594 Bellaire Dr",
    "address_councildis": "A",
    "status": "Pending",
    "rowid": "1196855",
    "final_x": "3664480.90983",
    "final_y": "551949.45743",
    "longitude": "-90.12112826140735",
    "latitude": "30.012175582048837",
    "geocoded_column": {
      "latitude": "30.012175582048837",
      "longitude": "-90.12112826140735"
    }
  },
  {
    "service_request": "2025-1196854",
    "request_type": "Trash/Recycling",
    "request_reason": "Order Recycling Cart",
    "date_created": "2025-06-01T08:22:49.000",
    "date_modified": "2025-06-01T08:22:52.000",
    "request_status": "Pending",
    "responsible_agency": "Department of Sanitation",
    "final_address": "6035 Catina St",
    "address_councildis": "A",
    "status": "Pending",
    "rowid": "1196854",
    "final_x": "3666842.79649",
    "final_y": "547841.988754",
    "longitude": "-90.1138041265768",
    "latitude": "30.000812554861028",
    "geocoded_column": {
      "latitude": "30.000812554861028",
      "longitude": "-90.1138041265768"
    }
  },
  {
    "service_request": "2025-1196853",
    "request_type": "Trash/Recycling",
    "request_reason": "Return Recycling Cart",
    "date_created": "2025-06-01T08:10:22.000",
    "date_modified": "2025-06-01T08:10:24.000",
    "request_status": "Pending",
    "responsible_agency": "Department of Sanitation",
    "final_address": "315 34Th St",
    "address_councildis": "A",
    "status": "Pending",
    "rowid": "1196853",
    "final_x": "3665190.917",
    "final_y": "551489.413141",
    "longitude": "-90.11890043591481",
    "latitude": "30.01088994808607",
    "geocoded_column": {
      "latitude": "30.01088994808607",
      "longitude": "-90.11890043591481"
    }
  },
  {
    "service_request": "2025-1196852",
    "request_type": "Trash/Recycling",
    "request_reason": "Request a Large Item Pick Up",
    "date_created": "2025-06-01T06:42:15.000",
    "date_modified": "2025-06-01T06:42:16.000",
    "request_status": "Pending",
    "responsible_agency": "Department of Sanitation",
    "final_address": "3401 Belfort St Apt A",
    "address_councildis": "A",
    "status": "Assigned to Contractor",
    "contractor": "IV Waste",
    "rowid": "1196852",
    "final_x": "3676878.31016",
    "final_y": "542598.057037",
    "longitude": "-90.08228203927554",
    "latitude": "29.986096075512616",
    "geocoded_column": {
      "latitude": "29.986096075512616",
      "longitude": "-90.08228203927554"
    }
  },
  {
    "service_request": "2025-1196851",
    "request_type": "Trash/Recycling",
    "request_reason": "Request a Large Item Pick Up",
    "date_created": "2025-06-01T06:35:46.000",
    "date_modified": "2025-06-01T06:35:51.000",
    "request_status": "Pending",
    "responsible_agency": "Department of Sanitation",
    "final_address": "361 Millaudon St",
    "address_councildis": "A",
    "status": "Assigned to Contractor",
    "contractor": "IV Waste",
    "rowid": "1196851",
    "final_x": "3661824.15021",
    "final_y": "524487.801596",
    "longitude": "-90.13043300340226",
    "latitude": "29.936742123533673",
    "geocoded_column": {
      "latitude": "29.936742123533673",
      "longitude": "-90.13043300340226"
    }
  },
  {
    "service_request": "2025-1196850",
    "request_type": "Trash/Recycling",
    "request_reason": "Request a Large Item Pick Up",
    "date_created": "2025-06-01T04:30:40.000",
    "date_modified": "2025-06-01T04:30:42.000",
    "request_status": "Pending",
    "responsible_agency": "Department of Sanitation",
    "final_address": "616 Poland Ave",
    "address_councildis": "C",
    "status": "Assigned to Contractor",
    "contractor": "IV Waste",
    "rowid": "1196850",
    "final_x": "3692554.34269",
    "final_y": "533325.013188",
    "longitude": "-90.03310015554823",
    "latitude": "29.96011857279911",
    "geocoded_column": {
      "latitude": "29.96011857279911",
      "longitude": "-90.03310015554823"
    }
  },
  {
    "service_request": "2025-1196849",
    "request_type": "Trash/Recycling",
    "request_reason": "Request a Large Item Pick Up",
    "date_created": "2025-06-01T04:28:39.000",
    "date_modified": "2025-06-01T04:28:40.000",
    "request_status": "Pending",
    "responsible_agency": "Department of Sanitation",
    "final_address": "616 Poland Ave",
    "address_councildis": "C",
    "status": "Assigned to Contractor",
    "contractor": "IV Waste",
    "rowid": "1196849",
    "final_x": "3692554.34269",
    "final_y": "533325.013188",
    "longitude": "-90.03310015554823",
    "latitude": "29.96011857279911",
    "geocoded_column": {
      "latitude": "29.96011857279911",
      "longitude": "-90.03310015554823"
    }
  },
  {
    "service_request": "2025-1196848",
    "request_type": "Streetlights",
    "request_reason": "Streetlight Outage/Malfunction",
    "date_created": "2025-06-01T01:53:30.000",
    "date_modified": "2025-06-01T01:53:32.000",
    "request_status": "Pending",
    "responsible_agency": "Department of Public Works",
    "final_address": "1000 BLK Henry Clay Ave",
    "address_councildis": "A",
    "status": "Pending",
    "contractor": "Legacy Professional Services",
    "rowid": "1196848",
    "final_x": "3664095.43194",
    "final_y": "520367.701178",
    "longitude": "-90.12339977823859",
    "latitude": "29.925347389909206",
    "geocoded_column": {
      "latitude": "29.925347389909206",
      "longitude": "-90.12339977823859"
    }
  },
  {
    "service_request": "2025-1196847",
    "request_type": "General Services",
    "request_reason": "General Service Request",
    "date_created": "2025-06-01T01:32:44.000",
    "date_modified": "2025-06-01T01:32:46.000",
    "request_status": "Pending",
    "responsible_agency": "Orleans Parish Communication District",
    "final_address": "2256 St Claude Ave",
    "address_councildis": "C",
    "status": "Pending",
    "rowid": "1196847",
    "final_x": "3685562.25794",
    "final_y": "536316.933575",
    "longitude": "-90.05507422449332",
    "latitude": "29.968561630126942",
    "geocoded_column": {
      "latitude": "29.968561630126942",
      "longitude": "-90.05507422449332"
    }
  },
  {
    "service_request": "2025-1196846",
    "request_type": "Abandoned Vehicles",
    "request_reason": "Abandoned/Junk Vehicles",
    "date_created": "2025-06-01T00:26:24.000",
    "date_modified": "2025-06-01T00:26:26.000",
    "request_status": "Pending",
    "responsible_agency": "Department of Public Works",
    "final_address": "833 Poland Ave",
    "address_councildis": "C",
    "status": "Pending",
    "rowid": "1196846",
    "final_x": "3692887.86205",
    "final_y": "534089.692165",
    "longitude": "-90.03201955389704",
    "latitude": "29.962210761113152",
    "geocoded_column": {
      "latitude": "29.962210761113152",
      "longitude": "-90.03201955389704"
    }
  },
  {
    "service_request": "2025-1196845",
    "request_type": "Roads and Streets",
    "request_reason": "Pothole",
    "date_created": "2025-05-31T23:48:20.000",
    "date_modified": "2025-05-31T23:48:21.000",
    "request_status": "Pending",
    "responsible_agency": "Department of Public Works",
    "final_address": "8126 Oak St",
    "address_councildis": "A",
    "status": "Pending",
    "rowid": "1196845",
    "final_x": "3661777.42931",
    "final_y": "528490.765568",
    "longitude": "-90.13044783702584",
    "latitude": "29.947750350121428",
    "geocoded_column": {
      "latitude": "29.947750350121428",
      "longitude": "-90.13044783702584"
    }
  },
  {
    "service_request": "2025-1196844",
    "request_type": "Roads and Streets",
    "request_reason": "Pothole",
    "date_created": "2025-05-31T23:40:04.000",
    "date_modified": "2025-05-31T23:40:11.000",
    "request_status": "Pending",
    "responsible_agency": "Department of Public Works",
    "final_address": "147 Alvin Callender St",
    "address_councildis": "A",
    "status": "Pending",
    "rowid": "1196844",
    "final_x": "3661191.19802",
    "final_y": "523429.398587",
    "longitude": "-90.13246629261687",
    "latitude": "29.933850104242122",
    "geocoded_column": {
      "latitude": "29.933850104242122",
      "longitude": "-90.13246629261687"
    }
  },
  {
    "service_request": "2025-1196843",
    "request_type": "Streetlights",
    "request_reason": "Streetlight Outage/Malfunction",
    "date_created": "2025-05-31T23:34:44.000",
    "date_modified": "2025-05-31T23:34:47.000",
    "request_status": "Pending",
    "responsible_agency": "Department of Public Works",
    "final_address": "8501 Dixon St",
    "address_councildis": "A",
    "status": "Pending",
    "contractor": "Legacy Professional Services",
    "rowid": "1196843",
    "final_x": "3667313.38925",
    "final_y": "536612.515655",
    "longitude": "-90.11269538855723",
    "latitude": "29.969921533450812",
    "geocoded_column": {
      "latitude": "29.969921533450812",
      "longitude": "-90.11269538855723"
    }
  },
  {
    "service_request": "2025-1196842",
    "request_type": "Streetlights",
    "request_reason": "Streetlight Outage/Malfunction",
    "date_created": "2025-05-31T23:29:02.000",
    "date_modified": "2025-05-31T23:29:04.000",
    "request_status": "Pending",
    "responsible_agency": "Department of Public Works",
    "final_address": "147 Alvin Callender St",
    "address_councildis": "A",
    "status": "Pending",
    "contractor": "Legacy Professional Services",
    "rowid": "1196842",
    "final_x": "3661191.19802",
    "final_y": "523429.398587",
    "longitude": "-90.13246629261687",
    "latitude": "29.933850104242122",
    "geocoded_column": {
      "latitude": "29.933850104242122",
      "longitude": "-90.13246629261687"
    }
  },
  {
    "service_request": "2025-1196841",
    "request_type": "General Services",
    "request_reason": "General Service Request",
    "date_created": "2025-05-31T22:58:53.000",
    "date_modified": "2025-05-31T22:58:56.000",
    "request_status": "Pending",
    "responsible_agency": "Orleans Parish Communication District",
    "final_address": "2910 N Rampart St",
    "address_councildis": "C",
    "status": "Pending",
    "rowid": "1196841",
    "final_x": "3688166.89052",
    "final_y": "535712.937415",
    "longitude": "-90.04687009372843",
    "latitude": "29.96682069969533",
    "geocoded_column": {
      "latitude": "29.96682069969533",
      "longitude": "-90.04687009372843"
    }
  },
  {
    "service_request": "2025-1196840",
    "request_type": "Trash/Recycling",
    "request_reason": "Replace Trash Cart",
    "date_created": "2025-05-31T22:30:55.000",
    "date_modified": "2025-05-31T22:30:57.000",
    "request_status": "Pending",
    "responsible_agency": "Department of Sanitation",
    "final_address": "5820 Pembrook Drive New Orleans,  LA  70131",
    "status": "Assigned to Contractor",
    "rowid": "1196840",
    "longitude": "0.0",
    "latitude": "0.0",
    "geocoded_column": {
      "latitude": "0.0",
      "longitude": "0.0"
    }
  },
  {
    "service_request": "2025-1196839",
    "request_type": "Streetlights",
    "request_reason": "Streetlight Outage/Malfunction",
    "date_created": "2025-05-31T22:16:20.000",
    "date_modified": "2025-05-31T22:16:23.000",
    "request_status": "Pending",
    "responsible_agency": "Department of Public Works",
    "final_address": "1600 BLK Allen Toussaint Blvd",
    "address_councildis": "D",
    "status": "Pending",
    "contractor": "Legacy Professional Services",
    "rowid": "1196839",
    "final_x": "3679007.99136",
    "final_y": "555416.643876",
    "longitude": "-90.07511061030337",
    "latitude": "30.021278512240485",
    "geocoded_column": {
      "latitude": "30.021278512240485",
      "longitude": "-90.07511061030337"
    }
  },
  {
    "service_request": "2025-1196838",
    "request_type": "Trash/Recycling",
    "request_reason": "Order Recycling Cart",
    "date_created": "2025-05-31T22:07:43.000",
    "date_modified": "2025-05-31T22:07:45.000",
    "request_status": "Pending",
    "responsible_agency": "Department of Sanitation",
    "final_address": "4110 Duplessis St",
    "address_councildis": "D",
    "status": "Pending",
    "rowid": "1196838",
    "final_x": "3678293.83694",
    "final_y": "547362.429777",
    "longitude": "-90.07764602876286",
    "latitude": "29.999153855431963",
    "geocoded_column": {
      "latitude": "29.999153855431963",
      "longitude": "-90.07764602876286"
    }
  },