[
  {
    "service_request": "2024-1079752",
    "request_type": "Traffic Signals/Signs/Striping/Streetlights",
    "request_reason": "Street Light Outage/Malfunction",
    "date_created": "2024-03-28T23:44:44.000",
    "date_modified": "2024-03-28T23:44:45.000",
    "request_status": "Pending",
    "responsible_agency": "Department of Public Works",
    "final_address": "7900 BLK Cohn St",
    "address_councildis": "A",
    "status": "Assigned to Contractor",
    "contractor": "Legacy Professional Services",
    "rowid": "1079752",
    "final_x": "3664070.5022",
    "final_y": "529776.503227",
    "longitude": "-90.12316479304776",
    "latitude": "29.95121932386468",
    "geocoded_column": {
      "latitude": "29.95121932386468",
      "longitude": "-90.12316479304776"
    }
  },
  {
    "service_request": "2024-1079751",
    "request_type": "Roads/Drainage",
    "request_reason": "Road Shoulder Repair",
    "date_created": "2024-03-28T23:26:10.000",
    "date_modified": "2024-03-28T23:26:10.000",
    "request_status": "Pending",
    "responsible_agency": "Department of Public Works",
    "final_address": "1300 General Taylor St",
    "address_councildis": "B",
    "status": "Pending",
    "rowid": "1079751",
    "final_x": "3672762.11304",
    "final_y": "520298.263352",
    "longitude": "-90.09604409876785",
    "latitude": "29.924901977789897",
    "geocoded_column": {
      "latitude": "29.924901977789897",
      "longitude": "-90.09604409876785"
    }
  },
  {
    "service_request": "2024-1079750",
    "request_type": "Roads/Drainage",
    "request_reason": "Pothole",
    "date_created": "2024-03-28T22:45:22.000",
    "date_modified": "2024-03-28T22:45:22.000",
    "request_status": "Pending",
    "responsible_agency": "Department of Public Works",
    "final_address": "1035 Calhoun St",
    "address_councildis": "A",
    "status": "Pending",
    "rowid": "1079750",
    "final_x": "3663904.95104",
    "final_y": "520557.308408",
    "longitude": "-90.1239947524101",
    "latitude": "29.925874279533662",
    "geocoded_column": {
      "latitude": "29.925874279533662",
      "longitude": "-90.1239947524101"
    }
  },
  {
    "service_request": "2024-1079749",
    "request_type": "Traffic Signals/Signs/Striping/Streetlights",
    "request_reason": "Street Light Outage/Malfunction",
    "date_created": "2024-03-28T22:44:44.000",
    "date_modified": "2024-03-28T22:44:45.000",
    "request_status": "Pending",
    "responsible_agency": "Department of Public Works",
    "final_address": "2130 Painters St",
    "address_councildis": "D",
    "status": "Assigned to Contractor",
    "contractor": "Legacy Professional Services",
    "rowid": "1079749",
    "final_x": "3687210.0301",
    "final_y": "540460.367947",
    "longitude": "-90.04972390027345",
    "latitude": "29.97990397244672",
    "geocoded_column": {
      "latitude": "29.97990397244672",
      "longitude": "-90.04972390027345"
    }
  },
  {
    "service_request": "2024-1079748",
    "request_type": "Traffic Signals/Signs/Striping/Streetlights",
    "request_reason": "Street Light Outage/Malfunction",
    "date_created": "2024-03-28T22:42:26.000",
    "date_modified": "2024-03-28T22:42:27.000",
    "request_status": "Pending",
    "responsible_agency": "Department of Public Works",
    "final_address": "2130 Painters St",
    "address_councildis": "D",
    "status": "Assigned to Contractor",
    "contractor": "Legacy Professional Services",
    "rowid": "1079748",
    "final_x": "3687210.0301",
    "final_y": "540460.367947",
    "longitude": "-90.04972390027345",
    "latitude": "29.97990397244672",
    "geocoded_column": {
      "latitude": "29.97990397244672",
      "longitude": "-90.04972390027345"
    }
  },
  {
    "service_request": "2024-1079747",
    "request_type": "Roads/Drainage",
    "request_reason": "WaterMain Break",
    "date_created": "2024-03-28T21:37:38.000",
    "date_modified": "2024-03-28T21:37:38.000",
    "request_status": "Pending",
    "responsible_agency": "Department of Public Works",
    "final_address": "6300 BLK Franklin Ave",
    "address_councildis": "D",
    "status": "Pending",
    "rowid": "1079747",
    "final_x": "3686278.6425",
    "final_y": "556556.609443",
    "longitude": "-90.0520971423425",
    "latitude": "30.024191466985894",
    "geocoded_column": {
      "latitude": "30.024191466985894",
      "longitude": "-90.0520971423425"
    }
  },
  {
    "service_request": "2024-1079746",
    "request_type": "Roads/Drainage",
    "request_reason": "Pothole",
    "date_created": "2024-03-28T21:30:44.000",
    "date_modified": "2024-03-28T21:30:44.000",
    "request_status": "Pending",
    "responsible_agency": "Department of Public Works",
    "final_address": "1207 Henry Clay Ave",
    "address_councildis": "A",
    "status": "Pending",
    "rowid": "1079746",
    "final_x": "3664380.25933",
    "final_y": "520884.181689",
    "longitude": "-90.12248343488895",
    "latitude": "29.92675927607611",
    "geocoded_column": {
      "latitude": "29.92675927607611",
      "longitude": "-90.12248343488895"
    }
  },
  {
    "service_request": "2024-1079745",
    "request_type": "Trash/Recycling",
    "request_reason": "Request a Large Item Pick Up",
    "date_created": "2024-03-28T20:59:18.000",
    "date_modified": "2024-03-28T20:59:19.000",
    "request_status": "Pending",
    "responsible_agency": "Department of Sanitation",
    "final_address": "5515 Wickfield Dr",
    "address_councildis": "D",
    "status": "Assigned to Contractor",
    "contractor": "IV Waste",
    "rowid": "1079745",
    "final_x": "3681146.78216",
    "final_y": "553263.947479",
    "longitude": "-90.06842771549462",
    "latitude": "30.01529463152816",
    "geocoded_column": {
      "latitude": "30.01529463152816",
      "longitude": "-90.06842771549462"
    }
  },
  {
    "service_request": "2024-1079744",
    "request_type": "Property Maintenance",
    "request_reason": "Property Maintenance",
    "date_created": "2024-03-28T20:35:45.000",
    "date_modified": "2024-03-28T20:35:45.000",
    "request_status": "Pending",
    "responsible_agency": "Department of Code Enforcement",
    "final_address": "8437 Spruce St",
    "address_councildis": "A",
    "status": "Pending",
    "rowid": "1079744",
    "final_x": "3662860.92615",
    "final_y": "531411.244483",
    "longitude": "-90.12692970814281",
    "latitude": "29.955749405257414",
    "geocoded_column": {
      "latitude": "29.955749405257414",
      "longitude": "-90.12692970814281"
    }
  },
  {
    "service_request": "2024-1079743",
    "request_type": "Roads/Drainage",
    "request_reason": "Pothole",
    "date_created": "2024-03-28T20:16:21.000",
    "date_modified": "2024-03-28T20:16:21.000",
    "request_status": "Pending",
    "responsible_agency": "Department of Public Works",
    "final_address": "6014 Pitt St",
    "address_councildis": "A",
    "status": "Pending",
    "rowid": "1079743",
    "final_x": "3665130.06368",
    "final_y": "521118.807673",
    "longitude": "-90.12010865234235",
    "latitude": "29.927382615383642",
    "geocoded_column": {
      "latitude": "29.927382615383642",
      "longitude": "-90.12010865234235"
    }
  },
  {
    "service_request": "2024-1079742",
    "request_type": "Safety & Permits",
    "request_reason": "Licenses & Permits",
    "date_created": "2024-03-28T20:15:52.000",
    "date_modified": "2024-03-28T20:15:52.000",
    "request_status": "Pending",
    "responsible_agency": "Safety and Permits",
    "final_address": "4336 Magazine St",
    "address_councildis": "B",
    "status": "Pending",
    "rowid": "1079742",
    "final_x": "3671152.99822",
    "final_y": "518710.962295",
    "longitude": "-90.10117743940363",
    "latitude": "29.920585083933357",
    "geocoded_column": {
      "latitude": "29.920585083933357",
      "longitude": "-90.10117743940363"
    }
  },
  {
    "service_request": "2024-1079741",
    "request_type": "Trash/Recycling",
    "request_reason": "Dead Animal Pick Up",
    "date_created": "2024-03-28T19:58:26.000",
    "date_modified": "2024-03-28T19:58:26.000",
    "request_status": "Pending",
    "responsible_agency": "Department of Sanitation",
    "final_address": "1749 Pace Blvd",
    "address_councildis": "C",
    "status": "Assigned to Contractor",
    "contractor": "Richards Disposal",
    "rowid": "1079741",
    "final_x": "3694225.03869",
    "final_y": "524218.812156",
    "longitude": "-90.02815202029561",
    "latitude": "29.93502744489954",
    "geocoded_column": {
      "latitude": "29.93502744489954",
      "longitude": "-90.02815202029561"
    }
  },
  {
    "service_request": "2024-1079740",
    "request_type": "Abandoned Vehicles",
    "request_reason": "Abandoned/Junk Vehicles",
    "date_created": "2024-03-28T19:24:22.000",
    "date_modified": "2024-03-28T19:24:22.000",
    "request_status": "Pending",
    "responsible_agency": "Department of Public Works",
    "final_address": "ROBERT ST & CONSTANCE ST",
    "address_councildis": "B",
    "status": "Pending",
    "rowid": "1079740",
    "final_x": "3668638.2",
    "final_y": "518214.88",
    "longitude": "-90.10913224466226",
    "latitude": "29.919295132369108",
    "geocoded_column": {
      "latitude": "29.919295132369108",
      "longitude": "-90.10913224466226"
    }
  },
  {
    "service_request": "2024-1079739",
    "request_type": "Trash/Recycling",
    "request_reason": "Repair Trash Cart",
    "date_created": "2024-03-28T19:13:23.000",
    "date_modified": "2024-03-28T19:13:24.000",
    "request_status": "Pending",
    "responsible_agency": "Department of Sanitation",
    "final_address": "3611 Dumaine St",
    "address_councildis": "A",
    "status": "Assigned to Contractor",
    "contractor": "Richards Disposal",
    "rowid": "1079739",
    "final_x": "3674247.44539",
    "final_y": "539811.319114",
    "longitude": "-90.09068738207036",
    "latitude": "29.978512223428126",
    "geocoded_column": {
      "latitude": "29.978512223428126",
      "longitude": "-90.09068738207036"
    }
  },
  {
    "service_request": "2024-1079738",
    "request_type": "Health Related Request",
    "request_reason": "Noise Ordinance Complaint",
    "date_created": "2024-03-28T18:55:45.000",
    "date_modified": "2024-03-28T18:55:45.000",
    "request_status": "Pending",
    "responsible_agency": "Health Department",
    "final_address": "2326 Robert St",
    "address_councildis": "B",
    "status": "Pending",
    "rowid": "1079738",
    "final_x": "3668768.91015",
    "final_y": "524152.10502",
    "longitude": "-90.10851933252462",
    "latitude": "29.93561677142102",
    "geocoded_column": {
      "latitude": "29.93561677142102",
      "longitude": "-90.10851933252462"
    }
  },
  {
    "service_request": "2024-1079737",
    "request_type": "Trash/Recycling",
    "request_reason": "Request a Large Item Pick Up",
    "date_created": "2024-03-28T18:48:45.000",
    "date_modified": "2024-03-28T18:48:45.000",
    "request_status": "Pending",
    "responsible_agency": "Department of Sanitation",
    "final_address": "7320 General Haig St",
    "address_councildis": "D",
    "status": "Assigned to Contractor",
    "contractor": "IV Waste",
    "rowid": "1079737",
    "final_x": "3671193.68219",
    "final_y": "555325.569177",
    "longitude": "-90.09980481803319",
    "latitude": "30.02126171316125",
    "geocoded_column": {
      "latitude": "30.02126171316125",
      "longitude": "-90.09980481803319"
    }
  },
  {
    "service_request": "2024-1079736",
    "request_type": "Trash/Recycling",
    "request_reason": "Missed Trash Pick-Up",
    "date_created": "2024-03-28T18:44:23.000",
    "date_modified": "2024-03-28T18:44:24.000",
    "request_status": "Pending",
    "responsible_agency": "Department of Sanitation",
    "final_address": "4416 Perrier St",
    "address_councildis": "B",
    "status": "Assigned to Contractor",
    "contractor": "Richards Disposal",
    "rowid": "1079736",
    "final_x": "3670709.55137",
    "final_y": "519979.33324",
    "longitude": "-90.10253419361912",
    "latitude": "29.924085805200754",
    "geocoded_column": {
      "latitude": "29.924085805200754",
      "longitude": "-90.10253419361912"
    }
  },
  {
    "service_request": "2024-1079735",
    "request_type": "Trash/Recycling",
    "request_reason": "Request a Large Item Pick Up",
    "date_created": "2024-03-28T18:41:36.000",
    "date_modified": "2024-03-28T18:41:36.000",
    "request_status": "Pending",
    "responsible_agency": "Department of Sanitation",
    "final_address": "4633 Knight Dr",
    "address_councildis": "E",
    "status": "Assigned to Contractor",
    "contractor": "Waste Pro",
    "rowid": "1079735",
    "final_x": "3708278.07614",
    "final_y": "554855.376984",
    "longitude": "-89.98264699711817",
    "latitude": "30.018819011394683",
    "geocoded_column": {
      "latitude": "30.018819011394683",
      "longitude": "-89.98264699711817"
    }
  },
  {
    "service_request": "2024-1079732",
    "request_type": "Abandoned Vehicles",
    "request_reason": "Abandoned/Junk Vehicles",
    "date_created": "2024-03-28T18:30:09.000",
    "date_modified": "2024-03-28T18:30:09.000",
    "request_status": "Pending",
    "responsible_agency": "Department of Public Works",
    "final_address": "4901 Iberville St, New Orleans, Louisiana, 70119",
    "address_councildis": "A",
    "status": "Pending",
    "rowid": "1079732",
    "final_x": "3668777.1922",
    "final_y": "540719.652299",
    "longitude": "-90.10793382992587",
    "latitude": "29.981171819187143",
    "geocoded_column": {
      "latitude": "29.981171819187143",
      "longitude": "-90.10793382992587"
    }
  },
  {
    "service_request": "2024-1079731",
    "request_type": "Property Maintenance",
    "request_reason": "Property Maintenance",
    "date_created": "2024-03-28T18:15:30.000",
    "date_modified": "2024-03-28T18:15:30.000",
    "request_status": "Pending",
    "responsible_agency": "Department of Code Enforcement",
    "final_address": "1412 Magnolia St",
    "address_councildis": "B",
    "status": "Pending",
    "rowid": "1079731",
    "final_x": "3676014.85569",
    "final_y": "527762.196671",
    "longitude": "-90.08551966681928",
    "latitude": "29.9453283758265",
    "geocoded_column": {
      "latitude": "29.9453283758265",
      "longitude": "-90.08551966681928"
    }
  },
  {
    "service_request": "2024-1079729",
    "request_type": "Trash/Recycling",
    "request_reason": "Request a Large Item Pick Up",
    "date_created": "2024-03-28T17:56:02.000",
    "date_modified": "2024-03-28T17:56:02.000",
    "request_status": "Pending",
    "responsible_agency": "Department of Sanitation",
    "final_address": "2340 Dauphine St",
    "address_councildis": "C",
    "status": "Assigned to Contractor",
    "contractor": "IV Waste",
    "rowid": "1079729",
    "final_x": "3685841.38044",
    "final_y": "535265.53543",
    "longitude": "-90.05422980785603",
    "latitude": "29.965662085508974",
    "geocoded_column": {
      "latitude": "29.965662085508974",
      "longitude": "-90.05422980785603"
    }
  },
  {
    "service_request": "2024-1079728",
    "request_type": "Trash/Recycling",
    "request_reason": "Request a Large Item Pick Up",
    "date_created": "2024-03-28T17:49:34.000",
    "date_modified": "2024-03-28T17:49:34.000",
    "request_status": "Pending",
    "responsible_agency": "Department of Sanitation",
    "final_address": "7427 Pitt St",
    "address_councildis": "A",
    "status": "Assigned to Contractor",
    "contractor": "Richards Disposal",
    "rowid": "1079728",
    "final_x": "3661193.14042",
    "final_y": "523574.383099",
    "longitude": "-90.13245536356102",
    "latitude": "29.93424871007761",
    "geocoded_column": {
      "latitude": "29.93424871007761",
      "longitude": "-90.13245536356102"
    }
  },
  {
    "service_request": "2024-1079727",
    "request_type": "Trash/Recycling",
    "request_reason": "Missed Trash Pick-Up",
    "date_created": "2024-03-28T17:43:01.000",
    "date_modified": "2024-03-28T17:43:02.000",
    "request_status": "Pending",
    "responsible_agency": "Department of Sanitation",
    "final_address": "610 Soraparu St",
    "address_councildis": "B",
    "status": "Assigned to Contractor",
    "contractor": "Richards Disposal",
    "rowid": "1079727",
    "final_x": "3679276.94274",
    "final_y": "520225.52908",
    "longitude": "-90.07548143784187",
    "latitude": "29.92450694127319",
    "geocoded_column": {
      "latitude": "29.92450694127319",
      "longitude": "-90.07548143784187"
    }
  },
  {
    "service_request": "2024-1079726",
    "request_type": "Trash/Recycling",
    "request_reason": "Request a Large Item Pick Up",
    "date_created": "2024-03-28T17:36:17.000",
    "date_modified": "2024-03-28T17:36:18.000",
    "request_status": "Pending",
    "responsible_agency": "Department of Sanitation",
    "final_address": "1015 Louisiana Ave",
    "address_councildis": "B",
    "status": "Assigned to Contractor",
    "contractor": "Richards Disposal",
    "rowid": "1079726",
    "final_x": "3675199.70267",
    "final_y": "519448.536567",
    "longitude": "-90.08837856136961",
    "latitude": "29.922492902670886",
    "geocoded_column": {
      "latitude": "29.922492902670886",
      "longitude": "-90.08837856136961"
    }
  },
  {
    "service_request": "2024-1079725",
    "request_type": "Abandoned Vehicles",
    "request_reason": "Abandoned/Junk Vehicles",
    "date_created": "2024-03-28T17:32:16.000",
    "date_modified": "2024-03-28T17:32:16.000",
    "request_status": "Pending",
    "responsible_agency": "Department of Public Works",
    "final_address": "1418 Harrison Ave",
    "address_councildis": "D",
    "status": "Pending",
    "rowid": "1079725",
    "final_x": "3678161.16168",
    "final_y": "547511.86229",
    "longitude": "-90.07805998150191",
    "latitude": "29.999568739115873",
    "geocoded_column": {
      "latitude": "29.999568739115873",
      "longitude": "-90.07805998150191"
    }
  },
  {
    "service_request": "2024-1079724",
    "request_type": "Traffic Signals/Signs/Striping/Streetlights",
    "request_reason": "Street Light Outage/Malfunction",
    "date_created": "2024-03-28T17:29:26.000",
    "date_modified": "2024-03-28T17:29:26.000",
    "request_status": "Pending",
    "responsible_agency": "Department of Public Works",
    "final_address": "616 Vallette St",
    "address_councildis": "C",
    "status": "Assigned to Contractor",
    "contractor": "Legacy Professional Services",
    "rowid": "1079724",
    "final_x": "3687542.26786",
    "final_y": "529373.924033",
    "longitude": "-90.04906701568801",
    "latitude": "29.949409869085446",
    "geocoded_column": {
      "latitude": "29.949409869085446",
      "longitude": "-90.04906701568801"
    }
  },
  {
    "service_request": "2024-1079723",
    "request_type": "Traffic Signals/Signs/Striping/Streetlights",
    "request_reason": "Street Light Outage/Malfunction",
    "date_created": "2024-03-28T17:26:20.000",
    "date_modified": "2024-03-28T17:26:21.000",
    "request_status": "Pending",
    "responsible_agency": "Department of Public Works",
    "final_address": "COLISEUM ST & NAPOLEON AVE",
    "address_councildis": "B",
    "status": "Assigned to Contractor",
    "contractor": "Legacy Professional Services",
    "rowid": "1079723",
    "final_x": "3670993.7",
    "final_y": "519834.18",
    "longitude": "-90.10164215994958",
    "latitude": "29.92367828451682",
    "geocoded_column": {
      "latitude": "29.92367828451682",
      "longitude": "-90.10164215994958"
    }
  },
  {
    "service_request": "2024-1079722",
    "request_type": "Traffic Signals/Signs/Striping/Streetlights",
    "request_reason": "Street Light Outage/Malfunction",
    "date_created": "2024-03-28T17:17:36.000",
    "date_modified": "2024-03-28T17:17:37.000",
    "request_status": "Pending",
    "responsible_agency": "Department of Public Works",
    "final_address": "4518 Coliseum St",
    "address_councildis": "B",
    "status": "Assigned to Contractor",
    "contractor": "Legacy Professional Services",
    "rowid": "1079722",
    "final_x": "3670395.48046",
    "final_y": "519680.00524",
    "longitude": "-90.10353574808536",
    "latitude": "29.923272020946975",
    "geocoded_column": {
      "latitude": "29.923272020946975",
      "longitude": "-90.10353574808536"
    }
  },
  {
    "service_request": "2024-1079721",
    "request_type": "Property Maintenance",
    "request_reason": "Property Maintenance",
    "date_created": "2024-03-28T17:14:47.000",
    "date_modified": "2024-03-28T17:14:47.000",
    "request_status": "Pending",
    "responsible_agency": "Department of Code Enforcement",
    "final_address": "1014 Martinique Aly",
    "address_councildis": "C",
    "status": "Pending",
    "rowid": "1079721",
    "final_x": "3689354.80931",
    "final_y": "535590.52007",
    "longitude": "-90.04312301292337",
    "latitude": "29.966447369063694",
    "geocoded_column": {
      "latitude": "29.966447369063694",
      "longitude": "-90.04312301292337"
    }
  },
  {
    "service_request": "2024-1079720",
    "request_type": "Traffic Signals/Signs/Striping/Streetlights",
    "request_reason": "Street Light Outage/Malfunction",
    "date_created": "2024-03-28T17:00:57.000",
    "date_modified": "2024-03-28T17:00:58.000",
    "request_status": "Pending",
    "responsible_agency": "Department of Public Works",
    "final_address": "5025 Mexico St",
    "address_councildis": "D",
    "status": "Assigned to Contractor",
    "contractor": "Legacy Professional Services",
    "rowid": "1079720",
    "final_x": "3691035.5487",
    "final_y": "556705.431898",
    "longitude": "-90.03706093344181",
    "latitude": "30.024453562160218",
    "geocoded_column": {
      "latitude": "30.024453562160218",
      "longitude": "-90.03706093344181"
    }
  },
  {
    "service_request": "2024-1079719",
    "request_type": "Trash/Recycling",
    "request_reason": "Request a Large Item Pick Up",
    "date_created": "2024-03-28T17:00:53.000",
    "date_modified": "2024-03-28T17:00:53.000",
    "request_status": "Pending",
    "responsible_agency": "Department of Sanitation",
    "final_address": "7018 Dreux Ave",
    "address_councildis": "E",
    "status": "Assigned to Contractor",
    "contractor": "Waste Pro",
    "rowid": "1079719",
    "final_x": "3701060.46097",
    "final_y": "554330.343128",
    "longitude": "-90.00547116685846",
    "latitude": "30.017607330417324",
    "geocoded_column": {
      "latitude": "30.017607330417324",
      "longitude": "-90.00547116685846"
    }
  },
  {
    "service_request": "2024-1079718",
    "request_type": "Trash/Recycling",
    "request_reason": "Replace Trash Cart",
    "date_created": "2024-03-28T16:58:06.000",
    "date_modified": "2024-03-28T16:58:07.000",
    "request_status": "Pending",
    "responsible_agency": "Department of Sanitation",
    "final_address": "1801 Opelousas Ave Apt D",
    "address_councildis": "C",
    "status": "Assigned to Contractor",
    "contractor": "Richards Disposal",
    "rowid": "1079718",
    "final_x": "3690920.39894",
    "final_y": "528888.579136",
    "longitude": "-90.03841810120275",
    "latitude": "29.947970796821014",
    "geocoded_column": {
      "latitude": "29.947970796821014",
      "longitude": "-90.03841810120275"
    }
  },
  {
    "service_request": "2024-1079717",
    "request_type": "Trash/Recycling",
    "request_reason": "Illegal Dumping",
    "date_created": "2024-03-28T16:56:24.000",
    "date_modified": "2024-03-28T16:56:24.000",
    "request_status": "Pending",
    "responsible_agency": "Department of Sanitation",
    "final_address": "1801 Opelousas Ave",
    "address_councildis": "C",
    "status": "Pending",
    "rowid": "1079717",
    "final_x": "3690917.26044",
    "final_y": "528912.36928",
    "longitude": "-90.038427161804",
    "latitude": "29.94803630905356",
    "geocoded_column": {
      "latitude": "29.94803630905356",
      "longitude": "-90.038427161804"
    }
  },
  {
    "service_request": "2024-1079716",
    "request_type": "Parks & Parkways",
    "request_reason": "Request Tree Service (Right of Way/Public Property)",
    "date_created": "2024-03-28T16:55:54.000",
    "date_modified": "2024-03-28T16:55:54.000",
    "request_status": "Pending",
    "responsible_agency": "Department of Parks & Parkway",
    "final_address": "1024 Eleonore St",
    "address_councildis": "A",
    "status": "Pending",
    "rowid": "1079716",
    "final_x": "3665376.02656",
    "final_y": "519924.841464",
    "longitude": "-90.11937213698236",
    "latitude": "29.924092421008606",
    "geocoded_column": {
      "latitude": "29.924092421008606",
      "longitude": "-90.11937213698236"
    }
  },
  {
    "service_request": "2024-1079715",
    "request_type": "Trash/Recycling",
    "request_reason": "Request a Large Item Pick Up",
    "date_created": "2024-03-28T16:54:15.000",
    "date_modified": "2024-03-28T16:54:16.000",
    "request_status": "Pending",
    "responsible_agency": "Department of Sanitation",
    "final_address": "3705 St Claude Ave",
    "address_councildis": "C",
    "status": "Assigned to Contractor",
    "contractor": "IV Waste",
    "rowid": "1079715",
    "final_x": "3691047.51619",
    "final_y": "535601.240006",
    "longitude": "-90.03777710418468",
    "latitude": "29.96642432869688",
    "geocoded_column": {
      "latitude": "29.96642432869688",
      "longitude": "-90.03777710418468"
    }
  },
  {
    "service_request": "2024-1079714",
    "request_type": "Trash/Recycling",
    "request_reason": "Request a Large Item Pick Up",
    "date_created": "2024-03-28T16:53:06.000",
    "date_modified": "2024-03-28T16:53:07.000",
    "request_status": "Pending",
    "responsible_agency": "Department of Sanitation",
    "final_address": "807 Valence St",
    "address_councildis": "B",
    "status": "Assigned to Contractor",
    "contractor": "Richards Disposal",
    "rowid": "1079714",
    "final_x": "3670047.80622",
    "final_y": "518393.577334",
    "longitude": "-90.10467676939787",
    "latitude": "29.9197450079455",
    "geocoded_column": {
      "latitude": "29.9197450079455",
      "longitude": "-90.10467676939787"
    }
  },
  {
    "service_request": "2024-1079713",
    "request_type": "Trash/Recycling",
    "request_reason": "Request a Large Item Pick Up",
    "date_created": "2024-03-28T16:52:00.000",
    "date_modified": "2024-03-28T16:52:01.000",
    "request_status": "Pending",
    "responsible_agency": "Department of Sanitation",
    "final_address": "3434 Calhoun St",
    "address_councildis": "A",
    "status": "Assigned to Contractor",
    "contractor": "Richards Disposal",
    "rowid": "1079713",
    "final_x": "3667657.38842",
    "final_y": "529382.559489",
    "longitude": "-90.11185240421449",
    "latitude": "29.950031455054148",
    "geocoded_column": {
      "latitude": "29.950031455054148",
      "longitude": "-90.11185240421449"
    }
  },
  {
    "service_request": "2024-1079712",
    "request_type": "Trash/Recycling",
    "request_reason": "Repair Trash Cart",
    "date_created": "2024-03-28T16:51:42.000",
    "date_modified": "2024-03-28T16:51:42.000",
    "request_status": "Pending",
    "responsible_agency": "Department of Sanitation",
    "final_address": "2719 Dreux Ave",
    "address_councildis": "D",
    "status": "Assigned to Contractor",
    "contractor": "IV Waste",
    "rowid": "1079712",
    "final_x": "3687454.8726",
    "final_y": "552368.181718",
    "longitude": "-90.04852887917073",
    "latitude": "30.012638623893103",
    "geocoded_column": {
      "latitude": "30.012638623893103",
      "longitude": "-90.04852887917073"
    }
  },
  {
    "service_request": "2024-1079711",
    "request_type": "Roads/Drainage",
    "request_reason": "Debris in Roadway",
    "date_created": "2024-03-28T16:48:08.000",
    "date_modified": "2024-03-28T16:48:08.000",
    "request_status": "Pending",
    "responsible_agency": "Department of Public Works",
    "final_address": "408 Diana St",
    "address_councildis": "C",
    "status": "Pending",
    "rowid": "1079711",
    "final_x": "3686697.37046",
    "final_y": "527588.777151",
    "longitude": "-90.05179776866463",
    "latitude": "29.94452733387413",
    "geocoded_column": {
      "latitude": "29.94452733387413",
      "longitude": "-90.05179776866463"
    }
  },
  {
    "service_request": "2024-1079710",
    "request_type": "Trash/Recycling",
    "request_reason": "Request a Large Item Pick Up",
    "date_created": "2024-03-28T16:47:34.000",
    "date_modified": "2024-03-28T16:47:35.000",
    "request_status": "Pending",
    "responsible_agency": "Department of Sanitation",
    "final_address": "6821 Coventry St",
    "address_councildis": "E",
    "status": "Assigned to Contractor",
    "contractor": "Waste Pro",
    "rowid": "1079710",
    "final_x": "3698574.20733",
    "final_y": "559769.355805",
    "longitude": "-90.01312870056826",
    "latitude": "30.032641523371392",
    "geocoded_column": {
      "latitude": "30.032641523371392",
      "longitude": "-90.01312870056826"
    }
  },
  {
    "service_request": "2024-1079709",
    "request_type": "Trash/Recycling",
    "request_reason": "Request a Large Item Pick Up",
    "date_created": "2024-03-28T16:43:38.000",
    "date_modified": "2024-03-28T16:43:38.000",
    "request_status": "Pending",
    "responsible_agency": "Department of Sanitation",
    "final_address": "3316 Elysian Fields Ave",
    "address_councildis": "D",
    "status": "Assigned to Contractor",
    "contractor": "IV Waste",
    "rowid": "1079709",
    "final_x": "3684175.51484",
    "final_y": "544927.151247",
    "longitude": "-90.05915125506478",
    "latitude": "29.992279169426656",
    "geocoded_column": {
      "latitude": "29.992279169426656",
      "longitude": "-90.05915125506478"
    }
  },
  {
    "service_request": "2024-1079708",
    "request_type": "Traffic Signals/Signs/Striping/Streetlights",
    "request_reason": "Street Light Outage/Malfunction",
    "date_created": "2024-03-28T16:43:33.000",
    "date_modified": "2024-03-28T16:43:33.000",
    "request_status": "Pending",
    "responsible_agency": "Department of Public Works",
    "final_address": "1133 Jena St",
    "address_councildis": "B",
    "status": "Assigned to Contractor",
    "contractor": "Legacy Professional Services",
    "rowid": "1079708",
    "final_x": "3670598.79028",
    "final_y": "519740.9774",
    "longitude": "-90.10289190769414",
    "latitude": "29.923433673443633",
    "geocoded_column": {
      "latitude": "29.923433673443633",
      "longitude": "-90.10289190769414"
    }
  },
  {
    "service_request": "2024-1079707",
    "request_type": "Traffic Signals/Signs/Striping/Streetlights",
    "request_reason": "Street Light Outage/Malfunction",
    "date_created": "2024-03-28T16:41:23.000",
    "date_modified": "2024-03-28T16:41:24.000",
    "request_status": "Pending",
    "responsible_agency": "Department of Public Works",
    "final_address": "1133 Jena St",
    "address_councildis": "B",
    "status": "Assigned to Contractor",
    "contractor": "Legacy Professional Services",
    "rowid": "1079707",
    "final_x": "3670598.79028",
    "final_y": "519740.9774",
    "longitude": "-90.10289190769414",
    "latitude": "29.923433673443633",
    "geocoded_column": {
      "latitude": "29.923433673443633",
      "longitude": "-90.10289190769414"
    }
  },
  {
    "service_request": "2024-1079705",
    "request_type": "Trash/Recycling",
    "request_reason": "Missed Trash Pick-Up",
    "date_created": "2024-03-28T16:28:35.000",
    "date_modified": "2024-03-28T16:28:36.000",
    "request_status": "Pending",
    "responsible_agency": "Department of Sanitation",
    "final_address": "2925 Live Oak St",
    "address_councildis": "A",
    "status": "Assigned to Contractor",
    "contractor": "Richards Disposal",
    "rowid": "1079705",
    "final_x": "3662893.74061",
    "final_y": "536146.906311",
    "longitude": "-90.12666861760945",
    "latitude": "29.96876997912443",
    "geocoded_column": {
      "latitude": "29.96876997912443",
      "longitude": "-90.12666861760945"
    }
  },
  {
    "service_request": "2024-1079704",
    "request_type": "Trash/Recycling",
    "request_reason": "MIssed Recycling Pick-Up",
    "date_created": "2024-03-28T16:28:23.000",
    "date_modified": "2024-03-28T16:28:24.000",
    "request_status": "Pending",
    "responsible_agency": "Department of Sanitation",
    "final_address": "2925 Live Oak St",
    "address_councildis": "A",
    "status": "Assigned to Contractor",
    "contractor": "Richards Disposal",
    "rowid": "1079704",
    "final_x": "3662893.74061",
    "final_y": "536146.906311",
    "longitude": "-90.12666861760945",
    "latitude": "29.96876997912443",
    "geocoded_column": {
      "latitude": "29.96876997912443",
      "longitude": "-90.12666861760945"
    }
  },
  {
    "service_request": "2024-1079703",
    "request_type": "Trash/Recycling",
    "request_reason": "Replace Trash Cart",
    "date_created": "2024-03-28T16:19:37.000",
    "date_modified": "2024-03-28T16:19:38.000",
    "request_status": "Pending",
    "responsible_agency": "Department of Sanitation",
    "final_address": "6226 Loyola Ave",
    "address_councildis": "A",
    "status": "Assigned to Contractor",
    "contractor": "Richards Disposal",
    "rowid": "1079703",
    "final_x": "3665366.70068",
    "final_y": "523674.130299",
    "longitude": "-90.11927617766577",
    "latitude": "29.93440205184959",
    "geocoded_column": {
      "latitude": "29.93440205184959",
      "longitude": "-90.11927617766577"
    }
  },
  {
    "service_request": "2024-1079702",
    "request_type": "Traffic Signals/Signs/Striping/Streetlights",
    "request_reason": "Traffic Sign Missing/Damaged",
    "date_created": "2024-03-28T16:17:27.000",
    "date_modified": "2024-03-28T16:17:27.000",
    "request_status": "Pending",
    "responsible_agency": "Department of Public Works",
    "final_address": "MANDEVILLE ST & FILMORE ST",
    "address_councildis": "D",
    "status": "Pending",
    "rowid": "1079702",
    "final_x": "3684483.0",
    "final_y": "552475.38",
    "longitude": "-90.057914574132",
    "latitude": "30.013024671202075",
    "geocoded_column": {
      "latitude": "30.013024671202075",
      "longitude": "-90.057914574132"
    }
  },
  {
    "service_request": "2024-1079701",
    "request_type": "Roads/Drainage",
    "request_reason": "Pothole",
    "date_created": "2024-03-28T16:16:09.000",
    "date_modified": "2024-03-28T16:16:10.000",
    "request_status": "Pending",
    "responsible_agency": "Department of Public Works",
    "final_address": "GENERAL MEYER AVE & RIVER OAKS DR",
    "address_councildis": "C",
    "status": "Pending",
    "rowid": "1079701",
    "final_x": "3701621.2",
    "final_y": "523454.78",
    "longitude": "-90.00483052329017",
    "latitude": "29.932692900104435",
    "geocoded_column": {
      "latitude": "29.932692900104435",
      "longitude": "-90.00483052329017"
    }
  },
  {
    "service_request": "2024-1079700",
    "request_type": "Trash/Recycling",
    "request_reason": "Replace Trash Cart",
    "date_created": "2024-03-28T16:14:36.000",
    "date_modified": "2024-03-28T16:14:36.000",
    "request_status": "Pending",
    "responsible_agency": "Department of Sanitation",
    "final_address": "1316 Pleasant St",
    "address_councildis": "B",
    "status": "Assigned to Contractor",
    "contractor": "Richards Disposal",
    "rowid": "1079700",
    "final_x": "3675088.60712",
    "final_y": "520662.595961",
    "longitude": "-90.08868761803672",
    "latitude": "29.92583449340742",
    "geocoded_column": {
      "latitude": "29.92583449340742",
      "longitude": "-90.08868761803672"
    }
  },
  {
    "service_request": "2024-1079699",
    "request_type": "Roads/Drainage",
    "request_reason": "Street Subsidence (Sinking)",
    "date_created": "2024-03-28T16:11:45.000",
    "date_modified": "2024-03-28T16:11:59.000",
    "request_status": "Pending",
    "responsible_agency": "Department of Public Works",
    "final_address": "MORRISON RD & WEAVER RD",
    "address_councildis": "E",
    "status": "Pending",
    "rowid": "1079699",
    "final_x": "3708104.4",
    "final_y": "563125.88",
    "longitude": "-89.98288776752936",
    "latitude": "30.041565271491507",
    "geocoded_column": {
      "latitude": "30.041565271491507",
      "longitude": "-89.98288776752936"
    }
  },
  {
    "service_request": "2024-1079698",
    "request_type": "Trash/Recycling",
    "request_reason": "Request a Large Item Pick Up",
    "date_created": "2024-03-28T16:01:15.000",
    "date_modified": "2024-03-28T16:01:16.000",
    "request_status": "Pending",
    "responsible_agency": "Department of Sanitation",
    "final_address": "4234 Canal St",
    "address_councildis": "A",
    "status": "Assigned to Contractor",
    "contractor": "Richards Disposal",
    "rowid": "1079698",
    "final_x": "3670274.35169",
    "final_y": "538807.001097",
    "longitude": "-90.10326996064902",
    "latitude": "29.975868566494576",
    "geocoded_column": {
      "latitude": "29.975868566494576",
      "longitude": "-90.10326996064902"
    }
  },
  {
    "service_request": "2024-1079697",
    "request_type": "Traffic Signals/Signs/Striping/Streetlights",
    "request_reason": "Traffic Sign Missing/Damaged",
    "date_created": "2024-03-28T16:00:16.000",
    "date_modified": "2024-03-28T16:00:16.000",
    "request_status": "Pending",
    "responsible_agency": "Department of Public Works",
    "final_address": "LEONTINE ST & MAGAZINE ST",
    "address_councildis": "B",
    "status": "Pending",
    "rowid": "1079697",
    "final_x": "3667166.8",
    "final_y": "518704.48",
    "longitude": "-90.11376027922704",
    "latitude": "29.920684522154463",
    "geocoded_column": {
      "latitude": "29.920684522154463",
      "longitude": "-90.11376027922704"
    }
  },
  {
    "service_request": "2024-1079696",
    "request_type": "Trash/Recycling",
    "request_reason": "Request a Large Item Pick Up",
    "date_created": "2024-03-28T15:58:07.000",
    "date_modified": "2024-03-28T15:58:08.000",
    "request_status": "Pending",
    "responsible_agency": "Department of Sanitation",
    "final_address": "3311 Fourth St",
    "address_councildis": "B",
    "status": "Assigned to Contractor",
    "contractor": "Richards Disposal",
    "rowid": "1079696",
    "final_x": "3672805.94939",
    "final_y": "527870.798527",
    "longitude": "-90.09564752088687",
    "latitude": "29.945722691820272",
    "geocoded_column": {
      "latitude": "29.945722691820272",
      "longitude": "-90.09564752088687"
    }
  },
  {
    "service_request": "2024-1079695",
    "request_type": "Trash/Recycling",
    "request_reason": "Request a Large Item Pick Up",
    "date_created": "2024-03-28T15:58:01.000",
    "date_modified": "2024-03-28T15:58:02.000",
    "request_status": "Pending",
    "responsible_agency": "Department of Sanitation",
    "final_address": "833 N Hennessey St",
    "address_councildis": "A",
    "status": "Assigned to Contractor",
    "contractor": "Richards Disposal",
    "rowid": "1079695",
    "final_x": "3671979.7522",
    "final_y": "541243.95118",
    "longitude": "-90.0978008182805",
    "latitude": "29.982518899764774",
    "geocoded_column": {
      "latitude": "29.982518899764774",
      "longitude": "-90.0978008182805"
    }
  },
  {
    "service_request": "2024-1079694",
    "request_type": "Property Maintenance",
    "request_reason": "Property Maintenance",
    "date_created": "2024-03-28T15:55:31.000",
    "date_modified": "2024-03-28T15:55:31.000",
    "request_status": "Pending",
    "responsible_agency": "Department of Code Enforcement",
    "final_address": "5804 Baccich St",
    "address_councildis": "D",
    "status": "Pending",
    "rowid": "1079694",
    "final_x": "3687500.1357",
    "final_y": "554658.4886",
    "longitude": "-90.04830472218224",
    "latitude": "30.018934727606766",
    "geocoded_column": {
      "latitude": "30.018934727606766",
      "longitude": "-90.04830472218224"
    }
  },
  {
    "service_request": "2024-1079693",
    "request_type": "Safety & Permits",
    "request_reason": "Licenses & Permits",
    "date_created": "2024-03-28T15:54:47.000",
    "date_modified": "2024-03-28T15:54:47.000",
    "request_status": "Pending",
    "responsible_agency": "Safety and Permits",
    "final_address": "1431 Port St",
    "address_councildis": "C",
    "status": "Pending",
    "rowid": "1079693",
    "final_x": "3687798.40124",
    "final_y": "537752.569608",
    "longitude": "-90.04796152416013",
    "latitude": "29.97244034507158",
    "geocoded_column": {
      "latitude": "29.97244034507158",
      "longitude": "-90.04796152416013"
    }
  },
  {
    "service_request": "2024-1079692",
    "request_type": "Trash/Recycling",
    "request_reason": "Order Recycling Cart",
    "date_created": "2024-03-28T15:51:25.000",
    "date_modified": "2024-03-28T15:51:26.000",
    "request_status": "Pending",
    "responsible_agency": "Department of Sanitation",
    "final_address": "231 Harrison Ave",
    "address_councildis": "A",
    "status": "Pending",
    "rowid": "1079692",
    "final_x": "3667162.40621",
    "final_y": "549555.272723",
    "longitude": "-90.11273679696131",
    "latitude": "30.005514134926905",
    "geocoded_column": {
      "latitude": "30.005514134926905",
      "longitude": "-90.11273679696131"
    }
  },
  {
    "service_request": "2024-1079691",
    "request_type": "Trash/Recycling",
    "request_reason": "Request a Large Item Pick Up",
    "date_created": "2024-03-28T15:50:11.000",
    "date_modified": "2024-03-28T15:50:12.000",
    "request_status": "Pending",
    "responsible_agency": "Department of Sanitation",
    "final_address": "3311 Third St",
    "address_councildis": "B",
    "status": "Assigned to Contractor",
    "contractor": "Richards Disposal",
    "rowid": "1079691",
    "final_x": "3673061.9252",
    "final_y": "528040.501119",
    "longitude": "-90.09483352775217",
    "latitude": "29.94618171306444",
    "geocoded_column": {
      "latitude": "29.94618171306444",
      "longitude": "-90.09483352775217"
    }
  },
  {
    "service_request": "2024-1079690",
    "request_type": "Trash/Recycling",
    "request_reason": "Order Trash Cart",
    "date_created": "2024-03-28T15:49:54.000",
    "date_modified": "2024-03-28T15:49:55.000",
    "request_status": "Pending",
    "responsible_agency": "Department of Sanitation",
    "final_address": "231 Harrison Ave",
    "address_councildis": "A",
    "status": "Assigned to Contractor",
    "contractor": "IV Waste",
    "rowid": "1079690",
    "final_x": "3667162.40621",
    "final_y": "549555.272723",
    "longitude": "-90.11273679696131",
    "latitude": "30.005514134926905",
    "geocoded_column": {
      "latitude": "30.005514134926905",
      "longitude": "-90.11273679696131"
    }
  },
  {
    "service_request": "2024-1079689",
    "request_type": "Trash/Recycling",
    "request_reason": "Order Trash Cart",
    "date_created": "2024-03-28T15:45:03.000",
    "date_modified": "2024-03-28T15:45:04.000",
    "request_status": "Pending",
    "responsible_agency": "Department of Sanitation",
    "final_address": "4491 Painters St",
    "address_councildis": "D",
    "status": "Assigned to Contractor",
    "contractor": "IV Waste",
    "rowid": "1079689",
    "final_x": "3686371.1133",
    "final_y": "549571.627283",
    "longitude": "-90.05205175345567",
    "latitude": "30.004982488361343",
    "geocoded_column": {
      "latitude": "30.004982488361343",
      "longitude": "-90.05205175345567"
    }
  },
  {
    "service_request": "2024-1079688",
    "request_type": "Parks & Parkways",
    "request_reason": "Request Tree Service (Right of Way/Public Property)",
    "date_created": "2024-03-28T15:44:45.000",
    "date_modified": "2024-03-28T15:44:45.000",
    "request_status": "Pending",
    "responsible_agency": "Department of Parks & Parkway",
    "final_address": "1114 Webster St",
    "address_councildis": "A",
    "status": "Pending",
    "rowid": "1079688",
    "final_x": "3664477.95488",
    "final_y": "520543.168248",
    "longitude": "-90.12218641340814",
    "latitude": "29.925818757216177",
    "geocoded_column": {
      "latitude": "29.925818757216177",
      "longitude": "-90.12218641340814"
    }
  },
  {
    "service_request": "2024-1079687",
    "request_type": "Abandoned Vehicles",
    "request_reason": "Abandoned/Junk Vehicles",
    "date_created": "2024-03-28T15:43:28.000",
    "date_modified": "2024-03-28T15:43:28.000",
    "request_status": "Pending",
    "responsible_agency": "Department of Public Works",
    "final_address": "LAFON DR & RANSOM ST",
    "address_councildis": "E",
    "status": "Pending",
    "rowid": "1079687",
    "final_x": "3701235.7",
    "final_y": "553355.18",
    "longitude": "-90.00495320396578",
    "latitude": "30.014920418201484",
    "geocoded_column": {
      "latitude": "30.014920418201484",
      "longitude": "-90.00495320396578"
    }
  },
  {
    "service_request": "2024-1079686",
    "request_type": "Trash/Recycling",
    "request_reason": "Repair Trash Cart",
    "date_created": "2024-03-28T15:42:12.000",
    "date_modified": "2024-03-28T15:42:12.000",
    "request_status": "Pending",
    "responsible_agency": "Department of Sanitation",
    "final_address": "1626 N Johnson St",
    "address_councildis": "D",
    "status": "Assigned to Contractor",
    "contractor": "IV Waste",
    "rowid": "1079686",
    "final_x": "3681230.94012",
    "final_y": "538828.878217",
    "longitude": "-90.06866519368424",
    "latitude": "29.975600759212167",
    "geocoded_column": {
      "latitude": "29.975600759212167",
      "longitude": "-90.06866519368424"
    }
  },
  {
    "service_request": "2024-1079685",
    "request_type": "Abandoned Vehicles",
    "request_reason": "Abandoned/Junk Vehicles",
    "date_created": "2024-03-28T15:41:45.000",
    "date_modified": "2024-03-28T15:42:58.000",
    "request_status": "Pending",
    "responsible_agency": "Department of Public Works",
    "final_address": "LAFON DR & RANSOM ST",
    "address_councildis": "E",
    "status": "Pending",
    "rowid": "1079685",
    "final_x": "3701235.7",
    "final_y": "553355.18",
    "longitude": "-90.00495320396578",
    "latitude": "30.014920418201484",
    "geocoded_column": {
      "latitude": "30.014920418201484",
      "longitude": "-90.00495320396578"
    }
  },
  {
    "service_request": "2024-1079684",
    "request_type": "Parks & Parkways",
    "request_reason": "Request Tree Service (Right of Way/Public Property)",
    "date_created": "2024-03-28T15:35:49.000",
    "date_modified": "2024-03-28T15:35:49.000",
    "request_status": "Pending",
    "responsible_agency": "Department of Parks & Parkway",
    "final_address": "3912 Louisiana Avenue Prkwy",
    "address_councildis": "B",
    "status": "Pending",
    "rowid": "1079684",
    "final_x": "3671104.12692",
    "final_y": "529160.953664",
    "longitude": "-90.10097694010916",
    "latitude": "29.949320631541116",
    "geocoded_column": {
      "latitude": "29.949320631541116",
      "longitude": "-90.10097694010916"
    }
  },
  {
    "service_request": "2024-1079683",
    "request_type": "Trash/Recycling",
    "request_reason": "Request a Large Item Pick Up",
    "date_created": "2024-03-28T15:34:52.000",
    "date_modified": "2024-03-28T16:06:55.000",
    "case_close_date": "2024-03-28T11:06:55.000",
    "request_status": "Closed",
    "responsible_agency": "Department of Sanitation",
    "final_address": "8 Curtis Dr",
    "address_councildis": "E",
    "status": "Assigned to Contractor",
    "contractor": "Waste Pro",
    "contractor_action": "Completed",
    "rowid": "1079683",
    "final_x": "3697689.92637",
    "final_y": "560638.780766",
    "longitude": "-90.01589149649521",
    "latitude": "30.035060091539236",
    "geocoded_column": {
      "latitude": "30.035060091539236",
      "longitude": "-90.01589149649521"
    }
  },
  {
    "service_request": "2024-1079682",
    "request_type": "Abandoned Vehicles",
    "request_reason": "Abandoned/Junk Vehicles",
    "date_created": "2024-03-28T15:32:20.000",
    "date_modified": "2024-03-28T15:32:20.000",
    "request_status": "Pending",
    "responsible_agency": "Department of Public Works",
    "final_address": "5100 BLK Bayouview Ct",
    "address_councildis": "E",
    "status": "Pending",
    "rowid": "1079682",
    "final_x": "3699204.54151",
    "final_y": "556435.842296",
    "longitude": "-90.01125834822916",
    "latitude": "30.023455657870613",
    "geocoded_column": {
      "latitude": "30.023455657870613",
      "longitude": "-90.01125834822916"
    }
  },
  {
    "service_request": "2024-1079681",
    "request_type": "Abandoned Vehicles",
    "request_reason": "Abandoned/Junk Vehicles",
    "date_created": "2024-03-28T15:29:03.000",
    "date_modified": "2024-03-28T15:29:03.000",
    "request_status": "Pending",
    "responsible_agency": "Department of Public Works",
    "final_address": "5100 BLK Bayouview Ct",
    "address_councildis": "E",
    "status": "Pending",
    "rowid": "1079681",
    "final_x": "3699204.54151",
    "final_y": "556435.842296",
    "longitude": "-90.01125834822916",
    "latitude": "30.023455657870613",
    "geocoded_column": {
      "latitude": "30.023455657870613",
      "longitude": "-90.01125834822916"
    }
  },
  {
    "service_request": "2024-1079680",
    "request_type": "Trash/Recycling",
    "request_reason": "Missed Trash Pick-Up",
    "date_created": "2024-03-28T15:26:55.000",
    "date_modified": "2024-03-28T15:26:55.000",
    "request_status": "Pending",
    "responsible_agency": "Department of Sanitation",
    "final_address": "11417 Tanner S Davis Dr",
    "address_councildis": "E",
    "status": "Assigned to Contractor",
    "contractor": "Waste Pro",
    "rowid": "1079680",
    "final_x": "3718188.72889",
    "final_y": "561183.526622",
    "longitude": "-89.95109204540033",
    "latitude": "30.035893939637027",
    "geocoded_column": {
      "latitude": "30.035893939637027",
      "longitude": "-89.95109204540033"
    }
  },
  {
    "service_request": "2024-1079679",
    "request_type": "Trash/Recycling",
    "request_reason": "Replace Trash Cart",
    "date_created": "2024-03-28T15:26:52.000",
    "date_modified": "2024-03-28T15:27:13.000",
    "request_status": "Pending",
    "responsible_agency": "Department of Sanitation",
    "final_address": "5710 New England Dr",
    "address_councildis": "E",
    "status": "Assigned to Contractor",
    "contractor": "Waste Pro",
    "rowid": "1079679",
    "final_x": "3723528.74323",
    "final_y": "564692.384034",
    "longitude": "-89.93408143791062",
    "latitude": "30.0453636486076",
    "geocoded_column": {
      "latitude": "30.0453636486076",
      "longitude": "-89.93408143791062"
    }
  },
  {
    "service_request": "2024-1079678",
    "request_type": "Trash/Recycling",
    "request_reason": "Missed Trash Pick-Up",
    "date_created": "2024-03-28T15:25:45.000",
    "date_modified": "2024-03-28T15:25:46.000",
    "request_status": "Pending",
    "responsible_agency": "Department of Sanitation",
    "final_address": "4725 Crowder Blvd",
    "address_councildis": "E",
    "status": "Assigned to Contractor",
    "contractor": "Waste Pro",
    "rowid": "1079678",
    "final_x": "3706512.90871",
    "final_y": "555631.709401",
    "longitude": "-89.98819545579224",
    "latitude": "30.021010719294235",
    "geocoded_column": {
      "latitude": "30.021010719294235",
      "longitude": "-89.98819545579224"
    }
  },
  {
    "service_request": "2024-1079677",
    "request_type": "Abandoned Vehicles",
    "request_reason": "Abandoned/Junk Vehicles",
    "date_created": "2024-03-28T15:23:07.000",
    "date_modified": "2024-03-28T15:23:07.000",
    "request_status": "Pending",
    "responsible_agency": "Department of Public Works",
    "final_address": "5100 BLK Bayouview Ct",
    "address_councildis": "E",
    "status": "Pending",
    "rowid": "1079677",
    "final_x": "3699204.54151",
    "final_y": "556435.842296",
    "longitude": "-90.01125834822916",
    "latitude": "30.023455657870613",
    "geocoded_column": {
      "latitude": "30.023455657870613",
      "longitude": "-90.01125834822916"
    }
  },
  {
    "service_request": "2024-1079676",
    "request_type": "Traffic Signals/Signs/Striping/Streetlights",
    "request_reason": "Street Light Outage/Malfunction",
    "date_created": "2024-03-28T15:20:18.000",
    "date_modified": "2024-03-28T15:20:19.000",
    "request_status": "Pending",
    "responsible_agency": "Department of Public Works",
    "final_address": "4256 Joycelyn Dr",
    "address_councildis": "C",
    "status": "Assigned to Contractor",
    "contractor": "Legacy Professional Services",
    "rowid": "1079676",
    "final_x": "3708253.58347",
    "final_y": "515005.993971",
    "longitude": "-89.98420685859895",
    "latitude": "29.909248584565965",
    "geocoded_column": {
      "latitude": "29.909248584565965",
      "longitude": "-89.98420685859895"
    }
  },
  {
    "service_request": "2024-1079675",
    "request_type": "Traffic Signals/Signs/Striping/Streetlights",
    "request_reason": "Request for Stop Sign",
    "date_created": "2024-03-28T15:17:35.000",
    "date_modified": "2024-03-28T15:17:35.000",
    "request_status": "Pending",
    "responsible_agency": "Department of Public Works",
    "final_address": "COMMERCE ST & NOTRE DAME ST",
    "address_councildis": "B",
    "status": "Pending",
    "rowid": "1079675",
    "final_x": "3681997.3",
    "final_y": "527910.98",
    "longitude": "-90.06662600919756",
    "latitude": "29.945556987631594",
    "geocoded_column": {
      "latitude": "29.945556987631594",
      "longitude": "-90.06662600919756"
    }
  },
  {
    "service_request": "2024-1079674",
    "request_type": "Trash/Recycling",
    "request_reason": "Repair Trash Cart",
    "date_created": "2024-03-28T15:17:23.000",
    "date_modified": "2024-03-28T15:17:24.000",
    "request_status": "Pending",
    "responsible_agency": "Department of Sanitation",
    "final_address": "720 St Philip St",
    "address_councildis": "C",
    "status": "Assigned to Contractor",
    "contractor": "Empire Services",
    "rowid": "1079674",
    "final_x": "3683067.26696",
    "final_y": "533422.65818",
    "longitude": "-90.06305485905345",
    "latitude": "29.960679664223957",
    "geocoded_column": {
      "latitude": "29.960679664223957",
      "longitude": "-90.06305485905345"
    }
  },
  {
    "service_request": "2024-1079673",
    "request_type": "Trash/Recycling",
    "request_reason": "Repair Trash Cart",
    "date_created": "2024-03-28T15:17:09.000",
    "date_modified": "2024-03-28T15:17:10.000",
    "request_status": "Pending",
    "responsible_agency": "Department of Sanitation",
    "final_address": "716 St Philip St",
    "address_councildis": "C",
    "status": "Assigned to Contractor",
    "contractor": "Empire Services",
    "rowid": "1079673",
    "final_x": "3683091.87528",
    "final_y": "533400.11354",
    "longitude": "-90.0629779401724",
    "latitude": "29.96061692403177",
    "geocoded_column": {
      "latitude": "29.96061692403177",
      "longitude": "-90.0629779401724"
    }
  },
  {
    "service_request": "2024-1079672",
    "request_type": "Trash/Recycling",
    "request_reason": "Repair Trash Cart",
    "date_created": "2024-03-28T15:16:46.000",
    "date_modified": "2024-03-28T15:16:47.000",
    "request_status": "Pending",
    "responsible_agency": "Department of Sanitation",
    "final_address": "718 St Philip St",
    "address_councildis": "C",
    "status": "Assigned to Contractor",
    "contractor": "Empire Services",
    "rowid": "1079672",
    "final_x": "3683079.16354",
    "final_y": "533412.354948",
    "longitude": "-90.06301765273042",
    "latitude": "29.960650971218243",
    "geocoded_column": {
      "latitude": "29.960650971218243",
      "longitude": "-90.06301765273042"
    }
  },
  {
    "service_request": "2024-1079671",
    "request_type": "Trash/Recycling",
    "request_reason": "Repair Trash Cart",
    "date_created": "2024-03-28T15:10:37.000",
    "date_modified": "2024-03-28T15:10:37.000",
    "request_status": "Pending",
    "responsible_agency": "Department of Sanitation",
    "final_address": "6068 Canal Blvd",
    "address_councildis": "A",
    "status": "Assigned to Contractor",
    "contractor": "IV Waste",
    "rowid": "1079671",
    "final_x": "3668403.33185",
    "final_y": "547897.583826",
    "longitude": "-90.10887238651094",
    "latitude": "30.000919661027034",
    "geocoded_column": {
      "latitude": "30.000919661027034",
      "longitude": "-90.10887238651094"
    }
  },
  {
    "service_request": "2024-1079670",
    "request_type": "Trash/Recycling",
    "request_reason": "Repair Trash Cart",
    "date_created": "2024-03-28T15:09:56.000",
    "date_modified": "2024-03-28T15:09:57.000",
    "request_status": "Pending",
    "responsible_agency": "Department of Sanitation",
    "final_address": "6066 Canal Blvd",
    "address_councildis": "A",
    "status": "Assigned to Contractor",
    "contractor": "IV Waste",
    "rowid": "1079670",
    "final_x": "3668401.95463",
    "final_y": "547881.554258",
    "longitude": "-90.10887727840023",
    "latitude": "30.00087562573714",
    "geocoded_column": {
      "latitude": "30.00087562573714",
      "longitude": "-90.10887727840023"
    }
  },
  {
    "service_request": "2024-1079669",
    "request_type": "Trash/Recycling",
    "request_reason": "Start Trash Service",
    "date_created": "2024-03-28T15:07:03.000",
    "date_modified": "2024-03-28T15:07:03.000",
    "request_status": "Pending",
    "responsible_agency": "Department of Sanitation",
    "final_address": "506 Jackson Ave",
    "address_councildis": "B",
    "status": "Assigned to Contractor",
    "contractor": "Richards Disposal",
    "rowid": "1079669",
    "final_x": "3680136.77333",
    "final_y": "520319.776312",
    "longitude": "-90.07276397309825",
    "latitude": "29.92474010867613",
    "geocoded_column": {
      "latitude": "29.92474010867613",
      "longitude": "-90.07276397309825"
    }
  },
  {
    "service_request": "2024-1079668",
    "request_type": "Trash/Recycling",
    "request_reason": "Repair Trash Cart",
    "date_created": "2024-03-28T15:02:46.000",
    "date_modified": "2024-03-28T15:02:47.000",
    "request_status": "Pending",
    "responsible_agency": "Department of Sanitation",
    "final_address": "4625 Gallatin St",
    "address_councildis": "C",
    "status": "Assigned to Contractor",
    "contractor": "Richards Disposal",
    "rowid": "1079668",
    "final_x": "3702216.21239",
    "final_y": "522285.881722",
    "longitude": "-90.00299497379112",
    "latitude": "29.929459853923458",
    "geocoded_column": {
      "latitude": "29.929459853923458",
      "longitude": "-90.00299497379112"
    }
  },
  {
    "service_request": "2024-1079667",
    "request_type": "Trash/Recycling",
    "request_reason": "Request a Large Item Pick Up",
    "date_created": "2024-03-28T14:56:05.000",
    "date_modified": "2024-03-28T14:56:06.000",
    "request_status": "Pending",
    "responsible_agency": "Department of Sanitation",
    "final_address": "6600 Peony St",
    "address_councildis": "C",
    "status": "Assigned to Contractor",
    "contractor": "Richards Disposal",
    "rowid": "1079667",
    "final_x": "3708071.22411",
    "final_y": "516465.260981",
    "longitude": "-89.98472820484612",
    "latitude": "29.9132669666957",
    "geocoded_column": {
      "latitude": "29.9132669666957",
      "longitude": "-89.98472820484612"
    }
  },
  {
    "service_request": "2024-1079666",
    "request_type": "Trash/Recycling",
    "request_reason": "Repair Trash Cart",
    "date_created": "2024-03-28T14:55:45.000",
    "date_modified": "2024-03-28T14:55:46.000",
    "request_status": "Pending",
    "responsible_agency": "Department of Sanitation",
    "final_address": "2140 Terpsichore St",
    "address_councildis": "B",
    "status": "Assigned to Contractor",
    "contractor": "Richards Disposal",
    "rowid": "1079666",
    "final_x": "3676822.00757",
    "final_y": "526637.16403",
    "longitude": "-90.08300998945425",
    "latitude": "29.942210714358364",
    "geocoded_column": {
      "latitude": "29.942210714358364",
      "longitude": "-90.08300998945425"
    }
  },
  {
    "service_request": "2024-1079665",
    "request_type": "Trash/Recycling",
    "request_reason": "Repair Trash Cart",
    "date_created": "2024-03-28T14:55:23.000",
    "date_modified": "2024-03-28T14:55:23.000",
    "request_status": "Pending",
    "responsible_agency": "Department of Sanitation",
    "final_address": "2138 Terpsichore St",
    "address_councildis": "B",
    "status": "Assigned to Contractor",
    "contractor": "Richards Disposal",
    "rowid": "1079665",
    "final_x": "3676822.00757",
    "final_y": "526637.165246",
    "longitude": "-90.08300998941236",
    "latitude": "29.942210717701965",
    "geocoded_column": {
      "latitude": "29.942210717701965",
      "longitude": "-90.08300998941236"
    }
  },
  {
    "service_request": "2024-1079664",
    "request_type": "Trash/Recycling",
    "request_reason": "Repair Trash Cart",
    "date_created": "2024-03-28T14:54:53.000",
    "date_modified": "2024-03-28T14:54:54.000",
    "request_status": "Pending",
    "responsible_agency": "Department of Sanitation",
    "final_address": "2335 Ramsey Dr",
    "address_councildis": "C",
    "status": "Assigned to Contractor",
    "contractor": "Richards Disposal",
    "rowid": "1079664",
    "final_x": "3703113.66385",
    "final_y": "522358.441466",
    "longitude": "-90.00015924042168",
    "latitude": "29.929630687186098",
    "geocoded_column": {
      "latitude": "29.929630687186098",
      "longitude": "-90.00015924042168"
    }
  },
  {
    "service_request": "2024-1079663",
    "request_type": "Trash/Recycling",
    "request_reason": "Repair Trash Cart",
    "date_created": "2024-03-28T14:53:24.000",
    "date_modified": "2024-03-28T14:56:38.000",
    "request_status": "Pending",
    "responsible_agency": "Department of Sanitation",
    "final_address": "New Orleans,LA",
    "address_councildis": "D",
    "status": "Assigned to Contractor",
    "contractor": "IV Waste",
    "rowid": "1079663",
    "final_x": "3684612.01813",
    "final_y": "550821.280917",
    "longitude": "-90.05756513348277",
    "latitude": "30.008472551739526",
    "geocoded_column": {
      "latitude": "30.008472551739526",
      "longitude": "-90.05756513348277"
    }
  },
  {
    "service_request": "2024-1079662",
    "request_type": "Trash/Recycling",
    "request_reason": "Start Trash Service",
    "date_created": "2024-03-28T14:51:16.000",
    "date_modified": "2024-03-28T14:51:17.000",
    "request_status": "Pending",
    "responsible_agency": "Department of Sanitation",
    "final_address": "7452 St Charles Ave",
    "address_councildis": "A",
    "status": "Assigned to Contractor",
    "contractor": "Richards Disposal",
    "rowid": "1079662",
    "final_x": "3662148.11783",
    "final_y": "525313.758653",
    "longitude": "-90.12938281905494",
    "latitude": "29.939003888264164",
    "geocoded_column": {
      "latitude": "29.939003888264164",
      "longitude": "-90.12938281905494"
    }
  },
  {
    "service_request": "2024-1079661",
    "request_type": "Trash/Recycling",
    "request_reason": "Missed Trash Pick-Up",
    "date_created": "2024-03-28T14:49:39.000",
    "date_modified": "2024-03-28T15:02:38.000",
    "case_close_date": "2024-03-28T10:02:38.000",
    "request_status": "Closed",
    "responsible_agency": "Department of Sanitation",
    "final_address": "4900 BLK Carondelet St",
    "address_councildis": "B",
    "status": "Resolved",
    "contractor": "Richards Disposal",
    "contractor_action": "Completed",
    "rowid": "1079661",
    "final_x": "3668896.39117",
    "final_y": "521072.698456",
    "longitude": "-90.1082208153295",
    "latitude": "29.927145640369307",
    "geocoded_column": {
      "latitude": "29.927145640369307",
      "longitude": "-90.1082208153295"
    }
  },
  {
    "service_request": "2024-1079660",
    "request_type": "Trash/Recycling",
    "request_reason": "Repair Trash Cart",
    "date_created": "2024-03-28T14:46:25.000",
    "date_modified": "2024-03-28T14:46:25.000",
    "request_status": "Pending",
    "responsible_agency": "Department of Sanitation",
    "final_address": "2916 Baudin St",
    "address_councildis": "B",
    "status": "Assigned to Contractor",
    "contractor": "Richards Disposal",
    "rowid": "1079660",
    "final_x": "3673487.11982",
    "final_y": "534452.089157",
    "longitude": "-90.09327195714557",
    "latitude": "29.963798806138172",
    "geocoded_column": {
      "latitude": "29.963798806138172",
      "longitude": "-90.09327195714557"
    }
  },
  {
    "service_request": "2024-1079659",
    "request_type": "Trash/Recycling",
    "request_reason": "Request a Large Item Pick Up",
    "date_created": "2024-03-28T14:42:53.000",
    "date_modified": "2024-03-28T14:42:53.000",
    "request_status": "Pending",
    "responsible_agency": "Department of Sanitation",
    "final_address": "6959 Pinebrook Dr",
    "address_councildis": "E",
    "status": "Assigned to Contractor",
    "contractor": "Waste Pro",
    "rowid": "1079659",
    "final_x": "3720001.28473",
    "final_y": "569357.945126",
    "longitude": "-89.94505112335",
    "latitude": "30.0583099811453",
    "geocoded_column": {
      "latitude": "30.0583099811453",
      "longitude": "-89.94505112335"
    }
  },
  {
    "service_request": "2024-1079658",
    "request_type": "Trash/Recycling",
    "request_reason": "Request a Large Item Pick Up",
    "date_created": "2024-03-28T14:42:02.000",
    "date_modified": "2024-03-28T14:42:03.000",
    "request_status": "Pending",
    "responsible_agency": "Department of Sanitation",
    "final_address": "7009 Pinebrook Dr",
    "address_councildis": "E",
    "status": "Assigned to Contractor",
    "contractor": "Waste Pro",
    "rowid": "1079658",
    "final_x": "3719792.78367",
    "final_y": "569638.381734",
    "longitude": "-89.94569943028586",
    "latitude": "30.05908800925794",
    "geocoded_column": {
      "latitude": "30.05908800925794",
      "longitude": "-89.94569943028586"
    }
  },
  {
    "service_request": "2024-1079657",
    "request_type": "Trash/Recycling",
    "request_reason": "Request a Large Item Pick Up",
    "date_created": "2024-03-28T14:39:16.000",
    "date_modified": "2024-03-28T14:39:17.000",
    "request_status": "Pending",
    "responsible_agency": "Department of Sanitation",
    "final_address": "4753 Lynhuber Dr",
    "address_councildis": "D",
    "status": "Assigned to Contractor",
    "contractor": "Waste Pro",
    "rowid": "1079657",
    "final_x": "3698079.12995",
    "final_y": "554468.14428",
    "longitude": "-90.01488593450607",
    "latitude": "30.018080892235083",
    "geocoded_column": {
      "latitude": "30.018080892235083",
      "longitude": "-90.01488593450607"
    }
  },
  {
    "service_request": "2024-1079656",
    "request_type": "Trash/Recycling",
    "request_reason": "Request a Large Item Pick Up",
    "date_created": "2024-03-28T14:38:59.000",
    "date_modified": "2024-03-28T14:39:00.000",
    "request_status": "Pending",
    "responsible_agency": "Department of Sanitation",
    "final_address": "0 BLK Audubon Blvd",
    "address_councildis": "A",
    "status": "Assigned to Contractor",
    "contractor": "Richards Disposal",
    "rowid": "1079656",
    "final_x": "3665769.80622",
    "final_y": "527561.184495",
    "longitude": "-90.1178734101763",
    "latitude": "29.945078455935082",
    "geocoded_column": {
      "latitude": "29.945078455935082",
      "longitude": "-90.1178734101763"
    }
  },
  {
    "service_request": "2024-1079655",
    "request_type": "Abandoned Vehicles",
    "request_reason": "Abandoned/Junk Vehicles",
    "date_created": "2024-03-28T14:37:26.000",
    "date_modified": "2024-03-28T14:37:26.000",
    "request_status": "Pending",
    "responsible_agency": "Department of Public Works",
    "final_address": "1301 Alabo St",
    "address_councildis": "E",
    "status": "Pending",
    "rowid": "1079655",
    "final_x": "3699157.66704",
    "final_y": "534279.907525",
    "longitude": "-90.01221363213159",
    "latitude": "29.962536506189572",
    "geocoded_column": {
      "latitude": "29.962536506189572",
      "longitude": "-90.01221363213159"
    }
  },
  {
    "service_request": "2024-1079654",
    "request_type": "Trash/Recycling",
    "request_reason": "Request a Large Item Pick Up",
    "date_created": "2024-03-28T14:37:05.000",
    "date_modified": "2024-03-28T14:37:05.000",
    "request_status": "Pending",
    "responsible_agency": "Department of Sanitation",
    "final_address": "10120 Deerfield Dr",
    "address_councildis": "E",
    "status": "Assigned to Contractor",
    "contractor": "Waste Pro",
    "rowid": "1079654",
    "final_x": "3709731.83512",
    "final_y": "563234.812704",
    "longitude": "-89.97774045410176",
    "latitude": "30.041811953802537",
    "geocoded_column": {
      "latitude": "30.041811953802537",
      "longitude": "-89.97774045410176"
    }
  },
  {
    "service_request": "2024-1079653",
    "request_type": "Trash/Recycling",
    "request_reason": "Dead Animal Pick Up",
    "date_created": "2024-03-28T14:32:09.000",
    "date_modified": "2024-03-28T16:00:33.000",
    "case_close_date": "2024-03-28T11:00:33.000",
    "request_status": "Closed",
    "responsible_agency": "Department of Sanitation",
    "final_address": "3611 N Robertson St",
    "address_councildis": "D",
    "status": "Assigned to Contractor",
    "contractor": "IV Waste",
    "contractor_action": "Completed",
    "rowid": "1079653",
    "final_x": "3691212.02569",
    "final_y": "537063.969928",
    "longitude": "-90.03720533609984",
    "latitude": "29.970441205105136",
    "geocoded_column": {
      "latitude": "29.970441205105136",
      "longitude": "-90.03720533609984"
    }
  },
  {
    "service_request": "2024-1079652",
    "request_type": "Roads/Drainage",
    "request_reason": "Damaged Sidewalk",
    "date_created": "2024-03-28T14:32:06.000",
    "date_modified": "2024-03-28T14:32:07.000",
    "request_status": "Pending",
    "responsible_agency": "Department of Public Works",
    "final_address": "1883 Gentilly Blvd",
    "address_councildis": "A",
    "status": "Pending",
    "rowid": "1079652",
    "final_x": "3678830.12802",
    "final_y": "542947.866445",
    "longitude": "-90.07610488702912",
    "latitude": "29.98699918888917",
    "geocoded_column": {
      "latitude": "29.98699918888917",
      "longitude": "-90.07610488702912"
    }
  },
  {
    "service_request": "2024-1079651",
    "request_type": "Trash/Recycling",
    "request_reason": "Request a Large Item Pick Up",
    "date_created": "2024-03-28T14:29:50.000",
    "date_modified": "2024-03-28T14:29:50.000",
    "request_status": "Pending",
    "responsible_agency": "Department of Sanitation",
    "final_address": "3024 Octavia St",
    "address_councildis": "A",
    "status": "Assigned to Contractor",
    "contractor": "Richards Disposal",
    "rowid": "1079651",
    "final_x": "3668144.19233",
    "final_y": "526765.15507",
    "longitude": "-90.11040353568173",
    "latitude": "29.942820164559595",
    "geocoded_column": {
      "latitude": "29.942820164559595",
      "longitude": "-90.11040353568173"
    }
  },
  {
    "service_request": "2024-1079650",
    "request_type": "Parks & Parkways",
    "request_reason": "Request Tree Service (Right of Way/Public Property)",
    "date_created": "2024-03-28T14:29:42.000",
    "date_modified": "2024-03-28T14:29:43.000",
    "request_status": "Pending",
    "responsible_agency": "Department of Parks & Parkway",
    "final_address": "1887 Gentilly Blvd",
    "address_councildis": "A",
    "status": "Pending",
    "rowid": "1079650",
    "final_x": "3678864.03694",
    "final_y": "543001.055885",
    "longitude": "-90.07599593750673",
    "latitude": "29.987144418207265",
    "geocoded_column": {
      "latitude": "29.987144418207265",
      "longitude": "-90.07599593750673"
    }
  },
  {
    "service_request": "2024-1079649",
    "request_type": "Traffic Signals/Signs/Striping/Streetlights",
    "request_reason": "Traffic Sign Missing/Damaged",
    "date_created": "2024-03-28T14:28:27.000",
    "date_modified": "2024-03-28T14:28:28.000",
    "request_status": "Pending",
    "responsible_agency": "Department of Public Works",
    "final_address": "FLEUR DE LIS DR & VETERANS BLVD & VETERANS HWY",
    "address_councildis": "A",
    "status": "Pending",
    "rowid": "1079649",
    "final_x": "3665115.5",
    "final_y": "547476.48",
    "longitude": "-90.11927304180386",
    "latitude": "29.99985796726132",
    "geocoded_column": {
      "latitude": "29.99985796726132",
      "longitude": "-90.11927304180386"
    }
  },
  {
    "service_request": "2024-1079648",
    "request_type": "Trash/Recycling",
    "request_reason": "Repair Trash Cart",
    "date_created": "2024-03-28T14:27:53.000",
    "date_modified": "2024-03-28T14:27:53.000",
    "request_status": "Pending",
    "responsible_agency": "Department of Sanitation",
    "final_address": "2524 Milan St",
    "address_councildis": "B",
    "status": "Assigned to Contractor",
    "contractor": "Richards Disposal",
    "rowid": "1079648",
    "final_x": "3671216.05255",
    "final_y": "524332.710012",
    "longitude": "-90.10078752530576",
    "latitude": "29.936041223880583",
    "geocoded_column": {
      "latitude": "29.936041223880583",
      "longitude": "-90.10078752530576"
    }
  },
  {
    "service_request": "2024-1079647",
    "request_type": "Trash/Recycling",
    "request_reason": "Request a Large Item Pick Up",
    "date_created": "2024-03-28T14:25:47.000",
    "date_modified": "2024-03-28T15:31:25.000",
    "case_close_date": "2024-03-28T10:31:25.000",
    "request_status": "Closed",
    "responsible_agency": "Department of Sanitation",
    "final_address": "7440 Alabama St",
    "address_councildis": "D",
    "status": "Duplicate Request",
    "contractor": "Waste Pro",
    "contractor_action": "Duplicate",
    "rowid": "1079647",
    "final_x": "3695001.17603",
    "final_y": "558056.641883",
    "longitude": "-90.02448154306744",
    "latitude": "30.028044924776378",
    "geocoded_column": {
      "latitude": "30.028044924776378",
      "longitude": "-90.02448154306744"
    }
  },
  {
    "service_request": "2024-1079646",
    "request_type": "Trash/Recycling",
    "request_reason": "Request a Large Item Pick Up",
    "date_created": "2024-03-28T14:25:28.000",
    "date_modified": "2024-03-28T15:30:26.000",
    "case_close_date": "2024-03-28T10:30:26.000",
    "request_status": "Closed",
    "responsible_agency": "Department of Sanitation",
    "final_address": "7440 Alabama St",
    "address_councildis": "D",
    "status": "Duplicate Request",
    "contractor": "Waste Pro",
    "contractor_action": "Duplicate",
    "rowid": "1079646",
    "final_x": "3695001.17603",
    "final_y": "558056.641883",
    "longitude": "-90.02448154306744",
    "latitude": "30.028044924776378",
    "geocoded_column": {
      "latitude": "30.028044924776378",
      "longitude": "-90.02448154306744"
    }
  },
  {
    "service_request": "2024-1079645",
    "request_type": "Trash/Recycling",
    "request_reason": "Request a Large Item Pick Up",
    "date_created": "2024-03-28T14:22:46.000",
    "date_modified": "2024-03-28T16:07:36.000",
    "case_close_date": "2024-03-28T11:07:36.000",
    "request_status": "Closed",
    "responsible_agency": "Department of Sanitation",
    "final_address": "7440 Alabama St",
    "address_councildis": "D",
    "status": "Assigned to Contractor",
    "contractor": "Waste Pro",
    "contractor_action": "Completed",
    "rowid": "1079645",
    "final_x": "3695001.17603",
    "final_y": "558056.641883",
    "longitude": "-90.02448154306744",
    "latitude": "30.028044924776378",
    "geocoded_column": {
      "latitude": "30.028044924776378",
      "longitude": "-90.02448154306744"
    }
  },
  {
    "service_request": "2024-1079644",
    "request_type": "Mosquito, Termite & Rodent Control",
    "request_reason": "Non-Rodent Complaint (Mice, Possums, Snakes)",
    "date_created": "2024-03-28T14:22:19.000",
    "date_modified": "2024-03-28T14:22:19.000",
    "request_status": "Pending",
    "responsible_agency": "Mosquito, Termite & Rodent Control Board",
    "final_address": "2600 BLK Egania St",
    "address_councildis": "E",
    "status": "Pending",
    "rowid": "1079644",
    "final_x": "3698429.89904",
    "final_y": "539867.104437",
    "longitude": "-90.01430870738798",
    "latitude": "29.977922342342687",
    "geocoded_column": {
      "latitude": "29.977922342342687",
      "longitude": "-90.01430870738798"
    }
  },
  {
    "service_request": "2024-1079643",
    "request_type": "Property Maintenance",
    "request_reason": "Property Maintenance",
    "date_created": "2024-03-28T14:16:19.000",
    "date_modified": "2024-03-28T14:16:19.000",
    "request_status": "Pending",
    "responsible_agency": "Department of Code Enforcement",
    "final_address": "1728 Egania St",
    "address_councildis": "E",
    "status": "Pending",
    "rowid": "1079643",
    "final_x": "3697463.92477",
    "final_y": "536549.083207",
    "longitude": "-90.01747991798929",
    "latitude": "29.96882951747026",
    "geocoded_column": {
      "latitude": "29.96882951747026",
      "longitude": "-90.01747991798929"
    }
  },
  {
    "service_request": "2024-1079642",
    "request_type": "Roads/Drainage",
    "request_reason": "Pothole",
    "date_created": "2024-03-28T14:13:28.000",
    "date_modified": "2024-03-28T14:13:28.000",
    "request_status": "Pending",
    "responsible_agency": "Department of Public Works",
    "final_address": "BROADWAY ST & SPRUCE ST",
    "address_councildis": "A",
    "status": "Pending",
    "rowid": "1079642",
    "final_x": "3665739.1",
    "final_y": "528854.58",
    "longitude": "-90.11792704381216",
    "latitude": "29.94863577155117",
    "geocoded_column": {
      "latitude": "29.94863577155117",
      "longitude": "-90.11792704381216"
    }
  },
  {
    "service_request": "2024-1079641",
    "request_type": "Roads/Drainage",
    "request_reason": "Pothole",
    "date_created": "2024-03-28T14:12:45.000",
    "date_modified": "2024-03-28T14:12:45.000",
    "request_status": "Pending",
    "responsible_agency": "Department of Public Works",
    "final_address": "6300 BLK S Miro St",
    "address_councildis": "A",
    "status": "Pending",
    "rowid": "1079641",
    "final_x": "3667064.07266",
    "final_y": "528207.019161",
    "longitude": "-90.11376529154896",
    "latitude": "29.946816478486234",
    "geocoded_column": {
      "latitude": "29.946816478486234",
      "longitude": "-90.11376529154896"
    }
  },
  {
    "service_request": "2024-1079640",
    "request_type": "Trash/Recycling",
    "request_reason": "Missed Trash Pick-Up",
    "date_created": "2024-03-28T14:09:38.000",
    "date_modified": "2024-03-28T14:39:08.000",
    "case_close_date": "2024-03-28T09:39:08.000",
    "request_status": "Closed",
    "responsible_agency": "Department of Sanitation",
    "final_address": "2328 Dreux Ave",
    "address_councildis": "D",
    "status": "Invalid Request",
    "contractor": "IV Waste",
    "contractor_action": "Invalid Request",
    "rowid": "1079640",
    "final_x": "3684822.31061",
    "final_y": "551999.835606",
    "longitude": "-90.05685927478959",
    "latitude": "30.01170670845911",
    "geocoded_column": {
      "latitude": "30.01170670845911",
      "longitude": "-90.05685927478959"
    }
  },
  {
    "service_request": "2024-1079639",
    "request_type": "Trash/Recycling",
    "request_reason": "Request a Large Item Pick Up",
    "date_created": "2024-03-28T14:06:27.000",
    "date_modified": "2024-03-28T14:06:27.000",
    "request_status": "Pending",
    "responsible_agency": "Department of Sanitation",
    "final_address": "7153 W Tamaron Blvd",
    "address_councildis": "E",
    "status": "Assigned to Contractor",
    "contractor": "Waste Pro",
    "rowid": "1079639",
    "final_x": "3718181.72908",
    "final_y": "569044.588006",
    "longitude": "-89.95081442978729",
    "latitude": "30.05750886985721",
    "geocoded_column": {
      "latitude": "30.05750886985721",
      "longitude": "-89.95081442978729"
    }
  },
  {
    "service_request": "2024-1079638",
    "request_type": "Traffic Signals/Signs/Striping/Streetlights",
    "request_reason": "Traffic Sign Missing/Damaged",
    "date_created": "2024-03-28T14:05:05.000",
    "date_modified": "2024-03-28T14:05:05.000",
    "request_status": "Pending",
    "responsible_agency": "Department of Public Works",
    "final_address": "MAJESTIC OAKS DR & DREUX AVE",
    "address_councildis": "D",
    "status": "Pending",
    "rowid": "1079638",
    "final_x": "3697769.1",
    "final_y": "553994.08",
    "longitude": "-90.01588272806416",
    "latitude": "30.016787200002423",
    "geocoded_column": {
      "latitude": "30.016787200002423",
      "longitude": "-90.01588272806416"
    }
  },
  {
    "service_request": "2024-1079637",
    "request_type": "Trash/Recycling",
    "request_reason": "Missed Trash Pick-Up",
    "date_created": "2024-03-28T14:04:51.000",
    "date_modified": "2024-03-28T14:04:51.000",
    "request_status": "Pending",
    "responsible_agency": "Department of Sanitation",
    "final_address": "620 Soraparu St",
    "address_councildis": "B",
    "status": "Assigned to Contractor",
    "contractor": "Richards Disposal",
    "rowid": "1079637",
    "final_x": "3679239.42933",
    "final_y": "520277.98508",
    "longitude": "-90.0755980373529",
    "latitude": "29.924652310462665",
    "geocoded_column": {
      "latitude": "29.924652310462665",
      "longitude": "-90.0755980373529"
    }
  },
  {
    "service_request": "2024-1079636",
    "request_type": "Trash/Recycling",
    "request_reason": "MIssed Recycling Pick-Up",
    "date_created": "2024-03-28T14:04:07.000",
    "date_modified": "2024-03-28T14:04:08.000",
    "request_status": "Pending",
    "responsible_agency": "Department of Sanitation",
    "final_address": "4718 Lurline St",
    "address_councildis": "E",
    "status": "Assigned to Contractor",
    "contractor": "Waste Pro",
    "rowid": "1079636",
    "final_x": "3711915.11486",
    "final_y": "555937.896089",
    "longitude": "-89.9711147026227",
    "latitude": "30.02167712972963",
    "geocoded_column": {
      "latitude": "30.02167712972963",
      "longitude": "-89.9711147026227"
    }
  },
  {
    "service_request": "2024-1079635",
    "request_type": "Trash/Recycling",
    "request_reason": "Request a Large Item Pick Up",
    "date_created": "2024-03-28T14:02:09.000",
    "date_modified": "2024-03-28T14:02:10.000",
    "request_status": "Pending",
    "responsible_agency": "Department of Sanitation",
    "final_address": "7732 Sycamore St",
    "address_councildis": "A",
    "status": "Assigned to Contractor",
    "contractor": "Richards Disposal",
    "rowid": "1079635",
    "final_x": "3665175.05498",
    "final_y": "530079.920001",
    "longitude": "-90.11966700051845",
    "latitude": "29.952021498786387",
    "geocoded_column": {
      "latitude": "29.952021498786387",
      "longitude": "-90.11966700051845"
    }
  },
  {
    "service_request": "2024-1079634",
    "request_type": "Trash/Recycling",
    "request_reason": "Request a Large Item Pick Up",
    "date_created": "2024-03-28T14:01:48.000",
    "date_modified": "2024-03-28T14:01:49.000",
    "request_status": "Pending",
    "responsible_agency": "Department of Sanitation",
    "final_address": "6320 Orleans Ave",
    "address_councildis": "A",
    "status": "Assigned to Contractor",
    "contractor": "IV Waste",
    "rowid": "1079634",
    "final_x": "3671024.27879",
    "final_y": "549287.741267",
    "longitude": "-90.10054534227785",
    "latitude": "30.00466483621735",
    "geocoded_column": {
      "latitude": "30.00466483621735",
      "longitude": "-90.10054534227785"
    }
  },
  {
    "service_request": "2024-1079633",
    "request_type": "Utility Poles",
    "request_reason": "Utility Pole Leaning",
    "date_created": "2024-03-28T14:01:18.000",
    "date_modified": "2024-03-28T14:01:22.000",
    "request_status": "Pending",
    "responsible_agency": "Utility Company Collective",
    "final_address": "2426 St Maurice Ave",
    "address_councildis": "E",
    "status": "Pending",
    "rowid": "1079633",
    "final_x": "3701709.95069",
    "final_y": "538048.292361",
    "longitude": "-90.00401587238262",
    "latitude": "29.972817042501728",
    "geocoded_column": {
      "latitude": "29.972817042501728",
      "longitude": "-90.00401587238262"
    }
  },
  {
    "service_request": "2024-1079632",
    "request_type": "Tax and Revenue",
    "request_reason": "Business Renewal",
    "date_created": "2024-03-28T14:01:14.000",
    "date_modified": "2024-03-28T14:01:15.000",
    "request_status": "Pending",
    "responsible_agency": "Bureau of Revenue",
    "final_address": " & BALDWIN ST",
    "address_councildis": "D",
    "status": "Pending",
    "rowid": "1079632",
    "final_x": "3687893.7",
    "final_y": "559892.69",
    "longitude": "-90.04687552277309",
    "latitude": "30.033314683701462",
    "geocoded_column": {
      "latitude": "30.033314683701462",
      "longitude": "-90.04687552277309"
    }
  },
  {
    "service_request": "2024-1079630",
    "request_type": "Trash/Recycling",
    "request_reason": "Request a Large Item Pick Up",
    "date_created": "2024-03-28T14:00:40.000",
    "date_modified": "2024-03-28T14:00:41.000",
    "request_status": "Pending",
    "responsible_agency": "Department of Sanitation",
    "final_address": "4420 Annunciation St",
    "address_councildis": "B",
    "status": "Assigned to Contractor",
    "contractor": "Richards Disposal",
    "rowid": "1079630",
    "final_x": "3670922.84609",
    "final_y": "517684.556534",
    "longitude": "-90.10193874256797",
    "latitude": "29.91776959660592",
    "geocoded_column": {
      "latitude": "29.91776959660592",
      "longitude": "-90.10193874256797"
    }
  },
  {
    "service_request": "2024-1079629",
    "request_type": "Trash/Recycling",
    "request_reason": "Request a Large Item Pick Up",
    "date_created": "2024-03-28T13:57:44.000",
    "date_modified": "2024-03-28T13:57:45.000",
    "request_status": "Pending",
    "responsible_agency": "Department of Sanitation",
    "final_address": "479 Lowerline St",
    "address_councildis": "A",
    "status": "Assigned to Contractor",
    "contractor": "Richards Disposal",
    "rowid": "1079629",
    "final_x": "3662157.89235",
    "final_y": "524399.486396",
    "longitude": "-90.12938228814338",
    "latitude": "29.93648964663593",
    "geocoded_column": {
      "latitude": "29.93648964663593",
      "longitude": "-90.12938228814338"
    }
  },
  {
    "service_request": "2024-1079628",
    "request_type": "Trash/Recycling",
    "request_reason": "Order Trash Cart",
    "date_created": "2024-03-28T13:56:38.000",
    "date_modified": "2024-03-28T13:56:38.000",
    "request_status": "Pending",
    "responsible_agency": "Department of Sanitation",
    "final_address": "6226 Rhodes Ave",
    "address_councildis": "C",
    "status": "Assigned to Contractor",
    "contractor": "Richards Disposal",
    "rowid": "1079628",
    "final_x": "3707154.84548",
    "final_y": "519451.767479",
    "longitude": "-89.987509834706",
    "latitude": "29.921508446995325",
    "geocoded_column": {
      "latitude": "29.921508446995325",
      "longitude": "-89.987509834706"
    }
  },
  {
    "service_request": "2024-1079627",
    "request_type": "Trash/Recycling",
    "request_reason": "Illegal Dumping",
    "date_created": "2024-03-28T13:55:37.000",
    "date_modified": "2024-03-28T13:57:18.000",
    "request_status": "Pending",
    "responsible_agency": "Department of Sanitation",
    "final_address": "GRANT ST & DONNA DR",
    "address_councildis": "E",
    "status": "Pending",
    "rowid": "1079627",
    "final_x": "3711083.6",
    "final_y": "555005.28",
    "longitude": "-89.97377700747415",
    "latitude": "30.019139955394614",
    "geocoded_column": {
      "latitude": "30.019139955394614",
      "longitude": "-89.97377700747415"
    }
  },
  {
    "service_request": "2024-1079626",
    "request_type": "Trash/Recycling",
    "request_reason": "Request a Large Item Pick Up",
    "date_created": "2024-03-28T13:53:25.000",
    "date_modified": "2024-03-28T13:54:44.000",
    "request_status": "Pending",
    "responsible_agency": "Department of Sanitation",
    "final_address": "4304 Laurel St",
    "address_councildis": "B",
    "rowid": "1079626",
    "final_x": "3671470.29486",
    "final_y": "518043.366966",
    "longitude": "-90.1001985572274",
    "latitude": "29.918740023141197",
    "geocoded_column": {
      "latitude": "29.918740023141197",
      "longitude": "-90.1001985572274"
    }
  },
  {
    "service_request": "2024-1079625",
    "request_type": "Abandoned Vehicles",
    "request_reason": "Abandoned/Junk Vehicles",
    "date_created": "2024-03-28T13:53:24.000",
    "date_modified": "2024-03-28T13:53:24.000",
    "request_status": "Pending",
    "responsible_agency": "Department of Public Works",
    "final_address": "1727 Tupelo St",
    "address_councildis": "E",
    "status": "Pending",
    "rowid": "1079625",
    "final_x": "3700472.50724",
    "final_y": "535617.071494",
    "longitude": "-90.00801273498192",
    "latitude": "29.966171477915584",
    "geocoded_column": {
      "latitude": "29.966171477915584",
      "longitude": "-90.00801273498192"
    }
  },
  {
    "service_request": "2024-1079624",
    "request_type": "Trash/Recycling",
    "request_reason": "Request a Large Item Pick Up",
    "date_created": "2024-03-28T13:52:19.000",
    "date_modified": "2024-03-28T13:52:20.000",
    "request_status": "Pending",
    "responsible_agency": "Department of Sanitation",
    "final_address": "1812 Palmer Ave",
    "address_councildis": "A",
    "status": "Assigned to Contractor",
    "contractor": "Richards Disposal",
    "rowid": "1079624",
    "final_x": "3665497.5248",
    "final_y": "523805.729019",
    "longitude": "-90.11885876442678",
    "latitude": "29.934760094419577",
    "geocoded_column": {
      "latitude": "29.934760094419577",
      "longitude": "-90.11885876442678"
    }
  },
  {
    "service_request": "2024-1079623",
    "request_type": "Trash/Recycling",
    "request_reason": "Replace Recycling Cart",
    "date_created": "2024-03-28T13:51:47.000",
    "date_modified": "2024-03-28T13:51:47.000",
    "request_status": "Pending",
    "responsible_agency": "Department of Sanitation",
    "final_address": "3601 Franklin Ave",
    "address_councildis": "D",
    "status": "Pending",
    "rowid": "1079623",
    "final_x": "3687224.25711",
    "final_y": "546110.127184",
    "longitude": "-90.04947903007469",
    "latitude": "29.995438356936866",
    "geocoded_column": {
      "latitude": "29.995438356936866",
      "longitude": "-90.04947903007469"
    }
  },
  {
    "service_request": "2024-1079622",
    "request_type": "Trash/Recycling",
    "request_reason": "Request a Large Item Pick Up",
    "date_created": "2024-03-28T13:51:06.000",
    "date_modified": "2024-03-28T16:08:18.000",
    "case_close_date": "2024-03-28T11:08:18.000",
    "request_status": "Closed",
    "responsible_agency": "Department of Sanitation",
    "final_address": "4729 Francisco Verrett Dr",
    "address_councildis": "E",
    "status": "Assigned to Contractor",
    "contractor": "Waste Pro",
    "contractor_action": "Completed",
    "rowid": "1079622",
    "final_x": "3704257.64286",
    "final_y": "555170.051097",
    "longitude": "-89.99533842889987",
    "latitude": "30.01981394119544",
    "geocoded_column": {
      "latitude": "30.01981394119544",
      "longitude": "-89.99533842889987"
    }
  },
  {
    "service_request": "2024-1079621",
    "request_type": "Trash/Recycling",
    "request_reason": "Missed Trash Pick-Up",
    "date_created": "2024-03-28T13:47:08.000",
    "date_modified": "2024-03-28T13:47:09.000",
    "request_status": "Pending",
    "responsible_agency": "Department of Sanitation",
    "final_address": "3200 BLK Annunciation St",
    "address_councildis": "B",
    "status": "Assigned to Contractor",
    "contractor": "Richards Disposal",
    "rowid": "1079621",
    "final_x": "3676178.17549",
    "final_y": "518950.256507",
    "longitude": "-90.08530704652856",
    "latitude": "29.921093524720565",
    "geocoded_column": {
      "latitude": "29.921093524720565",
      "longitude": "-90.08530704652856"
    }
  },
  {
    "service_request": "2024-1079620",
    "request_type": "Abandoned Vehicles",
    "request_reason": "Abandoned/Junk Vehicles",
    "date_created": "2024-03-28T13:47:04.000",
    "date_modified": "2024-03-28T13:47:04.000",
    "request_status": "Pending",
    "responsible_agency": "Department of Public Works",
    "final_address": "1100 BLK Deslonde St",
    "address_councildis": "E",
    "status": "Pending",
    "rowid": "1079620",
    "final_x": "3695442.92896",
    "final_y": "534624.651339",
    "longitude": "-90.02393176563272",
    "latitude": "29.963601674046057",
    "geocoded_column": {
      "latitude": "29.963601674046057",
      "longitude": "-90.02393176563272"
    }
  },
  {
    "service_request": "2024-1079619",
    "request_type": "Trash/Recycling",
    "request_reason": "Request a Large Item Pick Up",
    "date_created": "2024-03-28T13:46:19.000",
    "date_modified": "2024-03-28T13:46:19.000",
    "request_status": "Pending",
    "responsible_agency": "Department of Sanitation",
    "final_address": "2504 Esplanade Ave",
    "address_councildis": "D",
    "status": "Assigned to Contractor",
    "contractor": "Richards Disposal",
    "rowid": "1079619",
    "final_x": "3678544.71093",
    "final_y": "538585.945993",
    "longitude": "-90.07715746032042",
    "latitude": "29.975014027601805",
    "geocoded_column": {
      "latitude": "29.975014027601805",
      "longitude": "-90.07715746032042"
    }
  },
  {
    "service_request": "2024-1079618",
    "request_type": "Trash/Recycling",
    "request_reason": "Order Recycling Cart",
    "date_created": "2024-03-28T13:42:44.000",
    "date_modified": "2024-03-28T13:42:44.000",
    "request_status": "Pending",
    "responsible_agency": "Department of Sanitation",
    "final_address": "4737 E Adams Ct",
    "address_councildis": "E",
    "status": "Pending",
    "rowid": "1079618",
    "final_x": "3718837.38245",
    "final_y": "557127.18345",
    "longitude": "-89.94919705148588",
    "latitude": "30.024719098902477",
    "geocoded_column": {
      "latitude": "30.024719098902477",
      "longitude": "-89.94919705148588"
    }
  },
  {
    "service_request": "2024-1079615",
    "request_type": "Abandoned Vehicles",
    "request_reason": "Abandoned/Junk Vehicles",
    "date_created": "2024-03-28T13:40:29.000",
    "date_modified": "2024-03-28T13:41:44.000",
    "request_status": "Pending",
    "responsible_agency": "Department of Public Works",
    "final_address": "4633 Chantilly Dr",
    "address_councildis": "E",
    "status": "Pending",
    "rowid": "1079615",
    "final_x": "3701018.93668",
    "final_y": "553602.296279",
    "longitude": "-90.00562902075967",
    "latitude": "30.01560680191484",
    "geocoded_column": {
      "latitude": "30.01560680191484",
      "longitude": "-90.00562902075967"
    }
  },
  {
    "service_request": "2024-1079614",
    "request_type": "Trash/Recycling",
    "request_reason": "Repair Recycling Cart",
    "date_created": "2024-03-28T13:38:07.000",
    "date_modified": "2024-03-28T13:38:07.000",
    "request_status": "Pending",
    "responsible_agency": "Department of Sanitation",
    "final_address": "1118 Cadiz St",
    "address_councildis": "B",
    "status": "Pending",
    "rowid": "1079614",
    "final_x": "3670181.70785",
    "final_y": "519610.723448",
    "longitude": "-90.10421289485329",
    "latitude": "29.923087825055134",
    "geocoded_column": {
      "latitude": "29.923087825055134",
      "longitude": "-90.10421289485329"
    }
  },
  {
    "service_request": "2024-1079613",
    "request_type": "Property Maintenance",
    "request_reason": "Property Maintenance",
    "date_created": "2024-03-28T13:37:00.000",
    "date_modified": "2024-03-28T13:37:00.000",
    "request_status": "Pending",
    "responsible_agency": "Department of Code Enforcement",
    "final_address": "2722 Iberville St",
    "address_councildis": "B",
    "status": "Pending",
    "rowid": "1079613",
    "final_x": "3675403.88904",
    "final_y": "535562.239622",
    "longitude": "-90.08718085307382",
    "latitude": "29.966794167208885",
    "geocoded_column": {
      "latitude": "29.966794167208885",
      "longitude": "-90.08718085307382"
    }
  },
  {
    "service_request": "2024-1079612",
    "request_type": "Trash/Recycling",
    "request_reason": "Request a Large Item Pick Up",
    "date_created": "2024-03-28T13:30:22.000",
    "date_modified": "2024-03-28T16:08:57.000",
    "case_close_date": "2024-03-28T11:08:57.000",
    "request_status": "Closed",
    "responsible_agency": "Department of Sanitation",
    "final_address": "7425 Mayo Rd",
    "address_councildis": "E",
    "status": "Assigned to Contractor",
    "contractor": "Waste Pro",
    "contractor_action": "Completed",
    "rowid": "1079612",
    "final_x": "3701059.73137",
    "final_y": "560329.909533",
    "longitude": "-90.00525376107944",
    "latitude": "30.034103851870203",
    "geocoded_column": {
      "latitude": "30.034103851870203",
      "longitude": "-90.00525376107944"
    }
  },
  {
    "service_request": "2024-1079611",
    "request_type": "Traffic Signals/Signs/Striping/Streetlights",
    "request_reason": "Street Light Outage/Malfunction",
    "date_created": "2024-03-28T13:30:17.000",
    "date_modified": "2024-03-28T13:31:23.000",
    "request_status": "Pending",
    "responsible_agency": "Department of Public Works",
    "final_address": "535 Bermuda St",
    "address_councildis": "C",
    "status": "Assigned to Contractor",
    "contractor": "Legacy Professional Services",
    "rowid": "1079611",
    "final_x": "3686864.30825",
    "final_y": "529929.905153",
    "longitude": "-90.05118798940084",
    "latitude": "29.95095950348544",
    "geocoded_column": {
      "latitude": "29.95095950348544",
      "longitude": "-90.05118798940084"
    }
  },
  {
    "service_request": "2024-1079610",
    "request_type": "Trash/Recycling",
    "request_reason": "Missed Trash Pick-Up",
    "date_created": "2024-03-28T13:28:42.000",
    "date_modified": "2024-03-28T13:28:43.000",
    "request_status": "Pending",
    "responsible_agency": "Department of Sanitation",
    "final_address": "838 Elmira Ave",
    "address_councildis": "C",
    "status": "Assigned to Contractor",
    "contractor": "Richards Disposal",
    "rowid": "1079610",
    "final_x": "3688190.57199",
    "final_y": "528383.113216",
    "longitude": "-90.04705515375075",
    "latitude": "29.946665482453213",
    "geocoded_column": {
      "latitude": "29.946665482453213",
      "longitude": "-90.04705515375075"
    }
  },