[
  {
    "service_request": "2022-880494",
    "request_type": "Trash/Recycling",
    "request_reason": "Missed Trash Pick-Up",
    "date_created": "2022-05-06T00:20:52.000",
    "date_modified": "2022-05-06T00:20:53.000",
    "request_status": "Pending",
    "responsible_agency": "Department of Sanitation",
    "final_address": "1223 Harmony St, New Orleans, Louisiana, 70115",
    "address_councildis": "B",
    "status": "Assigned to Contractor",
    "contractor": "Richards Disposal",
    "rowid": "880494",
    "final_x": "3675581.16072",
    "final_y": "520529.779192",
    "longitude": "-90.08713733140014",
    "latitude": "29.925454569534686",
    "geocoded_column": {
      "latitude": "29.925454569534686",
      "longitude": "-90.08713733140014"
    }
  },
  {
    "service_request": "2022-880493",
    "request_type": "Property Maintenance",
    "request_reason": "Property Maintenance",
    "date_created": "2022-05-06T00:14:06.000",
    "date_modified": "2022-05-06T00:14:06.000",
    "request_status": "Pending",
    "responsible_agency": "Department of Code Enforcement",
    "final_address": "7849 Read Blvd Apt 12",
    "address_councildis": "E",
    "status": "Pending",
    "rowid": "880493",
    "final_x": "3708429.38795",
    "final_y": "565267.44797",
    "longitude": "-89.98178086429685",
    "latitude": "30.047443191521047",
    "geocoded_column": {
      "latitude": "30.047443191521047",
      "longitude": "-89.98178086429685"
    }
  },
  {
    "service_request": "2022-880492",
    "request_type": "Property Maintenance",
    "request_reason": "Property Maintenance",
    "date_created": "2022-05-06T00:10:31.000",
    "date_modified": "2022-05-06T00:10:31.000",
    "request_status": "Pending",
    "responsible_agency": "Department of Code Enforcement",
    "final_address": "2346 N Galvez St",
    "address_councildis": "D",
    "status": "Pending",
    "rowid": "880492",
    "final_x": "3685908.10159",
    "final_y": "540052.894667",
    "longitude": "-90.05385028971652",
    "latitude": "29.978823602887914",
    "geocoded_column": {
      "latitude": "29.978823602887914",
      "longitude": "-90.05385028971652"
    }
  },
  {
    "service_request": "2022-880491",
    "request_type": "Property Maintenance",
    "request_reason": "Property Maintenance",
    "date_created": "2022-05-06T00:00:04.000",
    "date_modified": "2022-05-06T00:00:04.000",
    "request_status": "Pending",
    "responsible_agency": "Department of Code Enforcement",
    "final_address": "2346 N Galvez St",
    "address_councildis": "D",
    "status": "Pending",
    "rowid": "880491",
    "final_x": "3685908.10159",
    "final_y": "540052.894667",
    "longitude": "-90.05385028971652",
    "latitude": "29.978823602887914",
    "geocoded_column": {
      "latitude": "29.978823602887914",
      "longitude": "-90.05385028971652"
    }
  },
  {
    "service_request": "2022-880490",
    "request_type": "Trash/Recycling",
    "request_reason": "Return Trash Cart",
    "date_created": "2022-05-05T23:06:46.000",
    "date_modified": "2022-05-05T23:06:46.000",
    "request_status": "Pending",
    "responsible_agency": "Department of Sanitation",
    "final_address": "2507 St Philip St",
    "address_councildis": "D",
    "status": "Assigned to Contractor",
    "contractor": "Richards Disposal",
    "rowid": "880490",
    "final_x": "3678167.35899",
    "final_y": "537304.889992",
    "longitude": "-90.07839354662946",
    "latitude": "29.971502932914195",
    "geocoded_column": {
      "latitude": "29.971502932914195",
      "longitude": "-90.07839354662946"
    }
  },
  {
    "service_request": "2022-880488",
    "request_type": "Trash/Recycling",
    "request_reason": "Missed Trash Pick-Up",
    "date_created": "2022-05-05T23:02:21.000",
    "date_modified": "2022-05-05T23:02:22.000",
    "request_status": "Pending",
    "responsible_agency": "Department of Sanitation",
    "final_address": "2107 Annunciation St",
    "address_councildis": "B",
    "status": "Assigned to Contractor",
    "contractor": "Richards Disposal",
    "rowid": "880488",
    "final_x": "3679758.14146",
    "final_y": "521431.067449",
    "longitude": "-90.073920630889",
    "latitude": "29.927807244285876",
    "geocoded_column": {
      "latitude": "29.927807244285876",
      "longitude": "-90.073920630889"
    }
  },
  {
    "service_request": "2022-880487",
    "request_type": "Trash/Recycling",
    "request_reason": "Missed Trash Pick-Up",
    "date_created": "2022-05-05T23:01:48.000",
    "date_modified": "2022-05-05T23:01:49.000",
    "request_status": "Pending",
    "responsible_agency": "Department of Sanitation",
    "final_address": "2107 Annunciation St",
    "address_councildis": "B",
    "status": "Assigned to Contractor",
    "contractor": "Richards Disposal",
    "rowid": "880487",
    "final_x": "3679758.14146",
    "final_y": "521431.067449",
    "longitude": "-90.073920630889",
    "latitude": "29.927807244285876",
    "geocoded_column": {
      "latitude": "29.927807244285876",
      "longitude": "-90.073920630889"
    }
  },
  {
    "service_request": "2022-880486",
    "request_type": "Trash/Recycling",
    "request_reason": "Missed Trash Pick-Up",
    "date_created": "2022-05-05T23:01:09.000",
    "date_modified": "2022-05-05T23:01:09.000",
    "request_status": "Pending",
    "responsible_agency": "Department of Sanitation",
    "final_address": "2107 Annunciation St",
    "address_councildis": "B",
    "status": "Assigned to Contractor",
    "contractor": "Richards Disposal",
    "rowid": "880486",
    "final_x": "3679758.14146",
    "final_y": "521431.067449",
    "longitude": "-90.073920630889",
    "latitude": "29.927807244285876",
    "geocoded_column": {
      "latitude": "29.927807244285876",
      "longitude": "-90.073920630889"
    }
  },
  {
    "service_request": "2022-880485",
    "request_type": "Roads/Drainage",
    "request_reason": "Pothole",
    "date_created": "2022-05-05T22:46:12.000",
    "date_modified": "2022-05-05T22:46:13.000",
    "request_status": "Pending",
    "responsible_agency": "Department of Public Works",
    "final_address": "I 10 W & CITY PARK EXIT",
    "address_councildis": "A",
    "status": "Pending",
    "rowid": "880485",
    "final_x": "3667263.8",
    "final_y": "539863.98",
    "longitude": "-90.11274261350016",
    "latitude": "29.978863424353104",
    "geocoded_column": {
      "latitude": "29.978863424353104",
      "longitude": "-90.11274261350016"
    }
  },
  {
    "service_request": "2022-880484",
    "request_type": "Roads/Drainage",
    "request_reason": "Street Subsidence (Sinking)",
    "date_created": "2022-05-05T21:43:08.000",
    "date_modified": "2022-05-05T21:43:08.000",
    "request_status": "Pending",
    "responsible_agency": "Department of Public Works",
    "final_address": "2323 Lowerline St",
    "address_councildis": "A",
    "status": "Pending",
    "rowid": "880484",
    "final_x": "3666034.26912",
    "final_y": "530191.873153",
    "longitude": "-90.11695024289656",
    "latitude": "29.952304281583853",
    "geocoded_column": {
      "latitude": "29.952304281583853",
      "longitude": "-90.11695024289656"
    }
  },
  {
    "service_request": "2022-880483",
    "request_type": "Roads/Drainage",
    "request_reason": "Accessibility Ramps, Curbs and Sidewalk Repair",
    "date_created": "2022-05-05T21:38:37.000",
    "date_modified": "2022-05-05T21:38:37.000",
    "request_status": "Pending",
    "responsible_agency": "Department of Public Works",
    "final_address": "300 Carondelet St",
    "address_councildis": "B",
    "status": "Pending",
    "rowid": "880483",
    "final_x": "3680559.56981",
    "final_y": "530158.460289",
    "longitude": "-90.07108722034545",
    "latitude": "29.95178042844169",
    "geocoded_column": {
      "latitude": "29.95178042844169",
      "longitude": "-90.07108722034545"
    }
  },
  {
    "service_request": "2022-880482",
    "request_type": "Traffic Signals/Signs/Striping/Streetlights",
    "request_reason": "Street Light Outage/Malfunction",
    "date_created": "2022-05-05T21:34:45.000",
    "date_modified": "2022-05-05T21:34:46.000",
    "request_status": "Pending",
    "responsible_agency": "Department of Public Works",
    "final_address": "2817 Canal St",
    "address_councildis": "B",
    "status": "Pending",
    "contractor": "Royal Engineering",
    "rowid": "880482",
    "final_x": "3674888.43861",
    "final_y": "535682.882055",
    "longitude": "-90.08880450830347",
    "latitude": "29.9671412969611",
    "geocoded_column": {
      "latitude": "29.9671412969611",
      "longitude": "-90.08880450830347"
    }
  },
  {
    "service_request": "2022-880481",
    "request_type": "Trash/Recycling",
    "request_reason": "Request a Large Item Pick Up",
    "date_created": "2022-05-05T21:33:51.000",
    "date_modified": "2022-05-05T21:33:51.000",
    "request_status": "Pending",
    "responsible_agency": "Department of Sanitation",
    "final_address": "2323 Lowerline St",
    "address_councildis": "A",
    "status": "Assigned to Contractor",
    "contractor": "Richards Disposal",
    "rowid": "880481",
    "final_x": "3666034.26912",
    "final_y": "530191.873153",
    "longitude": "-90.11695024289656",
    "latitude": "29.952304281583853",
    "geocoded_column": {
      "latitude": "29.952304281583853",
      "longitude": "-90.11695024289656"
    }
  },
  {
    "service_request": "2022-880480",
    "request_type": "Traffic Signals/Signs/Striping/Streetlights",
    "request_reason": "Street Light Outage/Malfunction",
    "date_created": "2022-05-05T21:32:14.000",
    "date_modified": "2022-05-05T21:32:15.000",
    "request_status": "Pending",
    "responsible_agency": "Department of Public Works",
    "final_address": "2817 Canal St",
    "address_councildis": "B",
    "status": "Pending",
    "contractor": "Royal Engineering",
    "rowid": "880480",
    "final_x": "3674888.43861",
    "final_y": "535682.882055",
    "longitude": "-90.08880450830347",
    "latitude": "29.9671412969611",
    "geocoded_column": {
      "latitude": "29.9671412969611",
      "longitude": "-90.08880450830347"
    }
  },
  {
    "service_request": "2022-880479",
    "request_type": "Trash/Recycling",
    "request_reason": "Request a Large Item Pick Up",
    "date_created": "2022-05-05T21:31:37.000",
    "date_modified": "2022-05-05T21:31:38.000",
    "request_status": "Pending",
    "responsible_agency": "Department of Sanitation",
    "final_address": "2323 Lowerline St",
    "address_councildis": "A",
    "status": "Assigned to Contractor",
    "contractor": "Richards Disposal",
    "rowid": "880479",
    "final_x": "3666034.26912",
    "final_y": "530191.873153",
    "longitude": "-90.11695024289656",
    "latitude": "29.952304281583853",
    "geocoded_column": {
      "latitude": "29.952304281583853",
      "longitude": "-90.11695024289656"
    }
  },
  {
    "service_request": "2022-880478",
    "request_type": "Traffic Signals/Signs/Striping/Streetlights",
    "request_reason": "Street Light Outage/Malfunction",
    "date_created": "2022-05-05T21:31:04.000",
    "date_modified": "2022-05-05T21:31:04.000",
    "request_status": "Pending",
    "responsible_agency": "Department of Public Works",
    "final_address": "2817 Canal St",
    "address_councildis": "B",
    "status": "Pending",
    "contractor": "Royal Engineering",
    "rowid": "880478",
    "final_x": "3674888.43861",
    "final_y": "535682.882055",
    "longitude": "-90.08880450830347",
    "latitude": "29.9671412969611",
    "geocoded_column": {
      "latitude": "29.9671412969611",
      "longitude": "-90.08880450830347"
    }
  },
  {
    "service_request": "2022-880477",
    "request_type": "Traffic Signals/Signs/Striping/Streetlights",
    "request_reason": "Street Light Outage/Malfunction",
    "date_created": "2022-05-05T21:29:34.000",
    "date_modified": "2022-05-05T21:29:34.000",
    "request_status": "Pending",
    "responsible_agency": "Department of Public Works",
    "final_address": "2817 Canal St",
    "address_councildis": "B",
    "status": "Pending",
    "contractor": "Royal Engineering",
    "rowid": "880477",
    "final_x": "3674888.43861",
    "final_y": "535682.882055",
    "longitude": "-90.08880450830347",
    "latitude": "29.9671412969611",
    "geocoded_column": {
      "latitude": "29.9671412969611",
      "longitude": "-90.08880450830347"
    }
  },
  {
    "service_request": "2022-880476",
    "request_type": "Traffic Signals/Signs/Striping/Streetlights",
    "request_reason": "Street Light Outage/Malfunction",
    "date_created": "2022-05-05T21:29:32.000",
    "date_modified": "2022-05-05T21:29:33.000",
    "request_status": "Pending",
    "responsible_agency": "Department of Public Works",
    "final_address": "333 St Charles Ave",
    "address_councildis": "B",
    "status": "Pending",
    "contractor": "Royal Engineering",
    "rowid": "880476",
    "final_x": "3680784.35733",
    "final_y": "529767.341121",
    "longitude": "-90.07039106084208",
    "latitude": "29.950698171749757",
    "geocoded_column": {
      "latitude": "29.950698171749757",
      "longitude": "-90.07039106084208"
    }
  },
  {
    "service_request": "2022-880475",
    "request_type": "Traffic Signals/Signs/Striping/Streetlights",
    "request_reason": "Street Light Outage/Malfunction",
    "date_created": "2022-05-05T21:28:15.000",
    "date_modified": "2022-05-05T21:28:15.000",
    "request_status": "Pending",
    "responsible_agency": "Department of Public Works",
    "final_address": "2817 Canal St",
    "address_councildis": "B",
    "status": "Pending",
    "contractor": "Royal Engineering",
    "rowid": "880475",
    "final_x": "3674888.43861",
    "final_y": "535682.882055",
    "longitude": "-90.08880450830347",
    "latitude": "29.9671412969611",
    "geocoded_column": {
      "latitude": "29.9671412969611",
      "longitude": "-90.08880450830347"
    }
  },
  {
    "service_request": "2022-880474",
    "request_type": "Roads/Drainage",
    "request_reason": "Pothole",
    "date_created": "2022-05-05T21:27:44.000",
    "date_modified": "2022-05-05T21:27:44.000",
    "request_status": "Pending",
    "responsible_agency": "Department of Public Works",
    "final_address": "821 Commerce St",
    "address_councildis": "B",
    "status": "Pending",
    "rowid": "880474",
    "final_x": "3681948.71439",
    "final_y": "527364.505087",
    "longitude": "-90.06679848104791",
    "latitude": "29.944055841685184",
    "geocoded_column": {
      "latitude": "29.944055841685184",
      "longitude": "-90.06679848104791"
    }
  },
  {
    "service_request": "2022-880473",
    "request_type": "Traffic Signals/Signs/Striping/Streetlights",
    "request_reason": "Street Light Outage/Malfunction",
    "date_created": "2022-05-05T21:26:19.000",
    "date_modified": "2022-05-05T21:26:20.000",
    "request_status": "Pending",
    "responsible_agency": "Department of Public Works",
    "final_address": "2817 Canal St",
    "address_councildis": "B",
    "status": "Pending",
    "contractor": "Royal Engineering",
    "rowid": "880473",
    "final_x": "3674888.43861",
    "final_y": "535682.882055",
    "longitude": "-90.08880450830347",
    "latitude": "29.9671412969611",
    "geocoded_column": {
      "latitude": "29.9671412969611",
      "longitude": "-90.08880450830347"
    }
  },
  {
    "service_request": "2022-880472",
    "request_type": "Traffic Signals/Signs/Striping/Streetlights",
    "request_reason": "Street Light Outage/Malfunction",
    "date_created": "2022-05-05T21:25:27.000",
    "date_modified": "2022-05-05T21:25:28.000",
    "request_status": "Pending",
    "responsible_agency": "Department of Public Works",
    "final_address": "333 St Charles Ave",
    "address_councildis": "B",
    "status": "Pending",
    "contractor": "Royal Engineering",
    "rowid": "880472",
    "final_x": "3680784.35733",
    "final_y": "529767.341121",
    "longitude": "-90.07039106084208",
    "latitude": "29.950698171749757",
    "geocoded_column": {
      "latitude": "29.950698171749757",
      "longitude": "-90.07039106084208"
    }
  },
  {
    "service_request": "2022-880471",
    "request_type": "Traffic Signals/Signs/Striping/Streetlights",
    "request_reason": "Street Light Outage/Malfunction",
    "date_created": "2022-05-05T21:22:55.000",
    "date_modified": "2022-05-05T21:22:56.000",
    "request_status": "Pending",
    "responsible_agency": "Department of Public Works",
    "final_address": "321 St Charles Ave",
    "address_councildis": "B",
    "status": "Pending",
    "contractor": "Royal Engineering",
    "rowid": "880471",
    "final_x": "3680808.65928",
    "final_y": "529865.841537",
    "longitude": "-90.07031089955748",
    "latitude": "29.950968278191255",
    "geocoded_column": {
      "latitude": "29.950968278191255",
      "longitude": "-90.07031089955748"
    }
  },
  {
    "service_request": "2022-880470",
    "request_type": "Traffic Signals/Signs/Striping/Streetlights",
    "request_reason": "Street Light Outage/Malfunction",
    "date_created": "2022-05-05T21:20:03.000",
    "date_modified": "2022-05-05T21:20:04.000",
    "request_status": "Pending",
    "responsible_agency": "Department of Public Works",
    "final_address": "3494 Esplanade Ave",
    "address_councildis": "A",
    "status": "Pending",
    "contractor": "Royal Engineering",
    "rowid": "880470",
    "final_x": "3674769.03925",
    "final_y": "541478.8203",
    "longitude": "-90.08898280070932",
    "latitude": "29.983081714956555",
    "geocoded_column": {
      "latitude": "29.983081714956555",
      "longitude": "-90.08898280070932"
    }
  },
  {
    "service_request": "2022-880469",
    "request_type": "Roads/Drainage",
    "request_reason": "Street Subsidence (Sinking)",
    "date_created": "2022-05-05T21:19:17.000",
    "date_modified": "2022-05-05T21:19:17.000",
    "request_status": "Pending",
    "responsible_agency": "Department of Public Works",
    "final_address": "318 St Joseph St",
    "address_councildis": "B",
    "status": "Pending",
    "rowid": "880469",
    "final_x": "3681952.3462",
    "final_y": "526950.811454",
    "longitude": "-90.06680145164131",
    "latitude": "29.942918212366102",
    "geocoded_column": {
      "latitude": "29.942918212366102",
      "longitude": "-90.06680145164131"
    }
  },
  {
    "service_request": "2022-880468",
    "request_type": "Trash/Recycling",
    "request_reason": "Missed Trash Pick-Up",
    "date_created": "2022-05-05T21:18:09.000",
    "date_modified": "2022-05-05T21:18:10.000",
    "request_status": "Pending",
    "responsible_agency": "Department of Sanitation",
    "final_address": "1015 Harmony St",
    "address_councildis": "B",
    "status": "Assigned to Contractor",
    "contractor": "Richards Disposal",
    "rowid": "880468",
    "final_x": "3675945.92411",
    "final_y": "519817.546488",
    "longitude": "-90.0860103596582",
    "latitude": "29.92348524635496",
    "geocoded_column": {
      "latitude": "29.92348524635496",
      "longitude": "-90.0860103596582"
    }
  },
  {
    "service_request": "2022-880467",
    "request_type": "Trash/Recycling",
    "request_reason": "Missed Trash Pick-Up",
    "date_created": "2022-05-05T21:17:35.000",
    "date_modified": "2022-05-05T21:17:36.000",
    "request_status": "Pending",
    "responsible_agency": "Department of Sanitation",
    "final_address": "1015 Harmony St, New Orleans, Louisiana, 70115",
    "address_councildis": "B",
    "status": "Assigned to Contractor",
    "contractor": "Richards Disposal",
    "rowid": "880467",
    "final_x": "3675945.92411",
    "final_y": "519817.546488",
    "longitude": "-90.0860103596582",
    "latitude": "29.92348524635496",
    "geocoded_column": {
      "latitude": "29.92348524635496",
      "longitude": "-90.0860103596582"
    }
  },
  {
    "service_request": "2022-880466",
    "request_type": "Traffic Signals/Signs/Striping/Streetlights",
    "request_reason": "Street Light Outage/Malfunction",
    "date_created": "2022-05-05T21:17:08.000",
    "date_modified": "2022-05-05T21:17:08.000",
    "request_status": "Pending",
    "responsible_agency": "Department of Public Works",
    "final_address": "3637 Desaix Blvd",
    "address_councildis": "D",
    "status": "Pending",
    "contractor": "Royal Engineering",
    "rowid": "880466",
    "final_x": "3675467.35681",
    "final_y": "543794.89915",
    "longitude": "-90.08669756441621",
    "latitude": "29.989429259283128",
    "geocoded_column": {
      "latitude": "29.989429259283128",
      "longitude": "-90.08669756441621"
    }
  },
  {
    "service_request": "2022-880465",
    "request_type": "Trash/Recycling",
    "request_reason": "MIssed Recycling Pick-Up",
    "date_created": "2022-05-05T21:16:55.000",
    "date_modified": "2022-05-05T21:16:56.000",
    "request_status": "Pending",
    "responsible_agency": "Department of Sanitation",
    "final_address": "219 N Tonti St",
    "address_councildis": "B",
    "status": "Assigned to Contractor",
    "contractor": "Richards Disposal",
    "rowid": "880465",
    "final_x": "3676708.91105",
    "final_y": "534839.579974",
    "longitude": "-90.08308449486326",
    "latitude": "29.96476800860436",
    "geocoded_column": {
      "latitude": "29.96476800860436",
      "longitude": "-90.08308449486326"
    }
  },
  {
    "service_request": "2022-880464",
    "request_type": "Traffic Signals/Signs/Striping/Streetlights",
    "request_reason": "Street Light Outage/Malfunction",
    "date_created": "2022-05-05T21:15:01.000",
    "date_modified": "2022-05-05T21:15:02.000",
    "request_status": "Pending",
    "responsible_agency": "Department of Public Works",
    "final_address": "3637 Desaix Blvd",
    "address_councildis": "D",
    "status": "Pending",
    "contractor": "Royal Engineering",
    "rowid": "880464",
    "final_x": "3675467.35681",
    "final_y": "543794.89915",
    "longitude": "-90.08669756441621",
    "latitude": "29.989429259283128",
    "geocoded_column": {
      "latitude": "29.989429259283128",
      "longitude": "-90.08669756441621"
    }
  },
  {
    "service_request": "2022-880463",
    "request_type": "Traffic Signals/Signs/Striping/Streetlights",
    "request_reason": "Street Light Outage/Malfunction",
    "date_created": "2022-05-05T21:14:29.000",
    "date_modified": "2022-05-05T21:14:30.000",
    "request_status": "Pending",
    "responsible_agency": "Department of Public Works",
    "final_address": "600 Camp St",
    "address_councildis": "B",
    "status": "Pending",
    "contractor": "Royal Engineering",
    "rowid": "880463",
    "final_x": "3681024.58856",
    "final_y": "528713.486592",
    "longitude": "-90.06966923094112",
    "latitude": "29.947793143402315",
    "geocoded_column": {
      "latitude": "29.947793143402315",
      "longitude": "-90.06966923094112"
    }
  },
  {
    "service_request": "2022-880462",
    "request_type": "Traffic Signals/Signs/Striping/Streetlights",
    "request_reason": "Street Light Outage/Malfunction",
    "date_created": "2022-05-05T21:09:36.000",
    "date_modified": "2022-05-05T21:09:37.000",
    "request_status": "Pending",
    "responsible_agency": "Department of Public Works",
    "final_address": "600 Camp St",
    "address_councildis": "B",
    "status": "Pending",
    "contractor": "Royal Engineering",
    "rowid": "880462",
    "final_x": "3681024.58856",
    "final_y": "528713.486592",
    "longitude": "-90.06966923094112",
    "latitude": "29.947793143402315",
    "geocoded_column": {
      "latitude": "29.947793143402315",
      "longitude": "-90.06966923094112"
    }
  },
  {
    "service_request": "2022-880461",
    "request_type": "Trash/Recycling",
    "request_reason": "MIssed Recycling Pick-Up",
    "date_created": "2022-05-05T21:03:12.000",
    "date_modified": "2022-05-05T21:03:13.000",
    "request_status": "Pending",
    "responsible_agency": "Department of Sanitation",
    "final_address": "5826 Clara St",
    "address_councildis": "A",
    "status": "Assigned to Contractor",
    "contractor": "Richards Disposal",
    "rowid": "880461",
    "final_x": "3666914.57978",
    "final_y": "525225.735933",
    "longitude": "-90.11433743670578",
    "latitude": "29.938623284611396",
    "geocoded_column": {
      "latitude": "29.938623284611396",
      "longitude": "-90.11433743670578"
    }
  },
  {
    "service_request": "2022-880460",
    "request_type": "Trash/Recycling",
    "request_reason": "Missed Trash Pick-Up",
    "date_created": "2022-05-05T21:01:44.000",
    "date_modified": "2022-05-05T21:01:45.000",
    "request_status": "Pending",
    "responsible_agency": "Department of Sanitation",
    "final_address": "4321 Trieste St",
    "address_councildis": "E",
    "status": "Assigned to Contractor",
    "contractor": "Metro Disposal",
    "rowid": "880460",
    "final_x": "3760279.74582",
    "final_y": "573484.616682",
    "longitude": "-89.81756595328974",
    "latitude": "30.068253087564514",
    "geocoded_column": {
      "latitude": "30.068253087564514",
      "longitude": "-89.81756595328974"
    }
  },
  {
    "service_request": "2022-880458",
    "request_type": "Trash/Recycling",
    "request_reason": "Request a Large Item Pick Up",
    "date_created": "2022-05-05T20:33:29.000",
    "date_modified": "2022-05-05T20:33:30.000",
    "request_status": "Pending",
    "responsible_agency": "Department of Sanitation",
    "final_address": "8801 Olive St",
    "address_councildis": "A",
    "status": "Assigned to Contractor",
    "contractor": "Richards Disposal",
    "rowid": "880458",
    "final_x": "3665413.34637",
    "final_y": "535892.072519",
    "longitude": "-90.11872004970425",
    "latitude": "29.96799607172528",
    "geocoded_column": {
      "latitude": "29.96799607172528",
      "longitude": "-90.11872004970425"
    }
  },
  {
    "service_request": "2022-880456",
    "request_type": "Traffic Signals/Signs/Striping/Streetlights",
    "request_reason": "Street Light Outage/Malfunction",
    "date_created": "2022-05-05T20:18:04.000",
    "date_modified": "2022-05-05T20:18:05.000",
    "request_status": "Pending",
    "responsible_agency": "Department of Public Works",
    "final_address": "1432 Chartres St",
    "address_councildis": "C",
    "status": "Pending",
    "contractor": "Royal Engineering",
    "rowid": "880456",
    "final_x": "3684565.83516",
    "final_y": "534395.091845",
    "longitude": "-90.0582885121374",
    "latitude": "29.96330775661264",
    "geocoded_column": {
      "latitude": "29.96330775661264",
      "longitude": "-90.0582885121374"
    }
  },
  {
    "service_request": "2022-880455",
    "request_type": "Traffic Signals/Signs/Striping/Streetlights",
    "request_reason": "Street Light Outage/Malfunction",
    "date_created": "2022-05-05T20:16:40.000",
    "date_modified": "2022-05-05T20:16:41.000",
    "request_status": "Pending",
    "responsible_agency": "Department of Public Works",
    "final_address": "1432 Chartres St",
    "address_councildis": "C",
    "status": "Pending",
    "contractor": "Royal Engineering",
    "rowid": "880455",
    "final_x": "3684565.83516",
    "final_y": "534395.091845",
    "longitude": "-90.0582885121374",
    "latitude": "29.96330775661264",
    "geocoded_column": {
      "latitude": "29.96330775661264",
      "longitude": "-90.0582885121374"
    }
  },
  {
    "service_request": "2022-880454",
    "request_type": "Trash/Recycling",
    "request_reason": "Missed Trash Pick-Up",
    "date_created": "2022-05-05T19:56:22.000",
    "date_modified": "2022-05-05T19:56:22.000",
    "request_status": "Pending",
    "responsible_agency": "Department of Sanitation",
    "final_address": "7719 Pearl St",
    "address_councildis": "A",
    "status": "Assigned to Contractor",
    "contractor": "Richards Disposal",
    "rowid": "880454",
    "final_x": "3661322.75584",
    "final_y": "525685.491069",
    "longitude": "-90.1319762934953",
    "latitude": "29.940049854606897",
    "geocoded_column": {
      "latitude": "29.940049854606897",
      "longitude": "-90.1319762934953"
    }
  },
  {
    "service_request": "2022-880453",
    "request_type": "Trash/Recycling",
    "request_reason": "Repair Trash Cart",
    "date_created": "2022-05-05T19:47:28.000",
    "date_modified": "2022-05-05T19:47:29.000",
    "request_status": "Pending",
    "responsible_agency": "Department of Sanitation",
    "final_address": "3801 Virgil Blvd",
    "address_councildis": "D",
    "status": "Assigned to Contractor",
    "contractor": "Metro Disposal",
    "rowid": "880453",
    "final_x": "3680733.27963",
    "final_y": "546456.131857",
    "longitude": "-90.06997134597312",
    "latitude": "29.99658812639776",
    "geocoded_column": {
      "latitude": "29.99658812639776",
      "longitude": "-90.06997134597312"
    }
  },
  {
    "service_request": "2022-880452",
    "request_type": "Trash/Recycling",
    "request_reason": "Missed Trash Pick-Up",
    "date_created": "2022-05-05T19:37:15.000",
    "date_modified": "2022-05-05T19:37:15.000",
    "request_status": "Pending",
    "responsible_agency": "Department of Sanitation",
    "final_address": "2511 St Peter St",
    "address_councildis": "D",
    "status": "Assigned to Contractor",
    "contractor": "Richards Disposal",
    "rowid": "880452",
    "final_x": "3677392.8964",
    "final_y": "536351.997511",
    "longitude": "-90.08087230824275",
    "latitude": "29.968906103815026",
    "geocoded_column": {
      "latitude": "29.968906103815026",
      "longitude": "-90.08087230824275"
    }
  },
  {
    "service_request": "2022-880451",
    "request_type": "Trash/Recycling",
    "request_reason": "Order Recycling Cart",
    "date_created": "2022-05-05T19:36:42.000",
    "date_modified": "2022-05-05T19:36:42.000",
    "request_status": "Pending",
    "responsible_agency": "Department of Sanitation",
    "final_address": "1131 Cadiz St",
    "address_councildis": "B",
    "status": "Pending",
    "rowid": "880451",
    "final_x": "3670248.05134",
    "final_y": "519686.53612",
    "longitude": "-90.10400090595793",
    "latitude": "29.923294328821004",
    "geocoded_column": {
      "latitude": "29.923294328821004",
      "longitude": "-90.10400090595793"
    }
  },
  {
    "service_request": "2022-880450",
    "request_type": "Trash/Recycling",
    "request_reason": "Missed Trash Pick-Up",
    "date_created": "2022-05-05T19:30:39.000",
    "date_modified": "2022-05-05T19:30:40.000",
    "request_status": "Pending",
    "responsible_agency": "Department of Sanitation",
    "final_address": "946 Felicity St, New Orleans, Louisiana, 70130",
    "address_councildis": "B",
    "status": "Assigned to Contractor",
    "contractor": "Richards Disposal",
    "rowid": "880450",
    "final_x": "3680230.47394",
    "final_y": "522746.532474",
    "longitude": "-90.07238389140696",
    "latitude": "29.931410057792725",
    "geocoded_column": {
      "latitude": "29.931410057792725",
      "longitude": "-90.07238389140696"
    }
  },
  {
    "service_request": "2022-880449",
    "request_type": "Abandoned Vehicles",
    "request_reason": "Abandoned/Junk Vehicles",
    "date_created": "2022-05-05T19:10:12.000",
    "date_modified": "2022-05-05T19:10:13.000",
    "request_status": "Pending",
    "responsible_agency": "Department of Public Works",
    "final_address": "1500 N Prieur St",
    "address_councildis": "D",
    "status": "Pending",
    "rowid": "880449",
    "final_x": "3680924.59451",
    "final_y": "537845.622153",
    "longitude": "-90.06966696441467",
    "latitude": "29.97290643861309",
    "geocoded_column": {
      "latitude": "29.97290643861309",
      "longitude": "-90.06966696441467"
    }
  },
  {
    "service_request": "2022-880448",
    "request_type": "Traffic Signals/Signs/Striping/Streetlights",
    "request_reason": "Traffic Sign Missing/Damaged",
    "date_created": "2022-05-05T18:59:27.000",
    "date_modified": "2022-05-05T18:59:27.000",
    "request_status": "Pending",
    "responsible_agency": "Department of Public Works",
    "final_address": "S MIRO ST & CALHOUN ST",
    "address_councildis": "A",
    "status": "Pending",
    "rowid": "880448",
    "final_x": "3667144.4",
    "final_y": "528172.58",
    "longitude": "-90.1135128254576",
    "latitude": "29.946719430851918",
    "geocoded_column": {
      "latitude": "29.946719430851918",
      "longitude": "-90.1135128254576"
    }
  },
  {
    "service_request": "2022-880446",
    "request_type": "Trash/Recycling",
    "request_reason": "Start Trash Service",
    "date_created": "2022-05-05T18:45:56.000",
    "date_modified": "2022-05-05T18:45:57.000",
    "request_status": "Pending",
    "responsible_agency": "Department of Sanitation",
    "final_address": "2763 Mendez St",
    "address_councildis": "D",
    "status": "Assigned to Contractor",
    "contractor": "Metro Disposal",
    "rowid": "880446",
    "final_x": "3687830.4911",
    "final_y": "553816.086871",
    "longitude": "-90.04729079168989",
    "latitude": "30.016608243368957",
    "geocoded_column": {
      "latitude": "30.016608243368957",
      "longitude": "-90.04729079168989"
    }
  },
  {
    "service_request": "2022-880445",
    "request_type": "Trash/Recycling",
    "request_reason": "Request a Large Item Pick Up",
    "date_created": "2022-05-05T18:28:10.000",
    "date_modified": "2022-05-05T18:28:11.000",
    "request_status": "Pending",
    "responsible_agency": "Department of Sanitation",
    "final_address": "6373 Canal Blvd, New Orleans, Louisiana, 70124",
    "address_councildis": "A",
    "status": "Assigned to Contractor",
    "contractor": "Metro Disposal",
    "rowid": "880445",
    "final_x": "3668851.09748",
    "final_y": "549927.615316",
    "longitude": "-90.10738924209056",
    "latitude": "30.006488376610903",
    "geocoded_column": {
      "latitude": "30.006488376610903",
      "longitude": "-90.10738924209056"
    }
  },
  {
    "service_request": "2022-880443",
    "request_type": "Trash/Recycling",
    "request_reason": "Missed Trash Pick-Up",
    "date_created": "2022-05-05T18:20:42.000",
    "date_modified": "2022-05-05T18:20:43.000",
    "request_status": "Pending",
    "responsible_agency": "Department of Sanitation",
    "final_address": "736 Desire St",
    "address_councildis": "C",
    "status": "Assigned to Contractor",
    "contractor": "Metro Disposal",
    "rowid": "880443",
    "final_x": "3689860.26556",
    "final_y": "534505.552581",
    "longitude": "-90.04156542077133",
    "latitude": "29.96344842889962",
    "geocoded_column": {
      "latitude": "29.96344842889962",
      "longitude": "-90.04156542077133"
    }
  },
  {
    "service_request": "2022-880441",
    "request_type": "Trash/Recycling",
    "request_reason": "Replace Trash Cart",
    "date_created": "2022-05-05T18:05:06.000",
    "date_modified": "2022-05-05T18:05:07.000",
    "request_status": "Pending",
    "responsible_agency": "Department of Sanitation",
    "final_address": "2012 Ursulines Ave",
    "address_councildis": "D",
    "status": "Assigned to Contractor",
    "contractor": "Richards Disposal",
    "rowid": "880441",
    "final_x": "3679701.3604",
    "final_y": "536457.859591",
    "longitude": "-90.07357835607831",
    "latitude": "29.969127605114437",
    "geocoded_column": {
      "latitude": "29.969127605114437",
      "longitude": "-90.07357835607831"
    }
  },
  {
    "service_request": "2022-880440",
    "request_type": "Trash/Recycling",
    "request_reason": "MIssed Recycling Pick-Up",
    "date_created": "2022-05-05T17:58:17.000",
    "date_modified": "2022-05-05T17:58:18.000",
    "request_status": "Pending",
    "responsible_agency": "Department of Sanitation",
    "final_address": "2216 Wirth Pl",
    "address_councildis": "A",
    "status": "Assigned to Contractor",
    "contractor": "Richards Disposal",
    "rowid": "880440",
    "final_x": "3667026.72327",
    "final_y": "524340.441276",
    "longitude": "-90.11401312858841",
    "latitude": "29.93618572702672",
    "geocoded_column": {
      "latitude": "29.93618572702672",
      "longitude": "-90.11401312858841"
    }
  },
  {
    "service_request": "2022-880439",
    "request_type": "Abandoned Vehicles",
    "request_reason": "Abandoned/Junk Vehicles",
    "date_created": "2022-05-05T17:57:59.000",
    "date_modified": "2022-05-05T17:57:59.000",
    "request_status": "Pending",
    "responsible_agency": "Department of Public Works",
    "final_address": "10TH ST & FLEUR DE LIS DR",
    "address_councildis": "A",
    "status": "Pending",
    "rowid": "880439",
    "final_x": "3665118.0",
    "final_y": "547534.58",
    "longitude": "-90.11926319946268",
    "latitude": "30.00001764946959",
    "geocoded_column": {
      "latitude": "30.00001764946959",
      "longitude": "-90.11926319946268"
    }
  },
  {
    "service_request": "2022-880438",
    "request_type": "Abandoned Vehicles",
    "request_reason": "Vehicle Blocking Your Driveway",
    "date_created": "2022-05-05T17:52:45.000",
    "date_modified": "2022-05-05T17:52:45.000",
    "request_status": "Pending",
    "responsible_agency": "Department of Public Works",
    "final_address": "241 Tenth St.",
    "status": "Pending",
    "rowid": "880438",
    "longitude": "0.0",
    "latitude": "0.0",
    "geocoded_column": {
      "latitude": "0.0",
      "longitude": "0.0"
    }
  },
  {
    "service_request": "2022-880437",
    "request_type": "Trash/Recycling",
    "request_reason": "Replace Trash Cart",
    "date_created": "2022-05-05T17:51:15.000",
    "date_modified": "2022-05-05T17:51:16.000",
    "request_status": "Pending",
    "responsible_agency": "Department of Sanitation",
    "final_address": "1228 Louisa St",
    "address_councildis": "C",
    "status": "Assigned to Contractor",
    "contractor": "Metro Disposal",
    "rowid": "880437",
    "final_x": "3689676.33929",
    "final_y": "536477.632391",
    "longitude": "-90.0420760586837",
    "latitude": "29.968876658020545",
    "geocoded_column": {
      "latitude": "29.968876658020545",
      "longitude": "-90.0420760586837"
    }
  },
  {
    "service_request": "2022-880435",
    "request_type": "Trash/Recycling",
    "request_reason": "Missed Trash Pick-Up",
    "date_created": "2022-05-05T17:43:14.000",
    "date_modified": "2022-05-05T17:43:15.000",
    "request_status": "Pending",
    "responsible_agency": "Department of Sanitation",
    "final_address": "2053 Chippewa St",
    "address_councildis": "B",
    "status": "Assigned to Contractor",
    "contractor": "Richards Disposal",
    "rowid": "880435",
    "final_x": "3680131.4141",
    "final_y": "521261.502649",
    "longitude": "-90.07274818635328",
    "latitude": "29.927329710260626",
    "geocoded_column": {
      "latitude": "29.927329710260626",
      "longitude": "-90.07274818635328"
    }
  },
  {
    "service_request": "2022-880434",
    "request_type": "Trash/Recycling",
    "request_reason": "Missed Trash Pick-Up",
    "date_created": "2022-05-05T17:34:22.000",
    "date_modified": "2022-05-05T17:34:22.000",
    "request_status": "Pending",
    "responsible_agency": "Department of Sanitation",
    "final_address": "2129 Laurel St",
    "address_councildis": "B",
    "status": "Assigned to Contractor",
    "contractor": "Richards Disposal",
    "rowid": "880434",
    "final_x": "3679355.41237",
    "final_y": "521572.098425",
    "longitude": "-90.07518706318035",
    "latitude": "29.928207198526273",
    "geocoded_column": {
      "latitude": "29.928207198526273",
      "longitude": "-90.07518706318035"
    }
  },
  {
    "service_request": "2022-880432",
    "request_type": "Trash/Recycling",
    "request_reason": "Missed Trash Pick-Up",
    "date_created": "2022-05-05T17:22:10.000",
    "date_modified": "2022-05-05T17:22:11.000",
    "request_status": "Pending",
    "responsible_agency": "Department of Sanitation",
    "final_address": "1017 Felicity St",
    "address_councildis": "B",
    "status": "Assigned to Contractor",
    "contractor": "Richards Disposal",
    "rowid": "880432",
    "final_x": "3680214.40565",
    "final_y": "522859.497275",
    "longitude": "-90.07243069275788",
    "latitude": "29.9317211600216",
    "geocoded_column": {
      "latitude": "29.9317211600216",
      "longitude": "-90.07243069275788"
    }
  },
  {
    "service_request": "2022-880431",
    "request_type": "Trash/Recycling",
    "request_reason": "MIssed Recycling Pick-Up",
    "date_created": "2022-05-05T17:21:52.000",
    "date_modified": "2022-05-05T17:21:52.000",
    "request_status": "Pending",
    "responsible_agency": "Department of Sanitation",
    "final_address": "1017 Felicity St",
    "address_councildis": "B",
    "status": "Assigned to Contractor",
    "contractor": "Richards Disposal",
    "rowid": "880431",
    "final_x": "3680214.40565",
    "final_y": "522859.497275",
    "longitude": "-90.07243069275788",
    "latitude": "29.9317211600216",
    "geocoded_column": {
      "latitude": "29.9317211600216",
      "longitude": "-90.07243069275788"
    }
  },
  {
    "service_request": "2022-880430",
    "request_type": "Abandoned Vehicles",
    "request_reason": "Abandoned/Junk Vehicles",
    "date_created": "2022-05-05T17:20:46.000",
    "date_modified": "2022-05-05T17:21:40.000",
    "request_status": "Pending",
    "responsible_agency": "Department of Public Works",
    "final_address": "1100 BLK Thayer St",
    "address_councildis": "C",
    "status": "Pending",
    "rowid": "880430",
    "final_x": "3689408.55159",
    "final_y": "527315.924158",
    "longitude": "-90.04324750174247",
    "latitude": "29.943693426141877",
    "geocoded_column": {
      "latitude": "29.943693426141877",
      "longitude": "-90.04324750174247"
    }
  },
  {
    "service_request": "2022-880429",
    "request_type": "Trash/Recycling",
    "request_reason": "Missed Trash Pick-Up",
    "date_created": "2022-05-05T17:16:56.000",
    "date_modified": "2022-05-05T17:16:56.000",
    "request_status": "Pending",
    "responsible_agency": "Department of Sanitation",
    "final_address": "519 Philip St",
    "address_councildis": "B",
    "status": "Assigned to Contractor",
    "contractor": "Richards Disposal",
    "rowid": "880429",
    "final_x": "3679832.93039",
    "final_y": "520220.232952",
    "longitude": "-90.0737265581521",
    "latitude": "29.9244755846313",
    "geocoded_column": {
      "latitude": "29.9244755846313",
      "longitude": "-90.0737265581521"
    }
  },
  {
    "service_request": "2022-880428",
    "request_type": "Trash/Recycling",
    "request_reason": "Missed Trash Pick-Up",
    "date_created": "2022-05-05T17:15:51.000",
    "date_modified": "2022-05-05T17:15:52.000",
    "request_status": "Pending",
    "responsible_agency": "Department of Sanitation",
    "final_address": "3103 Carondelet St",
    "address_councildis": "B",
    "status": "Assigned to Contractor",
    "contractor": "Richards Disposal",
    "rowid": "880428",
    "final_x": "3674723.17153",
    "final_y": "522246.17049",
    "longitude": "-90.08978693943266",
    "latitude": "29.9301997211619",
    "geocoded_column": {
      "latitude": "29.9301997211619",
      "longitude": "-90.08978693943266"
    }
  },
  {
    "service_request": "2022-880427",
    "request_type": "Trash/Recycling",
    "request_reason": "Order Trash Cart",
    "date_created": "2022-05-05T17:15:50.000",
    "date_modified": "2022-05-05T18:22:00.000",
    "request_status": "Pending",
    "responsible_agency": "Department of Sanitation",
    "final_address": "9023 Quince St. ",
    "address_councildis": "A",
    "status": "Assigned to Contractor",
    "contractor": "Richards Disposal",
    "rowid": "880427",
    "final_x": "3667136.67873",
    "final_y": "539052.13185",
    "longitude": "-90.11317141657312",
    "latitude": "29.97663483754295",
    "geocoded_column": {
      "latitude": "29.97663483754295",
      "longitude": "-90.11317141657312"
    }
  },
  {
    "service_request": "2022-880426",
    "request_type": "Trash/Recycling",
    "request_reason": "Request a Large Item Pick Up",
    "date_created": "2022-05-05T17:05:58.000",
    "date_modified": "2022-05-05T17:05:59.000",
    "request_status": "Pending",
    "responsible_agency": "Department of Sanitation",
    "final_address": "1926 Jo Ann Pl",
    "address_councildis": "C",
    "status": "Assigned to Contractor",
    "contractor": "Richards Disposal",
    "rowid": "880426",
    "final_x": "3695022.87914",
    "final_y": "523548.185659",
    "longitude": "-90.02565741815575",
    "latitude": "29.933158439012168",
    "geocoded_column": {
      "latitude": "29.933158439012168",
      "longitude": "-90.02565741815575"
    }
  },
  {
    "service_request": "2022-880425",
    "request_type": "Trash/Recycling",
    "request_reason": "Replace Trash Cart",
    "date_created": "2022-05-05T17:03:01.000",
    "date_modified": "2022-05-05T17:03:02.000",
    "request_status": "Pending",
    "responsible_agency": "Department of Sanitation",
    "final_address": "11289 Fernley Dr",
    "address_councildis": "E",
    "status": "Assigned to Contractor",
    "contractor": "Metro Disposal",
    "rowid": "880425",
    "final_x": "3717885.06681",
    "final_y": "560257.271069",
    "longitude": "-89.95208694710344",
    "latitude": "30.033357179667618",
    "geocoded_column": {
      "latitude": "30.033357179667618",
      "longitude": "-89.95208694710344"
    }
  },
  {
    "service_request": "2022-880424",
    "request_type": "Tax and Revenue",
    "request_reason": "Sales Tax Question",
    "date_created": "2022-05-05T16:51:02.000",
    "date_modified": "2022-05-05T16:51:02.000",
    "request_status": "Pending",
    "responsible_agency": "Bureau of Revenue",
    "status": "Pending",
    "rowid": "880424",
    "longitude": "0.0",
    "latitude": "0.0",
    "geocoded_column": {
      "latitude": "0.0",
      "longitude": "0.0"
    }
  },
  {
    "service_request": "2022-880423",
    "request_type": "Abandoned Vehicles",
    "request_reason": "Abandoned/Junk Vehicles",
    "date_created": "2022-05-05T16:48:28.000",
    "date_modified": "2022-05-05T16:50:18.000",
    "request_status": "Pending",
    "responsible_agency": "Department of Public Works",
    "final_address": "1234 St Andrew St",
    "address_councildis": "B",
    "status": "Pending",
    "rowid": "880423",
    "final_x": "3679062.73551",
    "final_y": "523075.688635",
    "longitude": "-90.07605889771274",
    "latitude": "29.932350412121913",
    "geocoded_column": {
      "latitude": "29.932350412121913",
      "longitude": "-90.07605889771274"
    }
  },
  {
    "service_request": "2022-880422",
    "request_type": "Roads/Drainage",
    "request_reason": "Street Flooding / Drainage",
    "date_created": "2022-05-05T16:47:35.000",
    "date_modified": "2022-05-05T16:47:36.000",
    "request_status": "Pending",
    "responsible_agency": "Department of Public Works",
    "final_address": "6010 Campus Blvd",
    "address_councildis": "D",
    "status": "Pending",
    "rowid": "880422",
    "final_x": "3688484.89103",
    "final_y": "555400.083033",
    "longitude": "-90.04516690813077",
    "latitude": "30.020943433783746",
    "geocoded_column": {
      "latitude": "30.020943433783746",
      "longitude": "-90.04516690813077"
    }
  },
  {
    "service_request": "2022-880421",
    "request_type": "Parks & Parkways",
    "request_reason": "Request Tree Service (Right of Way/Public Property)",
    "date_created": "2022-05-05T16:47:17.000",
    "date_modified": "2022-05-05T16:47:18.000",
    "request_status": "Pending",
    "responsible_agency": "Department of Parks & Parkway",
    "final_address": "PHILIP ST & CONSTANCE ST",
    "address_councildis": "B",
    "status": "Pending",
    "rowid": "880421",
    "final_x": "3678772.5",
    "final_y": "521548.08",
    "longitude": "-90.0770280189126",
    "latitude": "29.92815874196705",
    "geocoded_column": {
      "latitude": "29.92815874196705",
      "longitude": "-90.0770280189126"
    }
  },
  {
    "service_request": "2022-880419",
    "request_type": "Taxi Issues",
    "request_reason": "Taxi Lost & Found Item",
    "date_created": "2022-05-05T16:44:45.000",
    "date_modified": "2022-05-05T16:44:46.000",
    "request_status": "Pending",
    "responsible_agency": "Ground Transportation Bureau",
    "status": "Pending",
    "rowid": "880419",
    "longitude": "0.0",
    "latitude": "0.0",
    "geocoded_column": {
      "latitude": "0.0",
      "longitude": "0.0"
    }
  },
  {
    "service_request": "2022-880418",
    "request_type": "Trash/Recycling",
    "request_reason": "Missed Trash Pick-Up",
    "date_created": "2022-05-05T16:43:27.000",
    "date_modified": "2022-05-05T16:43:27.000",
    "request_status": "Pending",
    "responsible_agency": "Department of Sanitation",
    "final_address": "1600 BLK Chippewa St",
    "address_councildis": "B",
    "status": "Assigned to Contractor",
    "contractor": "Richards Disposal",
    "rowid": "880418",
    "final_x": "3681072.78775",
    "final_y": "522677.18278",
    "longitude": "-90.06972722527576",
    "latitude": "29.93119385456631",
    "geocoded_column": {
      "latitude": "29.93119385456631",
      "longitude": "-90.06972722527576"
    }
  },
  {
    "service_request": "2022-880417",
    "request_type": "Trash/Recycling",
    "request_reason": "Repair Trash Cart",
    "date_created": "2022-05-05T16:37:12.000",
    "date_modified": "2022-05-05T16:37:12.000",
    "request_status": "Pending",
    "responsible_agency": "Department of Sanitation",
    "final_address": "416 Vallette St",
    "address_councildis": "C",
    "status": "Assigned to Contractor",
    "contractor": "Richards Disposal",
    "rowid": "880417",
    "final_x": "3687581.24783",
    "final_y": "530208.482753",
    "longitude": "-90.04891440120187",
    "latitude": "29.951703418516086",
    "geocoded_column": {
      "latitude": "29.951703418516086",
      "longitude": "-90.04891440120187"
    }
  },
  {
    "service_request": "2022-880416",
    "request_type": "Trash/Recycling",
    "request_reason": "Order Trash Cart",
    "date_created": "2022-05-05T16:32:14.000",
    "date_modified": "2022-05-05T16:32:15.000",
    "request_status": "Pending",
    "responsible_agency": "Department of Sanitation",
    "final_address": "223 David St",
    "address_councildis": "A",
    "status": "Assigned to Contractor",
    "contractor": "Richards Disposal",
    "rowid": "880416",
    "final_x": "3671244.75111",
    "final_y": "539036.76001",
    "longitude": "-90.1001973464659",
    "latitude": "29.976471646083244",
    "geocoded_column": {
      "latitude": "29.976471646083244",
      "longitude": "-90.1001973464659"
    }
  },
  {
    "service_request": "2022-880414",
    "request_type": "Trash/Recycling",
    "request_reason": "Missed Trash Pick-Up",
    "date_created": "2022-05-05T16:29:04.000",
    "date_modified": "2022-05-05T16:29:05.000",
    "request_status": "Pending",
    "responsible_agency": "Department of Sanitation",
    "final_address": "1821 Delachaise St",
    "address_councildis": "B",
    "status": "Assigned to Contractor",
    "contractor": "Richards Disposal",
    "rowid": "880414",
    "final_x": "3673543.1595",
    "final_y": "522281.719546",
    "longitude": "-90.09351084033159",
    "latitude": "29.930332630031966",
    "geocoded_column": {
      "latitude": "29.930332630031966",
      "longitude": "-90.09351084033159"
    }
  },
  {
    "service_request": "2022-880413",
    "request_type": "Trash/Recycling",
    "request_reason": "Replace Trash Cart",
    "date_created": "2022-05-05T16:28:00.000",
    "date_modified": "2022-05-05T16:28:00.000",
    "request_status": "Pending",
    "responsible_agency": "Department of Sanitation",
    "final_address": "325 N Salcedo St",
    "address_councildis": "B",
    "status": "Assigned to Contractor",
    "contractor": "Richards Disposal",
    "rowid": "880413",
    "final_x": "3674691.52667",
    "final_y": "536949.685256",
    "longitude": "-90.08938292753945",
    "latitude": "29.97063045604203",
    "geocoded_column": {
      "latitude": "29.97063045604203",
      "longitude": "-90.08938292753945"
    }
  },
  {
    "service_request": "2022-880412",
    "request_type": "Traffic Signals/Signs/Striping/Streetlights",
    "request_reason": "Street Light Outage/Malfunction",
    "date_created": "2022-05-05T16:27:06.000",
    "date_modified": "2022-05-05T16:27:07.000",
    "request_status": "Pending",
    "responsible_agency": "Department of Public Works",
    "final_address": "METROPOLITAN ST & CLOVER ST",
    "address_councildis": "D",
    "status": "Pending",
    "contractor": "Royal Engineering",
    "rowid": "880412",
    "final_x": "3691583.4",
    "final_y": "546887.88",
    "longitude": "-90.03568114403484",
    "latitude": "29.99744187598206",
    "geocoded_column": {
      "latitude": "29.99744187598206",
      "longitude": "-90.03568114403484"
    }
  },
  {
    "service_request": "2022-880411",
    "request_type": "Trash/Recycling",
    "request_reason": "Replace Trash Cart",
    "date_created": "2022-05-05T16:24:01.000",
    "date_modified": "2022-05-05T16:24:01.000",
    "request_status": "Pending",
    "responsible_agency": "Department of Sanitation",
    "final_address": "New Orleans,LA",
    "status": "Assigned to Contractor",
    "rowid": "880411",
    "longitude": "0.0",
    "latitude": "0.0",
    "geocoded_column": {
      "latitude": "0.0",
      "longitude": "0.0"
    }
  },
  {
    "service_request": "2022-880410",
    "request_type": "Property Maintenance",
    "request_reason": "Property Maintenance",
    "date_created": "2022-05-05T16:23:46.000",
    "date_modified": "2022-05-05T16:23:46.000",
    "request_status": "Pending",
    "responsible_agency": "Department of Code Enforcement",
    "final_address": "1822 Touro St",
    "address_councildis": "D",
    "status": "Pending",
    "rowid": "880410",
    "final_x": "3683976.52565",
    "final_y": "539022.442634",
    "longitude": "-90.0599870953413",
    "latitude": "29.97604938502045",
    "geocoded_column": {
      "latitude": "29.97604938502045",
      "longitude": "-90.0599870953413"
    }
  },
  {
    "service_request": "2022-880409",
    "request_type": "Trash/Recycling",
    "request_reason": "Request a Large Item Pick Up",
    "date_created": "2022-05-05T16:22:20.000",
    "date_modified": "2022-05-05T16:22:21.000",
    "request_status": "Pending",
    "responsible_agency": "Department of Sanitation",
    "final_address": "333 Wagner St",
    "address_councildis": "C",
    "status": "Assigned to Contractor",
    "contractor": "Richards Disposal",
    "rowid": "880409",
    "final_x": "3690561.51785",
    "final_y": "530398.05261",
    "longitude": "-90.03949741324641",
    "latitude": "29.95213247556927",
    "geocoded_column": {
      "latitude": "29.95213247556927",
      "longitude": "-90.03949741324641"
    }
  },
  {
    "service_request": "2022-880408",
    "request_type": "Trash/Recycling",
    "request_reason": "Replace Trash Cart",
    "date_created": "2022-05-05T16:20:20.000",
    "date_modified": "2022-05-05T16:20:21.000",
    "request_status": "Pending",
    "responsible_agency": "Department of Sanitation",
    "final_address": "1408 Constance St",
    "address_councildis": "B",
    "status": "Assigned to Contractor",
    "contractor": "Richards Disposal",
    "rowid": "880408",
    "final_x": "3680737.80437",
    "final_y": "524344.349564",
    "longitude": "-90.07072673059328",
    "latitude": "29.935788166055826",
    "geocoded_column": {
      "latitude": "29.935788166055826",
      "longitude": "-90.07072673059328"
    }
  },
  {
    "service_request": "2022-880407",
    "request_type": "Trash/Recycling",
    "request_reason": "Request a Large Item Pick Up",
    "date_created": "2022-05-05T16:18:48.000",
    "date_modified": "2022-05-05T16:18:49.000",
    "request_status": "Pending",
    "responsible_agency": "Department of Sanitation",
    "final_address": "732 Voisin St",
    "address_councildis": "A",
    "status": "Assigned to Contractor",
    "contractor": "Metro Disposal",
    "rowid": "880407",
    "final_x": "3668451.99054",
    "final_y": "543191.436685",
    "longitude": "-90.10887754065791",
    "latitude": "29.987977945023463",
    "geocoded_column": {
      "latitude": "29.987977945023463",
      "longitude": "-90.10887754065791"
    }
  },
  {
    "service_request": "2022-880405",
    "request_type": "Trash/Recycling",
    "request_reason": "Illegal Dumping",
    "date_created": "2022-05-05T16:15:34.000",
    "date_modified": "2022-05-05T16:15:35.000",
    "request_status": "Pending",
    "responsible_agency": "Department of Code Enforcement",
    "final_address": "1916 Leonidas St",
    "address_councildis": "A",
    "status": "Pending",
    "rowid": "880405",
    "final_x": "3662389.35187",
    "final_y": "531543.945155",
    "longitude": "-90.12841437483638",
    "latitude": "29.95612793280913",
    "geocoded_column": {
      "latitude": "29.95612793280913",
      "longitude": "-90.12841437483638"
    }
  },
  {
    "service_request": "2022-880404",
    "request_type": "Trash/Recycling",
    "request_reason": "Illegal Dumping",
    "date_created": "2022-05-05T16:15:11.000",
    "date_modified": "2022-05-05T16:20:10.000",
    "request_status": "Pending",
    "responsible_agency": "Department of Code Enforcement",
    "final_address": "Bamboo Rd & Palmetto St, New Orleans, Louisiana, 70124",
    "rowid": "880404",
    "final_x": "3663384.2",
    "final_y": "538847.68",
    "longitude": "-90.12502976847394",
    "latitude": "29.97618200215313",
    "geocoded_column": {
      "latitude": "29.97618200215313",
      "longitude": "-90.12502976847394"
    }
  },
  {
    "service_request": "2022-880403",
    "request_type": "Trash/Recycling",
    "request_reason": "Illegal Dumping",
    "date_created": "2022-05-05T16:14:20.000",
    "date_modified": "2022-05-05T16:14:21.000",
    "request_status": "Pending",
    "responsible_agency": "Department of Sanitation",
    "final_address": "PALMETTO ST & BAMBOO RD",
    "status": "Pending",
    "rowid": "880403",
    "final_x": "3663384.2",
    "final_y": "538847.68",
    "longitude": "-90.12502976847394",
    "latitude": "29.97618200215313",
    "geocoded_column": {
      "latitude": "29.97618200215313",
      "longitude": "-90.12502976847394"
    }
  },
  {
    "service_request": "2022-880401",
    "request_type": "Trash/Recycling",
    "request_reason": "Missed Trash Pick-Up",
    "date_created": "2022-05-05T16:12:49.000",
    "date_modified": "2022-05-05T16:12:50.000",
    "request_status": "Pending",
    "responsible_agency": "Department of Sanitation",
    "final_address": "620 Washington Ave",
    "address_councildis": "B",
    "status": "Assigned to Contractor",
    "contractor": "Richards Disposal",
    "rowid": "880401",
    "final_x": "3677895.51758",
    "final_y": "519475.925111",
    "longitude": "-90.07986801367525",
    "latitude": "29.922487399024053",
    "geocoded_column": {
      "latitude": "29.922487399024053",
      "longitude": "-90.07986801367525"
    }
  },
  {
    "service_request": "2022-880400",
    "request_type": "Roads/Drainage",
    "request_reason": "Pothole",
    "date_created": "2022-05-05T16:11:01.000",
    "date_modified": "2022-05-05T16:11:01.000",
    "request_status": "Pending",
    "responsible_agency": "Department of Public Works",
    "final_address": "2121 Elysian Fields Ave",
    "address_councildis": "D",
    "status": "Pending",
    "rowid": "880400",
    "final_x": "3684876.68386",
    "final_y": "540200.134795",
    "longitude": "-90.05710271176609",
    "latitude": "29.979260089367994",
    "geocoded_column": {
      "latitude": "29.979260089367994",
      "longitude": "-90.05710271176609"
    }
  },
  {
    "service_request": "2022-880399",
    "request_type": "Traffic Signals/Signs/Striping/Streetlights",
    "request_reason": "Additional signage",
    "date_created": "2022-05-05T16:09:15.000",
    "date_modified": "2022-05-05T16:09:15.000",
    "request_status": "Pending",
    "responsible_agency": "Department of Public Works",
    "final_address": "5630 Read Blvd",
    "address_councildis": "E",
    "status": "Pending",
    "rowid": "880399",
    "final_x": "3711377.47237",
    "final_y": "559405.925469",
    "longitude": "-89.97268337029034",
    "latitude": "30.03123040665658",
    "geocoded_column": {
      "latitude": "30.03123040665658",
      "longitude": "-89.97268337029034"
    }
  },
  {
    "service_request": "2022-880398",
    "request_type": "Roads/Drainage",
    "request_reason": "Pothole",
    "date_created": "2022-05-05T16:09:03.000",
    "date_modified": "2022-05-05T16:09:03.000",
    "request_status": "Pending",
    "responsible_agency": "Department of Public Works",
    "final_address": "2143 Abundance St",
    "address_councildis": "D",
    "status": "Pending",
    "rowid": "880398",
    "final_x": "3684070.71529",
    "final_y": "543679.87739",
    "longitude": "-90.05952609480293",
    "latitude": "29.98885281331266",
    "geocoded_column": {
      "latitude": "29.98885281331266",
      "longitude": "-90.05952609480293"
    }
  },
  {
    "service_request": "2022-880397",
    "request_type": "Parks & Parkways",
    "request_reason": "Tree Stump (removal, grind)",
    "date_created": "2022-05-05T16:07:40.000",
    "date_modified": "2022-05-05T16:07:41.000",
    "request_status": "Pending",
    "responsible_agency": "Department of Parks & Parkway",
    "final_address": "7522 Oak St",
    "address_councildis": "A",
    "status": "Pending",
    "rowid": "880397",
    "final_x": "3663358.40135",
    "final_y": "527063.733502",
    "longitude": "-90.12550355524166",
    "latitude": "29.94378073896147",
    "geocoded_column": {
      "latitude": "29.94378073896147",
      "longitude": "-90.12550355524166"
    }
  },
  {
    "service_request": "2022-880396",
    "request_type": "Trash/Recycling",
    "request_reason": "MIssed Recycling Pick-Up",
    "date_created": "2022-05-05T16:04:03.000",
    "date_modified": "2022-05-05T16:04:04.000",
    "request_status": "Pending",
    "responsible_agency": "Department of Sanitation",
    "final_address": "2719 S Robertson St, New Orleans, Louisiana, 70113",
    "address_councildis": "B",
    "status": "Assigned to Contractor",
    "contractor": "Richards Disposal",
    "rowid": "880396",
    "final_x": "3674035.50312",
    "final_y": "525661.724733",
    "longitude": "-90.09184097725526",
    "latitude": "29.939611887690873",
    "geocoded_column": {
      "latitude": "29.939611887690873",
      "longitude": "-90.09184097725526"
    }
  },
  {
    "service_request": "2022-880395",
    "request_type": "Trash/Recycling",
    "request_reason": "Request a Large Item Pick Up",
    "date_created": "2022-05-05T16:00:50.000",
    "date_modified": "2022-05-05T16:00:51.000",
    "request_status": "Pending",
    "responsible_agency": "Department of Sanitation",
    "final_address": "5610 Chatham Dr",
    "address_councildis": "D",
    "status": "Assigned to Contractor",
    "contractor": "Metro Disposal",
    "rowid": "880395",
    "final_x": "3679626.01602",
    "final_y": "553095.682711",
    "longitude": "-90.07323847240716",
    "latitude": "30.01487803728417",
    "geocoded_column": {
      "latitude": "30.01487803728417",
      "longitude": "-90.07323847240716"
    }
  },
  {
    "service_request": "2022-880394",
    "request_type": "Property Maintenance",
    "request_reason": "Property Maintenance",
    "date_created": "2022-05-05T15:56:41.000",
    "date_modified": "2022-05-05T15:56:41.000",
    "request_status": "Pending",
    "responsible_agency": "Department of Code Enforcement",
    "final_address": "709 St James St",
    "address_councildis": "B",
    "status": "Pending",
    "rowid": "880394",
    "final_x": "3681264.59381",
    "final_y": "522088.054458",
    "longitude": "-90.06914223758946",
    "latitude": "29.92956812833526",
    "geocoded_column": {
      "latitude": "29.92956812833526",
      "longitude": "-90.06914223758946"
    }
  },
  {
    "service_request": "2022-880393",
    "request_type": "Parks & Parkways",
    "request_reason": "Request Tree Service (Right of Way/Public Property)",
    "date_created": "2022-05-05T15:55:13.000",
    "date_modified": "2022-05-05T15:55:14.000",
    "request_status": "Pending",
    "responsible_agency": "Department of Parks & Parkway",
    "final_address": "1033 Marengo St",
    "address_councildis": "B",
    "status": "Pending",
    "rowid": "880393",
    "final_x": "3672145.66695",
    "final_y": "519544.320759",
    "longitude": "-90.0980156790983",
    "latitude": "29.922847165327873",
    "geocoded_column": {
      "latitude": "29.922847165327873",
      "longitude": "-90.0980156790983"
    }
  },
  {
    "service_request": "2022-880392",
    "request_type": "Property Maintenance",
    "request_reason": "Property Maintenance",
    "date_created": "2022-05-05T15:48:31.000",
    "date_modified": "2022-05-05T15:48:31.000",
    "request_status": "Pending",
    "responsible_agency": "Department of Code Enforcement",
    "final_address": "2025 Constance St",
    "address_councildis": "B",
    "status": "Pending",
    "rowid": "880392",
    "final_x": "3679553.30703",
    "final_y": "522199.513786",
    "longitude": "-90.07454059549033",
    "latitude": "29.92992640894876",
    "geocoded_column": {
      "latitude": "29.92992640894876",
      "longitude": "-90.07454059549033"
    }
  },
  {
    "service_request": "2022-880391",
    "request_type": "Trash/Recycling",
    "request_reason": "Request a Large Item Pick Up",
    "date_created": "2022-05-05T15:38:19.000",
    "date_modified": "2022-05-05T15:38:19.000",
    "request_status": "Pending",
    "responsible_agency": "Department of Sanitation",
    "final_address": "1406 Teche St, New Orleans, Louisiana, 70114",
    "address_councildis": "C",
    "status": "Assigned to Contractor",
    "contractor": "Richards Disposal",
    "rowid": "880391",
    "final_x": "3686727.50895",
    "final_y": "526317.644478",
    "longitude": "-90.05174750070852",
    "latitude": "29.941031222647073",
    "geocoded_column": {
      "latitude": "29.941031222647073",
      "longitude": "-90.05174750070852"
    }
  },
  {
    "service_request": "2022-880390",
    "request_type": "Property Maintenance",
    "request_reason": "Property Maintenance",
    "date_created": "2022-05-05T15:35:37.000",
    "date_modified": "2022-05-05T15:35:37.000",
    "request_status": "Pending",
    "responsible_agency": "Department of Code Enforcement",
    "final_address": "1683 St Thomas St",
    "address_councildis": "B",
    "status": "Pending",
    "rowid": "880390",
    "final_x": "3681334.58012",
    "final_y": "522081.53049",
    "longitude": "-90.06892153082875",
    "latitude": "29.92954806622691",
    "geocoded_column": {
      "latitude": "29.92954806622691",
      "longitude": "-90.06892153082875"
    }
  },
  {
    "service_request": "2022-880389",
    "request_type": "Roads/Drainage",
    "request_reason": "Accessibility Ramps, Curbs and Sidewalk Repair",
    "date_created": "2022-05-05T15:33:23.000",
    "date_modified": "2022-05-05T15:33:23.000",
    "request_status": "Pending",
    "responsible_agency": "Department of Public Works",
    "final_address": "7217 W Tamaron Blvd",
    "address_councildis": "E",
    "status": "Pending",
    "rowid": "880389",
    "final_x": "3717926.82034",
    "final_y": "569467.243622",
    "longitude": "-89.95160404370831",
    "latitude": "30.05867945176392",
    "geocoded_column": {
      "latitude": "30.05867945176392",
      "longitude": "-89.95160404370831"
    }
  },
  {
    "service_request": "2022-880388",
    "request_type": "Roads/Drainage",
    "request_reason": "Catch Basin - Clogged",
    "date_created": "2022-05-05T15:32:02.000",
    "date_modified": "2022-05-05T15:32:02.000",
    "request_status": "Pending",
    "responsible_agency": "Department of Public Works",
    "final_address": "4407 S Carrollton Ave",
    "address_councildis": "A",
    "status": "Pending",
    "rowid": "880388",
    "final_x": "3670039.81146",
    "final_y": "537296.607944",
    "longitude": "-90.10406188337352",
    "latitude": "29.97172241499035",
    "geocoded_column": {
      "latitude": "29.97172241499035",
      "longitude": "-90.10406188337352"
    }
  },
  {
    "service_request": "2022-880387",
    "request_type": "Trash/Recycling",
    "request_reason": "Request a Large Item Pick Up",
    "date_created": "2022-05-05T15:31:10.000",
    "date_modified": "2022-05-05T15:31:11.000",
    "request_status": "Pending",
    "responsible_agency": "Department of Sanitation",
    "final_address": "4827 Longfellow Dr",
    "address_councildis": "E",
    "status": "Assigned to Contractor",
    "contractor": "Metro Disposal",
    "rowid": "880387",
    "final_x": "3709634.35089",
    "final_y": "556371.908954",
    "longitude": "-89.97830502697984",
    "latitude": "30.022944853199533",
    "geocoded_column": {
      "latitude": "30.022944853199533",
      "longitude": "-89.97830502697984"
    }
  },
  {
    "service_request": "2022-880386",
    "request_type": "Abandoned Vehicles",
    "request_reason": "Abandoned/Junk Vehicles",
    "date_created": "2022-05-05T15:30:46.000",
    "date_modified": "2022-05-05T16:03:16.000",
    "request_status": "Pending",
    "responsible_agency": "Department of Public Works",
    "final_address": "New Orleans,LA",
    "address_councildis": "A",
    "rowid": "880386",
    "final_x": "3669516.40109",
    "final_y": "549972.79912",
    "longitude": "-90.10528584288981",
    "latitude": "30.006593027133825",
    "geocoded_column": {
      "latitude": "30.006593027133825",
      "longitude": "-90.10528584288981"
    }
  },
  {
    "service_request": "2022-880385",
    "request_type": "Property Maintenance",
    "request_reason": "Property Maintenance",
    "date_created": "2022-05-05T15:26:27.000",
    "date_modified": "2022-05-05T15:26:27.000",
    "request_status": "Pending",
    "responsible_agency": "Department of Code Enforcement",
    "final_address": "5632 Catina St",
    "address_councildis": "A",
    "status": "Pending",
    "rowid": "880385",
    "final_x": "3666577.64404",
    "final_y": "544982.263503",
    "longitude": "-90.11473784321895",
    "latitude": "29.992957049422746",
    "geocoded_column": {
      "latitude": "29.992957049422746",
      "longitude": "-90.11473784321895"
    }
  },
  {
    "service_request": "2022-880384",
    "request_type": "Abandoned Vehicles",
    "request_reason": "Abandoned/Junk Vehicles",
    "date_created": "2022-05-05T15:21:50.000",
    "date_modified": "2022-05-05T15:21:50.000",
    "request_status": "Pending",
    "responsible_agency": "Department of Public Works",
    "final_address": "2224 St Ann St",
    "address_councildis": "D",
    "status": "Pending",
    "rowid": "880384",
    "final_x": "3678383.94875",
    "final_y": "536030.214855",
    "longitude": "-90.07775363578345",
    "latitude": "29.967991487970508",
    "geocoded_column": {
      "latitude": "29.967991487970508",
      "longitude": "-90.07775363578345"
    }
  },
  {
    "service_request": "2022-880383",
    "request_type": "Abandoned Vehicles",
    "request_reason": "Vehicle Blocking Your Driveway",
    "date_created": "2022-05-05T15:20:43.000",
    "date_modified": "2022-05-05T15:20:43.000",
    "request_status": "Pending",
    "responsible_agency": "Department of Public Works",
    "final_address": "4901 Perrault Walk ",
    "address_councildis": "E",
    "status": "Pending",
    "rowid": "880383",
    "final_x": "3709782.54693",
    "final_y": "556601.03497",
    "longitude": "-89.97782820068133",
    "latitude": "30.02357004045313",
    "geocoded_column": {
      "latitude": "30.02357004045313",
      "longitude": "-89.97782820068133"
    }
  },
  {
    "service_request": "2022-880382",
    "request_type": "Trash/Recycling",
    "request_reason": "Request a Large Item Pick Up",
    "date_created": "2022-05-05T15:18:32.000",
    "date_modified": "2022-05-05T15:18:32.000",
    "request_status": "Pending",
    "responsible_agency": "Department of Sanitation",
    "final_address": "4100 N Prieur St",
    "address_councildis": "D",
    "status": "Assigned to Contractor",
    "contractor": "Metro Disposal",
    "rowid": "880382",
    "final_x": "3692892.57417",
    "final_y": "538178.729609",
    "longitude": "-90.03185800959191",
    "latitude": "29.9734540212622",
    "geocoded_column": {
      "latitude": "29.9734540212622",
      "longitude": "-90.03185800959191"
    }
  },
  {
    "service_request": "2022-880381",
    "request_type": "Trash/Recycling",
    "request_reason": "Dead Animal Pick Up",
    "date_created": "2022-05-05T15:15:58.000",
    "date_modified": "2022-05-05T15:19:40.000",
    "request_status": "Pending",
    "responsible_agency": "Department of Sanitation",
    "final_address": "MILNE BLVD & RINGOLD ST",
    "address_councildis": "A",
    "status": "Assigned to Contractor",
    "contractor": "Metro Disposal",
    "rowid": "880381",
    "final_x": "3667145.0",
    "final_y": "548464.08",
    "longitude": "-90.11282850684151",
    "latitude": "30.002514243250904",
    "geocoded_column": {
      "latitude": "30.002514243250904",
      "longitude": "-90.11282850684151"
    }
  },
  {
    "service_request": "2022-880380",
    "request_type": "Trash/Recycling",
    "request_reason": "Order Recycling Cart",
    "date_created": "2022-05-05T15:15:24.000",
    "date_modified": "2022-05-05T15:15:25.000",
    "request_status": "Pending",
    "responsible_agency": "Department of Sanitation",
    "final_address": "222 S Genois St",
    "address_councildis": "B",
    "status": "Pending",
    "rowid": "880380",
    "final_x": "3672284.29761",
    "final_y": "536629.656775",
    "longitude": "-90.09699616393596",
    "latitude": "29.96982212405138",
    "geocoded_column": {
      "latitude": "29.96982212405138",
      "longitude": "-90.09699616393596"
    }
  },
  {
    "service_request": "2022-880379",
    "request_type": "Roads/Drainage",
    "request_reason": "Accessibility Ramps, Curbs and Sidewalk Repair",
    "date_created": "2022-05-05T15:13:45.000",
    "date_modified": "2022-05-05T15:13:45.000",
    "request_status": "Pending",
    "responsible_agency": "Department of Public Works",
    "final_address": "866 Camp St",
    "address_councildis": "B",
    "status": "Pending",
    "rowid": "880379",
    "final_x": "3680702.08424",
    "final_y": "527400.688191",
    "longitude": "-90.0707331783662",
    "latitude": "29.944193163040953",
    "geocoded_column": {
      "latitude": "29.944193163040953",
      "longitude": "-90.0707331783662"
    }
  },
  {
    "service_request": "2022-880378",
    "request_type": "Roads/Drainage",
    "request_reason": "Accessibility Ramps, Curbs and Sidewalk Repair",
    "date_created": "2022-05-05T15:10:34.000",
    "date_modified": "2022-05-05T15:10:34.000",
    "request_status": "Pending",
    "responsible_agency": "Department of Public Works",
    "final_address": "1200 S Peters St",
    "address_councildis": "B",
    "status": "Pending",
    "rowid": "880378",
    "final_x": "3682462.45314",
    "final_y": "525423.982845",
    "longitude": "-90.06524427084943",
    "latitude": "29.93870443070136",
    "geocoded_column": {
      "latitude": "29.93870443070136",
      "longitude": "-90.06524427084943"
    }
  },
  {
    "service_request": "2022-880377",
    "request_type": "Traffic Signals/Signs/Striping/Streetlights",
    "request_reason": "Street Light Outage/Malfunction",
    "date_created": "2022-05-05T15:04:26.000",
    "date_modified": "2022-05-05T15:04:27.000",
    "request_status": "Pending",
    "responsible_agency": "Department of Public Works",
    "final_address": "101 St Charles Ave",
    "address_councildis": "B",
    "status": "Pending",
    "contractor": "Royal Engineering",
    "rowid": "880377",
    "final_x": "3681092.68923",
    "final_y": "530606.959234",
    "longitude": "-90.06938826371973",
    "latitude": "29.952997490186554",
    "geocoded_column": {
      "latitude": "29.952997490186554",
      "longitude": "-90.06938826371973"
    }
  },
  {
    "service_request": "2022-880376",
    "request_type": "Roads/Drainage",
    "request_reason": "Accessibility Ramps, Curbs and Sidewalk Repair",
    "date_created": "2022-05-05T15:00:35.000",
    "date_modified": "2022-05-05T15:00:35.000",
    "request_status": "Pending",
    "responsible_agency": "Department of Public Works",
    "final_address": "200 Iberville St",
    "address_councildis": "C",
    "status": "Pending",
    "rowid": "880376",
    "final_x": "3682759.31356",
    "final_y": "529979.292673",
    "longitude": "-90.06414775401787",
    "latitude": "29.951220964576827",
    "geocoded_column": {
      "latitude": "29.951220964576827",
      "longitude": "-90.06414775401787"
    }
  },
  {
    "service_request": "2022-880375",
    "request_type": "Trash/Recycling",
    "request_reason": "Dead Animal Pick Up",
    "date_created": "2022-05-05T14:59:18.000",
    "date_modified": "2022-05-05T14:59:19.000",
    "request_status": "Pending",
    "responsible_agency": "Department of Sanitation",
    "final_address": "CLOUET ST & BENEFIT ST",
    "address_councildis": "D",
    "status": "Assigned to Contractor",
    "contractor": "Metro Disposal",
    "rowid": "880375",
    "final_x": "3691086.8",
    "final_y": "544308.18",
    "longitude": "-90.0373420521431",
    "latitude": "29.990364090738485",
    "geocoded_column": {
      "latitude": "29.990364090738485",
      "longitude": "-90.0373420521431"
    }
  },
  {
    "service_request": "2022-880374",
    "request_type": "Trash/Recycling",
    "request_reason": "Order Trash Cart",
    "date_created": "2022-05-05T14:58:40.000",
    "date_modified": "2022-05-05T14:58:41.000",
    "request_status": "Pending",
    "responsible_agency": "Department of Sanitation",
    "final_address": "5902 N Roman St",
    "address_councildis": "E",
    "status": "Assigned to Contractor",
    "contractor": "Metro Disposal",
    "rowid": "880374",
    "final_x": "3699646.04836",
    "final_y": "536093.576327",
    "longitude": "-90.01060528627502",
    "latitude": "29.967507953519743",
    "geocoded_column": {
      "latitude": "29.967507953519743",
      "longitude": "-90.01060528627502"
    }
  },
  {
    "service_request": "2022-880373",
    "request_type": "Roads/Drainage",
    "request_reason": "Man hole cover issue",
    "date_created": "2022-05-05T14:56:14.000",
    "date_modified": "2022-05-05T14:56:14.000",
    "request_status": "Pending",
    "responsible_agency": "Department of Public Works",
    "final_address": "741 Iberville St",
    "address_councildis": "C",
    "status": "Pending",
    "rowid": "880373",
    "final_x": "3681200.00936",
    "final_y": "531230.56077",
    "longitude": "-90.06902766773511",
    "latitude": "29.954708927968174",
    "geocoded_column": {
      "latitude": "29.954708927968174",
      "longitude": "-90.06902766773511"
    }
  },
  {
    "service_request": "2022-880372",
    "request_type": "Property Maintenance",
    "request_reason": "Property Maintenance",
    "date_created": "2022-05-05T14:55:30.000",
    "date_modified": "2022-05-05T14:55:31.000",
    "request_status": "Pending",
    "responsible_agency": "Department of Code Enforcement",
    "final_address": "4765 America St",
    "address_councildis": "E",
    "status": "Pending",
    "rowid": "880372",
    "final_x": "3699791.54807",
    "final_y": "554680.965528",
    "longitude": "-90.00946760708683",
    "latitude": "30.01861178052029",
    "geocoded_column": {
      "latitude": "30.01861178052029",
      "longitude": "-90.00946760708683"
    }
  },
  {
    "service_request": "2022-880371",
    "request_type": "Property Maintenance",
    "request_reason": "Property Maintenance",
    "date_created": "2022-05-05T14:55:22.000",
    "date_modified": "2022-05-05T14:55:22.000",
    "request_status": "Pending",
    "responsible_agency": "Department of Code Enforcement",
    "final_address": "441 S Bernadotte St",
    "address_councildis": "A",
    "status": "Pending",
    "rowid": "880371",
    "final_x": "3667831.74157",
    "final_y": "538846.950281",
    "longitude": "-90.11098309893528",
    "latitude": "29.97605028738086",
    "geocoded_column": {
      "latitude": "29.97605028738086",
      "longitude": "-90.11098309893528"
    }
  },
  {
    "service_request": "2022-880370",
    "request_type": "Trash/Recycling",
    "request_reason": "Order Trash Cart",
    "date_created": "2022-05-05T14:51:22.000",
    "date_modified": "2022-05-05T14:51:23.000",
    "request_status": "Pending",
    "responsible_agency": "Department of Sanitation",
    "final_address": "1700 Clouet St",
    "address_councildis": "D",
    "status": "Assigned to Contractor",
    "contractor": "Metro Disposal",
    "rowid": "880370",
    "final_x": "3689540.68124",
    "final_y": "538288.084681",
    "longitude": "-90.04244006102113",
    "latitude": "29.97385896722779",
    "geocoded_column": {
      "latitude": "29.97385896722779",
      "longitude": "-90.04244006102113"
    }
  },
  {
    "service_request": "2022-880369",
    "request_type": "Traffic Signals/Signs/Striping/Streetlights",
    "request_reason": "Striping/Road Surface Markings",
    "date_created": "2022-05-05T14:50:18.000",
    "date_modified": "2022-05-05T14:50:18.000",
    "request_status": "Pending",
    "responsible_agency": "Department of Public Works",
    "final_address": "117 W Harrison Ave",
    "address_councildis": "A",
    "status": "Pending",
    "rowid": "880369",
    "final_x": "3666070.82535",
    "final_y": "549629.694676",
    "longitude": "-90.11618286070382",
    "latitude": "30.005750697132058",
    "geocoded_column": {
      "latitude": "30.005750697132058",
      "longitude": "-90.11618286070382"
    }
  },
  {
    "service_request": "2022-880368",
    "request_type": "Parks & Parkways",
    "request_reason": "Request Grass Cutting Service (City Owned Property)",
    "date_created": "2022-05-05T14:49:42.000",
    "date_modified": "2022-05-05T14:49:43.000",
    "request_status": "Pending",
    "responsible_agency": "Department of Parks & Parkway",
    "final_address": "DWYER RD & HAYDEL ST",
    "address_councildis": "E",
    "status": "Pending",
    "rowid": "880368",
    "final_x": "3698930.8",
    "final_y": "555479.28",
    "longitude": "-90.012158159434",
    "latitude": "30.02083415810468",
    "geocoded_column": {
      "latitude": "30.02083415810468",
      "longitude": "-90.012158159434"
    }
  },
  {
    "service_request": "2022-880367",
    "request_type": "Roads/Drainage",
    "request_reason": "Man hole cover issue",
    "date_created": "2022-05-05T14:48:11.000",
    "date_modified": "2022-05-05T14:48:11.000",
    "request_status": "Pending",
    "responsible_agency": "Department of Public Works",
    "final_address": "739 Canal St Unit B",
    "address_councildis": "C",
    "status": "Pending",
    "rowid": "880367",
    "final_x": "3681031.63727",
    "final_y": "530950.765442",
    "longitude": "-90.0695690657735",
    "latitude": "29.953944692693263",
    "geocoded_column": {
      "latitude": "29.953944692693263",
      "longitude": "-90.0695690657735"
    }
  },
  {
    "service_request": "2022-880366",
    "request_type": "Roads/Drainage",
    "request_reason": "Accessibility Ramps, Curbs and Sidewalk Repair",
    "date_created": "2022-05-05T14:44:38.000",
    "date_modified": "2022-05-05T14:44:38.000",
    "request_status": "Pending",
    "responsible_agency": "Department of Public Works",
    "final_address": "636 Carondelet St",
    "address_councildis": "B",
    "status": "Pending",
    "rowid": "880366",
    "final_x": "3680177.44623",
    "final_y": "528699.389632",
    "longitude": "-90.07234448395583",
    "latitude": "29.947780043092084",
    "geocoded_column": {
      "latitude": "29.947780043092084",
      "longitude": "-90.07234448395583"
    }
  },
  {
    "service_request": "2022-880364",
    "request_type": "Roads/Drainage",
    "request_reason": "Pothole",
    "date_created": "2022-05-05T14:40:05.000",
    "date_modified": "2022-05-05T15:03:24.000",
    "request_status": "Pending",
    "responsible_agency": "Department of Public Works",
    "final_address": "New Orleans,LA",
    "address_councildis": "D",
    "rowid": "880364",
    "final_x": "3681747.19612",
    "final_y": "555271.741209",
    "longitude": "-90.06646055158461",
    "latitude": "30.020797093273252",
    "geocoded_column": {
      "latitude": "30.020797093273252",
      "longitude": "-90.06646055158461"
    }
  },
  {
    "service_request": "2022-880363",
    "request_type": "Trash/Recycling",
    "request_reason": "Repair Trash Cart",
    "date_created": "2022-05-05T14:39:29.000",
    "date_modified": "2022-05-05T14:39:30.000",
    "request_status": "Pending",
    "responsible_agency": "Department of Sanitation",
    "final_address": "4800 Crowder Blvd",
    "address_councildis": "E",
    "status": "Assigned to Contractor",
    "contractor": "Metro Disposal",
    "rowid": "880363",
    "final_x": "3706300.04011",
    "final_y": "555931.274009",
    "longitude": "-89.98885694781305",
    "latitude": "30.021841275267573",
    "geocoded_column": {
      "latitude": "30.021841275267573",
      "longitude": "-89.98885694781305"
    }
  },
  {
    "service_request": "2022-880362",
    "request_type": "Trash/Recycling",
    "request_reason": "Order Trash Cart",
    "date_created": "2022-05-05T14:38:06.000",
    "date_modified": "2022-05-05T14:38:07.000",
    "request_status": "Pending",
    "responsible_agency": "Department of Sanitation",
    "final_address": "303 40Th St",
    "address_councildis": "A",
    "status": "Assigned to Contractor",
    "contractor": "Metro Disposal",
    "rowid": "880362",
    "final_x": "3665375.08672",
    "final_y": "553402.288023",
    "longitude": "-90.11825448169635",
    "latitude": "30.016144317026455",
    "geocoded_column": {
      "latitude": "30.016144317026455",
      "longitude": "-90.11825448169635"
    }
  },
  {
    "service_request": "2022-880361",
    "request_type": "Property Maintenance",
    "request_reason": "Property Maintenance",
    "date_created": "2022-05-05T14:37:21.000",
    "date_modified": "2022-05-05T14:37:21.000",
    "request_status": "Pending",
    "responsible_agency": "Department of Code Enforcement",
    "final_address": "1943 Caffin Ave",
    "address_councildis": "E",
    "status": "Pending",
    "rowid": "880361",
    "final_x": "3699014.79984",
    "final_y": "537060.66804",
    "longitude": "-90.01256356608793",
    "latitude": "29.97018712982227",
    "geocoded_column": {
      "latitude": "29.97018712982227",
      "longitude": "-90.01256356608793"
    }
  },
  {
    "service_request": "2022-880360",
    "request_type": "Trash/Recycling",
    "request_reason": "Order Trash Cart",
    "date_created": "2022-05-05T14:32:54.000",
    "date_modified": "2022-05-05T14:32:55.000",
    "request_status": "Pending",
    "responsible_agency": "Department of Sanitation",
    "final_address": "1217 Clouet St",
    "address_councildis": "C",
    "status": "Assigned to Contractor",
    "contractor": "Metro Disposal",
    "rowid": "880360",
    "final_x": "3689167.9462",
    "final_y": "536495.421895",
    "longitude": "-90.04368095905163",
    "latitude": "29.96894131623743",
    "geocoded_column": {
      "latitude": "29.96894131623743",
      "longitude": "-90.04368095905163"
    }
  },
  {
    "service_request": "2022-880359",
    "request_type": "Trash/Recycling",
    "request_reason": "Order Recycling Cart",
    "date_created": "2022-05-05T14:32:28.000",
    "date_modified": "2022-05-05T14:32:28.000",
    "request_status": "Pending",
    "responsible_agency": "Department of Sanitation",
    "final_address": "1217 Clouet St",
    "address_councildis": "C",
    "status": "Pending",
    "rowid": "880359",
    "final_x": "3689167.9462",
    "final_y": "536495.421895",
    "longitude": "-90.04368095905163",
    "latitude": "29.96894131623743",
    "geocoded_column": {
      "latitude": "29.96894131623743",
      "longitude": "-90.04368095905163"
    }
  },
  {
    "service_request": "2022-880358",
    "request_type": "Trash/Recycling",
    "request_reason": "Order Recycling Cart",
    "date_created": "2022-05-05T14:30:13.000",
    "date_modified": "2022-05-05T14:30:14.000",
    "request_status": "Pending",
    "responsible_agency": "Department of Sanitation",
    "final_address": "2911 Banks St",
    "address_councildis": "B",
    "status": "Pending",
    "rowid": "880358",
    "final_x": "3673838.71393",
    "final_y": "534817.901702",
    "longitude": "-90.09214914215015",
    "latitude": "29.964794200386756",
    "geocoded_column": {
      "latitude": "29.964794200386756",
      "longitude": "-90.09214914215015"
    }
  },
  {
    "service_request": "2022-880357",
    "request_type": "Abandoned Vehicles",
    "request_reason": "Abandoned/Junk Vehicles",
    "date_created": "2022-05-05T14:29:07.000",
    "date_modified": "2022-05-05T14:32:43.000",
    "case_close_date": "2022-05-05T09:32:43.000",
    "request_status": "Closed",
    "responsible_agency": "Department of Public Works",
    "final_address": "4500 BLK Reynes St",
    "address_councildis": "E",
    "status": "Pending",
    "rowid": "880357",
    "final_x": "3699252.3987",
    "final_y": "553857.74345",
    "longitude": "-90.01120112609219",
    "latitude": "30.016365349203003",
    "geocoded_column": {
      "latitude": "30.016365349203003",
      "longitude": "-90.01120112609219"
    }
  },
  {
    "service_request": "2022-880356",
    "request_type": "Trash/Recycling",
    "request_reason": "Missed Trash Pick-Up",
    "date_created": "2022-05-05T14:28:35.000",
    "date_modified": "2022-05-05T14:28:37.000",
    "request_status": "Pending",
    "responsible_agency": "Department of Sanitation",
    "final_address": "2920 General Ogden St",
    "address_councildis": "A",
    "status": "Assigned to Contractor",
    "contractor": "Richards Disposal",
    "rowid": "880356",
    "final_x": "3664069.58599",
    "final_y": "534950.048518",
    "longitude": "-90.12299513579451",
    "latitude": "29.96544491391205",
    "geocoded_column": {
      "latitude": "29.96544491391205",
      "longitude": "-90.12299513579451"
    }
  },
  {
    "service_request": "2022-880355",
    "request_type": "Roads/Drainage",
    "request_reason": "Pothole",
    "date_created": "2022-05-05T14:22:17.000",
    "date_modified": "2022-05-05T14:22:17.000",
    "request_status": "Pending",
    "responsible_agency": "Department of Public Works",
    "final_address": "618 Homedale St",
    "address_councildis": "A",
    "status": "Pending",
    "rowid": "880355",
    "final_x": "3668010.51802",
    "final_y": "544539.588879",
    "longitude": "-90.11022655523534",
    "latitude": "29.991697867400248",
    "geocoded_column": {
      "latitude": "29.991697867400248",
      "longitude": "-90.11022655523534"
    }
  },
  {
    "service_request": "2022-880354",
    "request_type": "Property Maintenance",
    "request_reason": "Property Maintenance",
    "date_created": "2022-05-05T14:19:24.000",
    "date_modified": "2022-05-05T14:19:24.000",
    "request_status": "Pending",
    "responsible_agency": "Department of Code Enforcement",
    "final_address": "7600 Gannon Rd",
    "address_councildis": "E",
    "status": "Pending",
    "rowid": "880354",
    "final_x": "3716469.08671",
    "final_y": "569659.73431",
    "longitude": "-89.95620443875303",
    "latitude": "30.059256974348585",
    "geocoded_column": {
      "latitude": "30.059256974348585",
      "longitude": "-89.95620443875303"
    }
  },
  {
    "service_request": "2022-880353",
    "request_type": "Trash/Recycling",
    "request_reason": "Illegal Dumping",
    "date_created": "2022-05-05T14:17:46.000",
    "date_modified": "2022-05-05T14:17:46.000",
    "request_status": "Pending",
    "responsible_agency": "Department of Sanitation",
    "final_address": "14765 Chef Menteur Hwy",
    "address_councildis": "E",
    "status": "Pending",
    "rowid": "880353",
    "final_x": "3732003.19309",
    "final_y": "562275.797215",
    "longitude": "-89.90739355959653",
    "latitude": "30.038431779908958",
    "geocoded_column": {
      "latitude": "30.038431779908958",
      "longitude": "-89.90739355959653"
    }
  },
  {
    "service_request": "2022-880352",
    "request_type": "Traffic Signals/Signs/Striping/Streetlights",
    "request_reason": "Street Light Outage/Malfunction",
    "date_created": "2022-05-05T14:17:16.000",
    "date_modified": "2022-05-05T14:17:17.000",
    "request_status": "Pending",
    "responsible_agency": "Department of Public Works",
    "final_address": "1941 Caffin Ave",
    "address_councildis": "E",
    "status": "Pending",
    "contractor": "Royal Engineering",
    "rowid": "880352",
    "final_x": "3698951.7976",
    "final_y": "537042.4274",
    "longitude": "-90.01276319644795",
    "latitude": "29.970138971282754",
    "geocoded_column": {
      "latitude": "29.970138971282754",
      "longitude": "-90.01276319644795"
    }
  },
  {
    "service_request": "2022-880351",
    "request_type": "Trash/Recycling",
    "request_reason": "Request a Large Item Pick Up",
    "date_created": "2022-05-05T14:15:30.000",
    "date_modified": "2022-05-05T14:15:31.000",
    "request_status": "Pending",
    "responsible_agency": "Department of Sanitation",
    "final_address": "1220 Joliet St",
    "address_councildis": "A",
    "status": "Assigned to Contractor",
    "contractor": "Richards Disposal",
    "rowid": "880351",
    "final_x": "3661002.43578",
    "final_y": "529493.895553",
    "longitude": "-90.13286162784152",
    "latitude": "29.95053098453264",
    "geocoded_column": {
      "latitude": "29.95053098453264",
      "longitude": "-90.13286162784152"
    }
  },
  {
    "service_request": "2022-880349",
    "request_type": "Parks & Parkways",
    "request_reason": "Request Tree Service (Right of Way/Public Property)",
    "date_created": "2022-05-05T14:14:30.000",
    "date_modified": "2022-05-05T14:14:30.000",
    "request_status": "Pending",
    "responsible_agency": "Department of Parks & Parkway",
    "final_address": "2007 Orleans Ave",
    "address_councildis": "D",
    "status": "Pending",
    "rowid": "880349",
    "final_x": "3678957.81205",
    "final_y": "535455.876294",
    "longitude": "-90.0759612583458",
    "latitude": "29.966394950095278",
    "geocoded_column": {
      "latitude": "29.966394950095278",
      "longitude": "-90.0759612583458"
    }
  },
  {
    "service_request": "2022-880348",
    "request_type": "Parks & Parkways",
    "request_reason": "Request Tree Service (Right of Way/Public Property)",
    "date_created": "2022-05-05T14:08:13.000",
    "date_modified": "2022-05-05T14:08:13.000",
    "request_status": "Pending",
    "responsible_agency": "Department of Parks & Parkway",
    "final_address": "1110 Aline St",
    "address_councildis": "B",
    "status": "Pending",
    "rowid": "880348",
    "final_x": "3674400.79316",
    "final_y": "519453.150775",
    "longitude": "-90.09090024164782",
    "latitude": "29.92252943367725",
    "geocoded_column": {
      "latitude": "29.92252943367725",
      "longitude": "-90.09090024164782"
    }
  },
  {
    "service_request": "2022-880347",
    "request_type": "Abandoned Vehicles",
    "request_reason": "Abandoned/Junk Vehicles",
    "date_created": "2022-05-05T14:06:52.000",
    "date_modified": "2022-05-05T14:06:52.000",
    "request_status": "Pending",
    "responsible_agency": "Department of Public Works",
    "final_address": "3415 Clara St",
    "address_councildis": "B",
    "status": "Pending",
    "rowid": "880347",
    "final_x": "3672300.31751",
    "final_y": "525465.701053",
    "longitude": "-90.09732588372718",
    "latitude": "29.939124467058836",
    "geocoded_column": {
      "latitude": "29.939124467058836",
      "longitude": "-90.09732588372718"
    }
  },
  {
    "service_request": "2022-880346",
    "request_type": "Abandoned Vehicles",
    "request_reason": "Abandoned/Junk Vehicles",
    "date_created": "2022-05-05T14:05:04.000",
    "date_modified": "2022-05-05T14:29:15.000",
    "request_status": "Pending",
    "responsible_agency": "Department of Public Works",
    "final_address": "New Orleans,LA",
    "address_councildis": "B",
    "rowid": "880346",
    "final_x": "3670678.14228",
    "final_y": "523545.080315",
    "longitude": "-90.10251243535163",
    "latitude": "29.933891395218257",
    "geocoded_column": {
      "latitude": "29.933891395218257",
      "longitude": "-90.10251243535163"
    }
  },
  {
    "service_request": "2022-880345",
    "request_type": "Trash/Recycling",
    "request_reason": "Repair Trash Cart",
    "date_created": "2022-05-05T14:03:33.000",
    "date_modified": "2022-05-05T14:03:33.000",
    "request_status": "Pending",
    "responsible_agency": "Department of Sanitation",
    "final_address": "1809 Baronne St",
    "address_councildis": "B",
    "status": "Assigned to Contractor",
    "contractor": "Richards Disposal",
    "rowid": "880345",
    "final_x": "3677789.41595",
    "final_y": "525130.316285",
    "longitude": "-90.08000770463588",
    "latitude": "29.938038319084132",
    "geocoded_column": {
      "latitude": "29.938038319084132",
      "longitude": "-90.08000770463588"
    }
  },
  {
    "service_request": "2022-880344",
    "request_type": "Trash/Recycling",
    "request_reason": "Request a Large Item Pick Up",
    "date_created": "2022-05-05T14:03:20.000",
    "date_modified": "2022-05-05T14:03:21.000",
    "request_status": "Pending",
    "responsible_agency": "Department of Sanitation",
    "final_address": "2624 S Derbigny St",
    "address_councildis": "B",
    "status": "Assigned to Contractor",
    "contractor": "Richards Disposal",
    "rowid": "880344",
    "final_x": "3673307.36686",
    "final_y": "527242.823935",
    "longitude": "-90.09408582083745",
    "latitude": "29.94398106586355",
    "geocoded_column": {
      "latitude": "29.94398106586355",
      "longitude": "-90.09408582083745"
    }
  },
  {
    "service_request": "2022-880343",
    "request_type": "Trash/Recycling",
    "request_reason": "Repair Trash Cart",
    "date_created": "2022-05-05T14:03:18.000",
    "date_modified": "2022-05-05T14:03:18.000",
    "request_status": "Pending",
    "responsible_agency": "Department of Sanitation",
    "final_address": "1807 Baronne St",
    "address_councildis": "B",
    "status": "Assigned to Contractor",
    "contractor": "Richards Disposal",
    "rowid": "880343",
    "final_x": "3677797.3524",
    "final_y": "525141.087165",
    "longitude": "-90.0799822766055",
    "latitude": "29.938067696756594",
    "geocoded_column": {
      "latitude": "29.938067696756594",
      "longitude": "-90.0799822766055"
    }
  },
  {
    "service_request": "2022-880342",
    "request_type": "Trash/Recycling",
    "request_reason": "Request a Large Item Pick Up",
    "date_created": "2022-05-05T13:55:06.000",
    "date_modified": "2022-05-05T13:55:07.000",
    "request_status": "Pending",
    "responsible_agency": "Department of Sanitation",
    "final_address": "925 N Dorgenois St",
    "address_councildis": "D",
    "status": "Assigned to Contractor",
    "contractor": "Richards Disposal",
    "rowid": "880342",
    "final_x": "3677680.67176",
    "final_y": "537373.270344",
    "longitude": "-90.07992821461676",
    "latitude": "29.971705602904322",
    "geocoded_column": {
      "latitude": "29.971705602904322",
      "longitude": "-90.07992821461676"
    }
  },