[
  {
    "service_request": "2025-1199165",
    "request_type": "Streetlights",
    "request_reason": "Streetlight Outage/Malfunction",
    "date_created": "2025-06-08T22:18:51.000",
    "date_modified": "2025-06-08T22:18:52.000",
    "request_status": "Pending",
    "responsible_agency": "Department of Public Works",
    "final_address": "6521 Canal Blvd",
    "address_councildis": "A",
    "status": "Pending",
    "contractor": "Legacy Professional Services",
    "rowid": "1199165",
    "final_x": "3668964.54913",
    "final_y": "550844.451989",
    "longitude": "-90.10699981841016",
    "latitude": "30.009006018557855",
    "geocoded_column": {
      "latitude": "30.009006018557855",
      "longitude": "-90.10699981841016"
    }
  },
  {
    "service_request": "2025-1199164",
    "request_type": "Trash/Recycling",
    "request_reason": "Replace Recycling Cart",
    "date_created": "2025-06-08T22:15:51.000",
    "date_modified": "2025-06-08T22:15:52.000",
    "request_status": "Pending",
    "responsible_agency": "Department of Sanitation",
    "final_address": "3040 St Claude Ave",
    "address_councildis": "C",
    "status": "Pending",
    "rowid": "1199164",
    "final_x": "3688748.83862",
    "final_y": "536025.130439",
    "longitude": "-90.04502122310879",
    "latitude": "29.967661143130947",
    "geocoded_column": {
      "latitude": "29.967661143130947",
      "longitude": "-90.04502122310879"
    }
  },
  {
    "service_request": "2025-1199163",
    "request_type": "Abandoned Vehicles",
    "request_reason": "Abandoned/Junk Vehicles",
    "date_created": "2025-06-08T22:05:14.000",
    "date_modified": "2025-06-08T22:05:15.000",
    "request_status": "Pending",
    "responsible_agency": "Department of Public Works",
    "final_address": "3301 Feliciana St Apt B",
    "address_councildis": "D",
    "status": "Pending",
    "rowid": "1199163",
    "final_x": "3691027.35612",
    "final_y": "544756.520079",
    "longitude": "-90.03751380388684",
    "latitude": "29.991598712523977",
    "geocoded_column": {
      "latitude": "29.991598712523977",
      "longitude": "-90.03751380388684"
    }
  },
  {
    "service_request": "2025-1199162",
    "request_type": "Abandoned Vehicles",
    "request_reason": "Abandoned/Junk Vehicles",
    "date_created": "2025-06-08T22:03:07.000",
    "date_modified": "2025-06-08T22:03:09.000",
    "request_status": "Pending",
    "responsible_agency": "Department of Public Works",
    "final_address": "3301 Feliciana St Apt B",
    "address_councildis": "D",
    "status": "Pending",
    "rowid": "1199162",
    "final_x": "3691027.35612",
    "final_y": "544756.520079",
    "longitude": "-90.03751380388684",
    "latitude": "29.991598712523977",
    "geocoded_column": {
      "latitude": "29.991598712523977",
      "longitude": "-90.03751380388684"
    }
  },
  {
    "service_request": "2025-1199161",
    "request_type": "Abandoned Vehicles",
    "request_reason": "Abandoned/Junk Vehicles",
    "date_created": "2025-06-08T22:01:47.000",
    "date_modified": "2025-06-08T22:01:49.000",
    "request_status": "Pending",
    "responsible_agency": "Department of Public Works",
    "final_address": "3301 Feliciana St Apt B",
    "address_councildis": "D",
    "status": "Pending",
    "rowid": "1199161",
    "final_x": "3691027.35612",
    "final_y": "544756.520079",
    "longitude": "-90.03751380388684",
    "latitude": "29.991598712523977",
    "geocoded_column": {
      "latitude": "29.991598712523977",
      "longitude": "-90.03751380388684"
    }
  },
  {
    "service_request": "2025-1199160",
    "request_type": "Trash/Recycling",
    "request_reason": "Repair Trash Cart",
    "date_created": "2025-06-08T22:00:38.000",
    "date_modified": "2025-06-08T22:00:40.000",
    "request_status": "Pending",
    "responsible_agency": "Department of Sanitation",
    "final_address": "1717 Horace St",
    "address_councildis": "C",
    "status": "Assigned to Contractor",
    "contractor": "Richards Disposal",
    "rowid": "1199160",
    "final_x": "3696250.26429",
    "final_y": "524936.987837",
    "longitude": "-90.02173247954583",
    "latitude": "29.936938594603554",
    "geocoded_column": {
      "latitude": "29.936938594603554",
      "longitude": "-90.02173247954583"
    }
  },
  {
    "service_request": "2025-1199159",
    "request_type": "Trash/Recycling",
    "request_reason": "Repair Trash Cart",
    "date_created": "2025-06-08T21:12:20.000",
    "date_modified": "2025-06-08T21:12:22.000",
    "request_status": "Pending",
    "responsible_agency": "Department of Sanitation",
    "final_address": "5623 Durbridge Dr",
    "address_councildis": "C",
    "status": "Assigned to Contractor",
    "contractor": "Richards Disposal",
    "rowid": "1199159",
    "final_x": "3704538.03479",
    "final_y": "521740.514106",
    "longitude": "-89.99568556298141",
    "latitude": "29.927885957128307",
    "geocoded_column": {
      "latitude": "29.927885957128307",
      "longitude": "-89.99568556298141"
    }
  },
  {
    "service_request": "2025-1199158",
    "request_type": "Trash/Recycling",
    "request_reason": "Request a Large Item Pick Up",
    "date_created": "2025-06-08T20:50:25.000",
    "date_modified": "2025-06-08T20:50:28.000",
    "request_status": "Pending",
    "responsible_agency": "Department of Sanitation",
    "final_address": "7823 Mill St",
    "address_councildis": "E",
    "status": "Assigned to Contractor",
    "contractor": "Waste Pro",
    "rowid": "1199158",
    "final_x": "3696431.85181",
    "final_y": "559724.241053",
    "longitude": "-90.01990031944237",
    "latitude": "30.032585171786295",
    "geocoded_column": {
      "latitude": "30.032585171786295",
      "longitude": "-90.01990031944237"
    }
  },
  {
    "service_request": "2025-1199157",
    "request_type": "Trash/Recycling",
    "request_reason": "Request a Large Item Pick Up",
    "date_created": "2025-06-08T20:48:39.000",
    "date_modified": "2025-06-08T20:48:41.000",
    "request_status": "Pending",
    "responsible_agency": "Department of Sanitation",
    "final_address": "7801 Scottwood Dr",
    "address_councildis": "E",
    "status": "Assigned to Contractor",
    "contractor": "Waste Pro",
    "rowid": "1199157",
    "final_x": "3716761.26002",
    "final_y": "571573.324136",
    "longitude": "-89.95520816258562",
    "latitude": "30.064508892853556",
    "geocoded_column": {
      "latitude": "30.064508892853556",
      "longitude": "-89.95520816258562"
    }
  },
  {
    "service_request": "2025-1199156",
    "request_type": "Streetlights",
    "request_reason": "Streetlight Outage/Malfunction",
    "date_created": "2025-06-08T20:45:21.000",
    "date_modified": "2025-06-08T20:45:23.000",
    "request_status": "Pending",
    "responsible_agency": "Department of Public Works",
    "final_address": "431 Dauphine St",
    "address_councildis": "C",
    "status": "Pending",
    "contractor": "Legacy Professional Services",
    "rowid": "1199156",
    "final_x": "3681447.21154",
    "final_y": "532239.815619",
    "longitude": "-90.06821191311111",
    "latitude": "29.9574765341113",
    "geocoded_column": {
      "latitude": "29.9574765341113",
      "longitude": "-90.06821191311111"
    }
  },
  {
    "service_request": "2025-1199155",
    "request_type": "Trash/Recycling",
    "request_reason": "Request a Large Item Pick Up",
    "date_created": "2025-06-08T20:40:16.000",
    "date_modified": "2025-06-08T20:40:18.000",
    "request_status": "Pending",
    "responsible_agency": "Department of Sanitation",
    "final_address": "1224 Pace Blvd",
    "address_councildis": "C",
    "status": "Assigned to Contractor",
    "contractor": "Richards Disposal",
    "rowid": "1199155",
    "final_x": "3694517.61277",
    "final_y": "526695.26803",
    "longitude": "-90.02713924809281",
    "latitude": "29.941827680558",
    "geocoded_column": {
      "latitude": "29.941827680558",
      "longitude": "-90.02713924809281"
    }
  },
  {
    "service_request": "2025-1199154",
    "request_type": "Trash/Recycling",
    "request_reason": "Request a Large Item Pick Up",
    "date_created": "2025-06-08T20:04:07.000",
    "date_modified": "2025-06-08T20:04:09.000",
    "request_status": "Pending",
    "responsible_agency": "Department of Sanitation",
    "final_address": "2474 Hyman Pl",
    "address_councildis": "C",
    "status": "Assigned to Contractor",
    "contractor": "Richards Disposal",
    "rowid": "1199154",
    "final_x": "3701123.01495",
    "final_y": "521809.65689",
    "longitude": "-90.00646338243607",
    "latitude": "29.928185254416967",
    "geocoded_column": {
      "latitude": "29.928185254416967",
      "longitude": "-90.00646338243607"
    }
  },
  {
    "service_request": "2025-1199153",
    "request_type": "Property Maintenance",
    "request_reason": "Property Maintenance",
    "date_created": "2025-06-08T19:58:55.000",
    "date_modified": "2025-06-08T19:58:57.000",
    "request_status": "Pending",
    "responsible_agency": "Department of Code Enforcement",
    "final_address": "9671 Chef Menteur Hwy",
    "address_councildis": "E",
    "status": "Pending",
    "rowid": "1199153",
    "final_x": "3711145.28248",
    "final_y": "554883.066072",
    "longitude": "-89.97358669647859",
    "latitude": "30.01880190234258",
    "geocoded_column": {
      "latitude": "30.01880190234258",
      "longitude": "-89.97358669647859"
    }
  },
  {
    "service_request": "2025-1199152",
    "request_type": "Property Maintenance",
    "request_reason": "Property Maintenance",
    "date_created": "2025-06-08T19:47:33.000",
    "date_modified": "2025-06-08T19:47:35.000",
    "request_status": "Pending",
    "responsible_agency": "Department of Code Enforcement",
    "final_address": "4758 Sandalwood St",
    "address_councildis": "E",
    "status": "Pending",
    "rowid": "1199152",
    "final_x": "3712142.01195",
    "final_y": "556264.485018",
    "longitude": "-89.9703855007612",
    "latitude": "30.0225677019896",
    "geocoded_column": {
      "latitude": "30.0225677019896",
      "longitude": "-89.9703855007612"
    }
  },
  {
    "service_request": "2025-1199151",
    "request_type": "Roads and Streets",
    "request_reason": "Street Subsidence (Sinking)",
    "date_created": "2025-06-08T19:38:28.000",
    "date_modified": "2025-06-08T19:38:31.000",
    "request_status": "Pending",
    "responsible_agency": "Department of Public Works",
    "final_address": "4438 Elba St",
    "address_councildis": "B",
    "status": "Pending",
    "rowid": "1199151",
    "final_x": "3669550.25198",
    "final_y": "530490.593922",
    "longitude": "-90.10583825371941",
    "latitude": "29.95302256762158",
    "geocoded_column": {
      "latitude": "29.95302256762158",
      "longitude": "-90.10583825371941"
    }
  },
  {
    "service_request": "2025-1199150",
    "request_type": "Trash/Recycling",
    "request_reason": "Order Recycling Cart",
    "date_created": "2025-06-08T19:35:29.000",
    "date_modified": "2025-06-08T19:35:31.000",
    "request_status": "Pending",
    "responsible_agency": "Department of Sanitation",
    "final_address": "910 Pleasant St",
    "address_councildis": "B",
    "status": "Pending",
    "rowid": "1199150",
    "final_x": "3675817.47585",
    "final_y": "519288.011639",
    "longitude": "-90.08643401305454",
    "latitude": "29.922033040265372",
    "geocoded_column": {
      "latitude": "29.922033040265372",
      "longitude": "-90.08643401305454"
    }
  },
  {
    "service_request": "2025-1199149",
    "request_type": "Trash/Recycling",
    "request_reason": "Request a Large Item Pick Up",
    "date_created": "2025-06-08T19:30:45.000",
    "date_modified": "2025-06-08T19:30:47.000",
    "request_status": "Pending",
    "responsible_agency": "Department of Sanitation",
    "final_address": "2024 Evergreen Ave",
    "address_councildis": "C",
    "status": "Assigned to Contractor",
    "contractor": "Richards Disposal",
    "rowid": "1199149",
    "final_x": "3688188.16182",
    "final_y": "524427.850876",
    "longitude": "-90.04720293506868",
    "latitude": "29.935789927609154",
    "geocoded_column": {
      "latitude": "29.935789927609154",
      "longitude": "-90.04720293506868"
    }
  },
  {
    "service_request": "2025-1199148",
    "request_type": "Trash/Recycling",
    "request_reason": "Request a Large Item Pick Up",
    "date_created": "2025-06-08T19:30:45.000",
    "date_modified": "2025-06-08T19:30:46.000",
    "request_status": "Pending",
    "responsible_agency": "Department of Sanitation",
    "final_address": "2024 Evergreen Ave",
    "address_councildis": "C",
    "status": "Assigned to Contractor",
    "contractor": "Richards Disposal",
    "rowid": "1199148",
    "final_x": "3688188.16182",
    "final_y": "524427.850876",
    "longitude": "-90.04720293506868",
    "latitude": "29.935789927609154",
    "geocoded_column": {
      "latitude": "29.935789927609154",
      "longitude": "-90.04720293506868"
    }
  },
  {
    "service_request": "2025-1199147",
    "request_type": "Streetlights",
    "request_reason": "Streetlight Outage/Malfunction",
    "date_created": "2025-06-08T19:28:34.000",
    "date_modified": "2025-06-08T19:28:36.000",
    "request_status": "Pending",
    "responsible_agency": "Department of Public Works",
    "final_address": "839 Seventh St",
    "address_councildis": "B",
    "status": "Pending",
    "contractor": "Legacy Professional Services",
    "rowid": "1199147",
    "final_x": "3676822.76609",
    "final_y": "519745.251576",
    "longitude": "-90.08324498396904",
    "latitude": "29.923260183939085",
    "geocoded_column": {
      "latitude": "29.923260183939085",
      "longitude": "-90.08324498396904"
    }
  },
  {
    "service_request": "2025-1199146",
    "request_type": "Streetlights",
    "request_reason": "Streetlight Outage/Malfunction",
    "date_created": "2025-06-08T19:25:37.000",
    "date_modified": "2025-06-08T19:25:38.000",
    "request_status": "Pending",
    "responsible_agency": "Department of Public Works",
    "final_address": "901 Seventh St",
    "address_councildis": "B",
    "status": "Pending",
    "contractor": "Legacy Professional Services",
    "rowid": "1199146",
    "final_x": "3676783.67592",
    "final_y": "519802.986424",
    "longitude": "-90.08336638879744",
    "latitude": "29.923420108691356",
    "geocoded_column": {
      "latitude": "29.923420108691356",
      "longitude": "-90.08336638879744"
    }
  },
  {
    "service_request": "2025-1199145",
    "request_type": "Trash/Recycling",
    "request_reason": "Request a Large Item Pick Up",
    "date_created": "2025-06-08T19:07:53.000",
    "date_modified": "2025-06-08T19:07:56.000",
    "request_status": "Pending",
    "responsible_agency": "Department of Sanitation",
    "final_address": "531 Belleville St",
    "address_councildis": "C",
    "status": "Assigned to Contractor",
    "contractor": "Richards Disposal",
    "rowid": "1199145",
    "final_x": "3687794.24777",
    "final_y": "529671.020737",
    "longitude": "-90.04826088396355",
    "latitude": "29.950219015319774",
    "geocoded_column": {
      "latitude": "29.950219015319774",
      "longitude": "-90.04826088396355"
    }
  },
  {
    "service_request": "2025-1199144",
    "request_type": "Trash/Recycling",
    "request_reason": "Request a Large Item Pick Up",
    "date_created": "2025-06-08T19:03:56.000",
    "date_modified": "2025-06-08T19:03:58.000",
    "request_status": "Pending",
    "responsible_agency": "Department of Sanitation",
    "final_address": "11050 Harrow Rd",
    "address_councildis": "E",
    "status": "Assigned to Contractor",
    "contractor": "Waste Pro",
    "rowid": "1199144",
    "final_x": "3712072.16178",
    "final_y": "564034.623265",
    "longitude": "-89.9703141568411",
    "latitude": "30.04393477367786",
    "geocoded_column": {
      "latitude": "30.04393477367786",
      "longitude": "-89.9703141568411"
    }
  },
  {
    "service_request": "2025-1199143",
    "request_type": "Parks & Parkways",
    "request_reason": "Request Tree Service (Right of Way/Public Property)",
    "date_created": "2025-06-08T19:00:47.000",
    "date_modified": "2025-06-08T19:01:04.000",
    "request_status": "Pending",
    "responsible_agency": "Department of Parks & Parkway",
    "final_address": "2824 Coliseum St",
    "address_councildis": "B",
    "status": "Pending",
    "rowid": "1199143",
    "final_x": "3676320.94312",
    "final_y": "521526.593529",
    "longitude": "-90.08476777861476",
    "latitude": "29.92817334195852",
    "geocoded_column": {
      "latitude": "29.92817334195852",
      "longitude": "-90.08476777861476"
    }
  },
  {
    "service_request": "2025-1199142",
    "request_type": "Trash/Recycling",
    "request_reason": "Request a Large Item Pick Up",
    "date_created": "2025-06-08T18:59:30.000",
    "date_modified": "2025-06-08T18:59:32.000",
    "request_status": "Pending",
    "responsible_agency": "Department of Sanitation",
    "final_address": "48 Morrison Ct",
    "address_councildis": "E",
    "status": "Assigned to Contractor",
    "contractor": "Waste Pro",
    "rowid": "1199142",
    "final_x": "3704039.79594",
    "final_y": "561367.661342",
    "longitude": "-89.99579816478452",
    "latitude": "30.036861953283275",
    "geocoded_column": {
      "latitude": "30.036861953283275",
      "longitude": "-89.99579816478452"
    }
  },
  {
    "service_request": "2025-1199141",
    "request_type": "Trash/Recycling",
    "request_reason": "Request a Large Item Pick Up",
    "date_created": "2025-06-08T18:23:23.000",
    "date_modified": "2025-06-08T18:23:26.000",
    "request_status": "Pending",
    "responsible_agency": "Department of Sanitation",
    "final_address": "15522 Dwyer Blvd",
    "address_councildis": "E",
    "status": "Assigned to Contractor",
    "contractor": "Waste Pro",
    "rowid": "1199141",
    "final_x": "3730990.12096",
    "final_y": "563696.657185",
    "longitude": "-89.91053932791533",
    "latitude": "30.042373175805487",
    "geocoded_column": {
      "latitude": "30.042373175805487",
      "longitude": "-89.91053932791533"
    }
  },
  {
    "service_request": "2025-1199140",
    "request_type": "Trash/Recycling",
    "request_reason": "Illegal Dumping",
    "date_created": "2025-06-08T17:48:56.000",
    "date_modified": "2025-06-08T17:48:58.000",
    "request_status": "Pending",
    "responsible_agency": "Department of Sanitation",
    "final_address": "1201 Farragut St",
    "address_councildis": "C",
    "status": "Pending",
    "rowid": "1199140",
    "final_x": "3692326.33347",
    "final_y": "526881.288766",
    "longitude": "-90.03405088407331",
    "latitude": "29.94240767668299",
    "geocoded_column": {
      "latitude": "29.94240767668299",
      "longitude": "-90.03405088407331"
    }
  },
  {
    "service_request": "2025-1199139",
    "request_type": "Trash/Recycling",
    "request_reason": "Replace Recycling Cart",
    "date_created": "2025-06-08T17:10:35.000",
    "date_modified": "2025-06-08T17:10:37.000",
    "request_status": "Pending",
    "responsible_agency": "Department of Sanitation",
    "final_address": "4051 Fairmont Dr",
    "address_councildis": "D",
    "status": "Pending",
    "rowid": "1199139",
    "final_x": "3684704.19689",
    "final_y": "547261.346321",
    "longitude": "-90.05739915090471",
    "latitude": "29.998681195066542",
    "geocoded_column": {
      "latitude": "29.998681195066542",
      "longitude": "-90.05739915090471"
    }
  },
  {
    "service_request": "2025-1199138",
    "request_type": "Safety & Permits",
    "request_reason": "Zoning Enforcement",
    "date_created": "2025-06-08T16:45:58.000",
    "date_modified": "2025-06-08T16:46:02.000",
    "request_status": "Pending",
    "responsible_agency": "Safety and Permits",
    "final_address": "626 Frenchmen St",
    "address_councildis": "C",
    "status": "Pending",
    "rowid": "1199138",
    "final_x": "3684690.00578",
    "final_y": "534691.458118",
    "longitude": "-90.05788597849335",
    "latitude": "29.964118861792237",
    "geocoded_column": {
      "latitude": "29.964118861792237",
      "longitude": "-90.05788597849335"
    }
  },
  {
    "service_request": "2025-1199137",
    "request_type": "Trash/Recycling",
    "request_reason": "Request a Large Item Pick Up",
    "date_created": "2025-06-08T16:35:32.000",
    "date_modified": "2025-06-08T16:35:34.000",
    "request_status": "Pending",
    "responsible_agency": "Department of Sanitation",
    "final_address": "4533 S Roman St",
    "address_councildis": "B",
    "status": "Assigned to Contractor",
    "contractor": "IV Waste",
    "rowid": "1199137",
    "final_x": "3669611.04276",
    "final_y": "526543.622654",
    "longitude": "-90.10577981827996",
    "latitude": "29.942167893668707",
    "geocoded_column": {
      "latitude": "29.942167893668707",
      "longitude": "-90.10577981827996"
    }
  },
  {
    "service_request": "2025-1199136",
    "request_type": "Mosquito, Termite & Rodent Control",
    "request_reason": "Rodent Complaint (Mice & Rats)",
    "date_created": "2025-06-08T16:34:07.000",
    "date_modified": "2025-06-08T16:34:09.000",
    "request_status": "Pending",
    "responsible_agency": "Mosquito, Termite & Rodent Control Board",
    "final_address": "4724 Music St",
    "address_councildis": "D",
    "status": "Pending",
    "rowid": "1199136",
    "final_x": "3685557.17628",
    "final_y": "550393.497748",
    "longitude": "-90.05459416755399",
    "latitude": "30.00726733445943",
    "geocoded_column": {
      "latitude": "30.00726733445943",
      "longitude": "-90.05459416755399"
    }
  },
  {
    "service_request": "2025-1199135",
    "request_type": "Trash/Recycling",
    "request_reason": "Return Recycling Cart",
    "date_created": "2025-06-08T16:30:04.000",
    "date_modified": "2025-06-08T16:30:07.000",
    "request_status": "Pending",
    "responsible_agency": "Department of Sanitation",
    "final_address": "4724 Music St",
    "address_councildis": "D",
    "status": "Pending",
    "rowid": "1199135",
    "final_x": "3685557.17628",
    "final_y": "550393.497748",
    "longitude": "-90.05459416755399",
    "latitude": "30.00726733445943",
    "geocoded_column": {
      "latitude": "30.00726733445943",
      "longitude": "-90.05459416755399"
    }
  },
  {
    "service_request": "2025-1199134",
    "request_type": "Trash/Recycling",
    "request_reason": "Request a Large Item Pick Up",
    "date_created": "2025-06-08T16:19:16.000",
    "date_modified": "2025-06-08T16:19:18.000",
    "request_status": "Pending",
    "responsible_agency": "Department of Sanitation",
    "final_address": "5226 Wickfield Dr",
    "address_councildis": "D",
    "status": "Assigned to Contractor",
    "contractor": "IV Waste",
    "rowid": "1199134",
    "final_x": "3681280.71413",
    "final_y": "551760.013077",
    "longitude": "-90.06805702348929",
    "latitude": "30.01115529099409",
    "geocoded_column": {
      "latitude": "30.01115529099409",
      "longitude": "-90.06805702348929"
    }
  },
  {
    "service_request": "2025-1199133",
    "request_type": "Abandoned Vehicles",
    "request_reason": "Abandoned/Junk Vehicles",
    "date_created": "2025-06-08T16:06:51.000",
    "date_modified": "2025-06-08T16:06:54.000",
    "request_status": "Pending",
    "responsible_agency": "Department of Public Works",
    "final_address": "3909 Bienville Ave",
    "address_councildis": "A",
    "status": "Pending",
    "rowid": "1199133",
    "final_x": "3672232.32391",
    "final_y": "538570.593225",
    "longitude": "-90.09709416957435",
    "latitude": "29.975160585021168",
    "geocoded_column": {
      "latitude": "29.975160585021168",
      "longitude": "-90.09709416957435"
    }
  },
  {
    "service_request": "2025-1199132",
    "request_type": "Trash/Recycling",
    "request_reason": "Request a Large Item Pick Up",
    "date_created": "2025-06-08T15:59:10.000",
    "date_modified": "2025-06-08T15:59:12.000",
    "request_status": "Pending",
    "responsible_agency": "Department of Sanitation",
    "final_address": "636 Port St",
    "address_councildis": "C",
    "status": "Assigned to Contractor",
    "contractor": "IV Waste",
    "rowid": "1199132",
    "final_x": "3686999.96335",
    "final_y": "534843.201158",
    "longitude": "-90.05058598690007",
    "latitude": "29.964465200044334",
    "geocoded_column": {
      "latitude": "29.964465200044334",
      "longitude": "-90.05058598690007"
    }
  },
  {
    "service_request": "2025-1199131",
    "request_type": "Street and Traffic Signs",
    "request_reason": "Traffic Signal Malfunctioning or Damaged",
    "date_created": "2025-06-08T15:47:33.000",
    "date_modified": "2025-06-08T15:47:35.000",
    "request_status": "Pending",
    "responsible_agency": "Department of Public Works",
    "final_address": "crowder and I-10 service road",
    "status": "Pending",
    "rowid": "1199131",
    "longitude": "0.0",
    "latitude": "0.0",
    "geocoded_column": {
      "latitude": "0.0",
      "longitude": "0.0"
    }
  },
  {
    "service_request": "2025-1199130",
    "request_type": "Drainage",
    "request_reason": "Catch Basin Clogged",
    "date_created": "2025-06-08T15:38:21.000",
    "date_modified": "2025-06-08T15:38:23.000",
    "request_status": "Pending",
    "responsible_agency": "Sewerage & Water Board",
    "final_address": "4059 Athis Ct",
    "address_councildis": "D",
    "status": "Pending",
    "rowid": "1199130",
    "final_x": "3688562.03164",
    "final_y": "554797.557592",
    "longitude": "-90.04494457319086",
    "latitude": "30.019284327930805",
    "geocoded_column": {
      "latitude": "30.019284327930805",
      "longitude": "-90.04494457319086"
    }
  },
  {
    "service_request": "2025-1199129",
    "request_type": "Abandoned Vehicles",
    "request_reason": "Abandoned/Junk Vehicles",
    "date_created": "2025-06-08T15:05:15.000",
    "date_modified": "2025-06-08T15:05:17.000",
    "request_status": "Pending",
    "responsible_agency": "Department of Public Works",
    "final_address": "4000 BLK N Rampart St",
    "address_councildis": "C",
    "status": "Pending",
    "rowid": "1199129",
    "final_x": "3691843.69928",
    "final_y": "534831.169955",
    "longitude": "-90.0352903280392",
    "latitude": "29.964282130102717",
    "geocoded_column": {
      "latitude": "29.964282130102717",
      "longitude": "-90.0352903280392"
    }
  },
  {
    "service_request": "2025-1199128",
    "request_type": "Parks & Parkways",
    "request_reason": "Request Tree Service (Right of Way/Public Property)",
    "date_created": "2025-06-08T14:49:26.000",
    "date_modified": "2025-06-08T14:49:29.000",
    "request_status": "Pending",
    "responsible_agency": "Department of Parks & Parkway",
    "final_address": "4227 Fontainebleau Dr",
    "address_councildis": "B",
    "status": "Pending",
    "rowid": "1199128",
    "final_x": "3669627.99758",
    "final_y": "529355.935681",
    "longitude": "-90.10563115366931",
    "latitude": "29.9499003390365",
    "geocoded_column": {
      "latitude": "29.9499003390365",
      "longitude": "-90.10563115366931"
    }
  },
  {
    "service_request": "2025-1199127",
    "request_type": "Parks & Parkways",
    "request_reason": "Request Tree Service (Right of Way/Public Property)",
    "date_created": "2025-06-08T14:18:48.000",
    "date_modified": "2025-06-08T14:18:50.000",
    "request_status": "Pending",
    "responsible_agency": "Department of Parks & Parkway",
    "final_address": "1727 Napoleon Ave",
    "address_councildis": "B",
    "status": "Pending",
    "rowid": "1199127",
    "final_x": "3670923.02407",
    "final_y": "521490.554425",
    "longitude": "-90.10180906296975",
    "latitude": "29.92823487391336",
    "geocoded_column": {
      "latitude": "29.92823487391336",
      "longitude": "-90.10180906296975"
    }
  },
  {
    "service_request": "2025-1199126",
    "request_type": "Abandoned Vehicles",
    "request_reason": "Abandoned/Junk Vehicles",
    "date_created": "2025-06-08T14:18:30.000",
    "date_modified": "2025-06-08T14:18:32.000",
    "request_status": "Pending",
    "responsible_agency": "Department of Public Works",
    "final_address": "240 N Alexander St",
    "address_councildis": "A",
    "status": "Pending",
    "rowid": "1199126",
    "final_x": "3670465.50401",
    "final_y": "539716.45953",
    "longitude": "-90.1026353951593",
    "latitude": "29.978363625623103",
    "geocoded_column": {
      "latitude": "29.978363625623103",
      "longitude": "-90.1026353951593"
    }
  },
  {
    "service_request": "2025-1199125",
    "request_type": "Abandoned Vehicles",
    "request_reason": "Abandoned/Junk Vehicles",
    "date_created": "2025-06-08T14:12:38.000",
    "date_modified": "2025-06-08T14:12:41.000",
    "request_status": "Pending",
    "responsible_agency": "Department of Public Works",
    "final_address": "1639 Gallier St",
    "address_councildis": "D",
    "status": "Pending",
    "rowid": "1199125",
    "final_x": "3691039.23632",
    "final_y": "537795.742024",
    "longitude": "-90.03772489165478",
    "latitude": "29.97245869290243",
    "geocoded_column": {
      "latitude": "29.97245869290243",
      "longitude": "-90.03772489165478"
    }
  },
  {
    "service_request": "2025-1199124",
    "request_type": "Trash/Recycling",
    "request_reason": "Request a Large Item Pick Up",
    "date_created": "2025-06-08T14:01:45.000",
    "date_modified": "2025-06-08T14:01:47.000",
    "request_status": "Pending",
    "responsible_agency": "Department of Sanitation",
    "final_address": "4740 Majestic Oaks Dr",
    "address_councildis": "D",
    "status": "Assigned to Contractor",
    "contractor": "Waste Pro",
    "rowid": "1199124",
    "final_x": "3697664.18333",
    "final_y": "554482.711192",
    "longitude": "-90.0161964721681",
    "latitude": "30.018134067409825",
    "geocoded_column": {
      "latitude": "30.018134067409825",
      "longitude": "-90.0161964721681"
    }
  },
  {
    "service_request": "2025-1199123",
    "request_type": "Trash/Recycling",
    "request_reason": "Illegal Dumping",
    "date_created": "2025-06-08T14:00:56.000",
    "date_modified": "2025-06-08T14:00:59.000",
    "request_status": "Pending",
    "responsible_agency": "Department of Sanitation",
    "final_address": "7526 Read Blvd",
    "address_councildis": "E",
    "status": "Pending",
    "rowid": "1199123",
    "final_x": "3708514.281",
    "final_y": "564339.662561",
    "longitude": "-89.98154715125597",
    "latitude": "30.044889399839686",
    "geocoded_column": {
      "latitude": "30.044889399839686",
      "longitude": "-89.98154715125597"
    }
  },
  {
    "service_request": "2025-1199122",
    "request_type": "Trash/Recycling",
    "request_reason": "Request a Large Item Pick Up",
    "date_created": "2025-06-08T13:35:23.000",
    "date_modified": "2025-06-08T13:35:25.000",
    "request_status": "Pending",
    "responsible_agency": "Department of Sanitation",
    "final_address": "2625 Dumaine 70119",
    "status": "Assigned to Contractor",
    "rowid": "1199122",
    "longitude": "0.0",
    "latitude": "0.0",
    "geocoded_column": {
      "latitude": "0.0",
      "longitude": "0.0"
    }
  },
  {
    "service_request": "2025-1199121",
    "request_type": "Property Maintenance",
    "request_reason": "Property Maintenance",
    "date_created": "2025-06-08T13:16:56.000",
    "date_modified": "2025-06-08T13:16:57.000",
    "request_status": "Pending",
    "responsible_agency": "Department of Code Enforcement",
    "final_address": "10700 BLK Wales St",
    "address_councildis": "E",
    "status": "Pending",
    "rowid": "1199121",
    "final_x": "3709300.33596",
    "final_y": "566125.343259",
    "longitude": "-89.97899616613482",
    "latitude": "30.049773782435757",
    "geocoded_column": {
      "latitude": "30.049773782435757",
      "longitude": "-89.97899616613482"
    }
  },
  {
    "service_request": "2025-1199120",
    "request_type": "Trash/Recycling",
    "request_reason": "Repair Trash Cart",
    "date_created": "2025-06-08T13:10:30.000",
    "date_modified": "2025-06-08T13:10:32.000",
    "request_status": "Pending",
    "responsible_agency": "Department of Sanitation",
    "final_address": "3014 St Claude Ave",
    "address_councildis": "C",
    "status": "Assigned to Contractor",
    "contractor": "IV Waste",
    "rowid": "1199120",
    "final_x": "3688566.17366",
    "final_y": "536069.010823",
    "longitude": "-90.04559652458491",
    "latitude": "29.967787444738164",
    "geocoded_column": {
      "latitude": "29.967787444738164",
      "longitude": "-90.04559652458491"
    }
  },
  {
    "service_request": "2025-1199119",
    "request_type": "Property Maintenance",
    "request_reason": "Property Maintenance",
    "date_created": "2025-06-08T13:05:58.000",
    "date_modified": "2025-06-08T13:06:00.000",
    "request_status": "Pending",
    "responsible_agency": "Department of Code Enforcement",
    "final_address": "5217 Forest Park Ln",
    "address_councildis": "C",
    "status": "Pending",
    "rowid": "1199119",
    "final_x": "3703805.07326",
    "final_y": "510456.897839",
    "longitude": "-89.99841430732789",
    "latitude": "29.896883384869827",
    "geocoded_column": {
      "latitude": "29.896883384869827",
      "longitude": "-89.99841430732789"
    }
  },
  {
    "service_request": "2025-1199118",
    "request_type": "Drainage",
    "request_reason": "Catch Basin Clogged",
    "date_created": "2025-06-08T13:05:12.000",
    "date_modified": "2025-06-08T13:05:14.000",
    "request_status": "Pending",
    "responsible_agency": "Sewerage & Water Board",
    "final_address": "9100 Palmetto St",
    "address_councildis": "A",
    "status": "Pending",
    "rowid": "1199118",
    "final_x": "3665426.20327",
    "final_y": "537485.86964",
    "longitude": "-90.11862608916853",
    "latitude": "29.972378110529128",
    "geocoded_column": {
      "latitude": "29.972378110529128",
      "longitude": "-90.11862608916853"
    }
  },
  {
    "service_request": "2025-1199117",
    "request_type": "Trash/Recycling",
    "request_reason": "Request a Large Item Pick Up",
    "date_created": "2025-06-08T12:02:03.000",
    "date_modified": "2025-06-08T12:02:04.000",
    "request_status": "Pending",
    "responsible_agency": "Department of Sanitation",
    "final_address": "512 Emerald St",
    "address_councildis": "D",
    "status": "Assigned to Contractor",
    "contractor": "IV Waste",
    "rowid": "1199117",
    "final_x": "3668238.27841",
    "final_y": "554995.74332",
    "longitude": "-90.10915423766393",
    "latitude": "30.020441959764312",
    "geocoded_column": {
      "latitude": "30.020441959764312",
      "longitude": "-90.10915423766393"
    }
  },
  {
    "service_request": "2025-1199116",
    "request_type": "Trash/Recycling",
    "request_reason": "Request a Large Item Pick Up",
    "date_created": "2025-06-08T11:59:16.000",
    "date_modified": "2025-06-08T11:59:18.000",
    "request_status": "Pending",
    "responsible_agency": "Department of Sanitation",
    "final_address": "608 French St",
    "address_councildis": "A",
    "status": "Assigned to Contractor",
    "contractor": "IV Waste",
    "rowid": "1199116",
    "final_x": "3668314.18708",
    "final_y": "548557.964627",
    "longitude": "-90.10913171402845",
    "latitude": "30.002738098206525",
    "geocoded_column": {
      "latitude": "30.002738098206525",
      "longitude": "-90.10913171402845"
    }
  },
  {
    "service_request": "2025-1199115",
    "request_type": "Property Maintenance",
    "request_reason": "Property Maintenance",
    "date_created": "2025-06-08T11:32:16.000",
    "date_modified": "2025-06-08T11:32:18.000",
    "request_status": "Pending",
    "responsible_agency": "Department of Code Enforcement",
    "final_address": "4201 Washington Ave",
    "address_councildis": "B",
    "status": "Pending",
    "rowid": "1199115",
    "final_x": "3670946.92091",
    "final_y": "530488.73933",
    "longitude": "-90.10142823751885",
    "latitude": "29.95297625374919",
    "geocoded_column": {
      "latitude": "29.95297625374919",
      "longitude": "-90.10142823751885"
    }
  },
  {
    "service_request": "2025-1199114",
    "request_type": "Drainage",
    "request_reason": "Ditch and Culvert Maintenance",
    "date_created": "2025-06-08T11:23:43.000",
    "date_modified": "2025-06-08T11:23:44.000",
    "request_status": "Pending",
    "responsible_agency": "Department of Public Works",
    "final_address": "1804 Moss St",
    "address_councildis": "A",
    "status": "Pending",
    "rowid": "1199114",
    "final_x": "3675342.80859",
    "final_y": "542984.676045",
    "longitude": "-90.08711881159817",
    "latitude": "29.987205152195962",
    "geocoded_column": {
      "latitude": "29.987205152195962",
      "longitude": "-90.08711881159817"
    }
  },
  {
    "service_request": "2025-1199113",
    "request_type": "Trash/Recycling",
    "request_reason": "Request a Large Item Pick Up",
    "date_created": "2025-06-08T10:59:31.000",
    "date_modified": "2025-06-08T10:59:34.000",
    "request_status": "Pending",
    "responsible_agency": "Department of Sanitation",
    "final_address": "4938 Arts St",
    "address_councildis": "D",
    "status": "Assigned to Contractor",
    "contractor": "IV Waste",
    "rowid": "1199113",
    "final_x": "3685815.25897",
    "final_y": "551268.810197",
    "longitude": "-90.05374793268902",
    "latitude": "30.00966620297956",
    "geocoded_column": {
      "latitude": "30.00966620297956",
      "longitude": "-90.05374793268902"
    }
  },
  {
    "service_request": "2025-1199112",
    "request_type": "Trash/Recycling",
    "request_reason": "Request a Large Item Pick Up",
    "date_created": "2025-06-08T10:19:58.000",
    "date_modified": "2025-06-08T10:20:00.000",
    "request_status": "Pending",
    "responsible_agency": "Department of Sanitation",
    "final_address": "7910 Lady Gray St",
    "address_councildis": "E",
    "status": "Assigned to Contractor",
    "contractor": "Waste Pro",
    "rowid": "1199112",
    "final_x": "3709296.71537",
    "final_y": "566304.653795",
    "longitude": "-89.97900091083956",
    "latitude": "30.05026693178168",
    "geocoded_column": {
      "latitude": "30.05026693178168",
      "longitude": "-89.97900091083956"
    }
  },
  {
    "service_request": "2025-1199111",
    "request_type": "Trash/Recycling",
    "request_reason": "Request a Large Item Pick Up",
    "date_created": "2025-06-08T10:14:55.000",
    "date_modified": "2025-06-08T10:14:58.000",
    "request_status": "Pending",
    "responsible_agency": "Department of Sanitation",
    "final_address": "4153 Vincennes Pl",
    "address_councildis": "B",
    "status": "Assigned to Contractor",
    "contractor": "IV Waste",
    "rowid": "1199111",
    "final_x": "3668659.22119",
    "final_y": "530831.10701",
    "longitude": "-90.10864025539712",
    "latitude": "29.953985083245843",
    "geocoded_column": {
      "latitude": "29.953985083245843",
      "longitude": "-90.10864025539712"
    }
  },
  {
    "service_request": "2025-1199110",
    "request_type": "Trash/Recycling",
    "request_reason": "Request a Large Item Pick Up",
    "date_created": "2025-06-08T10:08:18.000",
    "date_modified": "2025-06-08T10:08:20.000",
    "request_status": "Pending",
    "responsible_agency": "Department of Sanitation",
    "final_address": "2024 Kerlerec St",
    "address_councildis": "D",
    "status": "Assigned to Contractor",
    "contractor": "IV Waste",
    "rowid": "1199110",
    "final_x": "3680184.82677",
    "final_y": "537867.354953",
    "longitude": "-90.07200253591859",
    "latitude": "29.97298860830419",
    "geocoded_column": {
      "latitude": "29.97298860830419",
      "longitude": "-90.07200253591859"
    }
  },
  {
    "service_request": "2025-1199109",
    "request_type": "Trash/Recycling",
    "request_reason": "Start Trash Service",
    "date_created": "2025-06-08T09:58:22.000",
    "date_modified": "2025-06-08T09:58:25.000",
    "request_status": "Pending",
    "responsible_agency": "Department of Sanitation",
    "final_address": "8507 Apple St",
    "address_councildis": "A",
    "status": "Assigned to Contractor",
    "contractor": "IV Waste",
    "rowid": "1199109",
    "final_x": "3664269.56672",
    "final_y": "533138.707396",
    "longitude": "-90.12242405260938",
    "latitude": "29.960458509846973",
    "geocoded_column": {
      "latitude": "29.960458509846973",
      "longitude": "-90.12242405260938"
    }
  },
  {
    "service_request": "2025-1199108",
    "request_type": "Abandoned Vehicles",
    "request_reason": "Abandoned/Junk Vehicles",
    "date_created": "2025-06-08T09:53:15.000",
    "date_modified": "2025-06-08T09:53:17.000",
    "request_status": "Pending",
    "responsible_agency": "Department of Public Works",
    "final_address": "2675 Acacia St",
    "address_councildis": "D",
    "status": "Pending",
    "rowid": "1199108",
    "final_x": "3687761.07318",
    "final_y": "546446.394385",
    "longitude": "-90.04777136633864",
    "latitude": "29.996346421176412",
    "geocoded_column": {
      "latitude": "29.996346421176412",
      "longitude": "-90.04777136633864"
    }
  },
  {
    "service_request": "2025-1199107",
    "request_type": "Abandoned Vehicles",
    "request_reason": "Abandoned/Junk Vehicles",
    "date_created": "2025-06-08T09:43:39.000",
    "date_modified": "2025-06-08T09:43:41.000",
    "request_status": "Pending",
    "responsible_agency": "Department of Public Works",
    "final_address": "1103 Crete St",
    "address_councildis": "A",
    "status": "Pending",
    "rowid": "1199107",
    "final_x": "3677583.95144",
    "final_y": "538753.899145",
    "longitude": "-90.08018598662544",
    "latitude": "29.975504767469626",
    "geocoded_column": {
      "latitude": "29.975504767469626",
      "longitude": "-90.08018598662544"
    }
  },
  {
    "service_request": "2025-1199106",
    "request_type": "Streetlights",
    "request_reason": "Streetlight Outage/Malfunction",
    "date_created": "2025-06-08T09:41:41.000",
    "date_modified": "2025-06-08T09:41:42.000",
    "request_status": "Pending",
    "responsible_agency": "Department of Public Works",
    "final_address": "1115 Crete St",
    "address_councildis": "A",
    "status": "Pending",
    "contractor": "Legacy Professional Services",
    "rowid": "1199106",
    "final_x": "3677617.11163",
    "final_y": "538827.812617",
    "longitude": "-90.08007870441617",
    "latitude": "29.9757070068908",
    "geocoded_column": {
      "latitude": "29.9757070068908",
      "longitude": "-90.08007870441617"
    }
  },
  {
    "service_request": "2025-1199105",
    "request_type": "Trash/Recycling",
    "request_reason": "Request a Large Item Pick Up",
    "date_created": "2025-06-08T09:19:26.000",
    "date_modified": "2025-06-08T09:19:27.000",
    "request_status": "Pending",
    "responsible_agency": "Department of Sanitation",
    "final_address": "8921 Gervais St",
    "address_councildis": "E",
    "status": "Assigned to Contractor",
    "contractor": "Waste Pro",
    "rowid": "1199105",
    "final_x": "3704952.4131",
    "final_y": "563314.303584",
    "longitude": "-89.99284215182942",
    "latitude": "30.04218512838215",
    "geocoded_column": {
      "latitude": "30.04218512838215",
      "longitude": "-89.99284215182942"
    }
  },
  {
    "service_request": "2025-1199104",
    "request_type": "Trash/Recycling",
    "request_reason": "Request a Large Item Pick Up",
    "date_created": "2025-06-08T09:17:25.000",
    "date_modified": "2025-06-08T09:17:27.000",
    "request_status": "Pending",
    "responsible_agency": "Department of Sanitation",
    "final_address": "4410 N Rampart St",
    "address_councildis": "C",
    "status": "Assigned to Contractor",
    "contractor": "IV Waste",
    "rowid": "1199104",
    "final_x": "3693059.61014",
    "final_y": "534498.738373",
    "longitude": "-90.03146252510824",
    "latitude": "29.9633301299521",
    "geocoded_column": {
      "latitude": "29.9633301299521",
      "longitude": "-90.03146252510824"
    }
  },
  {
    "service_request": "2025-1199103",
    "request_type": "Trash/Recycling",
    "request_reason": "Order Second Trash Cart",
    "date_created": "2025-06-08T09:00:50.000",
    "date_modified": "2025-06-08T09:00:52.000",
    "request_status": "Pending",
    "responsible_agency": "Department of Sanitation",
    "final_address": "5226 Wickfield Dr",
    "address_councildis": "D",
    "status": "Assigned to Contractor",
    "contractor": "IV Waste",
    "rowid": "1199103",
    "final_x": "3681280.71413",
    "final_y": "551760.013077",
    "longitude": "-90.06805702348929",
    "latitude": "30.01115529099409",
    "geocoded_column": {
      "latitude": "30.01115529099409",
      "longitude": "-90.06805702348929"
    }
  },
  {
    "service_request": "2025-1199102",
    "request_type": "Trash/Recycling",
    "request_reason": "Missed Trash Pick-Up",
    "date_created": "2025-06-08T08:35:57.000",
    "date_modified": "2025-06-08T08:35:59.000",
    "request_status": "Pending",
    "responsible_agency": "Department of Sanitation",
    "final_address": "2741 St Peter St",
    "address_councildis": "A",
    "status": "Assigned to Contractor",
    "contractor": "IV Waste",
    "rowid": "1199102",
    "final_x": "3676385.53531",
    "final_y": "537112.606088",
    "longitude": "-90.08402743253102",
    "latitude": "29.971027756368",
    "geocoded_column": {
      "latitude": "29.971027756368",
      "longitude": "-90.08402743253102"
    }
  },
  {
    "service_request": "2025-1199101",
    "request_type": "Streetlights",
    "request_reason": "Streetlight Outage/Malfunction",
    "date_created": "2025-06-08T08:34:40.000",
    "date_modified": "2025-06-08T08:34:41.000",
    "request_status": "Pending",
    "responsible_agency": "Department of Public Works",
    "final_address": "3500 Baudin St",
    "address_councildis": "B",
    "status": "Pending",
    "contractor": "Legacy Professional Services",
    "rowid": "1199101",
    "final_x": "3671843.10139",
    "final_y": "535710.454599",
    "longitude": "-90.0984207917091",
    "latitude": "29.967307709219465",
    "geocoded_column": {
      "latitude": "29.967307709219465",
      "longitude": "-90.0984207917091"
    }
  },
  {
    "service_request": "2025-1199100",
    "request_type": "Trash/Recycling",
    "request_reason": "Request a Large Item Pick Up",
    "date_created": "2025-06-08T08:34:06.000",
    "date_modified": "2025-06-08T08:34:09.000",
    "request_status": "Pending",
    "responsible_agency": "Department of Sanitation",
    "final_address": "2741 St Peter St",
    "address_councildis": "A",
    "status": "Assigned to Contractor",
    "contractor": "IV Waste",
    "rowid": "1199100",
    "final_x": "3676385.53531",
    "final_y": "537112.606088",
    "longitude": "-90.08402743253102",
    "latitude": "29.971027756368",
    "geocoded_column": {
      "latitude": "29.971027756368",
      "longitude": "-90.08402743253102"
    }
  },
  {
    "service_request": "2025-1199099",
    "request_type": "Trash/Recycling",
    "request_reason": "Request a Large Item Pick Up",
    "date_created": "2025-06-08T08:27:22.000",
    "date_modified": "2025-06-08T08:27:23.000",
    "request_status": "Pending",
    "responsible_agency": "Department of Sanitation",
    "final_address": "144 18Th St",
    "address_councildis": "A",
    "status": "Assigned to Contractor",
    "contractor": "IV Waste",
    "rowid": "1199099",
    "final_x": "3665737.09485",
    "final_y": "548648.305747",
    "longitude": "-90.11727010110681",
    "latitude": "30.003061960300787",
    "geocoded_column": {
      "latitude": "30.003061960300787",
      "longitude": "-90.11727010110681"
    }
  },
  {
    "service_request": "2025-1199098",
    "request_type": "Trash/Recycling",
    "request_reason": "Order Recycling Cart",
    "date_created": "2025-06-08T08:18:45.000",
    "date_modified": "2025-06-08T08:18:46.000",
    "request_status": "Pending",
    "responsible_agency": "Department of Sanitation",
    "final_address": "8507 Apple St",
    "address_councildis": "A",
    "status": "Pending",
    "rowid": "1199098",
    "final_x": "3664269.56672",
    "final_y": "533138.707396",
    "longitude": "-90.12242405260938",
    "latitude": "29.960458509846973",
    "geocoded_column": {
      "latitude": "29.960458509846973",
      "longitude": "-90.12242405260938"
    }
  },
  {
    "service_request": "2025-1199097",
    "request_type": "Trash/Recycling",
    "request_reason": "Order Trash Cart",
    "date_created": "2025-06-08T08:16:21.000",
    "date_modified": "2025-06-08T08:16:23.000",
    "request_status": "Pending",
    "responsible_agency": "Department of Sanitation",
    "final_address": "8507 Apple St",
    "address_councildis": "A",
    "status": "Assigned to Contractor",
    "contractor": "IV Waste",
    "rowid": "1199097",
    "final_x": "3664269.56672",
    "final_y": "533138.707396",
    "longitude": "-90.12242405260938",
    "latitude": "29.960458509846973",
    "geocoded_column": {
      "latitude": "29.960458509846973",
      "longitude": "-90.12242405260938"
    }
  },
  {
    "service_request": "2025-1199096",
    "request_type": "Streetlights",
    "request_reason": "Streetlight Outage/Malfunction",
    "date_created": "2025-06-08T07:48:04.000",
    "date_modified": "2025-06-08T07:48:07.000",
    "request_status": "Pending",
    "responsible_agency": "Department of Public Works",
    "final_address": "418 St Maurice Ave",
    "address_councildis": "E",
    "status": "Pending",
    "contractor": "Legacy Professional Services",
    "rowid": "1199096",
    "final_x": "3698861.35364",
    "final_y": "530970.91437",
    "longitude": "-90.01326972474594",
    "latitude": "29.95344733994234",
    "geocoded_column": {
      "latitude": "29.95344733994234",
      "longitude": "-90.01326972474594"
    }
  },
  {
    "service_request": "2025-1199095",
    "request_type": "Streetlights",
    "request_reason": "Streetlight Outage/Malfunction",
    "date_created": "2025-06-08T04:24:16.000",
    "date_modified": "2025-06-08T04:24:18.000",
    "request_status": "Pending",
    "responsible_agency": "Department of Public Works",
    "final_address": "3140 Dickens Dr",
    "address_councildis": "C",
    "status": "Pending",
    "contractor": "Legacy Professional Services",
    "rowid": "1199095",
    "final_x": "3708368.46923",
    "final_y": "518619.963447",
    "longitude": "-89.9837099135452",
    "latitude": "29.919182025938294",
    "geocoded_column": {
      "latitude": "29.919182025938294",
      "longitude": "-89.9837099135452"
    }
  },
  {
    "service_request": "2025-1199094",
    "request_type": "Abandoned Vehicles",
    "request_reason": "Abandoned/Junk Vehicles",
    "date_created": "2025-06-07T23:01:52.000",
    "date_modified": "2025-06-07T23:01:54.000",
    "request_status": "Pending",
    "responsible_agency": "Department of Public Works",
    "final_address": "1807 Lafitte Ave",
    "address_councildis": "D",
    "status": "Pending",
    "rowid": "1199094",
    "final_x": "3679187.88123",
    "final_y": "534670.055622",
    "longitude": "-90.07526195011006",
    "latitude": "29.964227267292916",
    "geocoded_column": {
      "latitude": "29.964227267292916",
      "longitude": "-90.07526195011006"
    }
  },
  {
    "service_request": "2025-1199093",
    "request_type": "Abandoned Vehicles",
    "request_reason": "Abandoned/Junk Vehicles",
    "date_created": "2025-06-07T22:55:43.000",
    "date_modified": "2025-06-07T22:55:45.000",
    "request_status": "Pending",
    "responsible_agency": "Department of Public Works",
    "final_address": "1807 Lafitte Ave",
    "address_councildis": "D",
    "status": "Pending",
    "rowid": "1199093",
    "final_x": "3679187.88123",
    "final_y": "534670.055622",
    "longitude": "-90.07526195011006",
    "latitude": "29.964227267292916",
    "geocoded_column": {
      "latitude": "29.964227267292916",
      "longitude": "-90.07526195011006"
    }
  },
  {
    "service_request": "2025-1199092",
    "request_type": "Abandoned Vehicles",
    "request_reason": "Abandoned/Junk Vehicles",
    "date_created": "2025-06-07T22:48:42.000",
    "date_modified": "2025-06-07T22:48:43.000",
    "request_status": "Pending",
    "responsible_agency": "Department of Public Works",
    "final_address": "1807 Lafitte Ave",
    "address_councildis": "D",
    "status": "Pending",
    "rowid": "1199092",
    "final_x": "3679187.88123",
    "final_y": "534670.055622",
    "longitude": "-90.07526195011006",
    "latitude": "29.964227267292916",
    "geocoded_column": {
      "latitude": "29.964227267292916",
      "longitude": "-90.07526195011006"
    }
  },
  {
    "service_request": "2025-1199091",
    "request_type": "Abandoned Vehicles",
    "request_reason": "Abandoned/Junk Vehicles",
    "date_created": "2025-06-07T22:44:55.000",
    "date_modified": "2025-06-07T22:44:57.000",
    "request_status": "Pending",
    "responsible_agency": "Department of Public Works",
    "final_address": "1807 Lafitte Ave",
    "address_councildis": "D",
    "status": "Pending",
    "rowid": "1199091",
    "final_x": "3679187.88123",
    "final_y": "534670.055622",
    "longitude": "-90.07526195011006",
    "latitude": "29.964227267292916",
    "geocoded_column": {
      "latitude": "29.964227267292916",
      "longitude": "-90.07526195011006"
    }
  },
  {
    "service_request": "2025-1199090",
    "request_type": "Trash/Recycling",
    "request_reason": "Request a Large Item Pick Up",
    "date_created": "2025-06-07T21:58:48.000",
    "date_modified": "2025-06-07T21:58:51.000",
    "request_status": "Pending",
    "responsible_agency": "Department of Sanitation",
    "final_address": "2405 Marengo St",
    "address_councildis": "B",
    "status": "Assigned to Contractor",
    "contractor": "IV Waste",
    "rowid": "1199090",
    "final_x": "3671713.86855",
    "final_y": "523864.085564",
    "longitude": "-90.09923183867426",
    "latitude": "29.934737924743803",
    "geocoded_column": {
      "latitude": "29.934737924743803",
      "longitude": "-90.09923183867426"
    }
  },
  {
    "service_request": "2025-1199089",
    "request_type": "Streetlights",
    "request_reason": "Streetlight Outage/Malfunction",
    "date_created": "2025-06-07T21:34:12.000",
    "date_modified": "2025-06-07T21:34:14.000",
    "request_status": "Pending",
    "responsible_agency": "Department of Public Works",
    "final_address": "327 18Th St",
    "address_councildis": "A",
    "status": "Pending",
    "contractor": "Legacy Professional Services",
    "rowid": "1199089",
    "final_x": "3664957.9097",
    "final_y": "548833.307731",
    "longitude": "-90.11972548078731",
    "latitude": "30.00359336681851",
    "geocoded_column": {
      "latitude": "30.00359336681851",
      "longitude": "-90.11972548078731"
    }
  },
  {
    "service_request": "2025-1199088",
    "request_type": "Streetlights",
    "request_reason": "Streetlight Outage/Malfunction",
    "date_created": "2025-06-07T21:32:01.000",
    "date_modified": "2025-06-07T21:32:04.000",
    "request_status": "Pending",
    "responsible_agency": "Department of Public Works",
    "final_address": "321 18Th St",
    "address_councildis": "A",
    "status": "Pending",
    "contractor": "Legacy Professional Services",
    "rowid": "1199088",
    "final_x": "3665007.8994",
    "final_y": "548830.474707",
    "longitude": "-90.11956764933998",
    "latitude": "30.003584121051393",
    "geocoded_column": {
      "latitude": "30.003584121051393",
      "longitude": "-90.11956764933998"
    }
  },
  {
    "service_request": "2025-1199087",
    "request_type": "Streetlights",
    "request_reason": "Streetlight Outage/Malfunction",
    "date_created": "2025-06-07T21:29:21.000",
    "date_modified": "2025-06-07T21:29:22.000",
    "request_status": "Pending",
    "responsible_agency": "Department of Public Works",
    "final_address": "315 16Th St",
    "address_councildis": "A",
    "status": "Pending",
    "contractor": "Legacy Professional Services",
    "rowid": "1199087",
    "final_x": "3665032.23764",
    "final_y": "548489.823826",
    "longitude": "-90.11950216086548",
    "latitude": "30.00264673966763",
    "geocoded_column": {
      "latitude": "30.00264673966763",
      "longitude": "-90.11950216086548"
    }
  },
  {
    "service_request": "2025-1199086",
    "request_type": "Property Maintenance",
    "request_reason": "Property Maintenance",
    "date_created": "2025-06-07T20:58:24.000",
    "date_modified": "2025-06-07T20:58:26.000",
    "request_status": "Pending",
    "responsible_agency": "Department of Code Enforcement",
    "final_address": "1818 Lamanche St",
    "address_councildis": "E",
    "status": "Pending",
    "rowid": "1199086",
    "final_x": "3699029.07108",
    "final_y": "536473.090055",
    "longitude": "-90.0125398858565",
    "latitude": "29.968571049259648",
    "geocoded_column": {
      "latitude": "29.968571049259648",
      "longitude": "-90.0125398858565"
    }
  },
  {
    "service_request": "2025-1199085",
    "request_type": "Trash/Recycling",
    "request_reason": "Repair Trash Cart",
    "date_created": "2025-06-07T20:48:31.000",
    "date_modified": "2025-06-07T20:48:33.000",
    "request_status": "Pending",
    "responsible_agency": "Department of Sanitation",
    "final_address": "636 Gallier St",
    "address_councildis": "C",
    "status": "Assigned to Contractor",
    "contractor": "IV Waste",
    "rowid": "1199085",
    "final_x": "3690033.70934",
    "final_y": "534085.941893",
    "longitude": "-90.04103265048641",
    "latitude": "29.96228926839954",
    "geocoded_column": {
      "latitude": "29.96228926839954",
      "longitude": "-90.04103265048641"
    }
  },
  {
    "service_request": "2025-1199084",
    "request_type": "Trash/Recycling",
    "request_reason": "Request a Large Item Pick Up",
    "date_created": "2025-06-07T20:48:02.000",
    "date_modified": "2025-06-07T20:48:04.000",
    "request_status": "Pending",
    "responsible_agency": "Department of Sanitation",
    "final_address": "2423 Soniat St",
    "address_councildis": "B",
    "status": "Assigned to Contractor",
    "contractor": "IV Waste",
    "rowid": "1199084",
    "final_x": "3668575.73524",
    "final_y": "524505.454908",
    "longitude": "-90.10911727145074",
    "latitude": "29.93659404648265",
    "geocoded_column": {
      "latitude": "29.93659404648265",
      "longitude": "-90.10911727145074"
    }
  },
  {
    "service_request": "2025-1199083",
    "request_type": "Abandoned Vehicles",
    "request_reason": "Abandoned/Junk Vehicles",
    "date_created": "2025-06-07T20:47:48.000",
    "date_modified": "2025-06-07T20:47:50.000",
    "request_status": "Pending",
    "responsible_agency": "Department of Public Works",
    "final_address": "2032 Second St",
    "address_councildis": "B",
    "status": "Pending",
    "rowid": "1199083",
    "final_x": "3675722.34561",
    "final_y": "524458.552892",
    "longitude": "-90.086556710071",
    "latitude": "29.93625319708284",
    "geocoded_column": {
      "latitude": "29.93625319708284",
      "longitude": "-90.086556710071"
    }
  },
  {
    "service_request": "2025-1199082",
    "request_type": "Safety & Permits",
    "request_reason": "Zoning Enforcement",
    "date_created": "2025-06-07T20:13:25.000",
    "date_modified": "2025-06-07T20:13:27.000",
    "request_status": "Pending",
    "responsible_agency": "Safety and Permits",
    "final_address": "1011 Lowerline St",
    "address_councildis": "A",
    "status": "Pending",
    "rowid": "1199082",
    "final_x": "3663382.48967",
    "final_y": "526310.724414",
    "longitude": "-90.12545256338173",
    "latitude": "29.941709506313412",
    "geocoded_column": {
      "latitude": "29.941709506313412",
      "longitude": "-90.12545256338173"
    }
  },
  {
    "service_request": "2025-1199081",
    "request_type": "Parks & Parkways",
    "request_reason": "Park Maintenance/Clean Up",
    "date_created": "2025-06-07T20:06:30.000",
    "date_modified": "2025-06-07T20:06:32.000",
    "request_status": "Pending",
    "responsible_agency": "Department of Parks & Parkway",
    "final_address": "4877 Laurel St",
    "address_councildis": "B",
    "status": "Pending",
    "rowid": "1199081",
    "final_x": "3669019.95425",
    "final_y": "517892.334326",
    "longitude": "-90.10793812367308",
    "latitude": "29.91839701307734",
    "geocoded_column": {
      "latitude": "29.91839701307734",
      "longitude": "-90.10793812367308"
    }
  },
  {
    "service_request": "2025-1199080",
    "request_type": "Trash/Recycling",
    "request_reason": "Order Recycling Cart",
    "date_created": "2025-06-07T20:00:52.000",
    "date_modified": "2025-06-07T20:00:54.000",
    "request_status": "Pending",
    "responsible_agency": "Department of Sanitation",
    "final_address": "4132 St Charles Ave",
    "address_councildis": "B",
    "status": "Pending",
    "rowid": "1199080",
    "final_x": "3671712.26548",
    "final_y": "520782.789241",
    "longitude": "-90.09934165922358",
    "latitude": "29.926265398527075",
    "geocoded_column": {
      "latitude": "29.926265398527075",
      "longitude": "-90.09934165922358"
    }
  },
  {
    "service_request": "2025-1199079",
    "request_type": "Trash/Recycling",
    "request_reason": "Request a Large Item Pick Up",
    "date_created": "2025-06-07T19:53:40.000",
    "date_modified": "2025-06-07T19:53:42.000",
    "request_status": "Pending",
    "responsible_agency": "Department of Sanitation",
    "final_address": "4217 Fontainebleau Dr",
    "address_councildis": "B",
    "status": "Assigned to Contractor",
    "contractor": "IV Waste",
    "rowid": "1199079",
    "final_x": "3669680.89095",
    "final_y": "529321.820801",
    "longitude": "-90.10546529861907",
    "latitude": "29.94980497587529",
    "geocoded_column": {
      "latitude": "29.94980497587529",
      "longitude": "-90.10546529861907"
    }
  },
  {
    "service_request": "2025-1199078",
    "request_type": "Trash/Recycling",
    "request_reason": "Request a Large Item Pick Up",
    "date_created": "2025-06-07T19:33:18.000",
    "date_modified": "2025-06-07T19:33:21.000",
    "request_status": "Pending",
    "responsible_agency": "Department of Sanitation",
    "final_address": "1426 New York St",
    "address_councildis": "D",
    "status": "Assigned to Contractor",
    "contractor": "IV Waste",
    "rowid": "1199078",
    "final_x": "3678068.50114",
    "final_y": "555537.699673",
    "longitude": "-90.07807494963707",
    "latitude": "30.02163970441623",
    "geocoded_column": {
      "latitude": "30.02163970441623",
      "longitude": "-90.07807494963707"
    }
  },
  {
    "service_request": "2025-1199077",
    "request_type": "Abandoned Vehicles",
    "request_reason": "Abandoned/Junk Vehicles",
    "date_created": "2025-06-07T19:13:20.000",
    "date_modified": "2025-06-07T19:13:22.000",
    "request_status": "Pending",
    "responsible_agency": "Department of Public Works",
    "final_address": "4912 Elysian Fields Ave",
    "address_councildis": "D",
    "status": "Pending",
    "rowid": "1199077",
    "final_x": "3683738.26479",
    "final_y": "550863.329813",
    "longitude": "-90.06032411759762",
    "latitude": "30.008614891315354",
    "geocoded_column": {
      "latitude": "30.008614891315354",
      "longitude": "-90.06032411759762"
    }
  },
  {
    "service_request": "2025-1199076",
    "request_type": "Trash/Recycling",
    "request_reason": "Return Trash Cart",
    "date_created": "2025-06-07T18:57:49.000",
    "date_modified": "2025-06-07T18:57:52.000",
    "request_status": "Pending",
    "responsible_agency": "Department of Sanitation",
    "final_address": "2120 Audubon St",
    "address_councildis": "A",
    "status": "Assigned to Contractor",
    "contractor": "IV Waste",
    "rowid": "1199076",
    "final_x": "3666266.63655",
    "final_y": "529152.753856",
    "longitude": "-90.1162513814703",
    "latitude": "29.949440256306634",
    "geocoded_column": {
      "latitude": "29.949440256306634",
      "longitude": "-90.1162513814703"
    }
  },
  {
    "service_request": "2025-1199075",
    "request_type": "Abandoned Vehicles",
    "request_reason": "Abandoned/Junk Vehicles",
    "date_created": "2025-06-07T18:55:54.000",
    "date_modified": "2025-06-07T18:55:57.000",
    "request_status": "Pending",
    "responsible_agency": "Department of Public Works",
    "final_address": "0 BLK Across St",
    "address_councildis": "E",
    "status": "Pending",
    "rowid": "1199075",
    "final_x": "3711887.63918",
    "final_y": "553972.247814",
    "longitude": "-89.97127534652184",
    "latitude": "30.01627326470007",
    "geocoded_column": {
      "latitude": "30.01627326470007",
      "longitude": "-89.97127534652184"
    }
  },
  {
    "service_request": "2025-1199074",
    "request_type": "Trash/Recycling",
    "request_reason": "Replace Trash Cart",
    "date_created": "2025-06-07T18:55:40.000",
    "date_modified": "2025-06-07T18:55:42.000",
    "request_status": "Pending",
    "responsible_agency": "Department of Sanitation",
    "final_address": "2104 Audubon St",
    "address_councildis": "A",
    "status": "Assigned to Contractor",
    "contractor": "IV Waste",
    "rowid": "1199074",
    "final_x": "3666197.60129",
    "final_y": "529053.228288",
    "longitude": "-90.11647269482489",
    "latitude": "29.949168609339075",
    "geocoded_column": {
      "latitude": "29.949168609339075",
      "longitude": "-90.11647269482489"
    }
  },
  {
    "service_request": "2025-1199073",
    "request_type": "Property Maintenance",
    "request_reason": "Property Maintenance",
    "date_created": "2025-06-07T18:30:04.000",
    "date_modified": "2025-06-07T18:30:07.000",
    "request_status": "Pending",
    "responsible_agency": "Department of Code Enforcement",
    "final_address": "9999 Lake Forest Blvd",
    "address_councildis": "E",
    "status": "Pending",
    "rowid": "1199073",
    "final_x": "3710976.71409",
    "final_y": "560035.412509",
    "longitude": "-89.97392616951281",
    "latitude": "30.032974325442808",
    "geocoded_column": {
      "latitude": "30.032974325442808",
      "longitude": "-89.97392616951281"
    }
  },
  {
    "service_request": "2025-1199072",
    "request_type": "Trash/Recycling",
    "request_reason": "Order Recycling Cart",
    "date_created": "2025-06-07T18:24:32.000",
    "date_modified": "2025-06-07T18:24:34.000",
    "request_status": "Pending",
    "responsible_agency": "Department of Sanitation",
    "final_address": "3115 Chippewa St",
    "address_councildis": "B",
    "status": "Pending",
    "rowid": "1199072",
    "final_x": "3676795.42709",
    "final_y": "518907.739255",
    "longitude": "-90.08336012253683",
    "latitude": "29.920958115540333",
    "geocoded_column": {
      "latitude": "29.920958115540333",
      "longitude": "-90.08336012253683"
    }
  },
  {
    "service_request": "2025-1199071",
    "request_type": "Trash/Recycling",
    "request_reason": "Request a Large Item Pick Up",
    "date_created": "2025-06-07T18:16:34.000",
    "date_modified": "2025-06-07T18:16:38.000",
    "request_status": "Pending",
    "responsible_agency": "Department of Sanitation",
    "final_address": "1424 Arabella St",
    "address_councildis": "A",
    "status": "Assigned to Contractor",
    "contractor": "IV Waste",
    "rowid": "1199071",
    "final_x": "3666262.52308",
    "final_y": "521122.607737",
    "longitude": "-90.11653361927125",
    "latitude": "29.927360045598025",
    "geocoded_column": {
      "latitude": "29.927360045598025",
      "longitude": "-90.11653361927125"
    }
  },
  {
    "service_request": "2025-1199070",
    "request_type": "Roads and Streets",
    "request_reason": "Pothole",
    "date_created": "2025-06-07T18:00:23.000",
    "date_modified": "2025-06-07T18:00:25.000",
    "request_status": "Pending",
    "responsible_agency": "Department of Public Works",
    "final_address": "2676 Jasmine St",
    "address_councildis": "D",
    "status": "Pending",
    "rowid": "1199070",
    "final_x": "3687634.77852",
    "final_y": "548097.290002",
    "longitude": "-90.0481118273831",
    "latitude": "30.000889682708436",
    "geocoded_column": {
      "latitude": "30.000889682708436",
      "longitude": "-90.0481118273831"
    }
  },
  {
    "service_request": "2025-1199069",
    "request_type": "Trash/Recycling",
    "request_reason": "Request a Large Item Pick Up",
    "date_created": "2025-06-07T17:56:32.000",
    "date_modified": "2025-06-07T17:56:34.000",
    "request_status": "Pending",
    "responsible_agency": "Department of Sanitation",
    "final_address": "2676 Jasmine St",
    "address_councildis": "D",
    "status": "Assigned to Contractor",
    "contractor": "IV Waste",
    "rowid": "1199069",
    "final_x": "3687634.77852",
    "final_y": "548097.290002",
    "longitude": "-90.0481118273831",
    "latitude": "30.000889682708436",
    "geocoded_column": {
      "latitude": "30.000889682708436",
      "longitude": "-90.0481118273831"
    }
  },
  {
    "service_request": "2025-1199068",
    "request_type": "Property Maintenance",
    "request_reason": "Property Maintenance",
    "date_created": "2025-06-07T17:53:20.000",
    "date_modified": "2025-06-07T17:53:22.000",
    "request_status": "Pending",
    "responsible_agency": "Department of Code Enforcement",
    "final_address": "2715 Chartres St",
    "address_councildis": "C",
    "status": "Pending",
    "rowid": "1199068",
    "final_x": "3687140.15017",
    "final_y": "534536.234565",
    "longitude": "-90.05015414433042",
    "latitude": "29.96361683251162",
    "geocoded_column": {
      "latitude": "29.96361683251162",
      "longitude": "-90.05015414433042"
    }
  },
  {
    "service_request": "2025-1199067",
    "request_type": "Abandoned Vehicles",
    "request_reason": "Abandoned/Junk Vehicles",
    "date_created": "2025-06-07T17:51:58.000",
    "date_modified": "2025-06-07T17:51:59.000",
    "request_status": "Pending",
    "responsible_agency": "Department of Public Works",
    "final_address": "816 Delachaise St",
    "address_councildis": "B",
    "status": "Pending",
    "rowid": "1199067",
    "final_x": "3675030.42158",
    "final_y": "518567.734647",
    "longitude": "-90.08894310869462",
    "latitude": "29.920076036436743",
    "geocoded_column": {
      "latitude": "29.920076036436743",
      "longitude": "-90.08894310869462"
    }
  },
  {
    "service_request": "2025-1199066",
    "request_type": "Trash/Recycling",
    "request_reason": "Order Second Trash Cart",
    "date_created": "2025-06-07T17:51:40.000",
    "date_modified": "2025-06-07T17:51:43.000",
    "request_status": "Pending",
    "responsible_agency": "Department of Sanitation",
    "final_address": "1750 Pressburg Dr",
    "address_councildis": "D",
    "status": "Assigned to Contractor",
    "contractor": "IV Waste",
    "rowid": "1199066",
    "final_x": "3680057.69455",
    "final_y": "554089.576728",
    "longitude": "-90.07184000403821",
    "latitude": "30.017597825132807",
    "geocoded_column": {
      "latitude": "30.017597825132807",
      "longitude": "-90.07184000403821"
    }
  },
  {
    "service_request": "2025-1199065",
    "request_type": "Trash/Recycling",
    "request_reason": "Repair Trash Cart",
    "date_created": "2025-06-07T17:36:11.000",
    "date_modified": "2025-06-07T17:36:13.000",
    "request_status": "Pending",
    "responsible_agency": "Department of Sanitation",
    "final_address": "1510 Murl St",
    "address_councildis": "C",
    "status": "Assigned to Contractor",
    "contractor": "Richards Disposal",
    "rowid": "1199065",
    "final_x": "3695442.38659",
    "final_y": "525761.544445",
    "longitude": "-90.02425323916324",
    "latitude": "29.93923124402799",
    "geocoded_column": {
      "latitude": "29.93923124402799",
      "longitude": "-90.02425323916324"
    }
  },
  {
    "service_request": "2025-1199064",
    "request_type": "Parks & Parkways",
    "request_reason": "Request Tree Service (Right of Way/Public Property)",
    "date_created": "2025-06-07T16:58:52.000",
    "date_modified": "2025-06-07T16:58:53.000",
    "request_status": "Pending",
    "responsible_agency": "Department of Parks & Parkway",
    "final_address": "5430 Norgate Dr",
    "address_councildis": "E",
    "status": "Pending",
    "rowid": "1199064",
    "final_x": "3707138.88017",
    "final_y": "557812.371547",
    "longitude": "-89.9861365716032",
    "latitude": "30.026986470451586",
    "geocoded_column": {
      "latitude": "30.026986470451586",
      "longitude": "-89.9861365716032"
    }
  },
  {
    "service_request": "2025-1199063",
    "request_type": "Abandoned Vehicles",
    "request_reason": "Abandoned/Junk Vehicles",
    "date_created": "2025-06-07T16:58:22.000",
    "date_modified": "2025-06-07T16:58:23.000",
    "request_status": "Pending",
    "responsible_agency": "Department of Public Works",
    "final_address": "2900 BLK N Rocheblave St",
    "address_councildis": "D",
    "status": "Pending",
    "rowid": "1199063",
    "final_x": "3688815.44812",
    "final_y": "541244.950762",
    "longitude": "-90.04462547300203",
    "latitude": "29.982011747842478",
    "geocoded_column": {
      "latitude": "29.982011747842478",
      "longitude": "-90.04462547300203"
    }
  },
  {
    "service_request": "2025-1199062",
    "request_type": "Trash/Recycling",
    "request_reason": "Order Recycling Cart",
    "date_created": "2025-06-07T16:53:49.000",
    "date_modified": "2025-06-07T16:53:51.000",
    "request_status": "Pending",
    "responsible_agency": "Department of Sanitation",
    "final_address": "5534 Pratt Dr",
    "address_councildis": "D",
    "status": "Pending",
    "rowid": "1199062",
    "final_x": "3680249.73403",
    "final_y": "552905.250839",
    "longitude": "-90.07127445052097",
    "latitude": "30.014335543798907",
    "geocoded_column": {
      "latitude": "30.014335543798907",
      "longitude": "-90.07127445052097"
    }
  },
  {
    "service_request": "2025-1199061",
    "request_type": "Trash/Recycling",
    "request_reason": "Illegal Dumping",
    "date_created": "2025-06-07T16:37:26.000",
    "date_modified": "2025-06-07T16:37:29.000",
    "request_status": "Pending",
    "responsible_agency": "Department of Sanitation",
    "final_address": "1101 Annunciation St",
    "address_councildis": "B",
    "status": "Pending",
    "rowid": "1199061",
    "final_x": "3681533.62088",
    "final_y": "526047.77875",
    "longitude": "-90.06815494817161",
    "latitude": "29.940447893583688",
    "geocoded_column": {
      "latitude": "29.940447893583688",
      "longitude": "-90.06815494817161"
    }
  },
  {
    "service_request": "2025-1199060",
    "request_type": "Abandoned Vehicles",
    "request_reason": "Abandoned/Junk Vehicles",
    "date_created": "2025-06-07T16:18:23.000",
    "date_modified": "2025-06-07T16:18:25.000",
    "request_status": "Pending",
    "responsible_agency": "Department of Public Works",
    "final_address": "7022 St Charles Ave",
    "address_councildis": "A",
    "status": "Pending",
    "rowid": "1199060",
    "final_x": "3663233.22074",
    "final_y": "524364.585148",
    "longitude": "-90.12598857977886",
    "latitude": "29.936362567912056",
    "geocoded_column": {
      "latitude": "29.936362567912056",
      "longitude": "-90.12598857977886"
    }
  },
  {
    "service_request": "2025-1199059",
    "request_type": "Abandoned Vehicles",
    "request_reason": "Abandoned/Junk Vehicles",
    "date_created": "2025-06-07T16:16:44.000",
    "date_modified": "2025-06-07T16:16:45.000",
    "request_status": "Pending",
    "responsible_agency": "Department of Public Works",
    "final_address": "7022 St Charles Ave",
    "address_councildis": "A",
    "status": "Pending",
    "rowid": "1199059",
    "final_x": "3663233.22074",
    "final_y": "524364.585148",
    "longitude": "-90.12598857977886",
    "latitude": "29.936362567912056",
    "geocoded_column": {
      "latitude": "29.936362567912056",
      "longitude": "-90.12598857977886"
    }
  },
  {
    "service_request": "2025-1199058",
    "request_type": "Abandoned Vehicles",
    "request_reason": "Abandoned/Junk Vehicles",
    "date_created": "2025-06-07T16:10:54.000",
    "date_modified": "2025-06-07T16:10:56.000",
    "request_status": "Pending",
    "responsible_agency": "Department of Public Works",
    "final_address": "2511 Rousseau St",
    "address_councildis": "B",
    "status": "Pending",
    "rowid": "1199058",
    "final_x": "3678858.53115",
    "final_y": "519502.956151",
    "longitude": "-90.07682723306839",
    "latitude": "29.92253272358634",
    "geocoded_column": {
      "latitude": "29.92253272358634",
      "longitude": "-90.07682723306839"
    }
  },
  {
    "service_request": "2025-1199057",
    "request_type": "Abandoned Vehicles",
    "request_reason": "Abandoned/Junk Vehicles",
    "date_created": "2025-06-07T16:05:44.000",
    "date_modified": "2025-06-07T16:05:47.000",
    "request_status": "Pending",
    "responsible_agency": "Department of Public Works",
    "final_address": "941 Second St",
    "address_councildis": "B",
    "status": "Pending",
    "rowid": "1199057",
    "final_x": "3678096.42062",
    "final_y": "520978.924857",
    "longitude": "-90.07918191551167",
    "latitude": "29.92661411558879",
    "geocoded_column": {
      "latitude": "29.92661411558879",
      "longitude": "-90.07918191551167"
    }
  },
  {
    "service_request": "2025-1199056",
    "request_type": "Health Related Request",
    "request_reason": "Noise Ordinance Complaint",
    "date_created": "2025-06-07T15:57:06.000",
    "date_modified": "2025-06-07T15:57:07.000",
    "request_status": "Pending",
    "responsible_agency": "Health Department",
    "final_address": "2820 Louisiana Ave",
    "address_councildis": "B",
    "status": "Pending",
    "rowid": "1199056",
    "final_x": "3672349.60686",
    "final_y": "525636.450941",
    "longitude": "-90.09716445516692",
    "latitude": "29.939592511646122",
    "geocoded_column": {
      "latitude": "29.939592511646122",
      "longitude": "-90.09716445516692"
    }
  },
  {
    "service_request": "2025-1199055",
    "request_type": "Property Maintenance",
    "request_reason": "Property Maintenance",
    "date_created": "2025-06-07T15:56:22.000",
    "date_modified": "2025-06-07T15:56:23.000",
    "request_status": "Pending",
    "responsible_agency": "Department of Code Enforcement",
    "final_address": "1340 St Anthony St",
    "address_councildis": "C",
    "status": "Pending",
    "rowid": "1199055",
    "final_x": "3683396.12745",
    "final_y": "536884.075528",
    "longitude": "-90.06189509761259",
    "latitude": "29.970187340731506",
    "geocoded_column": {
      "latitude": "29.970187340731506",
      "longitude": "-90.06189509761259"
    }
  },
  {
    "service_request": "2025-1199054",
    "request_type": "Trash/Recycling",
    "request_reason": "Repair Trash Cart",
    "date_created": "2025-06-07T15:49:04.000",
    "date_modified": "2025-06-07T15:49:09.000",
    "request_status": "Pending",
    "responsible_agency": "Department of Sanitation",
    "final_address": "1000 BLK Eleonore St",
    "address_councildis": "A",
    "status": "Assigned to Contractor",
    "contractor": "IV Waste",
    "rowid": "1199054",
    "final_x": "3665410.19276",
    "final_y": "519900.718188",
    "longitude": "-90.1192650927513",
    "latitude": "29.92402509422458",
    "geocoded_column": {
      "latitude": "29.92402509422458",
      "longitude": "-90.1192650927513"
    }
  },
  {
    "service_request": "2025-1199053",
    "request_type": "Roads and Streets",
    "request_reason": "Sidewalk Damaged or Missing",
    "date_created": "2025-06-07T15:41:55.000",
    "date_modified": "2025-06-07T15:41:57.000",
    "request_status": "Pending",
    "responsible_agency": "Department of Public Works",
    "final_address": "1927 Dauphine St",
    "address_councildis": "C",
    "status": "Pending",
    "rowid": "1199053",
    "final_x": "3684191.85314",
    "final_y": "535177.630342",
    "longitude": "-90.05944203007164",
    "latitude": "29.96547090513104",
    "geocoded_column": {
      "latitude": "29.96547090513104",
      "longitude": "-90.05944203007164"
    }
  },
  {
    "service_request": "2025-1199052",
    "request_type": "Roads and Streets",
    "request_reason": "Sidewalk Damaged or Missing",
    "date_created": "2025-06-07T15:40:42.000",
    "date_modified": "2025-06-07T15:40:45.000",
    "request_status": "Pending",
    "responsible_agency": "Department of Public Works",
    "final_address": "1927 Dauphine St",
    "address_councildis": "C",
    "status": "Pending",
    "rowid": "1199052",
    "final_x": "3684191.85314",
    "final_y": "535177.630342",
    "longitude": "-90.05944203007164",
    "latitude": "29.96547090513104",
    "geocoded_column": {
      "latitude": "29.96547090513104",
      "longitude": "-90.05944203007164"
    }
  },
  {
    "service_request": "2025-1199051",
    "request_type": "Trash/Recycling",
    "request_reason": "Order Recycling Cart",
    "date_created": "2025-06-07T15:28:19.000",
    "date_modified": "2025-06-07T15:28:21.000",
    "request_status": "Pending",
    "responsible_agency": "Department of Sanitation",
    "final_address": "625 S Alexander St",
    "address_councildis": "A",
    "status": "Pending",
    "rowid": "1199051",
    "final_x": "3668636.94478",
    "final_y": "537448.626184",
    "longitude": "-90.10848723355447",
    "latitude": "29.972181722370827",
    "geocoded_column": {
      "latitude": "29.972181722370827",
      "longitude": "-90.10848723355447"
    }
  },
  {
    "service_request": "2025-1199050",
    "request_type": "Trash/Recycling",
    "request_reason": "Request a Large Item Pick Up",
    "date_created": "2025-06-07T14:03:03.000",
    "date_modified": "2025-06-07T14:03:10.000",
    "request_status": "Pending",
    "responsible_agency": "Department of Sanitation",
    "final_address": "4832 Annunciation St",
    "address_councildis": "B",
    "status": "Assigned to Contractor",
    "contractor": "IV Waste",
    "rowid": "1199050",
    "final_x": "3669418.1202",
    "final_y": "517539.61375",
    "longitude": "-90.10669324112075",
    "latitude": "29.917415428291946",
    "geocoded_column": {
      "latitude": "29.917415428291946",
      "longitude": "-90.10669324112075"
    }
  },
  {
    "service_request": "2025-1199049",
    "request_type": "Trash/Recycling",
    "request_reason": "Request a Large Item Pick Up",
    "date_created": "2025-06-07T13:37:54.000",
    "date_modified": "2025-06-07T13:37:56.000",
    "request_status": "Pending",
    "responsible_agency": "Department of Sanitation",
    "final_address": "3812 N Johnson St",
    "address_councildis": "D",
    "status": "Assigned to Contractor",
    "contractor": "IV Waste",
    "rowid": "1199049",
    "final_x": "3692158.80227",
    "final_y": "538750.781961",
    "longitude": "-90.03415492052876",
    "latitude": "29.975049858106217",
    "geocoded_column": {
      "latitude": "29.975049858106217",
      "longitude": "-90.03415492052876"
    }
  },
  {
    "service_request": "2025-1199048",
    "request_type": "Trash/Recycling",
    "request_reason": "Replace Recycling Cart",
    "date_created": "2025-06-07T13:28:48.000",
    "date_modified": "2025-06-07T13:28:49.000",
    "request_status": "Pending",
    "responsible_agency": "Department of Sanitation",
    "final_address": "2339 General Pershing St",
    "address_councildis": "B",
    "status": "Pending",
    "rowid": "1199048",
    "final_x": "3671022.44033",
    "final_y": "523706.335739",
    "longitude": "-90.10142002556039",
    "latitude": "29.934324621961547",
    "geocoded_column": {
      "latitude": "29.934324621961547",
      "longitude": "-90.10142002556039"
    }
  },
  {
    "service_request": "2025-1199047",
    "request_type": "Graffiti Removal",
    "request_reason": "Graffiti Removal",
    "date_created": "2025-06-07T13:28:08.000",
    "date_modified": "2025-06-07T13:28:10.000",
    "request_status": "Pending",
    "responsible_agency": "Department of Code Enforcement",
    "final_address": "1204 N Rampart St",
    "address_councildis": "C",
    "status": "Pending",
    "rowid": "1199047",
    "final_x": "3682570.77967",
    "final_y": "534798.011398",
    "longitude": "-90.06457457703021",
    "latitude": "29.964476539160604",
    "geocoded_column": {
      "latitude": "29.964476539160604",
      "longitude": "-90.06457457703021"
    }
  },
  {
    "service_request": "2025-1199046",
    "request_type": "Trash/Recycling",
    "request_reason": "Damaged Caused By Contractor",
    "date_created": "2025-06-07T13:13:46.000",
    "date_modified": "2025-06-07T13:13:48.000",
    "request_status": "Pending",
    "responsible_agency": "Department of Sanitation",
    "final_address": "4321 Dryades St",
    "address_councildis": "B",
    "status": "Assigned to Contractor",
    "contractor": "IV Waste",
    "rowid": "1199046",
    "final_x": "3670947.28667",
    "final_y": "522033.951034",
    "longitude": "-90.10171403315861",
    "latitude": "29.929728323373396",
    "geocoded_column": {
      "latitude": "29.929728323373396",
      "longitude": "-90.10171403315861"
    }
  },
  {
    "service_request": "2025-1199045",
    "request_type": "Roads and Streets",
    "request_reason": "Pothole",
    "date_created": "2025-06-07T13:10:15.000",
    "date_modified": "2025-06-07T13:10:17.000",
    "request_status": "Pending",
    "responsible_agency": "Department of Public Works",
    "final_address": "2418 Rousseau St",
    "address_councildis": "B",
    "status": "Pending",
    "rowid": "1199045",
    "final_x": "3679202.23778",
    "final_y": "519502.010551",
    "longitude": "-90.07574232241964",
    "latitude": "29.92251975544145",
    "geocoded_column": {
      "latitude": "29.92251975544145",
      "longitude": "-90.07574232241964"
    }
  },
  {
    "service_request": "2025-1199044",
    "request_type": "Roads and Streets",
    "request_reason": "Street Subsidence (Sinking)",
    "date_created": "2025-06-07T13:09:37.000",
    "date_modified": "2025-06-07T13:09:39.000",
    "request_status": "Pending",
    "responsible_agency": "Department of Public Works",
    "final_address": "4118 St Peter St",
    "address_councildis": "A",
    "status": "Pending",
    "rowid": "1199044",
    "final_x": "3672386.27783",
    "final_y": "540024.505995",
    "longitude": "-90.09655837921024",
    "latitude": "29.97915378268119",
    "geocoded_column": {
      "latitude": "29.97915378268119",
      "longitude": "-90.09655837921024"
    }
  },
  {
    "service_request": "2025-1199043",
    "request_type": "Roads and Streets",
    "request_reason": "Sidewalk Damaged or Missing",
    "date_created": "2025-06-07T13:08:25.000",
    "date_modified": "2025-06-07T13:08:27.000",
    "request_status": "Pending",
    "responsible_agency": "Department of Public Works",
    "final_address": "4321 Dryades St",
    "address_councildis": "B",
    "status": "Pending",
    "rowid": "1199043",
    "final_x": "3670947.28667",
    "final_y": "522033.951034",
    "longitude": "-90.10171403315861",
    "latitude": "29.929728323373396",
    "geocoded_column": {
      "latitude": "29.929728323373396",
      "longitude": "-90.10171403315861"
    }
  },
  {
    "service_request": "2025-1199042",
    "request_type": "Utility Poles",
    "request_reason": "Wires Sagging/Hanging Low",
    "date_created": "2025-06-07T13:07:55.000",
    "date_modified": "2025-06-07T13:07:58.000",
    "request_status": "Pending",
    "responsible_agency": "Utility Company Collective",
    "final_address": "412 39Th St",
    "address_councildis": "A",
    "status": "Pending",
    "rowid": "1199042",
    "final_x": "3664948.18516",
    "final_y": "552978.735703",
    "longitude": "-90.11961748367543",
    "latitude": "30.014992137059053",
    "geocoded_column": {
      "latitude": "30.014992137059053",
      "longitude": "-90.11961748367543"
    }
  },
  {
    "service_request": "2025-1199041",
    "request_type": "General Services",
    "request_reason": "General Service Request",
    "date_created": "2025-06-07T13:04:16.000",
    "date_modified": "2025-06-07T13:04:17.000",
    "request_status": "Pending",
    "responsible_agency": "Orleans Parish Communication District",
    "final_address": "1810 Hastings Pl",
    "address_councildis": "B",
    "status": "Pending",
    "rowid": "1199041",
    "final_x": "3680005.43746",
    "final_y": "522899.734267",
    "longitude": "-90.07308898467318",
    "latitude": "29.931838119788328",
    "geocoded_column": {
      "latitude": "29.931838119788328",
      "longitude": "-90.07308898467318"
    }
  },
  {
    "service_request": "2025-1199040",
    "request_type": "Parks & Parkways",
    "request_reason": "Request Tree Service (Right of Way/Public Property)",
    "date_created": "2025-06-07T13:02:06.000",
    "date_modified": "2025-06-07T13:02:08.000",
    "request_status": "Pending",
    "responsible_agency": "Department of Parks & Parkway",
    "final_address": "4321 Dryades St",
    "address_councildis": "B",
    "status": "Pending",
    "rowid": "1199040",
    "final_x": "3670947.28667",
    "final_y": "522033.951034",
    "longitude": "-90.10171403315861",
    "latitude": "29.929728323373396",
    "geocoded_column": {
      "latitude": "29.929728323373396",
      "longitude": "-90.10171403315861"
    }
  },
  {
    "service_request": "2025-1199039",
    "request_type": "Property Maintenance",
    "request_reason": "Property Maintenance",
    "date_created": "2025-06-07T12:28:51.000",
    "date_modified": "2025-06-07T12:28:52.000",
    "request_status": "Pending",
    "responsible_agency": "Department of Code Enforcement",
    "final_address": "5919 Morrison Rd",
    "address_councildis": "D",
    "status": "Pending",
    "rowid": "1199039",
    "final_x": "3695355.44778",
    "final_y": "557660.549339",
    "longitude": "-90.02337638113504",
    "latitude": "30.026944689332144",
    "geocoded_column": {
      "latitude": "30.026944689332144",
      "longitude": "-90.02337638113504"
    }
  },
  {
    "service_request": "2025-1199038",
    "request_type": "Health Related Request",
    "request_reason": "Homeless Encampment Complaint",
    "date_created": "2025-06-07T12:28:04.000",
    "date_modified": "2025-06-07T12:28:06.000",
    "request_status": "Pending",
    "responsible_agency": "Health Department",
    "final_address": "5011 Camp St",
    "address_councildis": "B",
    "status": "Pending",
    "rowid": "1199038",
    "final_x": "3668547.13274",
    "final_y": "518999.438199",
    "longitude": "-90.10939324641774",
    "latitude": "29.92145509488807",
    "geocoded_column": {
      "latitude": "29.92145509488807",
      "longitude": "-90.10939324641774"
    }
  },
  {
    "service_request": "2025-1199037",
    "request_type": "Trash/Recycling",
    "request_reason": "Request a Large Item Pick Up",
    "date_created": "2025-06-07T12:12:21.000",
    "date_modified": "2025-06-07T12:12:22.000",
    "request_status": "Pending",
    "responsible_agency": "Department of Sanitation",
    "final_address": "3140 Laurel St",
    "address_councildis": "B",
    "status": "Assigned to Contractor",
    "contractor": "IV Waste",
    "rowid": "1199037",
    "final_x": "3676219.84981",
    "final_y": "519362.989047",
    "longitude": "-90.0851613076406",
    "latitude": "29.922227158052625",
    "geocoded_column": {
      "latitude": "29.922227158052625",
      "longitude": "-90.0851613076406"
    }
  },
  {
    "service_request": "2025-1199036",
    "request_type": "Trash/Recycling",
    "request_reason": "Request a Large Item Pick Up",
    "date_created": "2025-06-07T12:10:14.000",
    "date_modified": "2025-06-07T12:10:16.000",
    "request_status": "Pending",
    "responsible_agency": "Department of Sanitation",
    "final_address": "3140 Laurel St",
    "address_councildis": "B",
    "status": "Assigned to Contractor",
    "contractor": "IV Waste",
    "rowid": "1199036",
    "final_x": "3676219.84981",
    "final_y": "519362.989047",
    "longitude": "-90.0851613076406",
    "latitude": "29.922227158052625",
    "geocoded_column": {
      "latitude": "29.922227158052625",
      "longitude": "-90.0851613076406"
    }
  },
  {
    "service_request": "2025-1199035",
    "request_type": "Trash/Recycling",
    "request_reason": "Replace Recycling Cart",
    "date_created": "2025-06-07T12:08:12.000",
    "date_modified": "2025-06-07T12:08:13.000",
    "request_status": "Pending",
    "responsible_agency": "Department of Sanitation",
    "final_address": "7425 Dominican St",
    "address_councildis": "A",
    "status": "Pending",
    "rowid": "1199035",
    "final_x": "3661991.00826",
    "final_y": "524610.097852",
    "longitude": "-90.12990216706399",
    "latitude": "29.93707358198895",
    "geocoded_column": {
      "latitude": "29.93707358198895",
      "longitude": "-90.12990216706399"
    }
  },
  {
    "service_request": "2025-1199034",
    "request_type": "Streetlights",
    "request_reason": "Streetlight Outage/Malfunction",
    "date_created": "2025-06-07T12:05:04.000",
    "date_modified": "2025-06-07T12:05:05.000",
    "request_status": "Pending",
    "responsible_agency": "Department of Public Works",
    "final_address": "321 Germain St",
    "address_councildis": "A",
    "status": "Pending",
    "contractor": "Legacy Professional Services",
    "rowid": "1199034",
    "final_x": "3667280.54618",
    "final_y": "548086.384594",
    "longitude": "-90.11241301126148",
    "latitude": "30.001471741012455",
    "geocoded_column": {
      "latitude": "30.001471741012455",
      "longitude": "-90.11241301126148"
    }
  },
  {
    "service_request": "2025-1199033",
    "request_type": "Streetlights",
    "request_reason": "Streetlight Outage/Malfunction",
    "date_created": "2025-06-07T12:00:29.000",
    "date_modified": "2025-06-07T12:00:31.000",
    "request_status": "Pending",
    "responsible_agency": "Department of Public Works",
    "final_address": "321 Germain St",
    "address_councildis": "A",
    "status": "Pending",
    "contractor": "Legacy Professional Services",
    "rowid": "1199033",
    "final_x": "3667280.54618",
    "final_y": "548086.384594",
    "longitude": "-90.11241301126148",
    "latitude": "30.001471741012455",
    "geocoded_column": {
      "latitude": "30.001471741012455",
      "longitude": "-90.11241301126148"
    }
  },
  {
    "service_request": "2025-1199032",
    "request_type": "Traffic Signals",
    "request_reason": "Traffic Signal Malfunctioning or Damaged",
    "date_created": "2025-06-07T11:55:46.000",
    "date_modified": "2025-06-07T11:55:48.000",
    "request_status": "Pending",
    "responsible_agency": "Department of Public Works",
    "final_address": "CANAL ST & S GALVEZ ST & N GALVEZ ST",
    "address_councildis": "B",
    "status": "Pending",
    "rowid": "1199032",
    "final_x": "3677037.6",
    "final_y": "533879.68",
    "longitude": "-90.08207961809202",
    "latitude": "29.962118743098863",
    "geocoded_column": {
      "latitude": "29.962118743098863",
      "longitude": "-90.08207961809202"
    }
  },
  {
    "service_request": "2025-1199031",
    "request_type": "Drainage",
    "request_reason": "Street Flooding",
    "date_created": "2025-06-07T11:45:46.000",
    "date_modified": "2025-06-07T11:45:48.000",
    "request_status": "Pending",
    "responsible_agency": "Sewerage & Water Board",
    "final_address": "1126 Adams St",
    "address_councildis": "A",
    "status": "Pending",
    "rowid": "1199031",
    "final_x": "3662941.20608",
    "final_y": "527321.918271",
    "longitude": "-90.12681217610627",
    "latitude": "29.944502750062995",
    "geocoded_column": {
      "latitude": "29.944502750062995",
      "longitude": "-90.12681217610627"
    }
  },
  {
    "service_request": "2025-1199030",
    "request_type": "Trash/Recycling",
    "request_reason": "Order Recycling Cart",
    "date_created": "2025-06-07T11:20:38.000",
    "date_modified": "2025-06-07T11:20:40.000",
    "request_status": "Pending",
    "responsible_agency": "Department of Sanitation",
    "final_address": "6377 Catina St",
    "address_councildis": "A",
    "status": "Pending",
    "rowid": "1199030",
    "final_x": "3667028.44199",
    "final_y": "550207.913748",
    "longitude": "-90.1131380650241",
    "latitude": "30.007312593947862",
    "geocoded_column": {
      "latitude": "30.007312593947862",
      "longitude": "-90.1131380650241"
    }
  },
  {
    "service_request": "2025-1199029",
    "request_type": "General Services",
    "request_reason": "General Service Request",
    "date_created": "2025-06-07T10:59:00.000",
    "date_modified": "2025-06-07T10:59:02.000",
    "request_status": "Pending",
    "responsible_agency": "Orleans Parish Communication District",
    "final_address": "7203 Benjamin St",
    "address_councildis": "A",
    "status": "Pending",
    "rowid": "1199029",
    "final_x": "3662364.40736",
    "final_y": "523975.348156",
    "longitude": "-90.12874438578628",
    "latitude": "29.935317432462885",
    "geocoded_column": {
      "latitude": "29.935317432462885",
      "longitude": "-90.12874438578628"
    }
  },
  {
    "service_request": "2025-1199027",
    "request_type": "Property Maintenance",
    "request_reason": "Property Maintenance",
    "date_created": "2025-06-07T10:48:26.000",
    "date_modified": "2025-06-07T10:48:28.000",
    "request_status": "Pending",
    "responsible_agency": "Department of Code Enforcement",
    "final_address": "7847 Devine Ave",
    "address_councildis": "E",
    "status": "Pending",
    "rowid": "1199027",
    "final_x": "3705364.93847",
    "final_y": "563750.633121",
    "longitude": "-89.99152227533945",
    "latitude": "30.04337158546476",
    "geocoded_column": {
      "latitude": "30.04337158546476",
      "longitude": "-89.99152227533945"
    }
  },
  {
    "service_request": "2025-1199028",
    "request_type": "Property Maintenance",
    "request_reason": "Property Maintenance",
    "date_created": "2025-06-07T10:48:26.000",
    "date_modified": "2025-06-07T10:48:28.000",
    "request_status": "Pending",
    "responsible_agency": "Department of Code Enforcement",
    "final_address": "7847 Devine Ave",
    "address_councildis": "E",
    "status": "Pending",
    "rowid": "1199028",
    "final_x": "3705364.93847",
    "final_y": "563750.633121",
    "longitude": "-89.99152227533945",
    "latitude": "30.04337158546476",
    "geocoded_column": {
      "latitude": "30.04337158546476",
      "longitude": "-89.99152227533945"
    }
  },
  {
    "service_request": "2025-1199026",
    "request_type": "Property Maintenance",
    "request_reason": "Property Maintenance",
    "date_created": "2025-06-07T10:37:56.000",
    "date_modified": "2025-06-07T10:37:59.000",
    "request_status": "Pending",
    "responsible_agency": "Department of Code Enforcement",
    "final_address": "7901 Devine Ave",
    "address_councildis": "E",
    "status": "Pending",
    "rowid": "1199026",
    "final_x": "3705310.89745",
    "final_y": "563839.626145",
    "longitude": "-89.99168977325742",
    "latitude": "30.04361802092966",
    "geocoded_column": {
      "latitude": "30.04361802092966",
      "longitude": "-89.99168977325742"
    }
  },