[
  {
    "service_request": "2025-1165786",
    "request_type": "Trash/Recycling",
    "request_reason": "Missed Trash Pick-Up",
    "date_created": "2025-01-31T23:54:54.000",
    "date_modified": "2025-01-31T23:54:56.000",
    "request_status": "Pending",
    "responsible_agency": "Department of Sanitation",
    "final_address": "2113 Toledano St",
    "address_councildis": "B",
    "status": "Assigned to Contractor",
    "contractor": "IV Waste",
    "rowid": "1165786",
    "final_x": "3673838.64392",
    "final_y": "523478.890491",
    "longitude": "-90.0925371159095",
    "latitude": "29.933615667738376",
    "geocoded_column": {
      "latitude": "29.933615667738376",
      "longitude": "-90.0925371159095"
    }
  },
  {
    "service_request": "2025-1165785",
    "request_type": "EMS",
    "request_reason": "EMS Lost & Found",
    "date_created": "2025-01-31T23:26:53.000",
    "date_modified": "2025-01-31T23:26:56.000",
    "request_status": "Pending",
    "responsible_agency": "Emergency Medical Services",
    "final_address": " & ECONOMICS ST",
    "address_councildis": "D",
    "status": "Pending",
    "rowid": "1165785",
    "final_x": "3688215.13",
    "final_y": "559340.33",
    "longitude": "-90.04587938571166",
    "latitude": "30.031785975160673",
    "geocoded_column": {
      "latitude": "30.031785975160673",
      "longitude": "-90.04587938571166"
    }
  },
  {
    "service_request": "2025-1165784",
    "request_type": "Healthy Homes",
    "request_reason": "Healthy Homes",
    "date_created": "2025-01-31T23:23:34.000",
    "date_modified": "2025-01-31T23:23:36.000",
    "request_status": "Pending",
    "responsible_agency": "Department of Code Enforcement",
    "final_address": " & PHILOSOPHY ST & PAGE LN",
    "address_councildis": "D",
    "status": "Pending",
    "rowid": "1165784",
    "final_x": "3688502.83",
    "final_y": "559723.86",
    "longitude": "-90.04495661290659",
    "latitude": "30.032831646605494",
    "geocoded_column": {
      "latitude": "30.032831646605494",
      "longitude": "-90.04495661290659"
    }
  },
  {
    "service_request": "2025-1165782",
    "request_type": "Drainage",
    "request_reason": "Street Flooding",
    "date_created": "2025-01-31T23:14:09.000",
    "date_modified": "2025-01-31T23:14:11.000",
    "request_status": "Pending",
    "responsible_agency": "Department of Public Works",
    "final_address": "2827 LaSalle St",
    "address_councildis": "B",
    "status": "Pending",
    "rowid": "1165782",
    "final_x": "3673917.26638",
    "final_y": "524756.415676",
    "longitude": "-90.0922452252079",
    "latitude": "29.937126105226177",
    "geocoded_column": {
      "latitude": "29.937126105226177",
      "longitude": "-90.0922452252079"
    }
  },
  {
    "service_request": "2025-1165781",
    "request_type": "Family Reunification",
    "request_reason": "Misplaced Citizen",
    "date_created": "2025-01-31T23:10:29.000",
    "date_modified": "2025-01-31T23:10:31.000",
    "request_status": "Pending",
    "responsible_agency": "Health Department",
    "final_address": " & SCIENCE ST",
    "address_councildis": "D",
    "status": "Pending",
    "rowid": "1165781",
    "final_x": "3688686.61",
    "final_y": "559815.12",
    "longitude": "-90.04437260936913",
    "latitude": "30.033076894021022",
    "geocoded_column": {
      "latitude": "30.033076894021022",
      "longitude": "-90.04437260936913"
    }
  },
  {
    "service_request": "2025-1165780",
    "request_type": "General Services",
    "request_reason": "General Service Request",
    "date_created": "2025-01-31T22:48:07.000",
    "date_modified": "2025-01-31T22:48:10.000",
    "request_status": "Pending",
    "responsible_agency": "Orleans Parish Communication District",
    "final_address": "2017 Lafitte Ave",
    "address_councildis": "D",
    "status": "Pending",
    "rowid": "1165780",
    "final_x": "3678501.75976",
    "final_y": "535107.329606",
    "longitude": "-90.07741352934042",
    "latitude": "29.965450318011097",
    "geocoded_column": {
      "latitude": "29.965450318011097",
      "longitude": "-90.07741352934042"
    }
  },
  {
    "service_request": "2025-1165779",
    "request_type": "General Services",
    "request_reason": "General Service Request",
    "date_created": "2025-01-31T21:37:56.000",
    "date_modified": "2025-01-31T21:37:59.000",
    "request_status": "Pending",
    "responsible_agency": "Orleans Parish Communication District",
    "final_address": "1201 Carondelet St",
    "address_councildis": "B",
    "status": "Pending",
    "rowid": "1165779",
    "final_x": "3679274.03387",
    "final_y": "526603.240638",
    "longitude": "-90.07526958003115",
    "latitude": "29.94204363805636",
    "geocoded_column": {
      "latitude": "29.94204363805636",
      "longitude": "-90.07526958003115"
    }
  },
  {
    "service_request": "2025-1165778",
    "request_type": "Trash/Recycling",
    "request_reason": "Order Recycling Cart",
    "date_created": "2025-01-31T21:05:34.000",
    "date_modified": "2025-01-31T21:05:37.000",
    "request_status": "Pending",
    "responsible_agency": "Department of Sanitation",
    "final_address": "6313 S Rocheblave St",
    "address_councildis": "A",
    "status": "Pending",
    "rowid": "1165778",
    "final_x": "3667346.60532",
    "final_y": "528954.724992",
    "longitude": "-90.11284808383624",
    "latitude": "29.94886415525657",
    "geocoded_column": {
      "latitude": "29.94886415525657",
      "longitude": "-90.11284808383624"
    }
  },
  {
    "service_request": "2025-1165777",
    "request_type": "Trash/Recycling",
    "request_reason": "Replace Trash Cart",
    "date_created": "2025-01-31T20:50:11.000",
    "date_modified": "2025-01-31T20:50:13.000",
    "request_status": "Pending",
    "responsible_agency": "Department of Sanitation",
    "final_address": "2816 Banks St",
    "address_councildis": "B",
    "status": "Assigned to Contractor",
    "contractor": "IV Waste",
    "rowid": "1165777",
    "final_x": "3673977.86017",
    "final_y": "534556.743045",
    "longitude": "-90.09171866335743",
    "latitude": "29.96407195676531",
    "geocoded_column": {
      "latitude": "29.96407195676531",
      "longitude": "-90.09171866335743"
    }
  },
  {
    "service_request": "2025-1165776",
    "request_type": "Trash/Recycling",
    "request_reason": "Missed Trash Pick-Up",
    "date_created": "2025-01-31T19:33:22.000",
    "date_modified": "2025-01-31T19:33:26.000",
    "request_status": "Pending",
    "responsible_agency": "Department of Sanitation",
    "final_address": "2501 Amelia St",
    "address_councildis": "B",
    "status": "Assigned to Contractor",
    "contractor": "IV Waste",
    "rowid": "1165776",
    "final_x": "3672390.71553",
    "final_y": "524322.746748",
    "longitude": "-90.09707941732725",
    "latitude": "29.93597903240438",
    "geocoded_column": {
      "latitude": "29.93597903240438",
      "longitude": "-90.09707941732725"
    }
  },
  {
    "service_request": "2025-1165775",
    "request_type": "Trash/Recycling",
    "request_reason": "Missed Trash Pick-Up",
    "date_created": "2025-01-31T18:47:08.000",
    "date_modified": "2025-01-31T18:47:10.000",
    "request_status": "Pending",
    "responsible_agency": "Department of Sanitation",
    "final_address": "2005 Josephine St",
    "address_councildis": "B",
    "status": "Assigned to Contractor",
    "contractor": "IV Waste",
    "rowid": "1165775",
    "final_x": "3676928.65966",
    "final_y": "525280.477949",
    "longitude": "-90.08272001531691",
    "latitude": "29.938477074341552",
    "geocoded_column": {
      "latitude": "29.938477074341552",
      "longitude": "-90.08272001531691"
    }
  },
  {
    "service_request": "2025-1165774",
    "request_type": "Streetlights",
    "request_reason": "Streetlight Outage/Malfunction",
    "date_created": "2025-01-31T18:46:24.000",
    "date_modified": "2025-01-31T18:46:24.000",
    "request_status": "Pending",
    "responsible_agency": "Department of Public Works",
    "final_address": "2023 S Gayoso St",
    "address_councildis": "B",
    "status": "Pending",
    "contractor": "Legacy Professional Services",
    "rowid": "1165774",
    "final_x": "3669825.94138",
    "final_y": "529331.309569",
    "longitude": "-90.10500698525362",
    "latitude": "29.949826792161055",
    "geocoded_column": {
      "latitude": "29.949826792161055",
      "longitude": "-90.10500698525362"
    }
  },
  {
    "service_request": "2025-1165773",
    "request_type": "Streetlights",
    "request_reason": "Streetlight Outage/Malfunction",
    "date_created": "2025-01-31T18:35:04.000",
    "date_modified": "2025-01-31T18:35:05.000",
    "request_status": "Pending",
    "responsible_agency": "Department of Public Works",
    "final_address": "3346 Roger Williams St",
    "address_councildis": "D",
    "status": "Pending",
    "contractor": "Legacy Professional Services",
    "rowid": "1165773",
    "final_x": "3677264.95202",
    "final_y": "543869.403598",
    "longitude": "-90.08101689992502",
    "latitude": "29.98958022250187",
    "geocoded_column": {
      "latitude": "29.98958022250187",
      "longitude": "-90.08101689992502"
    }
  },
  {
    "service_request": "2025-1165772",
    "request_type": "Trash/Recycling",
    "request_reason": "MIssed Recycling Pick-Up",
    "date_created": "2025-01-31T18:30:08.000",
    "date_modified": "2025-01-31T18:30:10.000",
    "request_status": "Pending",
    "responsible_agency": "Department of Sanitation",
    "final_address": "3325 Annunciation St",
    "address_councildis": "B",
    "status": "Assigned to Contractor",
    "contractor": "IV Waste",
    "rowid": "1165772",
    "final_x": "3675638.56136",
    "final_y": "518730.753847",
    "longitude": "-90.08701790456189",
    "latitude": "29.920506112791617",
    "geocoded_column": {
      "latitude": "29.920506112791617",
      "longitude": "-90.08701790456189"
    }
  },
  {
    "service_request": "2025-1165771",
    "request_type": "Trash/Recycling",
    "request_reason": "Missed Trash Pick-Up",
    "date_created": "2025-01-31T18:28:52.000",
    "date_modified": "2025-01-31T18:28:54.000",
    "request_status": "Pending",
    "responsible_agency": "Department of Sanitation",
    "final_address": "3325 Annunciation St",
    "address_councildis": "B",
    "status": "Assigned to Contractor",
    "contractor": "IV Waste",
    "rowid": "1165771",
    "final_x": "3675638.56136",
    "final_y": "518730.753847",
    "longitude": "-90.08701790456189",
    "latitude": "29.920506112791617",
    "geocoded_column": {
      "latitude": "29.920506112791617",
      "longitude": "-90.08701790456189"
    }
  },
  {
    "service_request": "2025-1165770",
    "request_type": "Streetlights",
    "request_reason": "Streetlight Outage/Malfunction",
    "date_created": "2025-01-31T18:24:03.000",
    "date_modified": "2025-01-31T18:24:04.000",
    "request_status": "Pending",
    "responsible_agency": "Department of Public Works",
    "final_address": "6480 Louisville St",
    "address_councildis": "A",
    "status": "Pending",
    "contractor": "Legacy Professional Services",
    "rowid": "1165770",
    "final_x": "3668001.36532",
    "final_y": "550722.451349",
    "longitude": "-90.1100469628244",
    "latitude": "30.00869886886966",
    "geocoded_column": {
      "latitude": "30.00869886886966",
      "longitude": "-90.1100469628244"
    }
  },
  {
    "service_request": "2025-1165769",
    "request_type": "Trash/Recycling",
    "request_reason": "Missed Trash Pick-Up",
    "date_created": "2025-01-31T18:23:37.000",
    "date_modified": "2025-01-31T18:23:41.000",
    "request_status": "Pending",
    "responsible_agency": "Department of Sanitation",
    "final_address": "2128 St Andrew St",
    "address_councildis": "B",
    "status": "Assigned to Contractor",
    "contractor": "IV Waste",
    "rowid": "1165769",
    "final_x": "3676851.91688",
    "final_y": "525814.340861",
    "longitude": "-90.08294390778713",
    "latitude": "29.939947324561064",
    "geocoded_column": {
      "latitude": "29.939947324561064",
      "longitude": "-90.08294390778713"
    }
  },
  {
    "service_request": "2025-1165768",
    "request_type": "Trash/Recycling",
    "request_reason": "Request a Large Item Pick Up",
    "date_created": "2025-01-31T18:04:10.000",
    "date_modified": "2025-01-31T18:04:12.000",
    "request_status": "Pending",
    "responsible_agency": "Department of Sanitation",
    "final_address": "6930 Martin Dr",
    "address_councildis": "E",
    "status": "Assigned to Contractor",
    "contractor": "Waste Pro",
    "rowid": "1165768",
    "final_x": "3699030.9153",
    "final_y": "557926.290267",
    "longitude": "-90.01175264948685",
    "latitude": "30.027559326171158",
    "geocoded_column": {
      "latitude": "30.027559326171158",
      "longitude": "-90.01175264948685"
    }
  },
  {
    "service_request": "2025-1165767",
    "request_type": "Safety & Permits",
    "request_reason": "Construction permit",
    "date_created": "2025-01-31T17:47:29.000",
    "date_modified": "2025-01-31T17:47:32.000",
    "request_status": "Pending",
    "responsible_agency": "Safety and Permits",
    "final_address": "172 Harbor Cir",
    "address_councildis": "D",
    "status": "Pending",
    "rowid": "1165767",
    "final_x": "3693179.71267",
    "final_y": "558441.566044",
    "longitude": "-90.03022339515553",
    "latitude": "30.02916040296674",
    "geocoded_column": {
      "latitude": "30.02916040296674",
      "longitude": "-90.03022339515553"
    }
  },
  {
    "service_request": "2025-1165766",
    "request_type": "Trash/Recycling",
    "request_reason": "Missed Trash Pick-Up",
    "date_created": "2025-01-31T17:45:04.000",
    "date_modified": "2025-01-31T17:45:06.000",
    "request_status": "Pending",
    "responsible_agency": "Department of Sanitation",
    "final_address": "936 Pleasant St",
    "address_councildis": "B",
    "status": "Assigned to Contractor",
    "contractor": "IV Waste",
    "rowid": "1165766",
    "final_x": "3675715.16385",
    "final_y": "519459.637815",
    "longitude": "-90.08675107572842",
    "latitude": "29.92250801795407",
    "geocoded_column": {
      "latitude": "29.92250801795407",
      "longitude": "-90.08675107572842"
    }
  },
  {
    "service_request": "2025-1165765",
    "request_type": "Property Maintenance",
    "request_reason": "Property Maintenance",
    "date_created": "2025-01-31T17:21:55.000",
    "date_modified": "2025-01-31T17:21:57.000",
    "request_status": "Pending",
    "responsible_agency": "Department of Code Enforcement",
    "final_address": "5957 Tchoupitoulas St",
    "address_councildis": "A",
    "status": "Pending",
    "rowid": "1165765",
    "final_x": "3664355.88935",
    "final_y": "517499.75807",
    "longitude": "-90.12267324573159",
    "latitude": "29.917453877618993",
    "geocoded_column": {
      "latitude": "29.917453877618993",
      "longitude": "-90.12267324573159"
    }
  },
  {
    "service_request": "2025-1165764",
    "request_type": "Abandoned Vehicles",
    "request_reason": "Vehicle Blocking Your Driveway",
    "date_created": "2025-01-31T17:06:27.000",
    "date_modified": "2025-01-31T17:06:29.000",
    "request_status": "Pending",
    "responsible_agency": "Department of Public Works",
    "final_address": "7201 Freret St, New Orleans, Louisiana, 70118",
    "address_councildis": "A",
    "status": "Pending",
    "rowid": "1165764",
    "final_x": "3663710.55904",
    "final_y": "525981.016253",
    "longitude": "-90.12442775927394",
    "latitude": "29.940793400765653",
    "geocoded_column": {
      "latitude": "29.940793400765653",
      "longitude": "-90.12442775927394"
    }
  },
  {
    "service_request": "2025-1165763",
    "request_type": "Trash/Recycling",
    "request_reason": "Dead Animal Pick Up",
    "date_created": "2025-01-31T17:03:45.000",
    "date_modified": "2025-01-31T17:03:47.000",
    "request_status": "Pending",
    "responsible_agency": "Department of Sanitation",
    "final_address": "635 N Scott St",
    "address_councildis": "A",
    "status": "Assigned to Contractor",
    "contractor": "IV Waste",
    "rowid": "1165763",
    "final_x": "3673034.16641",
    "final_y": "539562.001418",
    "longitude": "-90.09452788433894",
    "latitude": "29.97786280846396",
    "geocoded_column": {
      "latitude": "29.97786280846396",
      "longitude": "-90.09452788433894"
    }
  },
  {
    "service_request": "2025-1165762",
    "request_type": "Drainage",
    "request_reason": "Street Flooding",
    "date_created": "2025-01-31T17:00:08.000",
    "date_modified": "2025-01-31T17:00:11.000",
    "request_status": "Pending",
    "responsible_agency": "Department of Public Works",
    "final_address": "1000 BLK Pine St",
    "address_councildis": "A",
    "status": "Pending",
    "rowid": "1165762",
    "final_x": "3663621.45783",
    "final_y": "526213.839748",
    "longitude": "-90.12470131519781",
    "latitude": "29.941436175632187",
    "geocoded_column": {
      "latitude": "29.941436175632187",
      "longitude": "-90.12470131519781"
    }
  },
  {
    "service_request": "2025-1165761",
    "request_type": "Trash/Recycling",
    "request_reason": "Request a Large Item Pick Up",
    "date_created": "2025-01-31T16:53:59.000",
    "date_modified": "2025-01-31T16:54:01.000",
    "request_status": "Pending",
    "responsible_agency": "Department of Sanitation",
    "final_address": "3460 Annunciation St",
    "address_councildis": "B",
    "status": "Assigned to Contractor",
    "contractor": "IV Waste",
    "rowid": "1165761",
    "final_x": "3674964.01089",
    "final_y": "518374.860662",
    "longitude": "-90.08915934618129",
    "latitude": "29.919547677765323",
    "geocoded_column": {
      "latitude": "29.919547677765323",
      "longitude": "-90.08915934618129"
    }
  },
  {
    "service_request": "2025-1165760",
    "request_type": "Street and Traffic Signs",
    "request_reason": "Stop Sign Missing or Damaged",
    "date_created": "2025-01-31T16:50:28.000",
    "date_modified": "2025-01-31T16:50:29.000",
    "request_status": "Pending",
    "responsible_agency": "Department of Public Works",
    "final_address": "5500 BLK S Rocheblave St",
    "address_councildis": "A",
    "status": "Pending",
    "rowid": "1165760",
    "final_x": "3668199.97524",
    "final_y": "528425.915705",
    "longitude": "-90.1101714426274",
    "latitude": "29.947385080726395",
    "geocoded_column": {
      "latitude": "29.947385080726395",
      "longitude": "-90.1101714426274"
    }
  },
  {
    "service_request": "2025-1165759",
    "request_type": "Trash/Recycling",
    "request_reason": "Request a Large Item Pick Up",
    "date_created": "2025-01-31T16:46:45.000",
    "date_modified": "2025-01-31T16:46:47.000",
    "request_status": "Pending",
    "responsible_agency": "Department of Sanitation",
    "final_address": "1157 Eagle St",
    "address_councildis": "A",
    "status": "Assigned to Contractor",
    "contractor": "IV Waste",
    "rowid": "1165759",
    "final_x": "3660129.99923",
    "final_y": "529808.773825",
    "longitude": "-90.1356059543158",
    "latitude": "29.951421903070568",
    "geocoded_column": {
      "latitude": "29.951421903070568",
      "longitude": "-90.1356059543158"
    }
  },
  {
    "service_request": "2025-1165758",
    "request_type": "Streetlights",
    "request_reason": "Streetlight Outage/Malfunction",
    "date_created": "2025-01-31T16:41:47.000",
    "date_modified": "2025-01-31T16:41:48.000",
    "request_status": "Pending",
    "responsible_agency": "Department of Public Works",
    "final_address": "1609 Mirabeau Ave",
    "address_councildis": "D",
    "status": "Pending",
    "contractor": "Legacy Professional Services",
    "rowid": "1165758",
    "final_x": "3679629.31983",
    "final_y": "550507.635092",
    "longitude": "-90.07331795162756",
    "latitude": "30.007761738710634",
    "geocoded_column": {
      "latitude": "30.007761738710634",
      "longitude": "-90.07331795162756"
    }
  },
  {
    "service_request": "2025-1165757",
    "request_type": "Roads and Streets",
    "request_reason": "Pothole",
    "date_created": "2025-01-31T16:41:21.000",
    "date_modified": "2025-01-31T16:41:23.000",
    "request_status": "Pending",
    "responsible_agency": "Department of Public Works",
    "final_address": "2317 N Roman St",
    "address_councildis": "D",
    "status": "Pending",
    "rowid": "1165757",
    "final_x": "3685722.70614",
    "final_y": "539034.586698",
    "longitude": "-90.05447173319749",
    "latitude": "29.976029304636583",
    "geocoded_column": {
      "latitude": "29.976029304636583",
      "longitude": "-90.05447173319749"
    }
  },
  {
    "service_request": "2025-1165756",
    "request_type": "Trash/Recycling",
    "request_reason": "Request a Large Item Pick Up",
    "date_created": "2025-01-31T16:36:19.000",
    "date_modified": "2025-01-31T16:36:21.000",
    "request_status": "Pending",
    "responsible_agency": "Department of Sanitation",
    "final_address": "4560 Viola St",
    "address_councildis": "E",
    "status": "Assigned to Contractor",
    "contractor": "Waste Pro",
    "rowid": "1165756",
    "final_x": "3704041.26417",
    "final_y": "553987.669144",
    "longitude": "-89.99606571092195",
    "latitude": "30.016569790646187",
    "geocoded_column": {
      "latitude": "30.016569790646187",
      "longitude": "-89.99606571092195"
    }
  },
  {
    "service_request": "2025-1165755",
    "request_type": "Drainage",
    "request_reason": "Catch Basin Clogged",
    "date_created": "2025-01-31T16:33:22.000",
    "date_modified": "2025-01-31T16:33:24.000",
    "request_status": "Pending",
    "responsible_agency": "Department of Public Works",
    "final_address": "MICHOUD BLVD & W CAVELIER DR",
    "address_councildis": "E",
    "status": "Pending",
    "rowid": "1165755",
    "final_x": "3724678.8",
    "final_y": "569370.08",
    "longitude": "-89.93026572775324",
    "latitude": "30.05818669137776",
    "geocoded_column": {
      "latitude": "30.05818669137776",
      "longitude": "-89.93026572775324"
    }
  },
  {
    "service_request": "2025-1165754",
    "request_type": "Drainage",
    "request_reason": "Catch Basin Clogged",
    "date_created": "2025-01-31T16:27:54.000",
    "date_modified": "2025-01-31T16:27:55.000",
    "request_status": "Pending",
    "responsible_agency": "Department of Public Works",
    "final_address": "1723 Audubon St",
    "address_councildis": "A",
    "status": "Pending",
    "rowid": "1165754",
    "final_x": "3665539.14919",
    "final_y": "527930.691455",
    "longitude": "-90.11858930091044",
    "latitude": "29.946101206646272",
    "geocoded_column": {
      "latitude": "29.946101206646272",
      "longitude": "-90.11858930091044"
    }
  },
  {
    "service_request": "2025-1165753",
    "request_type": "Drainage",
    "request_reason": "Catch Basin Clogged",
    "date_created": "2025-01-31T16:27:47.000",
    "date_modified": "2025-01-31T16:28:01.000",
    "request_status": "Pending",
    "responsible_agency": "Department of Public Works",
    "final_address": "6855 Tara Ln",
    "address_councildis": "E",
    "status": "Pending",
    "rowid": "1165753",
    "final_x": "3707254.36753",
    "final_y": "559637.806685",
    "longitude": "-89.98570380597056",
    "latitude": "30.032001967477065",
    "geocoded_column": {
      "latitude": "30.032001967477065",
      "longitude": "-89.98570380597056"
    }
  },
  {
    "service_request": "2025-1165752",
    "request_type": "Drainage",
    "request_reason": "Catch Basin Clogged",
    "date_created": "2025-01-31T16:27:02.000",
    "date_modified": "2025-01-31T16:27:04.000",
    "request_status": "Pending",
    "responsible_agency": "Department of Public Works",
    "final_address": "1724 Audubon St",
    "address_councildis": "A",
    "status": "Pending",
    "rowid": "1165752",
    "final_x": "3665502.55341",
    "final_y": "528013.307327",
    "longitude": "-90.11870208172941",
    "latitude": "29.946329440377994",
    "geocoded_column": {
      "latitude": "29.946329440377994",
      "longitude": "-90.11870208172941"
    }
  },
  {
    "service_request": "2025-1165751",
    "request_type": "Drainage",
    "request_reason": "Catch Basin Clogged",
    "date_created": "2025-01-31T16:26:25.000",
    "date_modified": "2025-01-31T16:26:27.000",
    "request_status": "Pending",
    "responsible_agency": "Department of Public Works",
    "final_address": "1736 Audubon St",
    "address_councildis": "A",
    "status": "Pending",
    "rowid": "1165751",
    "final_x": "3665545.64551",
    "final_y": "528080.468031",
    "longitude": "-90.11856377627734",
    "latitude": "29.946512854554822",
    "geocoded_column": {
      "latitude": "29.946512854554822",
      "longitude": "-90.11856377627734"
    }
  },
  {
    "service_request": "2025-1165750",
    "request_type": "Drainage",
    "request_reason": "Catch Basin Clogged",
    "date_created": "2025-01-31T16:25:51.000",
    "date_modified": "2025-01-31T16:25:53.000",
    "request_status": "Pending",
    "responsible_agency": "Department of Public Works",
    "final_address": "1736 Audubon St",
    "address_councildis": "A",
    "status": "Pending",
    "rowid": "1165750",
    "final_x": "3665545.64551",
    "final_y": "528080.468031",
    "longitude": "-90.11856377627734",
    "latitude": "29.946512854554822",
    "geocoded_column": {
      "latitude": "29.946512854554822",
      "longitude": "-90.11856377627734"
    }
  },
  {
    "service_request": "2025-1165749",
    "request_type": "Trash/Recycling",
    "request_reason": "Order Second Trash Cart",
    "date_created": "2025-01-31T16:24:37.000",
    "date_modified": "2025-01-31T16:24:39.000",
    "request_status": "Pending",
    "responsible_agency": "Department of Sanitation",
    "final_address": "2640 Wabash St",
    "address_councildis": "C",
    "status": "Assigned to Contractor",
    "contractor": "Richards Disposal",
    "rowid": "1165749",
    "final_x": "3693120.08067",
    "final_y": "521480.210361",
    "longitude": "-90.03173855894676",
    "latitude": "29.92753178228721",
    "geocoded_column": {
      "latitude": "29.92753178228721",
      "longitude": "-90.03173855894676"
    }
  },
  {
    "service_request": "2025-1165748",
    "request_type": "Streetlights",
    "request_reason": "Streetlight Outage/Malfunction",
    "date_created": "2025-01-31T16:21:40.000",
    "date_modified": "2025-01-31T16:21:41.000",
    "request_status": "Pending",
    "responsible_agency": "Department of Public Works",
    "final_address": "1238 Third St",
    "address_councildis": "B",
    "status": "Pending",
    "contractor": "Legacy Professional Services",
    "rowid": "1165748",
    "final_x": "3677139.57621",
    "final_y": "521698.769209",
    "longitude": "-90.08217760126199",
    "latitude": "29.928622215928",
    "geocoded_column": {
      "latitude": "29.928622215928",
      "longitude": "-90.08217760126199"
    }
  },
  {
    "service_request": "2025-1165747",
    "request_type": "Trash/Recycling",
    "request_reason": "Request a Large Item Pick Up",
    "date_created": "2025-01-31T16:18:57.000",
    "date_modified": "2025-01-31T16:18:59.000",
    "request_status": "Pending",
    "responsible_agency": "Department of Sanitation",
    "final_address": "2806 St Andrew St",
    "address_councildis": "B",
    "status": "Assigned to Contractor",
    "contractor": "IV Waste",
    "rowid": "1165747",
    "final_x": "3675392.50747",
    "final_y": "527421.334911",
    "longitude": "-90.08749632175058",
    "latitude": "29.94440973921649",
    "geocoded_column": {
      "latitude": "29.94440973921649",
      "longitude": "-90.08749632175058"
    }
  },
  {
    "service_request": "2025-1165746",
    "request_type": "Parks & Parkways",
    "request_reason": "Request Tree Service (Right of Way/Public Property)",
    "date_created": "2025-01-31T16:17:01.000",
    "date_modified": "2025-01-31T16:17:02.000",
    "request_status": "Pending",
    "responsible_agency": "Department of Parks & Parkway",
    "final_address": "6002 Morrison Rd",
    "address_councildis": "D",
    "status": "Pending",
    "rowid": "1165746",
    "final_x": "3695380.64618",
    "final_y": "557348.063899",
    "longitude": "-90.02330804612447",
    "latitude": "30.026084681072135",
    "geocoded_column": {
      "latitude": "30.026084681072135",
      "longitude": "-90.02330804612447"
    }
  },
  {
    "service_request": "2025-1165745",
    "request_type": "Trash/Recycling",
    "request_reason": "Repair Trash Cart",
    "date_created": "2025-01-31T16:06:52.000",
    "date_modified": "2025-01-31T16:06:54.000",
    "request_status": "Pending",
    "responsible_agency": "Department of Sanitation",
    "final_address": "7229 Cohn St",
    "address_councildis": "A",
    "status": "Assigned to Contractor",
    "contractor": "IV Waste",
    "rowid": "1165745",
    "final_x": "3665375.67341",
    "final_y": "528764.663488",
    "longitude": "-90.1190775485147",
    "latitude": "29.948399124923053",
    "geocoded_column": {
      "latitude": "29.948399124923053",
      "longitude": "-90.1190775485147"
    }
  },
  {
    "service_request": "2025-1165744",
    "request_type": "Trash/Recycling",
    "request_reason": "Request a Large Item Pick Up",
    "date_created": "2025-01-31T16:04:05.000",
    "date_modified": "2025-01-31T16:04:08.000",
    "request_status": "Pending",
    "responsible_agency": "Department of Sanitation",
    "final_address": "3320 Short St",
    "address_councildis": "B",
    "status": "Assigned to Contractor",
    "contractor": "IV Waste",
    "rowid": "1165744",
    "final_x": "3667425.92276",
    "final_y": "533758.928389",
    "longitude": "-90.11243601791662",
    "latitude": "29.962071817908797",
    "geocoded_column": {
      "latitude": "29.962071817908797",
      "longitude": "-90.11243601791662"
    }
  },
  {
    "service_request": "2025-1165743",
    "request_type": "Trash/Recycling",
    "request_reason": "Missed Trash Pick-Up",
    "date_created": "2025-01-31T16:03:51.000",
    "date_modified": "2025-01-31T16:30:30.000",
    "case_close_date": "2025-01-31T10:30:29.000",
    "request_status": "Closed",
    "responsible_agency": "Department of Sanitation",
    "final_address": "1410 Thalia St",
    "address_councildis": "B",
    "status": "Invalid Request",
    "contractor": "IV Waste",
    "contractor_action": "Invalid Request",
    "rowid": "1165743",
    "final_x": "3679969.49877",
    "final_y": "525375.765245",
    "longitude": "-90.0731164711927",
    "latitude": "29.938647474163314",
    "geocoded_column": {
      "latitude": "29.938647474163314",
      "longitude": "-90.0731164711927"
    }
  },
  {
    "service_request": "2025-1165742",
    "request_type": "Trash/Recycling",
    "request_reason": "Missed Trash Pick-Up",
    "date_created": "2025-01-31T16:00:04.000",
    "date_modified": "2025-01-31T16:30:03.000",
    "case_close_date": "2025-01-31T10:30:02.000",
    "request_status": "Closed",
    "responsible_agency": "Department of Sanitation",
    "final_address": "3100 BLK Coliseum St",
    "address_councildis": "B",
    "status": "Invalid Request",
    "contractor": "IV Waste",
    "contractor_action": "Invalid Request",
    "rowid": "1165742",
    "final_x": "3675435.32987",
    "final_y": "520999.090992",
    "longitude": "-90.08758156816874",
    "latitude": "29.926749385591318",
    "geocoded_column": {
      "latitude": "29.926749385591318",
      "longitude": "-90.08758156816874"
    }
  },
  {
    "service_request": "2025-1165741",
    "request_type": "Trash/Recycling",
    "request_reason": "Repair Trash Cart",
    "date_created": "2025-01-31T15:58:14.000",
    "date_modified": "2025-01-31T15:58:15.000",
    "request_status": "Pending",
    "responsible_agency": "Department of Sanitation",
    "final_address": "3929 S Inwood Ave",
    "address_councildis": "C",
    "status": "Assigned to Contractor",
    "contractor": "Richards Disposal",
    "rowid": "1165741",
    "final_x": "3705100.84657",
    "final_y": "513626.571186",
    "longitude": "-89.99420825566544",
    "latitude": "29.90555733695047",
    "geocoded_column": {
      "latitude": "29.90555733695047",
      "longitude": "-89.99420825566544"
    }
  },
  {
    "service_request": "2025-1165740",
    "request_type": "Streetlights",
    "request_reason": "Streetlight Outage/Malfunction",
    "date_created": "2025-01-31T15:57:56.000",
    "date_modified": "2025-01-31T15:57:58.000",
    "request_status": "Pending",
    "responsible_agency": "Department of Public Works",
    "final_address": "1001 Moss St",
    "address_councildis": "A",
    "status": "Pending",
    "contractor": "Legacy Professional Services",
    "rowid": "1165740",
    "final_x": "3674754.80488",
    "final_y": "539804.45889",
    "longitude": "-90.08908518705304",
    "latitude": "29.97847822116159",
    "geocoded_column": {
      "latitude": "29.97847822116159",
      "longitude": "-90.08908518705304"
    }
  },
  {
    "service_request": "2025-1165739",
    "request_type": "Trash/Recycling",
    "request_reason": "Request a Large Item Pick Up",
    "date_created": "2025-01-31T15:53:58.000",
    "date_modified": "2025-01-31T15:54:01.000",
    "request_status": "Pending",
    "responsible_agency": "Department of Sanitation",
    "final_address": "3727 Iberville St Apt A",
    "address_councildis": "B",
    "status": "Assigned to Contractor",
    "contractor": "IV Waste",
    "rowid": "1165739",
    "final_x": "3672465.22894",
    "final_y": "537928.174217",
    "longitude": "-90.0963804955313",
    "latitude": "29.97338723911297",
    "geocoded_column": {
      "latitude": "29.97338723911297",
      "longitude": "-90.0963804955313"
    }
  },
  {
    "service_request": "2025-1165738",
    "request_type": "Trash/Recycling",
    "request_reason": "Illegal Dumping",
    "date_created": "2025-01-31T15:44:09.000",
    "date_modified": "2025-01-31T15:44:12.000",
    "request_status": "Pending",
    "responsible_agency": "Department of Sanitation",
    "final_address": "5500 BLK N Johnson St",
    "address_councildis": "E",
    "status": "Pending",
    "rowid": "1165738",
    "final_x": "3698762.55027",
    "final_y": "537166.370009",
    "longitude": "-90.01335634635673",
    "latitude": "29.970485764676617",
    "geocoded_column": {
      "latitude": "29.970485764676617",
      "longitude": "-90.01335634635673"
    }
  },
  {
    "service_request": "2025-1165737",
    "request_type": "Trash/Recycling",
    "request_reason": "Repair Trash Cart",
    "date_created": "2025-01-31T15:43:56.000",
    "date_modified": "2025-01-31T15:43:58.000",
    "request_status": "Pending",
    "responsible_agency": "Department of Sanitation",
    "final_address": "731 Peniston St",
    "address_councildis": "B",
    "status": "Assigned to Contractor",
    "contractor": "IV Waste",
    "rowid": "1165737",
    "final_x": "3673537.56155",
    "final_y": "518585.965431",
    "longitude": "-90.09365473604922",
    "latitude": "29.92017066016057",
    "geocoded_column": {
      "latitude": "29.92017066016057",
      "longitude": "-90.09365473604922"
    }
  },
  {
    "service_request": "2025-1165736",
    "request_type": "Trash/Recycling",
    "request_reason": "Order Recycling Cart",
    "date_created": "2025-01-31T15:40:46.000",
    "date_modified": "2025-01-31T15:40:48.000",
    "request_status": "Pending",
    "responsible_agency": "Department of Sanitation",
    "final_address": "6901 Argonne Blvd",
    "address_councildis": "A",
    "status": "Pending",
    "rowid": "1165736",
    "final_x": "3670775.51284",
    "final_y": "553234.231447",
    "longitude": "-90.10119717754341",
    "latitude": "30.015523650335048",
    "geocoded_column": {
      "latitude": "30.015523650335048",
      "longitude": "-90.10119717754341"
    }
  },
  {
    "service_request": "2025-1165735",
    "request_type": "Trash/Recycling",
    "request_reason": "Illegal Dumping",
    "date_created": "2025-01-31T15:38:18.000",
    "date_modified": "2025-01-31T15:38:19.000",
    "request_status": "Pending",
    "responsible_agency": "Department of Sanitation",
    "final_address": "4800 BLK Urquhart St",
    "address_councildis": "E",
    "status": "Pending",
    "rowid": "1165735",
    "final_x": "3695418.58321",
    "final_y": "535180.654164",
    "longitude": "-90.02398858322823",
    "latitude": "29.965131249744154",
    "geocoded_column": {
      "latitude": "29.965131249744154",
      "longitude": "-90.02398858322823"
    }
  },
  {
    "service_request": "2025-1165734",
    "request_type": "Trash/Recycling",
    "request_reason": "Illegal Dumping",
    "date_created": "2025-01-31T15:38:15.000",
    "date_modified": "2025-01-31T15:38:18.000",
    "request_status": "Pending",
    "responsible_agency": "Department of Sanitation",
    "final_address": "4800 BLK Urquhart St",
    "address_councildis": "E",
    "status": "Pending",
    "rowid": "1165734",
    "final_x": "3695418.58321",
    "final_y": "535180.654164",
    "longitude": "-90.02398858322823",
    "latitude": "29.965131249744154",
    "geocoded_column": {
      "latitude": "29.965131249744154",
      "longitude": "-90.02398858322823"
    }
  },
  {
    "service_request": "2025-1165733",
    "request_type": "Trash/Recycling",
    "request_reason": "Return Recycling Cart",
    "date_created": "2025-01-31T15:38:12.000",
    "date_modified": "2025-01-31T15:38:14.000",
    "request_status": "Pending",
    "responsible_agency": "Department of Sanitation",
    "final_address": "5017 Mexico St",
    "address_councildis": "D",
    "status": "Pending",
    "rowid": "1165733",
    "final_x": "3690978.83043",
    "final_y": "556690.324506",
    "longitude": "-90.03724069246815",
    "latitude": "30.02441378667193",
    "geocoded_column": {
      "latitude": "30.02441378667193",
      "longitude": "-90.03724069246815"
    }
  },
  {
    "service_request": "2025-1165732",
    "request_type": "Trash/Recycling",
    "request_reason": "Repair Recycling Cart",
    "date_created": "2025-01-31T15:37:39.000",
    "date_modified": "2025-01-31T15:37:41.000",
    "request_status": "Pending",
    "responsible_agency": "Department of Sanitation",
    "final_address": "4708 Perlita St",
    "address_councildis": "D",
    "status": "Pending",
    "rowid": "1165732",
    "final_x": "3678608.25928",
    "final_y": "549899.547412",
    "longitude": "-90.07656485434157",
    "latitude": "30.006120548498366",
    "geocoded_column": {
      "latitude": "30.006120548498366",
      "longitude": "-90.07656485434157"
    }
  },
  {
    "service_request": "2025-1165731",
    "request_type": "Trash/Recycling",
    "request_reason": "Repair Trash Cart",
    "date_created": "2025-01-31T15:37:10.000",
    "date_modified": "2025-01-31T15:37:13.000",
    "request_status": "Pending",
    "responsible_agency": "Department of Sanitation",
    "final_address": "3546 Mimosa Ct",
    "address_councildis": "C",
    "status": "Assigned to Contractor",
    "contractor": "Richards Disposal",
    "rowid": "1165731",
    "final_x": "3703463.06359",
    "final_y": "513079.440561",
    "longitude": "-89.99939726125946",
    "latitude": "29.904105442108115",
    "geocoded_column": {
      "latitude": "29.904105442108115",
      "longitude": "-89.99939726125946"
    }
  },
  {
    "service_request": "2025-1165730",
    "request_type": "Parks & Parkways",
    "request_reason": "Request Tree Service (Right of Way/Public Property)",
    "date_created": "2025-01-31T15:34:38.000",
    "date_modified": "2025-01-31T15:34:41.000",
    "request_status": "Pending",
    "responsible_agency": "Department of Parks & Parkway",
    "final_address": "835 Union St",
    "address_councildis": "B",
    "status": "Pending",
    "rowid": "1165730",
    "final_x": "3680143.48181",
    "final_y": "530158.180225",
    "longitude": "-90.07240103686331",
    "latitude": "29.95179225511296",
    "geocoded_column": {
      "latitude": "29.95179225511296",
      "longitude": "-90.07240103686331"
    }
  },
  {
    "service_request": "2025-1165729",
    "request_type": "Parks & Parkways",
    "request_reason": "Tree Stump (removal, grind)",
    "date_created": "2025-01-31T15:33:32.000",
    "date_modified": "2025-01-31T15:33:34.000",
    "request_status": "Pending",
    "responsible_agency": "Department of Parks & Parkway",
    "final_address": "4320 S Roman St",
    "address_councildis": "B",
    "status": "Pending",
    "rowid": "1165729",
    "final_x": "3670507.13499",
    "final_y": "526537.245438",
    "longitude": "-90.1029508683712",
    "latitude": "29.94212393127966",
    "geocoded_column": {
      "latitude": "29.94212393127966",
      "longitude": "-90.1029508683712"
    }
  },
  {
    "service_request": "2025-1165728",
    "request_type": "Parks & Parkways",
    "request_reason": "Request Tree Service (Right of Way/Public Property)",
    "date_created": "2025-01-31T15:31:09.000",
    "date_modified": "2025-01-31T15:31:11.000",
    "request_status": "Pending",
    "responsible_agency": "Department of Parks & Parkway",
    "final_address": "835 Union St",
    "address_councildis": "B",
    "status": "Pending",
    "rowid": "1165728",
    "final_x": "3680143.48181",
    "final_y": "530158.180225",
    "longitude": "-90.07240103686331",
    "latitude": "29.95179225511296",
    "geocoded_column": {
      "latitude": "29.95179225511296",
      "longitude": "-90.07240103686331"
    }
  },
  {
    "service_request": "2025-1165727",
    "request_type": "Roads and Streets",
    "request_reason": "Street Subsidence (Sinking)",
    "date_created": "2025-01-31T15:23:26.000",
    "date_modified": "2025-01-31T15:23:27.000",
    "request_status": "Pending",
    "responsible_agency": "Department of Public Works",
    "final_address": "6000 BLK N Roman St",
    "address_councildis": "E",
    "status": "Pending",
    "rowid": "1165727",
    "final_x": "3700301.88348",
    "final_y": "535872.114067",
    "longitude": "-90.00854224546164",
    "latitude": "29.96687817863826",
    "geocoded_column": {
      "latitude": "29.96687817863826",
      "longitude": "-90.00854224546164"
    }
  },
  {
    "service_request": "2025-1165726",
    "request_type": "Roads and Streets",
    "request_reason": "Street Subsidence (Sinking)",
    "date_created": "2025-01-31T15:17:14.000",
    "date_modified": "2025-01-31T15:17:16.000",
    "request_status": "Pending",
    "responsible_agency": "Department of Public Works",
    "final_address": "1227 Tupelo St",
    "address_councildis": "E",
    "status": "Pending",
    "rowid": "1165726",
    "final_x": "3699793.9937",
    "final_y": "533844.684485",
    "longitude": "-90.01022008275407",
    "latitude": "29.961319609690978",
    "geocoded_column": {
      "latitude": "29.961319609690978",
      "longitude": "-90.01022008275407"
    }
  },
  {
    "service_request": "2025-1165725",
    "request_type": "Property Maintenance",
    "request_reason": "Property Maintenance",
    "date_created": "2025-01-31T15:16:10.000",
    "date_modified": "2025-01-31T15:16:12.000",
    "request_status": "Pending",
    "responsible_agency": "Department of Code Enforcement",
    "final_address": "7718 Quaker St",
    "address_councildis": "E",
    "status": "Pending",
    "rowid": "1165725",
    "final_x": "3715116.59224",
    "final_y": "569671.449702",
    "longitude": "-89.96047908199131",
    "latitude": "30.05933381223949",
    "geocoded_column": {
      "latitude": "30.05933381223949",
      "longitude": "-89.96047908199131"
    }
  },
  {
    "service_request": "2025-1165724",
    "request_type": "Property Maintenance",
    "request_reason": "Property Maintenance",
    "date_created": "2025-01-31T15:13:01.000",
    "date_modified": "2025-01-31T15:19:54.000",
    "case_close_date": "2025-01-31T09:19:53.000",
    "request_status": "Closed",
    "responsible_agency": "Department of Code Enforcement",
    "final_address": "4774 Lancelot Dr",
    "address_councildis": "E",
    "status": "Wrong Agency",
    "rowid": "1165724",
    "final_x": "3707354.02078",
    "final_y": "555724.158873",
    "longitude": "-89.9855343694824",
    "latitude": "30.02123774257434",
    "geocoded_column": {
      "latitude": "30.02123774257434",
      "longitude": "-89.9855343694824"
    }
  },
  {
    "service_request": "2025-1165723",
    "request_type": "Abandoned Vehicles",
    "request_reason": "Abandoned/Junk Vehicles",
    "date_created": "2025-01-31T15:10:17.000",
    "date_modified": "2025-01-31T15:10:19.000",
    "request_status": "Pending",
    "responsible_agency": "Department of Public Works",
    "final_address": "S MAESTRI PL & CAMP ST",
    "address_councildis": "B",
    "status": "Pending",
    "rowid": "1165723",
    "final_x": "3680961.4",
    "final_y": "528649.18",
    "longitude": "-90.06987098099223",
    "latitude": "29.94761823784248",
    "geocoded_column": {
      "latitude": "29.94761823784248",
      "longitude": "-90.06987098099223"
    }
  },
  {
    "service_request": "2025-1165722",
    "request_type": "Trash/Recycling",
    "request_reason": "Request a Large Item Pick Up",
    "date_created": "2025-01-31T15:09:28.000",
    "date_modified": "2025-01-31T15:09:31.000",
    "request_status": "Pending",
    "responsible_agency": "Department of Sanitation",
    "final_address": "26 N Oak Ridge Ct",
    "address_councildis": "E",
    "status": "Assigned to Contractor",
    "contractor": "Waste Pro",
    "rowid": "1165722",
    "final_x": "3713559.30552",
    "final_y": "568057.648485",
    "longitude": "-89.96546239650077",
    "latitude": "30.05494773178899",
    "geocoded_column": {
      "latitude": "30.05494773178899",
      "longitude": "-89.96546239650077"
    }
  },
  {
    "service_request": "2025-1165721",
    "request_type": "Abandoned Vehicles",
    "request_reason": "Abandoned/Junk Vehicles",
    "date_created": "2025-01-31T15:08:57.000",
    "date_modified": "2025-01-31T15:08:59.000",
    "request_status": "Pending",
    "responsible_agency": "Department of Public Works",
    "final_address": "BABYLON ST & DWYER RD",
    "address_councildis": "D",
    "status": "Pending",
    "rowid": "1165721",
    "final_x": "3696542.1",
    "final_y": "554792.38",
    "longitude": "-90.01973059667645",
    "latitude": "30.019020957445235",
    "geocoded_column": {
      "latitude": "30.019020957445235",
      "longitude": "-90.01973059667645"
    }
  },
  {
    "service_request": "2025-1165720",
    "request_type": "Trash/Recycling",
    "request_reason": "Request a Large Item Pick Up",
    "date_created": "2025-01-31T15:07:44.000",
    "date_modified": "2025-01-31T15:07:45.000",
    "request_status": "Pending",
    "responsible_agency": "Department of Sanitation",
    "final_address": "2608 Magnolia St",
    "address_councildis": "B",
    "status": "Assigned to Contractor",
    "contractor": "IV Waste",
    "rowid": "1165720",
    "final_x": "3674205.35803",
    "final_y": "526080.457854",
    "longitude": "-90.091290391251",
    "latitude": "29.940758205316882",
    "geocoded_column": {
      "latitude": "29.940758205316882",
      "longitude": "-90.091290391251"
    }
  },
  {
    "service_request": "2025-1165719",
    "request_type": "Abandoned Vehicles",
    "request_reason": "Abandoned/Junk Vehicles",
    "date_created": "2025-01-31T15:03:56.000",
    "date_modified": "2025-01-31T15:03:58.000",
    "request_status": "Pending",
    "responsible_agency": "Department of Public Works",
    "final_address": "2310 Washington Ave",
    "address_councildis": "B",
    "status": "Pending",
    "rowid": "1165719",
    "final_x": "3674457.86248",
    "final_y": "524674.311676",
    "longitude": "-90.09054134050248",
    "latitude": "29.93688423471514",
    "geocoded_column": {
      "latitude": "29.93688423471514",
      "longitude": "-90.09054134050248"
    }
  },
  {
    "service_request": "2025-1165718",
    "request_type": "Trash/Recycling",
    "request_reason": "Start Trash Service",
    "date_created": "2025-01-31T14:58:13.000",
    "date_modified": "2025-01-31T14:58:14.000",
    "request_status": "Pending",
    "responsible_agency": "Department of Sanitation",
    "final_address": "400 Abalon Ct",
    "address_councildis": "C",
    "status": "Assigned to Contractor",
    "contractor": "Richards Disposal",
    "rowid": "1165718",
    "final_x": "3689411.48732",
    "final_y": "530212.597953",
    "longitude": "-90.04313525532693",
    "latitude": "29.951658195222585",
    "geocoded_column": {
      "latitude": "29.951658195222585",
      "longitude": "-90.04313525532693"
    }
  },
  {
    "service_request": "2025-1165717",
    "request_type": "Street and Traffic Signs",
    "request_reason": "Stop Sign Missing or Damaged",
    "date_created": "2025-01-31T14:55:44.000",
    "date_modified": "2025-01-31T14:55:46.000",
    "request_status": "Pending",
    "responsible_agency": "Department of Public Works",
    "final_address": "S ROMAN ST & GENERAL PERSHING ST",
    "address_councildis": "B",
    "status": "Pending",
    "rowid": "1165717",
    "final_x": "3670683.3",
    "final_y": "526615.98",
    "longitude": "-90.1023920053695",
    "latitude": "29.942335223197592",
    "geocoded_column": {
      "latitude": "29.942335223197592",
      "longitude": "-90.1023920053695"
    }
  },
  {
    "service_request": "2025-1165716",
    "request_type": "Trash/Recycling",
    "request_reason": "Missed Trash Pick-Up",
    "date_created": "2025-01-31T14:54:00.000",
    "date_modified": "2025-01-31T16:29:28.000",
    "case_close_date": "2025-01-31T10:29:27.000",
    "request_status": "Closed",
    "responsible_agency": "Department of Sanitation",
    "final_address": "1125 Felicity St Unit B",
    "address_councildis": "B",
    "status": "Invalid Request",
    "contractor": "IV Waste",
    "contractor_action": "Invalid Request",
    "rowid": "1165716",
    "final_x": "3679855.47157",
    "final_y": "523266.265275",
    "longitude": "-90.07354968901488",
    "latitude": "29.93285049387458",
    "geocoded_column": {
      "latitude": "29.93285049387458",
      "longitude": "-90.07354968901488"
    }
  },
  {
    "service_request": "2025-1165715",
    "request_type": "Trash/Recycling",
    "request_reason": "Missed Trash Pick-Up",
    "date_created": "2025-01-31T14:51:40.000",
    "date_modified": "2025-01-31T16:29:00.000",
    "case_close_date": "2025-01-31T10:29:00.000",
    "request_status": "Closed",
    "responsible_agency": "Department of Sanitation",
    "final_address": "2922 Prytania St",
    "address_councildis": "B",
    "status": "Invalid Request",
    "contractor": "IV Waste",
    "contractor_action": "Invalid Request",
    "rowid": "1165715",
    "final_x": "3675643.12251",
    "final_y": "521660.108281",
    "longitude": "-90.08690292372772",
    "latitude": "29.92856075559509",
    "geocoded_column": {
      "latitude": "29.92856075559509",
      "longitude": "-90.08690292372772"
    }
  },
  {
    "service_request": "2025-1165714",
    "request_type": "Trash/Recycling",
    "request_reason": "Replace Trash Cart",
    "date_created": "2025-01-31T14:47:40.000",
    "date_modified": "2025-01-31T14:47:41.000",
    "request_status": "Pending",
    "responsible_agency": "Department of Sanitation",
    "final_address": "6732 Tara Ln",
    "address_councildis": "E",
    "status": "Assigned to Contractor",
    "contractor": "Waste Pro",
    "rowid": "1165714",
    "final_x": "3707462.80747",
    "final_y": "558812.342044",
    "longitude": "-89.98507582172635",
    "latitude": "30.029725521694207",
    "geocoded_column": {
      "latitude": "30.029725521694207",
      "longitude": "-89.98507582172635"
    }
  },
  {
    "service_request": "2025-1165713",
    "request_type": "Trash/Recycling",
    "request_reason": "Request a Large Item Pick Up",
    "date_created": "2025-01-31T14:46:52.000",
    "date_modified": "2025-01-31T14:46:54.000",
    "request_status": "Pending",
    "responsible_agency": "Department of Sanitation",
    "final_address": "6033 Kuebel Dr",
    "address_councildis": "E",
    "status": "Assigned to Contractor",
    "contractor": "Waste Pro",
    "rowid": "1165713",
    "final_x": "3695062.80688",
    "final_y": "559792.973213",
    "longitude": "-90.02422410963558",
    "latitude": "30.032817237292633",
    "geocoded_column": {
      "latitude": "30.032817237292633",
      "longitude": "-90.02422410963558"
    }
  },
  {
    "service_request": "2025-1165712",
    "request_type": "Trash/Recycling",
    "request_reason": "Illegal Dumping",
    "date_created": "2025-01-31T14:45:11.000",
    "date_modified": "2025-01-31T14:45:13.000",
    "request_status": "Pending",
    "responsible_agency": "Department of Sanitation",
    "final_address": "6800 BLK Parc Brittany Blvd",
    "address_councildis": "E",
    "status": "Pending",
    "rowid": "1165712",
    "final_x": "3702765.0298",
    "final_y": "557733.155647",
    "longitude": "-89.99996032832304",
    "latitude": "30.026909330455236",
    "geocoded_column": {
      "latitude": "30.026909330455236",
      "longitude": "-89.99996032832304"
    }
  },
  {
    "service_request": "2025-1165711",
    "request_type": "Trash/Recycling",
    "request_reason": "Request a Large Item Pick Up",
    "date_created": "2025-01-31T14:37:34.000",
    "date_modified": "2025-01-31T14:37:36.000",
    "request_status": "Pending",
    "responsible_agency": "Department of Sanitation",
    "final_address": "5852 General Diaz St",
    "address_councildis": "A",
    "status": "Assigned to Contractor",
    "contractor": "IV Waste",
    "rowid": "1165711",
    "final_x": "3669326.29255",
    "final_y": "546285.741072",
    "longitude": "-90.10601121353952",
    "latitude": "29.996460500008144",
    "geocoded_column": {
      "latitude": "29.996460500008144",
      "longitude": "-90.10601121353952"
    }
  },
  {
    "service_request": "2025-1165710",
    "request_type": "Drainage",
    "request_reason": "Catch Basin Clogged",
    "date_created": "2025-01-31T14:37:12.000",
    "date_modified": "2025-01-31T14:37:15.000",
    "request_status": "Pending",
    "responsible_agency": "Department of Public Works",
    "final_address": "4769 Werner Dr",
    "address_councildis": "E",
    "status": "Pending",
    "rowid": "1165710",
    "final_x": "3704786.42698",
    "final_y": "555506.691673",
    "longitude": "-89.9936552195013",
    "latitude": "30.02072258446539",
    "geocoded_column": {
      "latitude": "30.02072258446539",
      "longitude": "-89.9936552195013"
    }
  },
  {
    "service_request": "2025-1165709",
    "request_type": "Trash/Recycling",
    "request_reason": "Repair Recycling Cart",
    "date_created": "2025-01-31T14:31:57.000",
    "date_modified": "2025-01-31T14:31:59.000",
    "request_status": "Pending",
    "responsible_agency": "Department of Sanitation",
    "final_address": "2709 N Rampart St",
    "address_councildis": "C",
    "status": "Pending",
    "rowid": "1165709",
    "final_x": "3687402.44073",
    "final_y": "535963.353031",
    "longitude": "-90.04927535676244",
    "latitude": "29.967532832580776",
    "geocoded_column": {
      "latitude": "29.967532832580776",
      "longitude": "-90.04927535676244"
    }
  },
  {
    "service_request": "2025-1165708",
    "request_type": "Property Maintenance",
    "request_reason": "Property Maintenance",
    "date_created": "2025-01-31T14:31:02.000",
    "date_modified": "2025-01-31T14:47:26.000",
    "case_close_date": "2025-01-31T08:47:24.000",
    "request_status": "Closed",
    "responsible_agency": "Department of Code Enforcement",
    "final_address": "3401 Jackson Ave",
    "address_councildis": "B",
    "status": "Referred to Code Enforcement",
    "rowid": "1165708",
    "final_x": "3673744.08718",
    "final_y": "528812.0112",
    "longitude": "-90.09265332792428",
    "latitude": "29.948282819930515",
    "geocoded_column": {
      "latitude": "29.948282819930515",
      "longitude": "-90.09265332792428"
    }
  },
  {
    "service_request": "2025-1165707",
    "request_type": "Trash/Recycling",
    "request_reason": "Replace Recycling Cart",
    "date_created": "2025-01-31T14:30:56.000",
    "date_modified": "2025-01-31T14:43:05.000",
    "request_status": "Pending",
    "responsible_agency": "Department of Sanitation",
    "final_address": "822 Camp St",
    "address_councildis": "B",
    "status": "Pending",
    "rowid": "1165707",
    "final_x": "3680783.10402",
    "final_y": "527713.594815",
    "longitude": "-90.07046648783425",
    "latitude": "29.94505109660232",
    "geocoded_column": {
      "latitude": "29.94505109660232",
      "longitude": "-90.07046648783425"
    }
  },
  {
    "service_request": "2025-1165706",
    "request_type": "Roads and Streets",
    "request_reason": "Road Shoulder Damage",
    "date_created": "2025-01-31T14:27:15.000",
    "date_modified": "2025-01-31T14:30:22.000",
    "request_status": "Pending",
    "responsible_agency": "Department of Public Works",
    "final_address": "2102 Dublin St",
    "address_councildis": "A",
    "rowid": "1165706",
    "final_x": "3663838.35571",
    "final_y": "531015.046082",
    "longitude": "-90.12385652100544",
    "latitude": "29.95463165544035",
    "geocoded_column": {
      "latitude": "29.95463165544035",
      "longitude": "-90.12385652100544"
    }
  },
  {
    "service_request": "2025-1165705",
    "request_type": "Drainage",
    "request_reason": "Catch Basin Clogged",
    "date_created": "2025-01-31T14:24:44.000",
    "date_modified": "2025-01-31T14:24:46.000",
    "request_status": "Pending",
    "responsible_agency": "Department of Public Works",
    "final_address": "2300 Bienville Ave",
    "address_councildis": "B",
    "status": "Pending",
    "rowid": "1165705",
    "final_x": "3677097.55432",
    "final_y": "534677.650246",
    "longitude": "-90.08186276958943",
    "latitude": "29.964311090905422",
    "geocoded_column": {
      "latitude": "29.964311090905422",
      "longitude": "-90.08186276958943"
    }
  },
  {
    "service_request": "2025-1165704",
    "request_type": "Drainage",
    "request_reason": "Catch Basin Clogged",
    "date_created": "2025-01-31T14:23:26.000",
    "date_modified": "2025-01-31T14:24:07.000",
    "case_close_date": "2025-01-31T08:24:05.000",
    "request_status": "Closed",
    "responsible_agency": "Department of Public Works",
    "final_address": "1716 Bienville Ave",
    "address_councildis": "B",
    "status": "Resolved",
    "rowid": "1165704",
    "final_x": "3678664.8619",
    "final_y": "533486.564676",
    "longitude": "-90.07695458066323",
    "latitude": "29.960988848425526",
    "geocoded_column": {
      "latitude": "29.960988848425526",
      "longitude": "-90.07695458066323"
    }
  },
  {
    "service_request": "2025-1165703",
    "request_type": "Roads and Streets",
    "request_reason": "Pothole",
    "date_created": "2025-01-31T14:21:59.000",
    "date_modified": "2025-01-31T14:22:25.000",
    "case_close_date": "2025-01-31T08:22:24.000",
    "request_status": "Closed",
    "responsible_agency": "Department of Public Works",
    "final_address": "2036 Poydras St",
    "address_councildis": "B",
    "status": "Resolved",
    "rowid": "1165703",
    "final_x": "3675846.42017",
    "final_y": "531191.098114",
    "longitude": "-90.08593361499695",
    "latitude": "29.954761757840856",
    "geocoded_column": {
      "latitude": "29.954761757840856",
      "longitude": "-90.08593361499695"
    }
  },
  {
    "service_request": "2025-1165702",
    "request_type": "Streetlights",
    "request_reason": "Streetlight Outage/Malfunction",
    "date_created": "2025-01-31T14:20:08.000",
    "date_modified": "2025-01-31T14:20:56.000",
    "request_status": "Pending",
    "responsible_agency": "Department of Public Works",
    "final_address": "2019 S Gayoso St",
    "address_councildis": "B",
    "status": "Pending",
    "contractor": "Legacy Professional Services",
    "rowid": "1165702",
    "final_x": "3669838.1081",
    "final_y": "529347.366401",
    "longitude": "-90.10496802570516",
    "latitude": "29.94987058456052",
    "geocoded_column": {
      "latitude": "29.94987058456052",
      "longitude": "-90.10496802570516"
    }
  },
  {
    "service_request": "2025-1165701",
    "request_type": "Trash/Recycling",
    "request_reason": "Request a Large Item Pick Up",
    "date_created": "2025-01-31T14:18:15.000",
    "date_modified": "2025-01-31T14:18:16.000",
    "request_status": "Pending",
    "responsible_agency": "Department of Sanitation",
    "final_address": "9127 S Claiborne Ave",
    "address_councildis": "A",
    "status": "Assigned to Contractor",
    "contractor": "IV Waste",
    "rowid": "1165701",
    "final_x": "3662174.44295",
    "final_y": "534103.540997",
    "longitude": "-90.129008038757",
    "latitude": "29.963172201966156",
    "geocoded_column": {
      "latitude": "29.963172201966156",
      "longitude": "-90.129008038757"
    }
  },
  {
    "service_request": "2025-1165700",
    "request_type": "Trash/Recycling",
    "request_reason": "Repair Trash Cart",
    "date_created": "2025-01-31T14:17:48.000",
    "date_modified": "2025-01-31T14:17:50.000",
    "request_status": "Pending",
    "responsible_agency": "Department of Sanitation",
    "final_address": "1621 Pleasure St",
    "address_councildis": "D",
    "status": "Assigned to Contractor",
    "contractor": "IV Waste",
    "rowid": "1165700",
    "final_x": "3679988.97467",
    "final_y": "544834.232591",
    "longitude": "-90.07237894263147",
    "latitude": "29.99215102032322",
    "geocoded_column": {
      "latitude": "29.99215102032322",
      "longitude": "-90.07237894263147"
    }
  },
  {
    "service_request": "2025-1165699",
    "request_type": "Trash/Recycling",
    "request_reason": "Request a Large Item Pick Up",
    "date_created": "2025-01-31T14:12:50.000",
    "date_modified": "2025-01-31T17:11:02.000",
    "case_close_date": "2025-01-31T11:11:02.000",
    "request_status": "Closed",
    "responsible_agency": "Department of Sanitation",
    "final_address": "3626 Toledano St",
    "address_councildis": "B",
    "status": "Assigned to Contractor",
    "contractor": "IV Waste",
    "contractor_action": "Completed",
    "rowid": "1165699",
    "final_x": "3671523.13396",
    "final_y": "528722.358336",
    "longitude": "-90.09966885541584",
    "latitude": "29.94810224050116",
    "geocoded_column": {
      "latitude": "29.94810224050116",
      "longitude": "-90.09966885541584"
    }
  },
  {
    "service_request": "2025-1165698",
    "request_type": "Abandoned Vehicles",
    "request_reason": "Abandoned/Junk Vehicles",
    "date_created": "2025-01-31T14:04:51.000",
    "date_modified": "2025-01-31T14:07:59.000",
    "request_status": "Pending",
    "responsible_agency": "Department of Public Works",
    "final_address": "11117 Old Spanish Trl",
    "address_councildis": "E",
    "status": "Pending",
    "rowid": "1165698",
    "final_x": "3716382.78021",
    "final_y": "556023.326553",
    "longitude": "-89.95699498648304",
    "latitude": "30.02176523120808",
    "geocoded_column": {
      "latitude": "30.02176523120808",
      "longitude": "-89.95699498648304"
    }
  },
  {
    "service_request": "2025-1165697",
    "request_type": "Trash/Recycling",
    "request_reason": "Return Trash Cart",
    "date_created": "2025-01-31T14:04:16.000",
    "date_modified": "2025-01-31T14:04:19.000",
    "request_status": "Pending",
    "responsible_agency": "Department of Sanitation",
    "final_address": "152 Portland St",
    "address_councildis": "A",
    "status": "Assigned to Contractor",
    "contractor": "IV Waste",
    "rowid": "1165697",
    "final_x": "3665767.28596",
    "final_y": "551637.469205",
    "longitude": "-90.11707448706417",
    "latitude": "30.01128024123674",
    "geocoded_column": {
      "latitude": "30.01128024123674",
      "longitude": "-90.11707448706417"
    }
  },
  {
    "service_request": "2025-1165696",
    "request_type": "Trash/Recycling",
    "request_reason": "Repair Recycling Cart",
    "date_created": "2025-01-31T14:01:07.000",
    "date_modified": "2025-01-31T14:01:08.000",
    "request_status": "Pending",
    "responsible_agency": "Department of Sanitation",
    "final_address": "152 Portland St",
    "address_councildis": "A",
    "status": "Pending",
    "rowid": "1165696",
    "final_x": "3665767.28596",
    "final_y": "551637.469205",
    "longitude": "-90.11707448706417",
    "latitude": "30.01128024123674",
    "geocoded_column": {
      "latitude": "30.01128024123674",
      "longitude": "-90.11707448706417"
    }
  },
  {
    "service_request": "2025-1165695",
    "request_type": "Streetlights",
    "request_reason": "Streetlight Outage/Malfunction",
    "date_created": "2025-01-31T14:00:57.000",
    "date_modified": "2025-01-31T14:00:58.000",
    "request_status": "Pending",
    "responsible_agency": "Department of Public Works",
    "final_address": "7690 Breakwater Dr",
    "address_councildis": "A",
    "status": "Pending",
    "contractor": "Legacy Professional Services",
    "rowid": "1165695",
    "final_x": "3664790.23802",
    "final_y": "556899.81513",
    "longitude": "-90.11998533703446",
    "latitude": "30.025778324489767",
    "geocoded_column": {
      "latitude": "30.025778324489767",
      "longitude": "-90.11998533703446"
    }
  },
  {
    "service_request": "2025-1165694",
    "request_type": "Trash/Recycling",
    "request_reason": "Request a Large Item Pick Up",
    "date_created": "2025-01-31T13:59:29.000",
    "date_modified": "2025-01-31T13:59:31.000",
    "request_status": "Pending",
    "responsible_agency": "Department of Sanitation",
    "final_address": "7431 Lake Barrington Dr",
    "address_councildis": "E",
    "status": "Assigned to Contractor",
    "contractor": "Waste Pro",
    "rowid": "1165694",
    "final_x": "3712657.59",
    "final_y": "565092.893794",
    "longitude": "-89.9684241249294",
    "latitude": "30.046825429026843",
    "geocoded_column": {
      "latitude": "30.046825429026843",
      "longitude": "-89.9684241249294"
    }
  },
  {
    "service_request": "2025-1165693",
    "request_type": "Trash/Recycling",
    "request_reason": "Missed Trash Pick-Up",
    "date_created": "2025-01-31T13:59:19.000",
    "date_modified": "2025-01-31T13:59:23.000",
    "request_status": "Pending",
    "responsible_agency": "Department of Sanitation",
    "final_address": "417 Tricou St",
    "address_councildis": "E",
    "status": "Assigned to Contractor",
    "contractor": "Waste Pro",
    "rowid": "1165693",
    "final_x": "3699284.94397",
    "final_y": "530826.30637",
    "longitude": "-90.01193748047427",
    "latitude": "29.95303629401756",
    "geocoded_column": {
      "latitude": "29.95303629401756",
      "longitude": "-90.01193748047427"
    }
  },
  {
    "service_request": "2025-1165692",
    "request_type": "Trash/Recycling",
    "request_reason": "Repair Trash Cart",
    "date_created": "2025-01-31T13:58:19.000",
    "date_modified": "2025-01-31T13:58:21.000",
    "request_status": "Pending",
    "responsible_agency": "Department of Sanitation",
    "final_address": "2152 Westbend Prkwy",
    "address_councildis": "C",
    "status": "Assigned to Contractor",
    "contractor": "Richards Disposal",
    "rowid": "1165692",
    "final_x": "3696906.56739",
    "final_y": "522726.131578",
    "longitude": "-90.01974052354541",
    "latitude": "29.930838827655936",
    "geocoded_column": {
      "latitude": "29.930838827655936",
      "longitude": "-90.01974052354541"
    }
  },
  {
    "service_request": "2025-1165691",
    "request_type": "Abandoned Vehicles",
    "request_reason": "Abandoned/Junk Vehicles",
    "date_created": "2025-01-31T13:56:10.000",
    "date_modified": "2025-01-31T13:56:11.000",
    "request_status": "Pending",
    "responsible_agency": "Department of Public Works",
    "final_address": "1300 Oretha Castle Haley Blvd",
    "address_councildis": "B",
    "status": "Pending",
    "rowid": "1165691",
    "final_x": "3678344.88808",
    "final_y": "526639.192254",
    "longitude": "-90.07820184985509",
    "latitude": "29.942170511011707",
    "geocoded_column": {
      "latitude": "29.942170511011707",
      "longitude": "-90.07820184985509"
    }
  },
  {
    "service_request": "2025-1165690",
    "request_type": "Abandoned Vehicles",
    "request_reason": "Abandoned/Junk Vehicles",
    "date_created": "2025-01-31T13:51:22.000",
    "date_modified": "2025-01-31T13:54:19.000",
    "request_status": "Pending",
    "responsible_agency": "Department of Public Works",
    "final_address": "3300 Delachaise St",
    "address_councildis": "B",
    "status": "Pending",
    "rowid": "1165690",
    "final_x": "3671516.77089",
    "final_y": "527092.598271",
    "longitude": "-90.09974434510853",
    "latitude": "29.943621121920764",
    "geocoded_column": {
      "latitude": "29.943621121920764",
      "longitude": "-90.09974434510853"
    }
  },
  {
    "service_request": "2025-1165689",
    "request_type": "Trash/Recycling",
    "request_reason": "Dead Animal Pick Up",
    "date_created": "2025-01-31T13:49:58.000",
    "date_modified": "2025-01-31T13:50:00.000",
    "request_status": "Pending",
    "responsible_agency": "Department of Sanitation",
    "final_address": "CROWDER BLVD & DWYER RD",
    "address_councildis": "E",
    "status": "Assigned to Contractor",
    "contractor": "Waste Pro",
    "rowid": "1165689",
    "final_x": "3706337.9",
    "final_y": "556796.57",
    "longitude": "-89.98870523707355",
    "latitude": "30.024219281691163",
    "geocoded_column": {
      "latitude": "30.024219281691163",
      "longitude": "-89.98870523707355"
    }
  },
  {
    "service_request": "2025-1165688",
    "request_type": "Trash/Recycling",
    "request_reason": "Dead Animal Pick Up",
    "date_created": "2025-01-31T13:47:51.000",
    "date_modified": "2025-01-31T13:47:54.000",
    "request_status": "Pending",
    "responsible_agency": "Department of Sanitation",
    "final_address": "NORGATE DR & DWYER RD",
    "address_councildis": "E",
    "status": "Assigned to Contractor",
    "contractor": "Waste Pro",
    "rowid": "1165688",
    "final_x": "3707627.6",
    "final_y": "556981.18",
    "longitude": "-89.98462319275244",
    "latitude": "30.024685210017907",
    "geocoded_column": {
      "latitude": "30.024685210017907",
      "longitude": "-89.98462319275244"
    }
  },
  {
    "service_request": "2025-1165687",
    "request_type": "Trash/Recycling",
    "request_reason": "Replace Trash Cart",
    "date_created": "2025-01-31T13:46:15.000",
    "date_modified": "2025-01-31T13:46:16.000",
    "request_status": "Pending",
    "responsible_agency": "Department of Sanitation",
    "final_address": "2713 Valentine Ct",
    "address_councildis": "C",
    "status": "Assigned to Contractor",
    "contractor": "Richards Disposal",
    "rowid": "1165687",
    "final_x": "3699028.24023",
    "final_y": "521043.782009",
    "longitude": "-90.01310393286656",
    "latitude": "29.926145894762517",
    "geocoded_column": {
      "latitude": "29.926145894762517",
      "longitude": "-90.01310393286656"
    }
  },
  {
    "service_request": "2025-1165686",
    "request_type": "Trash/Recycling",
    "request_reason": "Request a Large Item Pick Up",
    "date_created": "2025-01-31T13:41:43.000",
    "date_modified": "2025-01-31T13:41:45.000",
    "request_status": "Pending",
    "responsible_agency": "Department of Sanitation",
    "final_address": "4029 Hollygrove St",
    "address_councildis": "A",
    "status": "Assigned to Contractor",
    "contractor": "IV Waste",
    "rowid": "1165686",
    "final_x": "3666500.23802",
    "final_y": "538027.152009",
    "longitude": "-90.11521591457807",
    "latitude": "29.973835105502133",
    "geocoded_column": {
      "latitude": "29.973835105502133",
      "longitude": "-90.11521591457807"
    }
  },
  {
    "service_request": "2025-1165685",
    "request_type": "Parks & Parkways",
    "request_reason": "Request Tree Service (Right of Way/Public Property)",
    "date_created": "2025-01-31T13:39:27.000",
    "date_modified": "2025-01-31T13:39:29.000",
    "request_status": "Pending",
    "responsible_agency": "Department of Parks & Parkway",
    "final_address": "BURGUNDY ST & POLAND AVE",
    "address_councildis": "C",
    "status": "Pending",
    "rowid": "1165685",
    "final_x": "3692814.9",
    "final_y": "534216.58",
    "longitude": "-90.03224540650106",
    "latitude": "29.962561936293806",
    "geocoded_column": {
      "latitude": "29.962561936293806",
      "longitude": "-90.03224540650106"
    }
  },
  {
    "service_request": "2025-1165684",
    "request_type": "Trash/Recycling",
    "request_reason": "Request a Large Item Pick Up",
    "date_created": "2025-01-31T13:32:58.000",
    "date_modified": "2025-01-31T13:33:01.000",
    "request_status": "Pending",
    "responsible_agency": "Department of Sanitation",
    "final_address": "3214 Ponce De Leon St",
    "address_councildis": "A",
    "status": "Assigned to Contractor",
    "contractor": "IV Waste",
    "rowid": "1165684",
    "final_x": "3675907.2043",
    "final_y": "540520.563531",
    "longitude": "-90.08542085086457",
    "latitude": "29.980412804001507",
    "geocoded_column": {
      "latitude": "29.980412804001507",
      "longitude": "-90.08542085086457"
    }
  },
  {
    "service_request": "2025-1165683",
    "request_type": "Health Related Request",
    "request_reason": "Noise Ordinance Complaint",
    "date_created": "2025-01-31T13:21:57.000",
    "date_modified": "2025-01-31T13:21:59.000",
    "request_status": "Pending",
    "responsible_agency": "Health Department",
    "final_address": "1507 Napoleon Ave",
    "address_councildis": "B",
    "status": "Pending",
    "rowid": "1165683",
    "final_x": "3670965.18817",
    "final_y": "520661.853625",
    "longitude": "-90.10170407882987",
    "latitude": "29.925954965627486",
    "geocoded_column": {
      "latitude": "29.925954965627486",
      "longitude": "-90.10170407882987"
    }
  },
  {
    "service_request": "2025-1165682",
    "request_type": "Abandoned Vehicles",
    "request_reason": "Abandoned/Junk Vehicles",
    "date_created": "2025-01-31T13:20:52.000",
    "date_modified": "2025-01-31T13:20:54.000",
    "request_status": "Pending",
    "responsible_agency": "Department of Public Works",
    "final_address": "3419 Cherry St",
    "address_councildis": "A",
    "status": "Pending",
    "rowid": "1165682",
    "final_x": "3664254.88045",
    "final_y": "537114.446216",
    "longitude": "-90.12233774429816",
    "latitude": "29.9713909103089",
    "geocoded_column": {
      "latitude": "29.9713909103089",
      "longitude": "-90.12233774429816"
    }
  },
  {
    "service_request": "2025-1165681",
    "request_type": "Trash/Recycling",
    "request_reason": "Repair Trash Cart",
    "date_created": "2025-01-31T13:20:37.000",
    "date_modified": "2025-01-31T13:20:38.000",
    "request_status": "Pending",
    "responsible_agency": "Department of Sanitation",
    "final_address": "1625 Nashville Ave",
    "address_councildis": "A",
    "status": "Assigned to Contractor",
    "contractor": "IV Waste",
    "rowid": "1165681",
    "final_x": "3666376.67354",
    "final_y": "522384.303866",
    "longitude": "-90.11613096431026",
    "latitude": "29.930825976550093",
    "geocoded_column": {
      "latitude": "29.930825976550093",
      "longitude": "-90.11613096431026"
    }
  },
  {
    "service_request": "2025-1165680",
    "request_type": "Drainage",
    "request_reason": "Alley Way Drainage Issue",
    "date_created": "2025-01-31T13:16:57.000",
    "date_modified": "2025-01-31T13:17:00.000",
    "request_status": "Pending",
    "responsible_agency": "Department of Public Works",
    "final_address": "1900 BLK Marigny St",
    "address_councildis": "D",
    "status": "Pending",
    "rowid": "1165680",
    "final_x": "3685166.57057",
    "final_y": "539467.07735",
    "longitude": "-90.05621294301048",
    "latitude": "29.977235557670674",
    "geocoded_column": {
      "latitude": "29.977235557670674",
      "longitude": "-90.05621294301048"
    }
  },
  {
    "service_request": "2025-1165679",
    "request_type": "Roads and Streets",
    "request_reason": "Pothole",
    "date_created": "2025-01-31T13:15:11.000",
    "date_modified": "2025-01-31T13:15:13.000",
    "request_status": "Pending",
    "responsible_agency": "Department of Public Works",
    "final_address": "1117 Eighth St",
    "address_councildis": "B",
    "status": "Pending",
    "rowid": "1165679",
    "final_x": "3676060.2891",
    "final_y": "520354.601976",
    "longitude": "-90.08563089175246",
    "latitude": "29.92495855181211",
    "geocoded_column": {
      "latitude": "29.92495855181211",
      "longitude": "-90.08563089175246"
    }
  },
  {
    "service_request": "2025-1165678",
    "request_type": "Trash/Recycling",
    "request_reason": "Repair Trash Cart",
    "date_created": "2025-01-31T13:08:50.000",
    "date_modified": "2025-01-31T13:08:52.000",
    "request_status": "Pending",
    "responsible_agency": "Department of Sanitation",
    "final_address": "7034 Tullis Dr",
    "address_councildis": "C",
    "status": "Assigned to Contractor",
    "contractor": "Richards Disposal",
    "rowid": "1165678",
    "final_x": "3709974.35019",
    "final_y": "517220.325109",
    "longitude": "-89.97869324303882",
    "latitude": "29.91528140284851",
    "geocoded_column": {
      "latitude": "29.91528140284851",
      "longitude": "-89.97869324303882"
    }
  },
  {
    "service_request": "2025-1165677",
    "request_type": "Trash/Recycling",
    "request_reason": "Missed Trash Pick-Up",
    "date_created": "2025-01-31T13:08:09.000",
    "date_modified": "2025-01-31T13:13:52.000",
    "case_close_date": "2025-01-31T07:13:51.000",
    "request_status": "Closed",
    "responsible_agency": "Department of Sanitation",
    "final_address": "1300 BLK Louisiana Ave",
    "address_councildis": "B",
    "status": "Invalid Request",
    "contractor": "IV Waste",
    "contractor_action": "Invalid",
    "rowid": "1165677",
    "final_x": "3674653.56371",
    "final_y": "520444.001879",
    "longitude": "-90.09006840924133",
    "latitude": "29.925246416748337",
    "geocoded_column": {
      "latitude": "29.925246416748337",
      "longitude": "-90.09006840924133"
    }
  },
  {
    "service_request": "2025-1165676",
    "request_type": "Trash/Recycling",
    "request_reason": "Order Recycling Cart",
    "date_created": "2025-01-31T13:04:54.000",
    "date_modified": "2025-01-31T13:04:57.000",
    "request_status": "Pending",
    "responsible_agency": "Department of Sanitation",
    "final_address": "2931 Broadway St",
    "address_councildis": "B",
    "status": "Pending",
    "rowid": "1165676",
    "final_x": "3667671.04237",
    "final_y": "531754.864643",
    "longitude": "-90.11172943459397",
    "latitude": "29.956554118565435",
    "geocoded_column": {
      "latitude": "29.956554118565435",
      "longitude": "-90.11172943459397"
    }
  },
  {
    "service_request": "2025-1165675",
    "request_type": "Street and Traffic Signs",
    "request_reason": "One Way Sign Missing or Damaged",
    "date_created": "2025-01-31T12:59:43.000",
    "date_modified": "2025-01-31T12:59:45.000",
    "request_status": "Pending",
    "responsible_agency": "Department of Public Works",
    "final_address": "TULANE AVE & S HENNESSEY ST",
    "address_councildis": "A",
    "status": "Pending",
    "rowid": "1165675",
    "final_x": "3668573.8",
    "final_y": "536687.18",
    "longitude": "-90.10871235715193",
    "latitude": "29.970089855924773",
    "geocoded_column": {
      "latitude": "29.970089855924773",
      "longitude": "-90.10871235715193"
    }
  },
  {
    "service_request": "2025-1165674",
    "request_type": "Utility Poles",
    "request_reason": "Wires Sagging/Hanging Low",
    "date_created": "2025-01-31T12:55:54.000",
    "date_modified": "2025-01-31T12:55:57.000",
    "request_status": "Pending",
    "responsible_agency": "Utility Company Collective",
    "final_address": "427 S Norman C Francis Prkwy",
    "address_councildis": "B",
    "status": "Pending",
    "rowid": "1165674",
    "final_x": "3672201.39591",
    "final_y": "535661.805574",
    "longitude": "-90.09729094761855",
    "latitude": "29.967163318160335",
    "geocoded_column": {
      "latitude": "29.967163318160335",
      "longitude": "-90.09729094761855"
    }
  },
  {
    "service_request": "2025-1165673",
    "request_type": "Property Maintenance",
    "request_reason": "Property Maintenance",
    "date_created": "2025-01-31T12:54:07.000",
    "date_modified": "2025-01-31T14:02:29.000",
    "case_close_date": "2025-01-31T08:02:28.000",
    "request_status": "Closed",
    "responsible_agency": "Department of Code Enforcement",
    "final_address": "923 Homer St",
    "address_councildis": "C",
    "status": "Referred to Code Enforcement",
    "rowid": "1165673",
    "final_x": "3688338.64297",
    "final_y": "528273.774912",
    "longitude": "-90.04659151829983",
    "latitude": "29.946360268155583",
    "geocoded_column": {
      "latitude": "29.946360268155583",
      "longitude": "-90.04659151829983"
    }
  },
  {
    "service_request": "2025-1165672",
    "request_type": "Trash/Recycling",
    "request_reason": "MIssed Recycling Pick-Up",
    "date_created": "2025-01-31T12:50:39.000",
    "date_modified": "2025-01-31T12:50:41.000",
    "request_status": "Pending",
    "responsible_agency": "Department of Sanitation",
    "final_address": "7319 Selma St",
    "address_councildis": "E",
    "status": "Assigned to Contractor",
    "contractor": "Waste Pro",
    "rowid": "1165672",
    "final_x": "3702029.60356",
    "final_y": "554014.012184",
    "longitude": "-90.00242068860274",
    "latitude": "30.01670662456451",
    "geocoded_column": {
      "latitude": "30.01670662456451",
      "longitude": "-90.00242068860274"
    }
  },
  {
    "service_request": "2025-1165671",
    "request_type": "Trash/Recycling",
    "request_reason": "Request a Large Item Pick Up",
    "date_created": "2025-01-31T12:47:29.000",
    "date_modified": "2025-01-31T15:10:43.000",
    "request_status": "Pending",
    "responsible_agency": "Department of Sanitation",
    "final_address": "2610 Magnolia St",
    "address_councildis": "B",
    "status": "Assigned to Contractor",
    "contractor": "IV Waste",
    "rowid": "1165671",
    "final_x": "3674191.80456",
    "final_y": "526073.81971",
    "longitude": "-90.09133340913966",
    "latitude": "29.940740356552414",
    "geocoded_column": {
      "latitude": "29.940740356552414",
      "longitude": "-90.09133340913966"
    }
  },
  {
    "service_request": "2025-1165670",
    "request_type": "Trash/Recycling",
    "request_reason": "Missed Trash Pick-Up",
    "date_created": "2025-01-31T12:47:16.000",
    "date_modified": "2025-01-31T13:00:19.000",
    "case_close_date": "2025-01-31T07:00:18.000",
    "request_status": "Closed",
    "responsible_agency": "Department of Sanitation",
    "final_address": "1500 BLK Saint Charles Ave",
    "address_councildis": "B",
    "status": "Invalid Request",
    "contractor": "IV Waste",
    "contractor_action": "Invalid",
    "rowid": "1165670",
    "final_x": "3679100.12798",
    "final_y": "525409.338405",
    "longitude": "-90.07586000459123",
    "latitude": "29.938766051587262",
    "geocoded_column": {
      "latitude": "29.938766051587262",
      "longitude": "-90.07586000459123"
    }
  },
  {
    "service_request": "2025-1165669",
    "request_type": "Trash/Recycling",
    "request_reason": "Illegal Dumping",
    "date_created": "2025-01-31T12:46:54.000",
    "date_modified": "2025-01-31T12:46:56.000",
    "request_status": "Pending",
    "responsible_agency": "Department of Sanitation",
    "final_address": "2070 Florida Ave",
    "address_councildis": "D",
    "status": "Pending",
    "rowid": "1165669",
    "final_x": "3683566.72418",
    "final_y": "542687.707405",
    "longitude": "-90.06115284236782",
    "latitude": "29.98614009260832",
    "geocoded_column": {
      "latitude": "29.98614009260832",
      "longitude": "-90.06115284236782"
    }
  },
  {
    "service_request": "2025-1165668",
    "request_type": "Trash/Recycling",
    "request_reason": "Illegal Dumping",
    "date_created": "2025-01-31T12:45:24.000",
    "date_modified": "2025-01-31T14:36:16.000",
    "case_close_date": "2025-01-31T08:36:15.000",
    "request_status": "Closed",
    "responsible_agency": "Department of Code Enforcement",
    "final_address": "800 BLK Socrates St",
    "address_councildis": "C",
    "status": "Referred to External Agency",
    "rowid": "1165668",
    "final_x": "3688431.53189",
    "final_y": "526408.494543",
    "longitude": "-90.04636438326136",
    "latitude": "29.941228513740448",
    "geocoded_column": {
      "latitude": "29.941228513740448",
      "longitude": "-90.04636438326136"
    }
  },
  {
    "service_request": "2025-1165667",
    "request_type": "Traffic Signals",
    "request_reason": "Traffic Signal Malfunctioning or Damaged",
    "date_created": "2025-01-31T12:44:22.000",
    "date_modified": "2025-01-31T12:44:24.000",
    "request_status": "Pending",
    "responsible_agency": "Department of Public Works",
    "final_address": "4740 Chef Menteur Hwy",
    "address_councildis": "D",
    "status": "Pending",
    "rowid": "1165667",
    "final_x": "3692205.37737",
    "final_y": "549998.86434",
    "longitude": "-90.03360487218897",
    "latitude": "30.005976559212918",
    "geocoded_column": {
      "latitude": "30.005976559212918",
      "longitude": "-90.03360487218897"
    }
  },
  {
    "service_request": "2025-1165666",
    "request_type": "Property Maintenance",
    "request_reason": "Property Maintenance",
    "date_created": "2025-01-31T12:44:20.000",
    "date_modified": "2025-01-31T14:52:06.000",
    "case_close_date": "2025-01-31T08:52:05.000",
    "request_status": "Closed",
    "responsible_agency": "Department of Code Enforcement",
    "final_address": "4000 Davey St",
    "address_councildis": "D",
    "status": "Referred to External Agency",
    "rowid": "1165666",
    "final_x": "3676149.65473",
    "final_y": "546926.171153",
    "longitude": "-90.08443457462232",
    "latitude": "29.99801873290704",
    "geocoded_column": {
      "latitude": "29.99801873290704",
      "longitude": "-90.08443457462232"
    }
  },
  {
    "service_request": "2025-1165665",
    "request_type": "Street and Traffic Signs",
    "request_reason": "Traffic or Parking Sign Damaged or Missing",
    "date_created": "2025-01-31T12:44:03.000",
    "date_modified": "2025-01-31T12:44:05.000",
    "request_status": "Pending",
    "responsible_agency": "Department of Public Works",
    "final_address": "3401 Desaix Blvd",
    "address_councildis": "D",
    "status": "Pending",
    "rowid": "1165665",
    "final_x": "3676774.95054",
    "final_y": "543749.818894",
    "longitude": "-90.08256880115637",
    "latitude": "29.989266122477325",
    "geocoded_column": {
      "latitude": "29.989266122477325",
      "longitude": "-90.08256880115637"
    }
  },
  {
    "service_request": "2025-1165664",
    "request_type": "Streetlights",
    "request_reason": "Streetlight Outage/Malfunction",
    "date_created": "2025-01-31T12:41:31.000",
    "date_modified": "2025-01-31T12:41:32.000",
    "request_status": "Pending",
    "responsible_agency": "Department of Public Works",
    "final_address": "5950 Chef Menteur Hwy",
    "address_councildis": "E",
    "status": "Pending",
    "contractor": "Legacy Professional Services",
    "rowid": "1165664",
    "final_x": "3696520.0312",
    "final_y": "551430.003349",
    "longitude": "-90.0199221019063",
    "latitude": "30.00977638133447",
    "geocoded_column": {
      "latitude": "30.00977638133447",
      "longitude": "-90.0199221019063"
    }
  },
  {
    "service_request": "2025-1165663",
    "request_type": "Trash/Recycling",
    "request_reason": "Illegal Dumping",
    "date_created": "2025-01-31T12:39:50.000",
    "date_modified": "2025-01-31T12:39:52.000",
    "request_status": "Pending",
    "responsible_agency": "Department of Sanitation",
    "final_address": "2300 BLK Amazon St",
    "address_councildis": "C",
    "status": "Pending",
    "rowid": "1165663",
    "final_x": "3692105.07212",
    "final_y": "522207.31889",
    "longitude": "-90.03491667054904",
    "latitude": "29.929562749026385",
    "geocoded_column": {
      "latitude": "29.929562749026385",
      "longitude": "-90.03491667054904"
    }
  },
  {
    "service_request": "2025-1165662",
    "request_type": "Roads and Streets",
    "request_reason": "Pothole",
    "date_created": "2025-01-31T12:39:45.000",
    "date_modified": "2025-01-31T12:39:48.000",
    "request_status": "Pending",
    "responsible_agency": "Department of Public Works",
    "final_address": "5950 Chef Menteur Hwy",
    "address_councildis": "E",
    "status": "Pending",
    "rowid": "1165662",
    "final_x": "3696520.0312",
    "final_y": "551430.003349",
    "longitude": "-90.0199221019063",
    "latitude": "30.00977638133447",
    "geocoded_column": {
      "latitude": "30.00977638133447",
      "longitude": "-90.0199221019063"
    }
  },
  {
    "service_request": "2025-1165661",
    "request_type": "Trash/Recycling",
    "request_reason": "Request a Large Item Pick Up",
    "date_created": "2025-01-31T12:36:56.000",
    "date_modified": "2025-01-31T12:36:58.000",
    "request_status": "Pending",
    "responsible_agency": "Department of Sanitation",
    "final_address": "7621 Morel St",
    "address_councildis": "E",
    "status": "Assigned to Contractor",
    "contractor": "Waste Pro",
    "rowid": "1165661",
    "final_x": "3718847.88645",
    "final_y": "571935.13572",
    "longitude": "-89.94859840395786",
    "latitude": "30.065434553195693",
    "geocoded_column": {
      "latitude": "30.065434553195693",
      "longitude": "-89.94859840395786"
    }
  },
  {
    "service_request": "2025-1165660",
    "request_type": "Trash/Recycling",
    "request_reason": "Return Trash Cart",
    "date_created": "2025-01-31T12:35:16.000",
    "date_modified": "2025-01-31T12:35:18.000",
    "request_status": "Pending",
    "responsible_agency": "Department of Sanitation",
    "final_address": "44 Swallow St",
    "address_councildis": "D",
    "status": "Assigned to Contractor",
    "contractor": "IV Waste",
    "rowid": "1165660",
    "final_x": "3673660.87336",
    "final_y": "557191.549275",
    "longitude": "-90.09194529009912",
    "latitude": "30.02631922426473",
    "geocoded_column": {
      "latitude": "30.02631922426473",
      "longitude": "-90.09194529009912"
    }
  },
  {
    "service_request": "2025-1165659",
    "request_type": "Trash/Recycling",
    "request_reason": "Request a Large Item Pick Up",
    "date_created": "2025-01-31T12:34:21.000",
    "date_modified": "2025-01-31T12:34:23.000",
    "request_status": "Pending",
    "responsible_agency": "Department of Sanitation",
    "final_address": "4821 Camelia St",
    "address_councildis": "E",
    "status": "Assigned to Contractor",
    "contractor": "Waste Pro",
    "rowid": "1165659",
    "final_x": "3701575.86141",
    "final_y": "554696.533784",
    "longitude": "-90.0038292909647",
    "latitude": "30.018597781947044",
    "geocoded_column": {
      "latitude": "30.018597781947044",
      "longitude": "-90.0038292909647"
    }
  },
  {
    "service_request": "2025-1165658",
    "request_type": "Trash/Recycling",
    "request_reason": "Request a Large Item Pick Up",
    "date_created": "2025-01-31T12:30:53.000",
    "date_modified": "2025-01-31T12:30:55.000",
    "request_status": "Pending",
    "responsible_agency": "Department of Sanitation",
    "final_address": "3201 De Soto St",
    "address_councildis": "A",
    "status": "Assigned to Contractor",
    "contractor": "IV Waste",
    "rowid": "1165658",
    "final_x": "3676040.08539",
    "final_y": "540004.445707",
    "longitude": "-90.08501891409719",
    "latitude": "29.978989677644122",
    "geocoded_column": {
      "latitude": "29.978989677644122",
      "longitude": "-90.08501891409719"
    }
  },
  {
    "service_request": "2025-1165657",
    "request_type": "Property Maintenance",
    "request_reason": "Property Maintenance",
    "date_created": "2025-01-31T12:30:24.000",
    "date_modified": "2025-01-31T14:55:12.000",
    "case_close_date": "2025-01-31T08:55:11.000",
    "request_status": "Closed",
    "responsible_agency": "Department of Code Enforcement",
    "final_address": "7805 S Coronet Ct",
    "address_councildis": "E",
    "status": "Referred to External Agency",
    "rowid": "1165657",
    "final_x": "3702977.7841",
    "final_y": "557372.469339",
    "longitude": "-89.99930131993791",
    "latitude": "30.025910773551267",
    "geocoded_column": {
      "latitude": "30.025910773551267",
      "longitude": "-89.99930131993791"
    }
  },
  {
    "service_request": "2025-1165656",
    "request_type": "Trash/Recycling",
    "request_reason": "Replace Trash Cart",
    "date_created": "2025-01-31T12:28:24.000",
    "date_modified": "2025-01-31T12:28:26.000",
    "request_status": "Pending",
    "responsible_agency": "Department of Sanitation",
    "final_address": "1536 Painters St",
    "address_councildis": "C",
    "status": "Assigned to Contractor",
    "contractor": "IV Waste",
    "rowid": "1165656",
    "final_x": "3687390.50806",
    "final_y": "538235.898185",
    "longitude": "-90.04923261324863",
    "latitude": "29.973781904141617",
    "geocoded_column": {
      "latitude": "29.973781904141617",
      "longitude": "-90.04923261324863"
    }
  },
  {
    "service_request": "2025-1165655",
    "request_type": "Trash/Recycling",
    "request_reason": "Repair Recycling Cart",
    "date_created": "2025-01-31T12:27:39.000",
    "date_modified": "2025-01-31T12:27:42.000",
    "request_status": "Pending",
    "responsible_agency": "Department of Sanitation",
    "final_address": "1468 N Prieur St",
    "address_councildis": "D",
    "status": "Pending",
    "rowid": "1165655",
    "final_x": "3680870.10767",
    "final_y": "537702.906824",
    "longitude": "-90.06984401416933",
    "latitude": "29.972515672881407",
    "geocoded_column": {
      "latitude": "29.972515672881407",
      "longitude": "-90.06984401416933"
    }
  },
  {
    "service_request": "2025-1165654",
    "request_type": "Trash/Recycling",
    "request_reason": "Request a Large Item Pick Up",
    "date_created": "2025-01-31T12:23:13.000",
    "date_modified": "2025-01-31T12:24:36.000",
    "request_status": "Pending",
    "responsible_agency": "Department of Sanitation",
    "final_address": "12 Petit Bayou Ln",
    "address_councildis": "E",
    "status": "Assigned to Contractor",
    "contractor": "Waste Pro",
    "rowid": "1165654",
    "final_x": "3724769.4014",
    "final_y": "563914.000993",
    "longitude": "-89.93019053707603",
    "latitude": "30.043181701926176",
    "geocoded_column": {
      "latitude": "30.043181701926176",
      "longitude": "-89.93019053707603"
    }
  },
  {
    "service_request": "2025-1165653",
    "request_type": "Trash/Recycling",
    "request_reason": "Illegal Dumping",
    "date_created": "2025-01-31T12:23:10.000",
    "date_modified": "2025-01-31T12:24:14.000",
    "case_close_date": "2025-01-31T06:24:13.000",
    "request_status": "Closed",
    "responsible_agency": "Department of Sanitation",
    "final_address": "LAFAYETTE ST & S GALVEZ ST",
    "address_councildis": "B",
    "status": "Resolved",
    "rowid": "1165653",
    "final_x": "3675138.2",
    "final_y": "531365.28",
    "longitude": "-90.08816392878069",
    "latitude": "29.955261880599775",
    "geocoded_column": {
      "latitude": "29.955261880599775",
      "longitude": "-90.08816392878069"
    }
  },
  {
    "service_request": "2025-1165652",
    "request_type": "Roads and Streets",
    "request_reason": "Sidewalk Damaged or Missing",
    "date_created": "2025-01-31T12:22:25.000",
    "date_modified": "2025-01-31T12:22:28.000",
    "request_status": "Pending",
    "responsible_agency": "Department of Public Works",
    "final_address": "622 PirateS Aly",
    "address_councildis": "C",
    "status": "Pending",
    "rowid": "1165652",
    "final_x": "3682736.74882",
    "final_y": "532445.114627",
    "longitude": "-90.06413276163453",
    "latitude": "29.958001824335554",
    "geocoded_column": {
      "latitude": "29.958001824335554",
      "longitude": "-90.06413276163453"
    }
  },
  {
    "service_request": "2025-1165651",
    "request_type": "Trash/Recycling",
    "request_reason": "Request a Large Item Pick Up",
    "date_created": "2025-01-31T12:19:52.000",
    "date_modified": "2025-01-31T12:19:53.000",
    "request_status": "Pending",
    "responsible_agency": "Department of Sanitation",
    "final_address": "7819 Scottwood Dr",
    "address_councildis": "E",
    "status": "Assigned to Contractor",
    "contractor": "Waste Pro",
    "rowid": "1165651",
    "final_x": "3716660.1628",
    "final_y": "571687.184232",
    "longitude": "-89.9555234086488",
    "latitude": "30.06482530357282",
    "geocoded_column": {
      "latitude": "30.06482530357282",
      "longitude": "-89.9555234086488"
    }
  },
  {
    "service_request": "2025-1165650",
    "request_type": "Trash/Recycling",
    "request_reason": "Request a Large Item Pick Up",
    "date_created": "2025-01-31T12:16:42.000",
    "date_modified": "2025-01-31T12:16:45.000",
    "request_status": "Pending",
    "responsible_agency": "Department of Sanitation",
    "final_address": "2408 Dauphine St",
    "address_councildis": "C",
    "status": "Assigned to Contractor",
    "contractor": "IV Waste",
    "rowid": "1165650",
    "final_x": "3685969.62825",
    "final_y": "535250.742214",
    "longitude": "-90.05382532869208",
    "latitude": "29.965617472173726",
    "geocoded_column": {
      "latitude": "29.965617472173726",
      "longitude": "-90.05382532869208"
    }
  },
  {
    "service_request": "2025-1165649",
    "request_type": "Safety & Permits",
    "request_reason": "Construction permit",
    "date_created": "2025-01-31T12:14:00.000",
    "date_modified": "2025-01-31T12:14:43.000",
    "request_status": "Pending",
    "responsible_agency": "Safety and Permits",
    "final_address": "7923 Tarpon St",
    "address_councildis": "E",
    "status": "Pending",
    "rowid": "1165649",
    "final_x": "3698396.09008",
    "final_y": "560938.529566",
    "longitude": "-90.01364901021333",
    "latitude": "30.035861941143988",
    "geocoded_column": {
      "latitude": "30.035861941143988",
      "longitude": "-90.01364901021333"
    }
  },
  {
    "service_request": "2025-1165648",
    "request_type": "Trash/Recycling",
    "request_reason": "Illegal Dumping",
    "date_created": "2025-01-31T12:10:36.000",
    "date_modified": "2025-01-31T12:10:39.000",
    "request_status": "Pending",
    "responsible_agency": "Department of Sanitation",
    "final_address": "5100 BLK Westlake Dr",
    "address_councildis": "E",
    "status": "Pending",
    "rowid": "1165648",
    "final_x": "3699453.13518",
    "final_y": "556319.024617",
    "longitude": "-90.01047711037631",
    "latitude": "30.023126564863887",
    "geocoded_column": {
      "latitude": "30.023126564863887",
      "longitude": "-90.01047711037631"
    }
  },