[
  {
    "service_request": "2022-855295",
    "request_type": "Abandoned Vehicles",
    "request_reason": "Abandoned/Junk Vehicles",
    "date_created": "2022-01-19T22:30:06.000",
    "date_modified": "2022-01-19T22:30:06.000",
    "request_status": "Pending",
    "responsible_agency": "Department of Public Works",
    "final_address": "7350 Hansbrough Ave",
    "address_councildis": "E",
    "status": "Pending",
    "rowid": "855295",
    "final_x": "3708053.96376",
    "final_y": "563624.838241",
    "longitude": "-89.9830285803829",
    "latitude": "30.042938842162577",
    "geocoded_column": {
      "latitude": "30.042938842162577",
      "longitude": "-89.9830285803829"
    }
  },
  {
    "service_request": "2022-855294",
    "request_type": "Property Maintenance",
    "request_reason": "Property Maintenance",
    "date_created": "2022-01-19T22:17:56.000",
    "date_modified": "2022-01-19T22:17:56.000",
    "request_status": "Pending",
    "responsible_agency": "Department of Code Enforcement",
    "final_address": "2336 Louisiana Ave",
    "address_councildis": "B",
    "status": "Pending",
    "rowid": "855294",
    "final_x": "3673026.69665",
    "final_y": "524096.52998",
    "longitude": "-90.09507932460845",
    "latitude": "29.93533812715683",
    "geocoded_column": {
      "latitude": "29.93533812715683",
      "longitude": "-90.09507932460845"
    }
  },
  {
    "service_request": "2022-855293",
    "request_type": "Property Maintenance",
    "request_reason": "Property Maintenance",
    "date_created": "2022-01-19T22:16:16.000",
    "date_modified": "2022-01-19T22:16:16.000",
    "request_status": "Pending",
    "responsible_agency": "Department of Code Enforcement",
    "final_address": "2309 Louisiana Ave",
    "address_councildis": "B",
    "status": "Pending",
    "rowid": "855293",
    "final_x": "3673230.69985",
    "final_y": "523945.156988",
    "longitude": "-90.09444045183372",
    "latitude": "29.934915837162666",
    "geocoded_column": {
      "latitude": "29.934915837162666",
      "longitude": "-90.09444045183372"
    }
  },
  {
    "service_request": "2022-855292",
    "request_type": "Property Maintenance",
    "request_reason": "Property Maintenance",
    "date_created": "2022-01-19T22:12:00.000",
    "date_modified": "2022-01-19T22:12:00.000",
    "request_status": "Pending",
    "responsible_agency": "Department of Code Enforcement",
    "final_address": "2316 Louisiana Ave",
    "address_councildis": "B",
    "status": "Pending",
    "rowid": "855292",
    "final_x": "3673081.42209",
    "final_y": "523981.1015",
    "longitude": "-90.09491049447387",
    "latitude": "29.93501911004819",
    "geocoded_column": {
      "latitude": "29.93501911004819",
      "longitude": "-90.09491049447387"
    }
  },
  {
    "service_request": "2022-855291",
    "request_type": "Property Maintenance",
    "request_reason": "Property Maintenance",
    "date_created": "2022-01-19T22:10:32.000",
    "date_modified": "2022-01-19T22:10:32.000",
    "request_status": "Pending",
    "responsible_agency": "Department of Code Enforcement",
    "final_address": "3440 S Liberty St",
    "address_councildis": "B",
    "status": "Pending",
    "rowid": "855291",
    "final_x": "3672890.81646",
    "final_y": "523662.585851",
    "longitude": "-90.09552309870573",
    "latitude": "29.93414895837542",
    "geocoded_column": {
      "latitude": "29.93414895837542",
      "longitude": "-90.09552309870573"
    }
  },
  {
    "service_request": "2022-855290",
    "request_type": "Traffic Signals/Signs/Striping/Streetlights",
    "request_reason": "Street Light Outage/Malfunction",
    "date_created": "2022-01-19T22:03:35.000",
    "date_modified": "2022-01-19T22:03:36.000",
    "request_status": "Pending",
    "responsible_agency": "Department of Public Works",
    "final_address": "2314 Louisiana Ave",
    "address_councildis": "B",
    "status": "Pending",
    "contractor": "Royal Engineering",
    "rowid": "855290",
    "final_x": "3673089.49371",
    "final_y": "523947.208764",
    "longitude": "-90.09488616885447",
    "latitude": "29.934925676141823",
    "geocoded_column": {
      "latitude": "29.934925676141823",
      "longitude": "-90.09488616885447"
    }
  },
  {
    "service_request": "2022-855289",
    "request_type": "Property Maintenance",
    "request_reason": "Property Maintenance",
    "date_created": "2022-01-19T22:01:36.000",
    "date_modified": "2022-01-19T22:01:36.000",
    "request_status": "Pending",
    "responsible_agency": "Department of Code Enforcement",
    "final_address": "2234 Louisiana Ave",
    "address_councildis": "B",
    "status": "Pending",
    "rowid": "855289",
    "final_x": "3673173.85972",
    "final_y": "523741.448891",
    "longitude": "-90.09462684807384",
    "latitude": "29.93435739569208",
    "geocoded_column": {
      "latitude": "29.93435739569208",
      "longitude": "-90.09462684807384"
    }
  },
  {
    "service_request": "2022-855288",
    "request_type": "Health Related Questions",
    "request_reason": "Noise Ordinance Complaint",
    "date_created": "2022-01-19T21:33:31.000",
    "date_modified": "2022-01-19T21:33:31.000",
    "request_status": "Pending",
    "responsible_agency": "Health Department",
    "final_address": "5977 Laurel Street. New Orleans LA 70115",
    "address_councildis": "A",
    "status": "Pending",
    "rowid": "855288",
    "final_x": "3664447.349",
    "final_y": "518258.092534",
    "longitude": "-90.12235926086477",
    "latitude": "29.91953640372856",
    "geocoded_column": {
      "latitude": "29.91953640372856",
      "longitude": "-90.12235926086477"
    }
  },
  {
    "service_request": "2022-855287",
    "request_type": "Trash/Recycling",
    "request_reason": "Missed Trash Pick-Up",
    "date_created": "2022-01-19T21:22:36.000",
    "date_modified": "2022-01-19T21:22:37.000",
    "request_status": "Pending",
    "responsible_agency": "Department of Sanitation",
    "final_address": "2625 Pine St",
    "address_councildis": "A",
    "status": "Assigned to Contractor",
    "contractor": "Richards Disposal",
    "rowid": "855287",
    "final_x": "3666919.81319",
    "final_y": "530998.84781",
    "longitude": "-90.11412698075927",
    "latitude": "29.954497320293576",
    "geocoded_column": {
      "latitude": "29.954497320293576",
      "longitude": "-90.11412698075927"
    }
  },
  {
    "service_request": "2022-855286",
    "request_type": "Trash/Recycling",
    "request_reason": "Request a Large Item Pick Up",
    "date_created": "2022-01-19T21:21:28.000",
    "date_modified": "2022-01-19T21:21:29.000",
    "request_status": "Pending",
    "responsible_agency": "Department of Sanitation",
    "final_address": "212 N Salcedo St",
    "address_councildis": "B",
    "status": "Assigned to Contractor",
    "contractor": "Richards Disposal",
    "rowid": "855286",
    "final_x": "3674519.38542",
    "final_y": "536512.677831",
    "longitude": "-90.08994154702386",
    "latitude": "29.96943397119778",
    "geocoded_column": {
      "latitude": "29.96943397119778",
      "longitude": "-90.08994154702386"
    }
  },
  {
    "service_request": "2022-855285",
    "request_type": "Traffic Signals/Signs/Striping/Streetlights",
    "request_reason": "Request for Traffic Calming due to Speeding",
    "date_created": "2022-01-19T20:56:22.000",
    "date_modified": "2022-01-19T20:56:23.000",
    "request_status": "Pending",
    "responsible_agency": "Department of Public Works",
    "final_address": "1237 Gallier St",
    "address_councildis": "C",
    "status": "Pending",
    "contractor": "Royal Engineering",
    "rowid": "855285",
    "final_x": "3690675.49404",
    "final_y": "536276.601351",
    "longitude": "-90.03892784762269",
    "latitude": "29.968292895684066",
    "geocoded_column": {
      "latitude": "29.968292895684066",
      "longitude": "-90.03892784762269"
    }
  },
  {
    "service_request": "2022-855284",
    "request_type": "Traffic Signals/Signs/Striping/Streetlights",
    "request_reason": "Street Light Outage/Malfunction",
    "date_created": "2022-01-19T20:39:18.000",
    "date_modified": "2022-01-19T20:55:40.000",
    "request_status": "Pending",
    "responsible_agency": "Department of Public Works",
    "final_address": "1237 Gallier St, New Orleans, Louisiana, 70117",
    "address_councildis": "C",
    "status": "Pending",
    "contractor": "Royal Engineering",
    "rowid": "855284",
    "final_x": "3690675.49404",
    "final_y": "536276.601351",
    "longitude": "-90.03892784762269",
    "latitude": "29.968292895684066",
    "geocoded_column": {
      "latitude": "29.968292895684066",
      "longitude": "-90.03892784762269"
    }
  },
  {
    "service_request": "2022-855283",
    "request_type": "Traffic Signals/Signs/Striping/Streetlights",
    "request_reason": "Street Light Outage/Malfunction",
    "date_created": "2022-01-19T20:37:39.000",
    "date_modified": "2022-01-19T20:58:30.000",
    "request_status": "Pending",
    "responsible_agency": "Department of Public Works",
    "final_address": "1237 Gallier St, New Orleans, Louisiana, 70117",
    "address_councildis": "C",
    "status": "Pending",
    "contractor": "Royal Engineering",
    "rowid": "855283",
    "final_x": "3690675.49404",
    "final_y": "536276.601351",
    "longitude": "-90.03892784762269",
    "latitude": "29.968292895684066",
    "geocoded_column": {
      "latitude": "29.968292895684066",
      "longitude": "-90.03892784762269"
    }
  },
  {
    "service_request": "2022-855282",
    "request_type": "Trash/Recycling",
    "request_reason": "Replace Trash Cart",
    "date_created": "2022-01-19T20:28:04.000",
    "date_modified": "2022-01-19T20:28:05.000",
    "request_status": "Pending",
    "responsible_agency": "Department of Sanitation",
    "final_address": "3871 S Inwood Ave",
    "address_councildis": "C",
    "status": "Assigned to Contractor",
    "contractor": "Richards Disposal",
    "rowid": "855282",
    "final_x": "3704985.22635",
    "final_y": "514059.708466",
    "longitude": "-89.99455718536169",
    "latitude": "29.906752031543167",
    "geocoded_column": {
      "latitude": "29.906752031543167",
      "longitude": "-89.99455718536169"
    }
  },
  {
    "service_request": "2022-855281",
    "request_type": "Traffic Signals/Signs/Striping/Streetlights",
    "request_reason": "Street Light Outage/Malfunction",
    "date_created": "2022-01-19T20:27:09.000",
    "date_modified": "2022-01-19T20:27:10.000",
    "request_status": "Pending",
    "responsible_agency": "Department of Public Works",
    "final_address": "5928 General Haig St",
    "address_councildis": "A",
    "status": "Pending",
    "contractor": "Royal Engineering",
    "rowid": "855281",
    "final_x": "3670435.13147",
    "final_y": "546685.038481",
    "longitude": "-90.10249490325195",
    "latitude": "29.997525725609407",
    "geocoded_column": {
      "latitude": "29.997525725609407",
      "longitude": "-90.10249490325195"
    }
  },
  {
    "service_request": "2022-855280",
    "request_type": "Traffic Signals/Signs/Striping/Streetlights",
    "request_reason": "Traffic Signal Malfunctioning/Damaged",
    "date_created": "2022-01-19T20:26:26.000",
    "date_modified": "2022-01-19T20:59:27.000",
    "request_status": "Pending",
    "responsible_agency": "Department of Public Works",
    "final_address": "New Orleans,LA",
    "address_councildis": "B",
    "rowid": "855280",
    "final_x": "3680523.2",
    "final_y": "528547.88",
    "longitude": "-90.07125807191943",
    "latitude": "29.94735297540758",
    "geocoded_column": {
      "latitude": "29.94735297540758",
      "longitude": "-90.07125807191943"
    }
  },
  {
    "service_request": "2022-855279",
    "request_type": "Property Maintenance",
    "request_reason": "Property Maintenance",
    "date_created": "2022-01-19T20:25:16.000",
    "date_modified": "2022-01-19T20:25:16.000",
    "request_status": "Pending",
    "responsible_agency": "Department of Code Enforcement",
    "final_address": "5944 General Haig St",
    "address_councildis": "A",
    "status": "Pending",
    "rowid": "855279",
    "final_x": "3670348.70292",
    "final_y": "546807.092945",
    "longitude": "-90.10276378842732",
    "latitude": "29.997863885542134",
    "geocoded_column": {
      "latitude": "29.997863885542134",
      "longitude": "-90.10276378842732"
    }
  },
  {
    "service_request": "2022-855278",
    "request_type": "Trash/Recycling",
    "request_reason": "Order Recycling Cart",
    "date_created": "2022-01-19T20:22:37.000",
    "date_modified": "2022-01-19T20:22:37.000",
    "request_status": "Pending",
    "responsible_agency": "Department of Sanitation",
    "final_address": "3027 Memorial Park Dr",
    "address_councildis": "C",
    "status": "Pending",
    "rowid": "855278",
    "final_x": "3694582.56419",
    "final_y": "519412.830967",
    "longitude": "-90.02719626992013",
    "latitude": "29.921801428646464",
    "geocoded_column": {
      "latitude": "29.921801428646464",
      "longitude": "-90.02719626992013"
    }
  },
  {
    "service_request": "2022-855277",
    "request_type": "Trash/Recycling",
    "request_reason": "Request a Large Item Pick Up",
    "date_created": "2022-01-19T20:08:23.000",
    "date_modified": "2022-01-19T20:08:24.000",
    "request_status": "Pending",
    "responsible_agency": "Department of Sanitation",
    "final_address": "549 Philip St",
    "address_councildis": "B",
    "status": "Assigned to Contractor",
    "contractor": "Richards Disposal",
    "rowid": "855277",
    "final_x": "3679699.26146",
    "final_y": "520395.058296",
    "longitude": "-90.07414244071781",
    "latitude": "29.924960337008436",
    "geocoded_column": {
      "latitude": "29.924960337008436",
      "longitude": "-90.07414244071781"
    }
  },
  {
    "service_request": "2022-855276",
    "request_type": "Traffic Signals/Signs/Striping/Streetlights",
    "request_reason": "Street Light Outage/Malfunction",
    "date_created": "2022-01-19T19:44:48.000",
    "date_modified": "2022-01-19T19:44:49.000",
    "request_status": "Pending",
    "responsible_agency": "Department of Public Works",
    "final_address": "6568 Milne Blvd",
    "address_councildis": "A",
    "status": "Pending",
    "contractor": "Royal Engineering",
    "rowid": "855276",
    "final_x": "3667309.58113",
    "final_y": "551399.942613",
    "longitude": "-90.11220973066722",
    "latitude": "30.010582022245945",
    "geocoded_column": {
      "latitude": "30.010582022245945",
      "longitude": "-90.11220973066722"
    }
  },
  {
    "service_request": "2022-855275",
    "request_type": "Roads/Drainage",
    "request_reason": "Street Subsidence (Sinking)",
    "date_created": "2022-01-19T19:35:49.000",
    "date_modified": "2022-01-19T19:35:49.000",
    "request_status": "Pending",
    "responsible_agency": "Department of Public Works",
    "final_address": "2621 Soniat St",
    "address_councildis": "B",
    "status": "Pending",
    "rowid": "855275",
    "final_x": "3668596.86522",
    "final_y": "525141.281533",
    "longitude": "-90.10902911511016",
    "latitude": "29.93834174439946",
    "geocoded_column": {
      "latitude": "29.93834174439946",
      "longitude": "-90.10902911511016"
    }
  },
  {
    "service_request": "2022-855274",
    "request_type": "Property Maintenance",
    "request_reason": "Property Maintenance",
    "date_created": "2022-01-19T19:30:49.000",
    "date_modified": "2022-01-19T19:30:49.000",
    "request_status": "Pending",
    "responsible_agency": "Department of Code Enforcement",
    "final_address": "5200 Bundy Rd",
    "address_councildis": "E",
    "status": "Pending",
    "rowid": "855274",
    "final_x": "3708744.1308",
    "final_y": "557398.571483",
    "longitude": "-89.9810796125681",
    "latitude": "30.025796690047986",
    "geocoded_column": {
      "latitude": "30.025796690047986",
      "longitude": "-89.9810796125681"
    }
  },
  {
    "service_request": "2022-855273",
    "request_type": "Property Maintenance",
    "request_reason": "Property Maintenance",
    "date_created": "2022-01-19T19:27:57.000",
    "date_modified": "2022-01-19T19:27:57.000",
    "request_status": "Pending",
    "responsible_agency": "Department of Code Enforcement",
    "final_address": "5200 Bundy Rd",
    "address_councildis": "E",
    "status": "Pending",
    "rowid": "855273",
    "final_x": "3708744.1308",
    "final_y": "557398.571483",
    "longitude": "-89.9810796125681",
    "latitude": "30.025796690047986",
    "geocoded_column": {
      "latitude": "30.025796690047986",
      "longitude": "-89.9810796125681"
    }
  },
  {
    "service_request": "2022-855272",
    "request_type": "Abandoned Vehicles",
    "request_reason": "Abandoned/Junk Vehicles",
    "date_created": "2022-01-19T19:02:24.000",
    "date_modified": "2022-01-19T19:02:24.000",
    "request_status": "Pending",
    "responsible_agency": "Department of Public Works",
    "final_address": "1039 Constance St",
    "address_councildis": "B",
    "status": "Pending",
    "rowid": "855272",
    "final_x": "3681123.84565",
    "final_y": "526498.639038",
    "longitude": "-90.06943297394385",
    "latitude": "29.94170004367988",
    "geocoded_column": {
      "latitude": "29.94170004367988",
      "longitude": "-90.06943297394385"
    }
  },
  {
    "service_request": "2022-855271",
    "request_type": "Mayor's Request",
    "request_reason": "Requests to the Mayor",
    "date_created": "2022-01-19T18:57:58.000",
    "date_modified": "2022-01-19T18:57:58.000",
    "request_status": "Pending",
    "responsible_agency": "Executive Office of the Mayor",
    "status": "Pending",
    "rowid": "855271",
    "longitude": "0.0",
    "latitude": "0.0",
    "geocoded_column": {
      "latitude": "0.0",
      "longitude": "0.0"
    }
  },
  {
    "service_request": "2022-855270",
    "request_type": "Mayor's Request",
    "request_reason": "Requests to the Mayor",
    "date_created": "2022-01-19T18:54:18.000",
    "date_modified": "2022-01-19T18:54:18.000",
    "request_status": "Pending",
    "responsible_agency": "Executive Office of the Mayor",
    "status": "Pending",
    "rowid": "855270",
    "longitude": "0.0",
    "latitude": "0.0",
    "geocoded_column": {
      "latitude": "0.0",
      "longitude": "0.0"
    }
  },
  {
    "service_request": "2022-855269",
    "request_type": "Abandoned Vehicles",
    "request_reason": "Abandoned/Junk Vehicles",
    "date_created": "2022-01-19T18:51:36.000",
    "date_modified": "2022-01-19T18:51:36.000",
    "request_status": "Pending",
    "responsible_agency": "Department of Public Works",
    "final_address": "729 Hidalgo St",
    "address_councildis": "A",
    "status": "Pending",
    "rowid": "855269",
    "final_x": "3668535.38778",
    "final_y": "544193.804174",
    "longitude": "-90.10858027364178",
    "latitude": "29.99073166222064",
    "geocoded_column": {
      "latitude": "29.99073166222064",
      "longitude": "-90.10858027364178"
    }
  },
  {
    "service_request": "2022-855268",
    "request_type": "Mayor's Request",
    "request_reason": "Requests to the Mayor",
    "date_created": "2022-01-19T18:49:22.000",
    "date_modified": "2022-01-19T18:49:22.000",
    "request_status": "Pending",
    "responsible_agency": "Executive Office of the Mayor",
    "status": "Pending",
    "rowid": "855268",
    "longitude": "0.0",
    "latitude": "0.0",
    "geocoded_column": {
      "latitude": "0.0",
      "longitude": "0.0"
    }
  },
  {
    "service_request": "2022-855267",
    "request_type": "Trash/Recycling",
    "request_reason": "Request a Large Item Pick Up",
    "date_created": "2022-01-19T18:35:05.000",
    "date_modified": "2022-01-19T18:35:06.000",
    "request_status": "Pending",
    "responsible_agency": "Department of Sanitation",
    "final_address": "816 Third St",
    "address_councildis": "B",
    "status": "Assigned to Contractor",
    "contractor": "Richards Disposal",
    "rowid": "855267",
    "final_x": "3678066.05518",
    "final_y": "520357.310968",
    "longitude": "-90.07929924640788",
    "latitude": "29.924905793381352",
    "geocoded_column": {
      "latitude": "29.924905793381352",
      "longitude": "-90.07929924640788"
    }
  },
  {
    "service_request": "2022-855266",
    "request_type": "Trash/Recycling",
    "request_reason": "Return Recycling Cart",
    "date_created": "2022-01-19T18:34:58.000",
    "date_modified": "2022-01-19T18:34:58.000",
    "request_status": "Pending",
    "responsible_agency": "Department of Sanitation",
    "final_address": "230 Cherokee St",
    "address_councildis": "A",
    "status": "Pending",
    "rowid": "855266",
    "final_x": "3661122.83616",
    "final_y": "524346.074876",
    "longitude": "-90.13265178493108",
    "latitude": "29.936372645258658",
    "geocoded_column": {
      "latitude": "29.936372645258658",
      "longitude": "-90.13265178493108"
    }
  },
  {
    "service_request": "2022-855265",
    "request_type": "Traffic Signals/Signs/Striping/Streetlights",
    "request_reason": "Traffic Signal Malfunctioning/Damaged",
    "date_created": "2022-01-19T18:33:24.000",
    "date_modified": "2022-01-19T18:33:24.000",
    "request_status": "Pending",
    "responsible_agency": "Department of Public Works",
    "final_address": "ST CHARLES AVE & GIROD ST",
    "address_councildis": "B",
    "status": "Pending",
    "rowid": "855265",
    "final_x": "3680523.2",
    "final_y": "528547.88",
    "longitude": "-90.07125807191943",
    "latitude": "29.94735297540758",
    "geocoded_column": {
      "latitude": "29.94735297540758",
      "longitude": "-90.07125807191943"
    }
  },
  {
    "service_request": "2022-855264",
    "request_type": "Trash/Recycling",
    "request_reason": "Request a Large Item Pick Up",
    "date_created": "2022-01-19T18:30:29.000",
    "date_modified": "2022-01-19T18:30:29.000",
    "request_status": "Pending",
    "responsible_agency": "Department of Sanitation",
    "final_address": "816 3rd St, New Orleans, Louisiana, 70130",
    "status": "Assigned to Contractor",
    "rowid": "855264",
    "longitude": "0.0",
    "latitude": "0.0",
    "geocoded_column": {
      "latitude": "0.0",
      "longitude": "0.0"
    }
  },
  {
    "service_request": "2022-855263",
    "request_type": "Traffic Signals/Signs/Striping/Streetlights",
    "request_reason": "Street Light Outage/Malfunction",
    "date_created": "2022-01-19T18:11:12.000",
    "date_modified": "2022-01-19T18:11:13.000",
    "request_status": "Pending",
    "responsible_agency": "Department of Public Works",
    "final_address": "2525 Dryades St",
    "address_councildis": "B",
    "status": "Pending",
    "contractor": "Royal Engineering",
    "rowid": "855263",
    "final_x": "3675901.39137",
    "final_y": "523864.28326",
    "longitude": "-90.0860118793333",
    "latitude": "29.934613791806562",
    "geocoded_column": {
      "latitude": "29.934613791806562",
      "longitude": "-90.0860118793333"
    }
  },
  {
    "service_request": "2022-855262",
    "request_type": "Trash/Recycling",
    "request_reason": "Order Trash Cart",
    "date_created": "2022-01-19T18:03:23.000",
    "date_modified": "2022-01-19T18:03:25.000",
    "request_status": "Pending",
    "responsible_agency": "Department of Sanitation",
    "final_address": "1701 Eagle St",
    "address_councildis": "A",
    "status": "Assigned to Contractor",
    "contractor": "Richards Disposal",
    "rowid": "855262",
    "final_x": "3661366.14227",
    "final_y": "531347.089986",
    "longitude": "-90.13165185877536",
    "latitude": "29.9556161904415",
    "geocoded_column": {
      "latitude": "29.9556161904415",
      "longitude": "-90.13165185877536"
    }
  },
  {
    "service_request": "2022-855260",
    "request_type": "Trash/Recycling",
    "request_reason": "Request a Large Item Pick Up",
    "date_created": "2022-01-19T17:46:06.000",
    "date_modified": "2022-01-19T17:46:08.000",
    "request_status": "Pending",
    "responsible_agency": "Department of Sanitation",
    "final_address": "4959 Elysian Fields Ave",
    "address_councildis": "D",
    "status": "Assigned to Contractor",
    "contractor": "Metro Disposal",
    "rowid": "855260",
    "final_x": "3683942.92981",
    "final_y": "551166.022037",
    "longitude": "-90.05966688608936",
    "latitude": "30.00944093139664",
    "geocoded_column": {
      "latitude": "30.00944093139664",
      "longitude": "-90.05966688608936"
    }
  },
  {
    "service_request": "2022-855259",
    "request_type": "Trash/Recycling",
    "request_reason": "MIssed Recycling Pick-Up",
    "date_created": "2022-01-19T17:45:22.000",
    "date_modified": "2022-01-19T17:45:23.000",
    "request_status": "Pending",
    "responsible_agency": "Department of Sanitation",
    "final_address": "2137 Jackson Ave",
    "address_councildis": "B",
    "status": "Assigned to Contractor",
    "contractor": "Richards Disposal",
    "rowid": "855259",
    "final_x": "3676081.96597",
    "final_y": "525817.240317",
    "longitude": "-90.08537465936054",
    "latitude": "29.939978377456967",
    "geocoded_column": {
      "latitude": "29.939978377456967",
      "longitude": "-90.08537465936054"
    }
  },
  {
    "service_request": "2022-855258",
    "request_type": "Abandoned Vehicles",
    "request_reason": "Abandoned/Junk Vehicles",
    "date_created": "2022-01-19T17:33:25.000",
    "date_modified": "2022-01-19T17:33:25.000",
    "request_status": "Pending",
    "responsible_agency": "Department of Public Works",
    "final_address": "934 Melpomene St",
    "address_councildis": "B",
    "status": "Pending",
    "rowid": "855258",
    "final_x": "3680931.7629",
    "final_y": "524715.472892",
    "longitude": "-90.07010148387323",
    "latitude": "29.936802754094575",
    "geocoded_column": {
      "latitude": "29.936802754094575",
      "longitude": "-90.07010148387323"
    }
  },
  {
    "service_request": "2022-855257",
    "request_type": "Trash/Recycling",
    "request_reason": "Order Recycling Cart",
    "date_created": "2022-01-19T17:29:12.000",
    "date_modified": "2022-01-19T17:29:12.000",
    "request_status": "Pending",
    "responsible_agency": "Department of Sanitation",
    "final_address": "3372 State Street Dr",
    "address_councildis": "A",
    "status": "Pending",
    "rowid": "855257",
    "final_x": "3667783.55617",
    "final_y": "528843.854144",
    "longitude": "-90.11147217030204",
    "latitude": "29.9485464918613",
    "geocoded_column": {
      "latitude": "29.9485464918613",
      "longitude": "-90.11147217030204"
    }
  },
  {
    "service_request": "2022-855256",
    "request_type": "Trash/Recycling",
    "request_reason": "MIssed Recycling Pick-Up",
    "date_created": "2022-01-19T17:22:50.000",
    "date_modified": "2022-01-19T17:22:51.000",
    "request_status": "Pending",
    "responsible_agency": "Department of Sanitation",
    "final_address": "2137 First St",
    "address_councildis": "B",
    "status": "Assigned to Contractor",
    "contractor": "Richards Disposal",
    "rowid": "855256",
    "final_x": "3675819.77819",
    "final_y": "524979.329405",
    "longitude": "-90.0862312180323",
    "latitude": "29.937682246555227",
    "geocoded_column": {
      "latitude": "29.937682246555227",
      "longitude": "-90.0862312180323"
    }
  },
  {
    "service_request": "2022-855255",
    "request_type": "Trash/Recycling",
    "request_reason": "Change Size of Trash Cart",
    "date_created": "2022-01-19T17:20:39.000",
    "date_modified": "2022-01-19T17:22:11.000",
    "request_status": "Pending",
    "responsible_agency": "Department of Sanitation",
    "final_address": "5317 St Charles Ave",
    "address_councildis": "B",
    "status": "Assigned to Contractor",
    "contractor": "Richards Disposal",
    "rowid": "855255",
    "final_x": "3667755.80807",
    "final_y": "521506.065401",
    "longitude": "-90.11180677155838",
    "latitude": "29.928370744673078",
    "geocoded_column": {
      "latitude": "29.928370744673078",
      "longitude": "-90.11180677155838"
    }
  },
  {
    "service_request": "2022-855254",
    "request_type": "Trash/Recycling",
    "request_reason": "MIssed Recycling Pick-Up",
    "date_created": "2022-01-19T17:13:01.000",
    "date_modified": "2022-01-19T17:13:02.000",
    "request_status": "Pending",
    "responsible_agency": "Department of Sanitation",
    "final_address": "1409 St Mary St",
    "address_councildis": "B",
    "status": "Assigned to Contractor",
    "contractor": "Richards Disposal",
    "rowid": "855254",
    "final_x": "3679051.99368",
    "final_y": "523708.383803",
    "longitude": "-90.07607089283698",
    "latitude": "29.934090439944463",
    "geocoded_column": {
      "latitude": "29.934090439944463",
      "longitude": "-90.07607089283698"
    }
  },
  {
    "service_request": "2022-855253",
    "request_type": "Trash/Recycling",
    "request_reason": "MIssed Recycling Pick-Up",
    "date_created": "2022-01-19T17:12:28.000",
    "date_modified": "2022-01-19T17:12:29.000",
    "request_status": "Pending",
    "responsible_agency": "Department of Sanitation",
    "final_address": "1618 S Liberty St",
    "address_councildis": "B",
    "status": "Assigned to Contractor",
    "contractor": "Richards Disposal",
    "rowid": "855253",
    "final_x": "3676745.19873",
    "final_y": "526531.537982",
    "longitude": "-90.08325613022687",
    "latitude": "29.941922581934552",
    "geocoded_column": {
      "latitude": "29.941922581934552",
      "longitude": "-90.08325613022687"
    }
  },
  {
    "service_request": "2022-855252",
    "request_type": "Traffic Signals/Signs/Striping/Streetlights",
    "request_reason": "Street Light Outage/Malfunction",
    "date_created": "2022-01-19T17:11:33.000",
    "date_modified": "2022-01-19T17:11:34.000",
    "request_status": "Pending",
    "responsible_agency": "Department of Public Works",
    "final_address": "2429 Feliciana St",
    "address_councildis": "D",
    "status": "Pending",
    "contractor": "Royal Engineering",
    "rowid": "855252",
    "final_x": "3690052.93091",
    "final_y": "541194.26702",
    "longitude": "-90.04071872834196",
    "latitude": "29.981834058623583",
    "geocoded_column": {
      "latitude": "29.981834058623583",
      "longitude": "-90.04071872834196"
    }
  },
  {
    "service_request": "2022-855251",
    "request_type": "Traffic Signals/Signs/Striping/Streetlights",
    "request_reason": "Traffic Sign Missing/Damaged",
    "date_created": "2022-01-19T17:01:12.000",
    "date_modified": "2022-01-19T17:01:12.000",
    "request_status": "Pending",
    "responsible_agency": "Department of Public Works",
    "final_address": "7004 St Charles Ave",
    "address_councildis": "A",
    "status": "Pending",
    "rowid": "855251",
    "final_x": "3663296.78605",
    "final_y": "524243.819068",
    "longitude": "-90.12579191888248",
    "latitude": "29.936028657660902",
    "geocoded_column": {
      "latitude": "29.936028657660902",
      "longitude": "-90.12579191888248"
    }
  },
  {
    "service_request": "2022-855249",
    "request_type": "Trash/Recycling",
    "request_reason": "Order Trash Cart",
    "date_created": "2022-01-19T16:54:11.000",
    "date_modified": "2022-01-19T16:54:12.000",
    "request_status": "Pending",
    "responsible_agency": "Department of Sanitation",
    "final_address": "2632 Coliseum St",
    "address_councildis": "B",
    "status": "Assigned to Contractor",
    "contractor": "Richards Disposal",
    "rowid": "855249",
    "final_x": "3676810.45531",
    "final_y": "521846.733178",
    "longitude": "-90.08321147151409",
    "latitude": "29.929038946133236",
    "geocoded_column": {
      "latitude": "29.929038946133236",
      "longitude": "-90.08321147151409"
    }
  },
  {
    "service_request": "2022-855248",
    "request_type": "Trash/Recycling",
    "request_reason": "Request a Large Item Pick Up",
    "date_created": "2022-01-19T16:53:43.000",
    "date_modified": "2022-01-19T16:53:44.000",
    "request_status": "Pending",
    "responsible_agency": "Department of Sanitation",
    "final_address": "937 Henry Clay Ave",
    "address_councildis": "A",
    "status": "Assigned to Contractor",
    "contractor": "Richards Disposal",
    "rowid": "855248",
    "final_x": "3664079.17332",
    "final_y": "520141.523896",
    "longitude": "-90.12345864054552",
    "latitude": "29.92472594535707",
    "geocoded_column": {
      "latitude": "29.92472594535707",
      "longitude": "-90.12345864054552"
    }
  },
  {
    "service_request": "2022-855247",
    "request_type": "Trash/Recycling",
    "request_reason": "Request a Large Item Pick Up",
    "date_created": "2022-01-19T16:51:50.000",
    "date_modified": "2022-01-19T16:51:51.000",
    "request_status": "Pending",
    "responsible_agency": "Department of Sanitation",
    "final_address": "1127 Peniston St",
    "address_councildis": "B",
    "status": "Assigned to Contractor",
    "contractor": "Richards Disposal",
    "rowid": "855247",
    "final_x": "3673208.60366",
    "final_y": "520000.284344",
    "longitude": "-90.09464484012774",
    "latitude": "29.924069366672935",
    "geocoded_column": {
      "latitude": "29.924069366672935",
      "longitude": "-90.09464484012774"
    }
  },
  {
    "service_request": "2022-855246",
    "request_type": "Traffic Signals/Signs/Striping/Streetlights",
    "request_reason": "Street Light Outage/Malfunction",
    "date_created": "2022-01-19T16:49:31.000",
    "date_modified": "2022-01-19T20:45:55.000",
    "request_status": "Pending",
    "responsible_agency": "Department of Public Works",
    "final_address": "Benton St, New Orleans, Louisiana, 70117",
    "address_councildis": "E",
    "status": "Pending",
    "contractor": "Royal Engineering",
    "rowid": "855246",
    "final_x": "3699816.94192",
    "final_y": "536376.702343",
    "longitude": "-90.01005527871583",
    "latitude": "29.968281022773933",
    "geocoded_column": {
      "latitude": "29.968281022773933",
      "longitude": "-90.01005527871583"
    }
  },
  {
    "service_request": "2022-855245",
    "request_type": "Trash/Recycling",
    "request_reason": "Illegal Dumping",
    "date_created": "2022-01-19T16:48:01.000",
    "date_modified": "2022-01-19T16:48:01.000",
    "request_status": "Pending",
    "responsible_agency": "Department of Sanitation",
    "final_address": "918 Gordon St",
    "address_councildis": "E",
    "status": "Pending",
    "rowid": "855245",
    "final_x": "3698877.90666",
    "final_y": "532856.323972",
    "longitude": "-90.01314886637023",
    "latitude": "29.95863102426781",
    "geocoded_column": {
      "latitude": "29.95863102426781",
      "longitude": "-90.01314886637023"
    }
  },
  {
    "service_request": "2022-855244",
    "request_type": "Trash/Recycling",
    "request_reason": "MIssed Recycling Pick-Up",
    "date_created": "2022-01-19T16:40:56.000",
    "date_modified": "2022-01-19T16:40:57.000",
    "request_status": "Pending",
    "responsible_agency": "Department of Sanitation",
    "final_address": "3948 Camp St",
    "address_councildis": "B",
    "status": "Assigned to Contractor",
    "contractor": "Richards Disposal",
    "rowid": "855244",
    "final_x": "3672594.88347",
    "final_y": "519258.989495",
    "longitude": "-90.09660739737342",
    "latitude": "29.92204927132127",
    "geocoded_column": {
      "latitude": "29.92204927132127",
      "longitude": "-90.09660739737342"
    }
  },
  {
    "service_request": "2022-855243",
    "request_type": "Roads/Drainage",
    "request_reason": "Pothole",
    "date_created": "2022-01-19T16:40:32.000",
    "date_modified": "2022-01-19T20:43:58.000",
    "request_status": "Pending",
    "responsible_agency": "Department of Public Works",
    "final_address": "green street",
    "address_councildis": "A",
    "status": "Pending",
    "rowid": "855243",
    "final_x": "3665602.57709",
    "final_y": "527799.287679",
    "longitude": "-90.11839343555381",
    "latitude": "29.94573803954166",
    "geocoded_column": {
      "latitude": "29.94573803954166",
      "longitude": "-90.11839343555381"
    }
  },
  {
    "service_request": "2022-855242",
    "request_type": "Trash/Recycling",
    "request_reason": "Request a Large Item Pick Up",
    "date_created": "2022-01-19T16:33:27.000",
    "date_modified": "2022-01-19T16:33:28.000",
    "request_status": "Pending",
    "responsible_agency": "Department of Sanitation",
    "final_address": "1511 St Ann St",
    "address_councildis": "C",
    "status": "Assigned to Contractor",
    "contractor": "Richards Disposal",
    "rowid": "855242",
    "final_x": "3680461.75637",
    "final_y": "534562.861637",
    "longitude": "-90.07124288922185",
    "latitude": "29.963894000940588",
    "geocoded_column": {
      "latitude": "29.963894000940588",
      "longitude": "-90.07124288922185"
    }
  },
  {
    "service_request": "2022-855241",
    "request_type": "Trash/Recycling",
    "request_reason": "Illegal Dumping",
    "date_created": "2022-01-19T16:30:09.000",
    "date_modified": "2022-01-19T16:32:34.000",
    "request_status": "Pending",
    "responsible_agency": "Department of Sanitation",
    "final_address": "3916 Louisa St",
    "address_councildis": "D",
    "status": "Pending",
    "rowid": "855241",
    "final_x": "3691649.31344",
    "final_y": "547714.854802",
    "longitude": "-90.03544333601798",
    "latitude": "29.999713702187393",
    "geocoded_column": {
      "latitude": "29.999713702187393",
      "longitude": "-90.03544333601798"
    }
  },
  {
    "service_request": "2022-855240",
    "request_type": "Trash/Recycling",
    "request_reason": "Illegal Dumping",
    "date_created": "2022-01-19T16:28:03.000",
    "date_modified": "2022-01-19T16:28:03.000",
    "request_status": "Pending",
    "responsible_agency": "Department of Sanitation",
    "final_address": "3801 Fairmont Dr",
    "address_councildis": "D",
    "status": "Pending",
    "rowid": "855240",
    "final_x": "3685193.71612",
    "final_y": "546503.417745",
    "longitude": "-90.05587945222508",
    "latitude": "29.996582166328277",
    "geocoded_column": {
      "latitude": "29.996582166328277",
      "longitude": "-90.05587945222508"
    }
  },
  {
    "service_request": "2022-855239",
    "request_type": "Trash/Recycling",
    "request_reason": "Request a Large Item Pick Up",
    "date_created": "2022-01-19T16:21:36.000",
    "date_modified": "2022-01-19T16:21:37.000",
    "request_status": "Pending",
    "responsible_agency": "Department of Sanitation",
    "final_address": "610 Soraparu St",
    "address_councildis": "B",
    "status": "Assigned to Contractor",
    "contractor": "Richards Disposal",
    "rowid": "855239",
    "final_x": "3679276.94274",
    "final_y": "520225.52908",
    "longitude": "-90.07548143784187",
    "latitude": "29.92450694127319",
    "geocoded_column": {
      "latitude": "29.92450694127319",
      "longitude": "-90.07548143784187"
    }
  },
  {
    "service_request": "2022-855238",
    "request_type": "Traffic Signals/Signs/Striping/Streetlights",
    "request_reason": "Traffic Signal Malfunctioning/Damaged",
    "date_created": "2022-01-19T16:19:10.000",
    "date_modified": "2022-01-19T16:19:10.000",
    "request_status": "Pending",
    "responsible_agency": "Department of Public Works",
    "final_address": "12930 Chef Menteur Hwy",
    "address_councildis": "E",
    "status": "Pending",
    "rowid": "855238",
    "final_x": "3724137.81107",
    "final_y": "558588.727004",
    "longitude": "-89.93239236612082",
    "latitude": "30.028560633987045",
    "geocoded_column": {
      "latitude": "30.028560633987045",
      "longitude": "-89.93239236612082"
    }
  },
  {
    "service_request": "2022-855237",
    "request_type": "Trash/Recycling",
    "request_reason": "Request a Large Item Pick Up",
    "date_created": "2022-01-19T16:18:40.000",
    "date_modified": "2022-01-19T16:18:41.000",
    "request_status": "Pending",
    "responsible_agency": "Department of Sanitation",
    "final_address": "4824 Constance St",
    "address_councildis": "B",
    "status": "Assigned to Contractor",
    "contractor": "Richards Disposal",
    "rowid": "855237",
    "final_x": "3669412.66938",
    "final_y": "518209.222134",
    "longitude": "-90.10668782005432",
    "latitude": "29.919256800556497",
    "geocoded_column": {
      "latitude": "29.919256800556497",
      "longitude": "-90.10668782005432"
    }
  },
  {
    "service_request": "2022-855236",
    "request_type": "Safety & Permits",
    "request_reason": "Licenses & Permits",
    "date_created": "2022-01-19T16:12:55.000",
    "date_modified": "2022-01-19T16:12:55.000",
    "request_status": "Pending",
    "responsible_agency": "Safety and Permits",
    "final_address": "1131 Elysian Fields Ave",
    "address_councildis": "C",
    "status": "Pending",
    "rowid": "855236",
    "final_x": "3685088.57685",
    "final_y": "536633.805767",
    "longitude": "-90.0565589815002",
    "latitude": "29.96944743986998",
    "geocoded_column": {
      "latitude": "29.96944743986998",
      "longitude": "-90.0565589815002"
    }
  },
  {
    "service_request": "2022-855235",
    "request_type": "Trash/Recycling",
    "request_reason": "Request a Large Item Pick Up",
    "date_created": "2022-01-19T16:12:43.000",
    "date_modified": "2022-01-19T16:12:44.000",
    "request_status": "Pending",
    "responsible_agency": "Department of Sanitation",
    "final_address": "4912 Constance St",
    "address_councildis": "B",
    "status": "Assigned to Contractor",
    "contractor": "Richards Disposal",
    "rowid": "855235",
    "final_x": "3668852.29934",
    "final_y": "518168.139382",
    "longitude": "-90.10845801623154",
    "latitude": "29.919160319030162",
    "geocoded_column": {
      "latitude": "29.919160319030162",
      "longitude": "-90.10845801623154"
    }
  },
  {
    "service_request": "2022-855234",
    "request_type": "Trash/Recycling",
    "request_reason": "Order Recycling Cart",
    "date_created": "2022-01-19T16:10:43.000",
    "date_modified": "2022-01-19T16:10:43.000",
    "request_status": "Pending",
    "responsible_agency": "Department of Sanitation",
    "final_address": "923 St Philip St Unit A",
    "address_councildis": "C",
    "status": "Pending",
    "rowid": "855234",
    "final_x": "3682540.39938",
    "final_y": "533964.418309",
    "longitude": "-90.06469966082896",
    "latitude": "29.962185369003954",
    "geocoded_column": {
      "latitude": "29.962185369003954",
      "longitude": "-90.06469966082896"
    }
  },
  {
    "service_request": "2022-855233",
    "request_type": "Trash/Recycling",
    "request_reason": "Request a Large Item Pick Up",
    "date_created": "2022-01-19T16:10:39.000",
    "date_modified": "2022-01-19T16:10:40.000",
    "request_status": "Pending",
    "responsible_agency": "Department of Sanitation",
    "final_address": "450 Lowerline St",
    "address_councildis": "A",
    "status": "Assigned to Contractor",
    "contractor": "Richards Disposal",
    "rowid": "855233",
    "final_x": "3661882.60871",
    "final_y": "524300.950716",
    "longitude": "-90.13025463989719",
    "latitude": "29.93622665505414",
    "geocoded_column": {
      "latitude": "29.93622665505414",
      "longitude": "-90.13025463989719"
    }
  },
  {
    "service_request": "2022-855232",
    "request_type": "COVID-19",
    "request_reason": "COVID-19 Business Non-Compliance",
    "date_created": "2022-01-19T16:08:50.000",
    "date_modified": "2022-01-19T16:08:51.000",
    "request_status": "Pending",
    "responsible_agency": "Safety and Permits",
    "final_address": "250 S Broad St",
    "address_councildis": "B",
    "status": "Pending",
    "rowid": "855232",
    "final_x": "3674976.47893",
    "final_y": "534503.173573",
    "longitude": "-90.08856694761555",
    "latitude": "29.96389486724417",
    "geocoded_column": {
      "latitude": "29.96389486724417",
      "longitude": "-90.08856694761555"
    }
  },
  {
    "service_request": "2022-855230",
    "request_type": "Roads/Drainage",
    "request_reason": "Damaged Sidewalk",
    "date_created": "2022-01-19T16:06:08.000",
    "date_modified": "2022-01-19T16:06:08.000",
    "request_status": "Pending",
    "responsible_agency": "Department of Public Works",
    "final_address": "1812 Elysian Fields Ave",
    "address_councildis": "D",
    "status": "Pending",
    "rowid": "855230",
    "final_x": "3684681.80693",
    "final_y": "539004.987402",
    "longitude": "-90.05776022968196",
    "latitude": "29.97597981962511",
    "geocoded_column": {
      "latitude": "29.97597981962511",
      "longitude": "-90.05776022968196"
    }
  },
  {
    "service_request": "2022-855228",
    "request_type": "Parks & Parkways",
    "request_reason": "Request Tree Service (Right of Way/Public Property)",
    "date_created": "2022-01-19T16:04:37.000",
    "date_modified": "2022-01-19T16:04:37.000",
    "request_status": "Pending",
    "responsible_agency": "Department of Parks & Parkway",
    "final_address": "1812 Elysian Fields Ave",
    "address_councildis": "D",
    "status": "Pending",
    "rowid": "855228",
    "final_x": "3684681.80693",
    "final_y": "539004.987402",
    "longitude": "-90.05776022968196",
    "latitude": "29.97597981962511",
    "geocoded_column": {
      "latitude": "29.97597981962511",
      "longitude": "-90.05776022968196"
    }
  },
  {
    "service_request": "2022-855227",
    "request_type": "Trash/Recycling",
    "request_reason": "Replace Trash Cart",
    "date_created": "2022-01-19T16:03:26.000",
    "date_modified": "2022-01-19T16:03:27.000",
    "request_status": "Pending",
    "responsible_agency": "Department of Sanitation",
    "final_address": "1977 Murl St",
    "address_councildis": "C",
    "status": "Assigned to Contractor",
    "contractor": "Richards Disposal",
    "rowid": "855227",
    "final_x": "3695177.10742",
    "final_y": "523327.259259",
    "longitude": "-90.02517849462434",
    "latitude": "29.932546126406233",
    "geocoded_column": {
      "latitude": "29.932546126406233",
      "longitude": "-90.02517849462434"
    }
  },
  {
    "service_request": "2022-855226",
    "request_type": "Trash/Recycling",
    "request_reason": "Request a Large Item Pick Up",
    "date_created": "2022-01-19T15:59:40.000",
    "date_modified": "2022-01-19T15:59:40.000",
    "request_status": "Pending",
    "responsible_agency": "Department of Sanitation",
    "final_address": "3703 Burgundy St",
    "address_councildis": "C",
    "status": "Assigned to Contractor",
    "contractor": "Metro Disposal",
    "rowid": "855226",
    "final_x": "3690838.73392",
    "final_y": "534734.12167",
    "longitude": "-90.03846737813254",
    "latitude": "29.96404654665972",
    "geocoded_column": {
      "latitude": "29.96404654665972",
      "longitude": "-90.03846737813254"
    }
  },
  {
    "service_request": "2022-855225",
    "request_type": "Roads/Drainage",
    "request_reason": "Man hole cover issue",
    "date_created": "2022-01-19T15:58:17.000",
    "date_modified": "2022-01-19T15:58:17.000",
    "request_status": "Pending",
    "responsible_agency": "Department of Public Works",
    "final_address": "6200 Vicksburg St",
    "address_councildis": "A",
    "status": "Pending",
    "rowid": "855225",
    "final_x": "3668899.0809",
    "final_y": "548619.216915",
    "longitude": "-90.10728187905228",
    "latitude": "30.00288932537291",
    "geocoded_column": {
      "latitude": "30.00288932537291",
      "longitude": "-90.10728187905228"
    }
  },
  {
    "service_request": "2022-855223",
    "request_type": "Traffic Signals/Signs/Striping/Streetlights",
    "request_reason": "Striping/Road Surface Markings",
    "date_created": "2022-01-19T15:51:44.000",
    "date_modified": "2022-01-19T15:51:44.000",
    "request_status": "Pending",
    "responsible_agency": "Department of Public Works",
    "final_address": "1131 Elysian Fields Ave",
    "address_councildis": "C",
    "status": "Pending",
    "rowid": "855223",
    "final_x": "3685088.57685",
    "final_y": "536633.805767",
    "longitude": "-90.0565589815002",
    "latitude": "29.96944743986998",
    "geocoded_column": {
      "latitude": "29.96944743986998",
      "longitude": "-90.0565589815002"
    }
  },
  {
    "service_request": "2022-855221",
    "request_type": "Trash/Recycling",
    "request_reason": "Replace Trash Cart",
    "date_created": "2022-01-19T15:37:11.000",
    "date_modified": "2022-01-19T15:37:14.000",
    "request_status": "Pending",
    "responsible_agency": "Department of Sanitation",
    "final_address": "2543 St Philip St",
    "address_councildis": "D",
    "status": "Assigned to Contractor",
    "contractor": "Richards Disposal",
    "rowid": "855221",
    "final_x": "3677945.98203",
    "final_y": "537479.529608",
    "longitude": "-90.07908665058306",
    "latitude": "29.971989796874894",
    "geocoded_column": {
      "latitude": "29.971989796874894",
      "longitude": "-90.07908665058306"
    }
  },
  {
    "service_request": "2022-855220",
    "request_type": "Property Maintenance",
    "request_reason": "Property Maintenance",
    "date_created": "2022-01-19T15:36:56.000",
    "date_modified": "2022-01-19T15:36:56.000",
    "request_status": "Pending",
    "responsible_agency": "Department of Code Enforcement",
    "final_address": "4849 Donna Dr",
    "address_councildis": "E",
    "status": "Pending",
    "rowid": "855220",
    "final_x": "3710970.61912",
    "final_y": "556655.642394",
    "longitude": "-89.97407212643539",
    "latitude": "30.023681490896546",
    "geocoded_column": {
      "latitude": "30.023681490896546",
      "longitude": "-89.97407212643539"
    }
  },
  {
    "service_request": "2022-855219",
    "request_type": "Traffic Signals/Signs/Striping/Streetlights",
    "request_reason": "Street Light Outage/Malfunction",
    "date_created": "2022-01-19T15:36:43.000",
    "date_modified": "2022-01-19T15:36:44.000",
    "request_status": "Pending",
    "responsible_agency": "Department of Public Works",
    "final_address": "9101 River Rd",
    "address_councildis": "C",
    "status": "Pending",
    "contractor": "Royal Engineering",
    "rowid": "855219",
    "final_x": "3718240.74156",
    "final_y": "518293.604598",
    "longitude": "-89.95256097058001",
    "latitude": "29.917961233063185",
    "geocoded_column": {
      "latitude": "29.917961233063185",
      "longitude": "-89.95256097058001"
    }
  },
  {
    "service_request": "2022-855218",
    "request_type": "Traffic Signals/Signs/Striping/Streetlights",
    "request_reason": "Street Light Outage/Malfunction",
    "date_created": "2022-01-19T15:36:23.000",
    "date_modified": "2022-01-19T15:36:27.000",
    "request_status": "Pending",
    "responsible_agency": "Department of Public Works",
    "final_address": "9101 River Rd",
    "address_councildis": "C",
    "status": "Pending",
    "contractor": "Royal Engineering",
    "rowid": "855218",
    "final_x": "3718240.74156",
    "final_y": "518293.604598",
    "longitude": "-89.95256097058001",
    "latitude": "29.917961233063185",
    "geocoded_column": {
      "latitude": "29.917961233063185",
      "longitude": "-89.95256097058001"
    }
  },
  {
    "service_request": "2022-855217",
    "request_type": "Traffic Signals/Signs/Striping/Streetlights",
    "request_reason": "Street Light Outage/Malfunction",
    "date_created": "2022-01-19T15:35:40.000",
    "date_modified": "2022-01-19T15:35:45.000",
    "request_status": "Pending",
    "responsible_agency": "Department of Public Works",
    "final_address": "9101 River Rd",
    "address_councildis": "C",
    "status": "Pending",
    "contractor": "Royal Engineering",
    "rowid": "855217",
    "final_x": "3718240.74156",
    "final_y": "518293.604598",
    "longitude": "-89.95256097058001",
    "latitude": "29.917961233063185",
    "geocoded_column": {
      "latitude": "29.917961233063185",
      "longitude": "-89.95256097058001"
    }
  },
  {
    "service_request": "2022-855216",
    "request_type": "Trash/Recycling",
    "request_reason": "Missed Trash Pick-Up",
    "date_created": "2022-01-19T15:35:37.000",
    "date_modified": "2022-01-19T15:35:37.000",
    "request_status": "Pending",
    "responsible_agency": "Department of Sanitation",
    "final_address": "2026 Pine St",
    "address_councildis": "A",
    "status": "Assigned to Contractor",
    "contractor": "Richards Disposal",
    "rowid": "855216",
    "final_x": "3665574.07687",
    "final_y": "529256.314369",
    "longitude": "-90.11843464478146",
    "latitude": "29.94974522309832",
    "geocoded_column": {
      "latitude": "29.94974522309832",
      "longitude": "-90.11843464478146"
    }
  },
  {
    "service_request": "2022-855215",
    "request_type": "Law Enforcement Services",
    "request_reason": "General Service Request",
    "date_created": "2022-01-19T15:31:28.000",
    "date_modified": "2022-01-19T21:01:59.000",
    "case_close_date": "2022-01-19T15:01:59.000",
    "request_status": "Closed",
    "responsible_agency": "Orleans Parish Communication District",
    "final_address": "N ROBERTSON ST & JAPONICA ST",
    "address_councildis": "D",
    "status": "Referred to External Agency",
    "rowid": "855215",
    "final_x": "3694092.2",
    "final_y": "536318.88",
    "longitude": "-90.0281362655313",
    "latitude": "29.968302576169283",
    "geocoded_column": {
      "latitude": "29.968302576169283",
      "longitude": "-90.0281362655313"
    }
  },
  {
    "service_request": "2022-855214",
    "request_type": "Abandoned Vehicles",
    "request_reason": "Abandoned/Junk Vehicles",
    "date_created": "2022-01-19T15:30:40.000",
    "date_modified": "2022-01-19T15:30:40.000",
    "request_status": "Pending",
    "responsible_agency": "Department of Public Works",
    "final_address": "2100 Milton St",
    "address_councildis": "D",
    "status": "Pending",
    "rowid": "855214",
    "final_x": "3683618.58946",
    "final_y": "546535.449617",
    "longitude": "-90.06085405317981",
    "latitude": "29.99671843359879",
    "geocoded_column": {
      "latitude": "29.99671843359879",
      "longitude": "-90.06085405317981"
    }
  },
  {
    "service_request": "2022-855213",
    "request_type": "Trash/Recycling",
    "request_reason": "Replace Recycling Cart",
    "date_created": "2022-01-19T15:30:00.000",
    "date_modified": "2022-01-19T15:30:00.000",
    "request_status": "Pending",
    "responsible_agency": "Department of Sanitation",
    "final_address": "721 Barracks St",
    "address_councildis": "C",
    "status": "Pending",
    "rowid": "855213",
    "final_x": "3683744.98735",
    "final_y": "534333.507845",
    "longitude": "-90.06088281290813",
    "latitude": "29.963163511815196",
    "geocoded_column": {
      "latitude": "29.963163511815196",
      "longitude": "-90.06088281290813"
    }
  },
  {
    "service_request": "2022-855212",
    "request_type": "Trash/Recycling",
    "request_reason": "Order Trash Cart",
    "date_created": "2022-01-19T15:25:37.000",
    "date_modified": "2022-01-19T15:25:38.000",
    "request_status": "Pending",
    "responsible_agency": "Department of Sanitation",
    "final_address": "7419 Pitt St",
    "address_councildis": "A",
    "status": "Assigned to Contractor",
    "contractor": "Richards Disposal",
    "rowid": "855212",
    "final_x": "3661237.2176",
    "final_y": "523533.584251",
    "longitude": "-90.13231756261514",
    "latitude": "29.934135255813054",
    "geocoded_column": {
      "latitude": "29.934135255813054",
      "longitude": "-90.13231756261514"
    }
  },
  {
    "service_request": "2022-855211",
    "request_type": "Traffic Signals/Signs/Striping/Streetlights",
    "request_reason": "Street Light Outage/Malfunction",
    "date_created": "2022-01-19T15:25:29.000",
    "date_modified": "2022-01-19T15:25:30.000",
    "request_status": "Pending",
    "responsible_agency": "Department of Public Works",
    "final_address": "1426 S Gayoso St",
    "address_councildis": "B",
    "status": "Pending",
    "contractor": "Royal Engineering",
    "rowid": "855211",
    "final_x": "3670893.95879",
    "final_y": "530893.635202",
    "longitude": "-90.10158172561182",
    "latitude": "29.954091149511093",
    "geocoded_column": {
      "latitude": "29.954091149511093",
      "longitude": "-90.10158172561182"
    }
  },
  {
    "service_request": "2022-855210",
    "request_type": "Trash/Recycling",
    "request_reason": "Missed Trash Pick-Up",
    "date_created": "2022-01-19T15:25:13.000",
    "date_modified": "2022-01-19T15:25:14.000",
    "request_status": "Pending",
    "responsible_agency": "Department of Sanitation",
    "final_address": "6955 Fleur-De-Lis Dr",
    "address_councildis": "A",
    "status": "Assigned to Contractor",
    "contractor": "Metro Disposal",
    "rowid": "855210",
    "final_x": "3665600.5897",
    "final_y": "554103.91068",
    "longitude": "-90.1175184666077",
    "latitude": "30.018066955776238",
    "geocoded_column": {
      "latitude": "30.018066955776238",
      "longitude": "-90.1175184666077"
    }
  },
  {
    "service_request": "2022-855209",
    "request_type": "Trash/Recycling",
    "request_reason": "Order Recycling Cart",
    "date_created": "2022-01-19T15:24:04.000",
    "date_modified": "2022-01-19T15:24:04.000",
    "request_status": "Pending",
    "responsible_agency": "Department of Sanitation",
    "final_address": "7000 Jeannette St",
    "address_councildis": "A",
    "status": "Pending",
    "rowid": "855209",
    "final_x": "3665160.76813",
    "final_y": "527061.247806",
    "longitude": "-90.11981305735448",
    "latitude": "29.943721540748875",
    "geocoded_column": {
      "latitude": "29.943721540748875",
      "longitude": "-90.11981305735448"
    }
  },
  {
    "service_request": "2022-855208",
    "request_type": "Trash/Recycling",
    "request_reason": "Illegal Dumping",
    "date_created": "2022-01-19T15:22:39.000",
    "date_modified": "2022-01-19T15:22:39.000",
    "request_status": "Pending",
    "responsible_agency": "Department of Sanitation",
    "final_address": "8000 Old Gentilly Rd",
    "address_councildis": "E",
    "status": "Pending",
    "rowid": "855208",
    "final_x": "3705455.32158",
    "final_y": "552230.67919",
    "longitude": "-89.99166292994053",
    "latitude": "30.01169328957783",
    "geocoded_column": {
      "latitude": "30.01169328957783",
      "longitude": "-89.99166292994053"
    }
  },
  {
    "service_request": "2022-855207",
    "request_type": "Trash/Recycling",
    "request_reason": "Request a Large Item Pick Up",
    "date_created": "2022-01-19T15:21:05.000",
    "date_modified": "2022-01-19T15:21:06.000",
    "request_status": "Pending",
    "responsible_agency": "Department of Sanitation",
    "final_address": "1821 Peniston St",
    "address_councildis": "B",
    "status": "Assigned to Contractor",
    "contractor": "Richards Disposal",
    "rowid": "855207",
    "final_x": "3672707.13064",
    "final_y": "522013.60537",
    "longitude": "-90.09615919670226",
    "latitude": "29.92962024954036",
    "geocoded_column": {
      "latitude": "29.92962024954036",
      "longitude": "-90.09615919670226"
    }
  },
  {
    "service_request": "2022-855206",
    "request_type": "Trash/Recycling",
    "request_reason": "Illegal Dumping",
    "date_created": "2022-01-19T15:20:44.000",
    "date_modified": "2022-01-19T15:20:44.000",
    "request_status": "Pending",
    "responsible_agency": "Department of Sanitation",
    "final_address": "1704 Chimney Wood Ln",
    "address_councildis": "E",
    "status": "Pending",
    "rowid": "855206",
    "final_x": "3695841.10883",
    "final_y": "557774.023387",
    "longitude": "-90.0218376435383",
    "latitude": "30.027241424272926",
    "geocoded_column": {
      "latitude": "30.027241424272926",
      "longitude": "-90.0218376435383"
    }
  },
  {
    "service_request": "2022-855205",
    "request_type": "Abandoned Vehicles",
    "request_reason": "Abandoned/Junk Vehicles",
    "date_created": "2022-01-19T15:17:51.000",
    "date_modified": "2022-01-19T15:17:51.000",
    "request_status": "Pending",
    "responsible_agency": "Department of Public Works",
    "final_address": "1529 Rev. John Raphael, Jr. Way",
    "address_councildis": "B",
    "status": "Pending",
    "rowid": "855205",
    "final_x": "3676474.68129",
    "final_y": "526920.438974",
    "longitude": "-90.0840968250467",
    "latitude": "29.94300004355622",
    "geocoded_column": {
      "latitude": "29.94300004355622",
      "longitude": "-90.0840968250467"
    }
  },
  {
    "service_request": "2022-855204",
    "request_type": "Abandoned Vehicles",
    "request_reason": "Abandoned/Junk Vehicles",
    "date_created": "2022-01-19T15:15:26.000",
    "date_modified": "2022-01-19T15:15:26.000",
    "request_status": "Pending",
    "responsible_agency": "Department of Public Works",
    "final_address": "4343 Genoa St",
    "address_councildis": "E",
    "status": "Pending",
    "rowid": "855204",
    "final_x": "3760864.30256",
    "final_y": "573668.433578",
    "longitude": "-89.81571039994324",
    "latitude": "30.068737224402515",
    "geocoded_column": {
      "latitude": "30.068737224402515",
      "longitude": "-89.81571039994324"
    }
  },
  {
    "service_request": "2022-855203",
    "request_type": "Traffic Signals/Signs/Striping/Streetlights",
    "request_reason": "Street Name Sign Damaged or Missing",
    "date_created": "2022-01-19T15:14:35.000",
    "date_modified": "2022-01-19T15:14:35.000",
    "request_status": "Pending",
    "responsible_agency": "Department of Public Works",
    "final_address": "CURRAN BLVD & DALEWOOD RD",
    "address_councildis": "E",
    "status": "Pending",
    "rowid": "855203",
    "final_x": "3699866.9",
    "final_y": "560600.28",
    "longitude": "-90.00901336313342",
    "latitude": "30.034885226640224",
    "geocoded_column": {
      "latitude": "30.034885226640224",
      "longitude": "-90.00901336313342"
    }
  },
  {
    "service_request": "2022-855202",
    "request_type": "Trash/Recycling",
    "request_reason": "Replace Trash Cart",
    "date_created": "2022-01-19T15:12:41.000",
    "date_modified": "2022-01-19T15:16:07.000",
    "request_status": "Pending",
    "responsible_agency": "Department of Sanitation",
    "final_address": "7703 Nelson St, New Orleans, Louisiana, 70125",
    "address_councildis": "A",
    "status": "Assigned to Contractor",
    "contractor": "Richards Disposal",
    "rowid": "855202",
    "final_x": "3666203.71885",
    "final_y": "530904.836354",
    "longitude": "-90.1163912876698",
    "latitude": "29.9542597509511",
    "geocoded_column": {
      "latitude": "29.9542597509511",
      "longitude": "-90.1163912876698"
    }
  },
  {
    "service_request": "2022-855201",
    "request_type": "Trash/Recycling",
    "request_reason": "MIssed Recycling Pick-Up",
    "date_created": "2022-01-19T15:11:36.000",
    "date_modified": "2022-01-19T15:11:36.000",
    "request_status": "Pending",
    "responsible_agency": "Department of Sanitation",
    "final_address": "7903 Plum St",
    "address_councildis": "A",
    "status": "Assigned to Contractor",
    "contractor": "Richards Disposal",
    "rowid": "855201",
    "final_x": "3662757.28013",
    "final_y": "528177.268416",
    "longitude": "-90.1273644637923",
    "latitude": "29.946860013110612",
    "geocoded_column": {
      "latitude": "29.946860013110612",
      "longitude": "-90.1273644637923"
    }
  },
  {
    "service_request": "2022-855200",
    "request_type": "Trash/Recycling",
    "request_reason": "Repair Trash Cart",
    "date_created": "2022-01-19T15:10:03.000",
    "date_modified": "2022-01-19T15:10:04.000",
    "request_status": "Pending",
    "responsible_agency": "Department of Sanitation",
    "final_address": "2729 Danbury Dr",
    "address_councildis": "C",
    "status": "Assigned to Contractor",
    "contractor": "Richards Disposal",
    "rowid": "855200",
    "final_x": "3703595.20081",
    "final_y": "520715.602297",
    "longitude": "-89.99869953189645",
    "latitude": "29.925098036398424",
    "geocoded_column": {
      "latitude": "29.925098036398424",
      "longitude": "-89.99869953189645"
    }
  },
  {
    "service_request": "2022-855199",
    "request_type": "Health Related Questions",
    "request_reason": "General Service Request",
    "date_created": "2022-01-19T15:09:52.000",
    "date_modified": "2022-01-19T20:38:36.000",
    "request_status": "Pending",
    "responsible_agency": "Health Department",
    "final_address": "New Orleans,LA",
    "status": "Pending",
    "rowid": "855199",
    "longitude": "0.0",
    "latitude": "0.0",
    "geocoded_column": {
      "latitude": "0.0",
      "longitude": "0.0"
    }
  },
  {
    "service_request": "2022-855198",
    "request_type": "Trash/Recycling",
    "request_reason": "Repair Trash Cart",
    "date_created": "2022-01-19T15:06:37.000",
    "date_modified": "2022-01-19T15:06:38.000",
    "request_status": "Pending",
    "responsible_agency": "Department of Sanitation",
    "final_address": "411 S Dupre St",
    "address_councildis": "B",
    "status": "Assigned to Contractor",
    "contractor": "Richards Disposal",
    "rowid": "855198",
    "final_x": "3673734.46254",
    "final_y": "534581.538437",
    "longitude": "-90.09248644480422",
    "latitude": "29.96414738552425",
    "geocoded_column": {
      "latitude": "29.96414738552425",
      "longitude": "-90.09248644480422"
    }
  },
  {
    "service_request": "2022-855197",
    "request_type": "Abandoned Vehicles",
    "request_reason": "Abandoned/Junk Vehicles",
    "date_created": "2022-01-19T15:06:09.000",
    "date_modified": "2022-01-19T15:09:01.000",
    "request_status": "Pending",
    "responsible_agency": "Department of Public Works",
    "final_address": "BURGUNDY ST & FORSTALL ST",
    "address_councildis": "E",
    "status": "Pending",
    "rowid": "855197",
    "final_x": "3696029.5",
    "final_y": "533421.68",
    "longitude": "-90.02212291577776",
    "latitude": "29.96027548467085",
    "geocoded_column": {
      "latitude": "29.96027548467085",
      "longitude": "-90.02212291577776"
    }
  },
  {
    "service_request": "2022-855196",
    "request_type": "Trash/Recycling",
    "request_reason": "Request a Large Item Pick Up",
    "date_created": "2022-01-19T15:04:54.000",
    "date_modified": "2022-01-19T15:04:54.000",
    "request_status": "Pending",
    "responsible_agency": "Department of Sanitation",
    "final_address": "411 S Dupre St",
    "address_councildis": "B",
    "status": "Assigned to Contractor",
    "contractor": "Richards Disposal",
    "rowid": "855196",
    "final_x": "3673734.46254",
    "final_y": "534581.538437",
    "longitude": "-90.09248644480422",
    "latitude": "29.96414738552425",
    "geocoded_column": {
      "latitude": "29.96414738552425",
      "longitude": "-90.09248644480422"
    }
  },
  {
    "service_request": "2022-855195",
    "request_type": "Roads/Drainage",
    "request_reason": "Pothole",
    "date_created": "2022-01-19T15:02:01.000",
    "date_modified": "2022-01-19T15:02:01.000",
    "request_status": "Pending",
    "responsible_agency": "Department of Public Works",
    "final_address": "3624 Cambronne St",
    "address_councildis": "A",
    "status": "Pending",
    "rowid": "855195",
    "final_x": "3667099.01313",
    "final_y": "535665.570758",
    "longitude": "-90.11340425057828",
    "latitude": "29.967324027359687",
    "geocoded_column": {
      "latitude": "29.967324027359687",
      "longitude": "-90.11340425057828"
    }
  },
  {
    "service_request": "2022-855194",
    "request_type": "Property Maintenance",
    "request_reason": "Property Maintenance",
    "date_created": "2022-01-19T15:01:43.000",
    "date_modified": "2022-01-19T15:01:43.000",
    "request_status": "Pending",
    "responsible_agency": "Department of Code Enforcement",
    "final_address": "4710 Lonely Oak Dr",
    "address_councildis": "E",
    "status": "Pending",
    "rowid": "855194",
    "final_x": "3702268.22839",
    "final_y": "554231.589656",
    "longitude": "-90.00165875085654",
    "latitude": "30.01729725625667",
    "geocoded_column": {
      "latitude": "30.01729725625667",
      "longitude": "-90.00165875085654"
    }
  },
  {
    "service_request": "2022-855193",
    "request_type": "Trash/Recycling",
    "request_reason": "Missed Trash Pick-Up",
    "date_created": "2022-01-19T14:58:21.000",
    "date_modified": "2022-01-19T14:58:22.000",
    "request_status": "Pending",
    "responsible_agency": "Department of Sanitation",
    "final_address": "900 Barracks St, New Orleans, Louisiana, 70116",
    "status": "Assigned to Contractor",
    "rowid": "855193",
    "longitude": "0.0",
    "latitude": "0.0",
    "geocoded_column": {
      "latitude": "0.0",
      "longitude": "0.0"
    }
  },
  {
    "service_request": "2022-855192",
    "request_type": "Property Maintenance",
    "request_reason": "Property Maintenance",
    "date_created": "2022-01-19T14:52:36.000",
    "date_modified": "2022-01-19T14:52:36.000",
    "request_status": "Pending",
    "responsible_agency": "Department of Code Enforcement",
    "final_address": "4719 Rhodes Dr",
    "address_councildis": "E",
    "status": "Pending",
    "rowid": "855192",
    "final_x": "3702597.86481",
    "final_y": "554254.70684",
    "longitude": "-90.00061639081389",
    "latitude": "30.017350281787",
    "geocoded_column": {
      "latitude": "30.017350281787",
      "longitude": "-90.00061639081389"
    }
  },
  {
    "service_request": "2022-855191",
    "request_type": "Trash/Recycling",
    "request_reason": "Request a Large Item Pick Up",
    "date_created": "2022-01-19T14:49:15.000",
    "date_modified": "2022-01-19T14:49:16.000",
    "request_status": "Pending",
    "responsible_agency": "Department of Sanitation",
    "final_address": "851 Jewel St, New Orleans, Louisiana, 70124",
    "address_councildis": "D",
    "status": "Assigned to Contractor",
    "contractor": "Metro Disposal",
    "rowid": "855191",
    "final_x": "3670755.29723",
    "final_y": "556152.344474",
    "longitude": "-90.10116190415468",
    "latitude": "30.023548018641076",
    "geocoded_column": {
      "latitude": "30.023548018641076",
      "longitude": "-90.10116190415468"
    }
  },
  {
    "service_request": "2022-855190",
    "request_type": "Health Related Questions",
    "request_reason": "Noise Ordinance Complaint",
    "date_created": "2022-01-19T14:48:43.000",
    "date_modified": "2022-01-19T14:48:43.000",
    "request_status": "Pending",
    "responsible_agency": "Health Department",
    "final_address": "1129 Burgundy St",
    "address_councildis": "C",
    "status": "Pending",
    "rowid": "855190",
    "final_x": "3682698.86965",
    "final_y": "534490.682501",
    "longitude": "-90.06418082868214",
    "latitude": "29.96362758974944",
    "geocoded_column": {
      "latitude": "29.96362758974944",
      "longitude": "-90.06418082868214"
    }
  },
  {
    "service_request": "2022-855189",
    "request_type": "Trash/Recycling",
    "request_reason": "Replace Trash Cart",
    "date_created": "2022-01-19T14:48:11.000",
    "date_modified": "2022-01-19T14:48:12.000",
    "request_status": "Pending",
    "responsible_agency": "Department of Sanitation",
    "final_address": "8936 Curran Rd",
    "address_councildis": "E",
    "status": "Assigned to Contractor",
    "contractor": "Metro Disposal",
    "rowid": "855189",
    "final_x": "3705305.64606",
    "final_y": "563076.40912",
    "longitude": "-89.99173461152851",
    "latitude": "30.041519645556104",
    "geocoded_column": {
      "latitude": "30.041519645556104",
      "longitude": "-89.99173461152851"
    }
  },
  {
    "service_request": "2022-855188",
    "request_type": "Trash/Recycling",
    "request_reason": "Replace Trash Cart",
    "date_created": "2022-01-19T14:46:32.000",
    "date_modified": "2022-01-19T14:46:33.000",
    "request_status": "Pending",
    "responsible_agency": "Department of Sanitation",
    "final_address": "1726 St Charles Ave",
    "address_councildis": "B",
    "status": "Assigned to Contractor",
    "contractor": "Richards Disposal",
    "rowid": "855188",
    "final_x": "3678832.94715",
    "final_y": "524780.996924",
    "longitude": "-90.07672527923798",
    "latitude": "29.937046379645363",
    "geocoded_column": {
      "latitude": "29.937046379645363",
      "longitude": "-90.07672527923798"
    }
  },
  {
    "service_request": "2022-855187",
    "request_type": "Traffic Signals/Signs/Striping/Streetlights",
    "request_reason": "Street Light Outage/Malfunction",
    "date_created": "2022-01-19T14:45:23.000",
    "date_modified": "2022-01-19T14:45:24.000",
    "request_status": "Pending",
    "responsible_agency": "Department of Public Works",
    "final_address": "ONEIDA ST & HAYNE BLVD",
    "address_councildis": "E",
    "status": "Pending",
    "contractor": "Royal Engineering",
    "rowid": "855187",
    "final_x": "3712976.3",
    "final_y": "569393.48",
    "longitude": "-89.96725479659018",
    "latitude": "30.058639844938767",
    "geocoded_column": {
      "latitude": "30.058639844938767",
      "longitude": "-89.96725479659018"
    }
  },
  {
    "service_request": "2022-855186",
    "request_type": "Trash/Recycling",
    "request_reason": "Missed Trash Pick-Up",
    "date_created": "2022-01-19T14:42:54.000",
    "date_modified": "2022-01-19T14:42:55.000",
    "request_status": "Pending",
    "responsible_agency": "Department of Sanitation",
    "final_address": "923 Philip St",
    "address_councildis": "B",
    "status": "Assigned to Contractor",
    "contractor": "Richards Disposal",
    "rowid": "855186",
    "final_x": "3678900.55323",
    "final_y": "521431.654457",
    "longitude": "-90.07662781451171",
    "latitude": "29.927834748646372",
    "geocoded_column": {
      "latitude": "29.927834748646372",
      "longitude": "-90.07662781451171"
    }
  },
  {
    "service_request": "2022-855185",
    "request_type": "Trash/Recycling",
    "request_reason": "Order Recycling Cart",
    "date_created": "2022-01-19T14:34:42.000",
    "date_modified": "2022-01-19T14:34:42.000",
    "request_status": "Pending",
    "responsible_agency": "Department of Sanitation",
    "final_address": "4433 Fontainebleau Dr",
    "address_councildis": "B",
    "status": "Pending",
    "rowid": "855185",
    "final_x": "3669030.65914",
    "final_y": "529718.574401",
    "longitude": "-90.10750498384286",
    "latitude": "29.95091506171337",
    "geocoded_column": {
      "latitude": "29.95091506171337",
      "longitude": "-90.10750498384286"
    }
  },
  {
    "service_request": "2022-855184",
    "request_type": "Abandoned Vehicles",
    "request_reason": "Abandoned/Junk Vehicles",
    "date_created": "2022-01-19T14:32:06.000",
    "date_modified": "2022-01-19T14:34:25.000",
    "request_status": "Pending",
    "responsible_agency": "Department of Public Works",
    "final_address": "608 S Pierce St",
    "address_councildis": "B",
    "status": "Pending",
    "rowid": "855184",
    "final_x": "3670286.3673",
    "final_y": "536356.011079",
    "longitude": "-90.10331510792217",
    "latitude": "29.969128813940817",
    "geocoded_column": {
      "latitude": "29.969128813940817",
      "longitude": "-90.10331510792217"
    }
  },
  {
    "service_request": "2022-855183",
    "request_type": "Traffic Signals/Signs/Striping/Streetlights",
    "request_reason": "Traffic Sign Missing/Damaged",
    "date_created": "2022-01-19T14:31:54.000",
    "date_modified": "2022-01-19T14:31:54.000",
    "request_status": "Pending",
    "responsible_agency": "Department of Public Works",
    "final_address": "400 Poydras St",
    "address_councildis": "B",
    "status": "Pending",
    "rowid": "855183",
    "final_x": "3681589.68706",
    "final_y": "529065.294848",
    "longitude": "-90.06787272477939",
    "latitude": "29.948743349579406",
    "geocoded_column": {
      "latitude": "29.948743349579406",
      "longitude": "-90.06787272477939"
    }
  },
  {
    "service_request": "2022-855182",
    "request_type": "Tax and Revenue",
    "request_reason": "General Tax Question",
    "date_created": "2022-01-19T14:30:51.000",
    "date_modified": "2022-01-19T21:01:50.000",
    "request_status": "Pending",
    "responsible_agency": "Bureau of Revenue",
    "final_address": "New Orleans,LA",
    "rowid": "855182",
    "longitude": "0.0",
    "latitude": "0.0",
    "geocoded_column": {
      "latitude": "0.0",
      "longitude": "0.0"
    }
  },
  {
    "service_request": "2022-855181",
    "request_type": "Abandoned Vehicles",
    "request_reason": "Abandoned/Junk Vehicles",
    "date_created": "2022-01-19T14:27:22.000",
    "date_modified": "2022-01-19T14:27:22.000",
    "request_status": "Pending",
    "responsible_agency": "Department of Public Works",
    "final_address": "1824 Felicity St",
    "address_councildis": "B",
    "status": "Pending",
    "rowid": "855181",
    "final_x": "3677655.14728",
    "final_y": "525241.925693",
    "longitude": "-90.08042774994463",
    "latitude": "29.938349245778337",
    "geocoded_column": {
      "latitude": "29.938349245778337",
      "longitude": "-90.08042774994463"
    }
  },
  {
    "service_request": "2022-855180",
    "request_type": "Trash/Recycling",
    "request_reason": "Repair Trash Cart",
    "date_created": "2022-01-19T14:22:21.000",
    "date_modified": "2022-01-19T14:22:21.000",
    "request_status": "Pending",
    "responsible_agency": "Department of Sanitation",
    "final_address": "434 S Rendon St",
    "address_councildis": "B",
    "status": "Assigned to Contractor",
    "contractor": "Richards Disposal",
    "rowid": "855180",
    "final_x": "3672755.79227",
    "final_y": "535283.466118",
    "longitude": "-90.09555306214929",
    "latitude": "29.966106556150166",
    "geocoded_column": {
      "latitude": "29.966106556150166",
      "longitude": "-90.09555306214929"
    }
  },
  {
    "service_request": "2022-855179",
    "request_type": "Trash/Recycling",
    "request_reason": "Replace Trash Cart",
    "date_created": "2022-01-19T14:21:43.000",
    "date_modified": "2022-01-19T14:21:43.000",
    "request_status": "Pending",
    "responsible_agency": "Department of Sanitation",
    "final_address": "430 S Rendon St",
    "address_councildis": "B",
    "status": "Assigned to Contractor",
    "contractor": "Richards Disposal",
    "rowid": "855179",
    "final_x": "3672806.04776",
    "final_y": "535290.826182",
    "longitude": "-90.0953941051183",
    "latitude": "29.966125301024988",
    "geocoded_column": {
      "latitude": "29.966125301024988",
      "longitude": "-90.0953941051183"
    }
  },
  {
    "service_request": "2022-855178",
    "request_type": "Trash/Recycling",
    "request_reason": "Replace Trash Cart",
    "date_created": "2022-01-19T14:15:31.000",
    "date_modified": "2022-01-19T14:15:31.000",
    "request_status": "Pending",
    "responsible_agency": "Department of Sanitation",
    "final_address": "6180 Milne Blvd",
    "address_councildis": "A",
    "status": "Assigned to Contractor",
    "contractor": "Metro Disposal",
    "rowid": "855178",
    "final_x": "3667053.47642",
    "final_y": "548826.251475",
    "longitude": "-90.11310545837232",
    "latitude": "30.00351276960632",
    "geocoded_column": {
      "latitude": "30.00351276960632",
      "longitude": "-90.11310545837232"
    }
  },
  {
    "service_request": "2022-855177",
    "request_type": "Trash/Recycling",
    "request_reason": "Repair Trash Cart",
    "date_created": "2022-01-19T14:14:15.000",
    "date_modified": "2022-01-19T14:14:16.000",
    "request_status": "Pending",
    "responsible_agency": "Department of Sanitation",
    "final_address": "6182 Milne Blvd",
    "address_councildis": "A",
    "status": "Assigned to Contractor",
    "contractor": "Metro Disposal",
    "rowid": "855177",
    "final_x": "3667097.04711",
    "final_y": "548833.563219",
    "longitude": "-90.11296756508274",
    "latitude": "30.003531598479704",
    "geocoded_column": {
      "latitude": "30.003531598479704",
      "longitude": "-90.11296756508274"
    }
  },
  {
    "service_request": "2022-855176",
    "request_type": "Trash/Recycling",
    "request_reason": "Repair Trash Cart",
    "date_created": "2022-01-19T14:12:54.000",
    "date_modified": "2022-01-19T14:12:55.000",
    "request_status": "Pending",
    "responsible_agency": "Department of Sanitation",
    "final_address": "382 Broadway St",
    "address_councildis": "A",
    "status": "Assigned to Contractor",
    "contractor": "Richards Disposal",
    "rowid": "855176",
    "final_x": "3661900.60922",
    "final_y": "523215.277307",
    "longitude": "-90.13023379931575",
    "latitude": "29.93324087581462",
    "geocoded_column": {
      "latitude": "29.93324087581462",
      "longitude": "-90.13023379931575"
    }
  },
  {
    "service_request": "2022-855175",
    "request_type": "Trash/Recycling",
    "request_reason": "Missed Trash Pick-Up",
    "date_created": "2022-01-19T14:01:19.000",
    "date_modified": "2022-01-19T14:01:20.000",
    "request_status": "Pending",
    "responsible_agency": "Department of Sanitation",
    "final_address": "2226 First St",
    "address_councildis": "B",
    "status": "Assigned to Contractor",
    "contractor": "Richards Disposal",
    "rowid": "855175",
    "final_x": "3675615.71937",
    "final_y": "525165.855485",
    "longitude": "-90.08686904210113",
    "latitude": "29.938201237394686",
    "geocoded_column": {
      "latitude": "29.938201237394686",
      "longitude": "-90.08686904210113"
    }
  },
  {
    "service_request": "2022-855174",
    "request_type": "Property Maintenance",
    "request_reason": "Property Maintenance",
    "date_created": "2022-01-19T14:00:20.000",
    "date_modified": "2022-01-19T14:00:20.000",
    "request_status": "Pending",
    "responsible_agency": "Department of Code Enforcement",
    "final_address": "2204 Feliciana St",
    "address_councildis": "D",
    "status": "Pending",
    "rowid": "855174",
    "final_x": "3689736.2575",
    "final_y": "540278.943755",
    "longitude": "-90.0417515170374",
    "latitude": "29.97932706440064",
    "geocoded_column": {
      "latitude": "29.97932706440064",
      "longitude": "-90.0417515170374"
    }
  },
  {
    "service_request": "2022-855173",
    "request_type": "Property Maintenance",
    "request_reason": "Property Maintenance",
    "date_created": "2022-01-19T13:56:57.000",
    "date_modified": "2022-01-19T13:56:57.000",
    "request_status": "Pending",
    "responsible_agency": "Department of Code Enforcement",
    "final_address": "2200 Feliciana St",
    "address_councildis": "D",
    "status": "Pending",
    "rowid": "855173",
    "final_x": "3689703.83382",
    "final_y": "540264.000715",
    "longitude": "-90.04185445541488",
    "latitude": "29.979286981245398",
    "geocoded_column": {
      "latitude": "29.979286981245398",
      "longitude": "-90.04185445541488"
    }
  },
  {
    "service_request": "2022-855172",
    "request_type": "Trash/Recycling",
    "request_reason": "Replace Trash Cart",
    "date_created": "2022-01-19T13:52:01.000",
    "date_modified": "2022-01-19T13:52:02.000",
    "request_status": "Pending",
    "responsible_agency": "Department of Sanitation",
    "final_address": "641 Arabella St",
    "address_councildis": "A",
    "status": "Assigned to Contractor",
    "contractor": "Richards Disposal",
    "rowid": "855172",
    "final_x": "3665763.17376",
    "final_y": "518447.640182",
    "longitude": "-90.11819949519247",
    "latitude": "29.920019297232308",
    "geocoded_column": {
      "latitude": "29.920019297232308",
      "longitude": "-90.11819949519247"
    }
  },
  {
    "service_request": "2022-855171",
    "request_type": "Trash/Recycling",
    "request_reason": "MIssed Recycling Pick-Up",
    "date_created": "2022-01-19T13:51:56.000",
    "date_modified": "2022-01-19T13:51:57.000",
    "request_status": "Pending",
    "responsible_agency": "Department of Sanitation",
    "final_address": "2226 1st St, New Orleans, Louisiana, 70113",
    "status": "Assigned to Contractor",
    "rowid": "855171",
    "longitude": "0.0",
    "latitude": "0.0",
    "geocoded_column": {
      "latitude": "0.0",
      "longitude": "0.0"
    }
  },
  {
    "service_request": "2022-855170",
    "request_type": "Tax and Revenue",
    "request_reason": "Sales Tax Question",
    "date_created": "2022-01-19T13:47:14.000",
    "date_modified": "2022-01-19T21:02:53.000",
    "request_status": "Pending",
    "responsible_agency": "Bureau of Revenue",
    "final_address": "New Orleans,LA",
    "rowid": "855170",
    "longitude": "0.0",
    "latitude": "0.0",
    "geocoded_column": {
      "latitude": "0.0",
      "longitude": "0.0"
    }
  },
  {
    "service_request": "2022-855169",
    "request_type": "Property Maintenance",
    "request_reason": "Property Maintenance",
    "date_created": "2022-01-19T13:46:44.000",
    "date_modified": "2022-01-19T13:46:44.000",
    "request_status": "Pending",
    "responsible_agency": "Department of Code Enforcement",
    "final_address": "AGRICULTURE ST & ST ROCH AVE",
    "address_councildis": "D",
    "status": "Pending",
    "rowid": "855169",
    "final_x": "3685893.1",
    "final_y": "543418.98",
    "longitude": "-90.05377895040456",
    "latitude": "29.988079607140172",
    "geocoded_column": {
      "latitude": "29.988079607140172",
      "longitude": "-90.05377895040456"
    }
  },
  {
    "service_request": "2022-855168",
    "request_type": "Trash/Recycling",
    "request_reason": "Illegal Dumping",
    "date_created": "2022-01-19T13:43:55.000",
    "date_modified": "2022-01-19T13:43:55.000",
    "request_status": "Pending",
    "responsible_agency": "Department of Sanitation",
    "final_address": "ST ROCH AVE & INDUSTRY ST",
    "address_councildis": "D",
    "status": "Pending",
    "rowid": "855168",
    "final_x": "3685925.5",
    "final_y": "543055.88",
    "longitude": "-90.05368941808081",
    "latitude": "29.987080216347664",
    "geocoded_column": {
      "latitude": "29.987080216347664",
      "longitude": "-90.05368941808081"
    }
  },
  {
    "service_request": "2022-855167",
    "request_type": "Trash/Recycling",
    "request_reason": "Replace Trash Cart",
    "date_created": "2022-01-19T13:43:39.000",
    "date_modified": "2022-01-19T13:43:39.000",
    "request_status": "Pending",
    "responsible_agency": "Department of Sanitation",
    "final_address": "5609 Burgundy St",
    "address_councildis": "E",
    "status": "Assigned to Contractor",
    "contractor": "Metro Disposal",
    "rowid": "855167",
    "final_x": "3697900.66371",
    "final_y": "532989.198148",
    "longitude": "-90.0162299038469",
    "latitude": "29.959027304300704",
    "geocoded_column": {
      "latitude": "29.959027304300704",
      "longitude": "-90.0162299038469"
    }
  },
  {
    "service_request": "2022-855166",
    "request_type": "Traffic Signals/Signs/Striping/Streetlights",
    "request_reason": "Street Light Outage/Malfunction",
    "date_created": "2022-01-19T13:42:53.000",
    "date_modified": "2022-01-19T13:42:54.000",
    "request_status": "Pending",
    "responsible_agency": "Department of Public Works",
    "final_address": "ST ROCH AVE & INDUSTRY ST",
    "address_councildis": "D",
    "status": "Pending",
    "contractor": "Royal Engineering",
    "rowid": "855166",
    "final_x": "3685925.5",
    "final_y": "543055.88",
    "longitude": "-90.05368941808081",
    "latitude": "29.987080216347664",
    "geocoded_column": {
      "latitude": "29.987080216347664",
      "longitude": "-90.05368941808081"
    }
  },
  {
    "service_request": "2022-855165",
    "request_type": "Trash/Recycling",
    "request_reason": "Order Recycling Cart",
    "date_created": "2022-01-19T13:40:15.000",
    "date_modified": "2022-01-19T13:40:15.000",
    "request_status": "Pending",
    "responsible_agency": "Department of Sanitation",
    "final_address": "914 Cambronne St",
    "address_councildis": "A",
    "status": "Pending",
    "rowid": "855165",
    "final_x": "3660533.18061",
    "final_y": "528465.081536",
    "longitude": "-90.1343772916748",
    "latitude": "29.94771558458088",
    "geocoded_column": {
      "latitude": "29.94771558458088",
      "longitude": "-90.1343772916748"
    }
  },
  {
    "service_request": "2022-855164",
    "request_type": "Trash/Recycling",
    "request_reason": "Request a Large Item Pick Up",
    "date_created": "2022-01-19T13:39:48.000",
    "date_modified": "2022-01-19T13:39:49.000",
    "request_status": "Pending",
    "responsible_agency": "Department of Sanitation",
    "final_address": "4324 Rayne Dr",
    "address_councildis": "D",
    "status": "Assigned to Contractor",
    "contractor": "Metro Disposal",
    "rowid": "855164",
    "final_x": "3679673.15426",
    "final_y": "548237.197138",
    "longitude": "-90.07325834669457",
    "latitude": "30.001517520344226",
    "geocoded_column": {
      "latitude": "30.001517520344226",
      "longitude": "-90.07325834669457"
    }
  },
  {
    "service_request": "2022-855162",
    "request_type": "Trash/Recycling",
    "request_reason": "Order Trash Cart",
    "date_created": "2022-01-19T13:33:21.000",
    "date_modified": "2022-01-19T13:33:22.000",
    "request_status": "Pending",
    "responsible_agency": "Department of Sanitation",
    "final_address": "New Orleans,LA",
    "status": "Assigned to Contractor",
    "rowid": "855162",
    "longitude": "0.0",
    "latitude": "0.0",
    "geocoded_column": {
      "latitude": "0.0",
      "longitude": "0.0"
    }
  },
  {
    "service_request": "2022-855161",
    "request_type": "Trash/Recycling",
    "request_reason": "Repair Trash Cart",
    "date_created": "2022-01-19T13:31:27.000",
    "date_modified": "2022-01-19T13:31:27.000",
    "request_status": "Pending",
    "responsible_agency": "Department of Sanitation",
    "final_address": "7419 Malvern Dr",
    "address_councildis": "E",
    "status": "Assigned to Contractor",
    "contractor": "Metro Disposal",
    "rowid": "855161",
    "final_x": "3702747.91863",
    "final_y": "561075.255838",
    "longitude": "-89.99989150037308",
    "latitude": "30.036099353641074",
    "geocoded_column": {
      "latitude": "30.036099353641074",
      "longitude": "-89.99989150037308"
    }
  },
  {
    "service_request": "2022-855160",
    "request_type": "Traffic Signals/Signs/Striping/Streetlights",
    "request_reason": "Street Light Outage/Malfunction",
    "date_created": "2022-01-19T13:23:19.000",
    "date_modified": "2022-01-19T13:23:20.000",
    "request_status": "Pending",
    "responsible_agency": "Department of Public Works",
    "final_address": "3801 N Prieur St",
    "address_councildis": "D",
    "status": "Pending",
    "contractor": "Royal Engineering",
    "rowid": "855160",
    "final_x": "3692009.32445",
    "final_y": "538480.930313",
    "longitude": "-90.03463666782682",
    "latitude": "29.97431252130152",
    "geocoded_column": {
      "latitude": "29.97431252130152",
      "longitude": "-90.03463666782682"
    }
  },
  {
    "service_request": "2022-855159",
    "request_type": "Trash/Recycling",
    "request_reason": "Request a Large Item Pick Up",
    "date_created": "2022-01-19T13:19:00.000",
    "date_modified": "2022-01-19T13:19:01.000",
    "request_status": "Pending",
    "responsible_agency": "Department of Sanitation",
    "final_address": "2676 Jasmine St",
    "address_councildis": "D",
    "status": "Assigned to Contractor",
    "contractor": "Metro Disposal",
    "rowid": "855159",
    "final_x": "3687634.77852",
    "final_y": "548097.290002",
    "longitude": "-90.0481118273831",
    "latitude": "30.000889682708436",
    "geocoded_column": {
      "latitude": "30.000889682708436",
      "longitude": "-90.0481118273831"
    }
  },
  {
    "service_request": "2022-855158",
    "request_type": "Traffic Signals/Signs/Striping/Streetlights",
    "request_reason": "Street Light Outage/Malfunction",
    "date_created": "2022-01-19T13:08:44.000",
    "date_modified": "2022-01-19T13:08:46.000",
    "request_status": "Pending",
    "responsible_agency": "Department of Public Works",
    "final_address": "4707 New Orleans St",
    "address_councildis": "D",
    "status": "Pending",
    "contractor": "Royal Engineering",
    "rowid": "855158",
    "final_x": "3681386.13474",
    "final_y": "549837.408788",
    "longitude": "-90.06779104598725",
    "latitude": "30.005865621021407",
    "geocoded_column": {
      "latitude": "30.005865621021407",
      "longitude": "-90.06779104598725"
    }
  },
  {
    "service_request": "2022-855156",
    "request_type": "Trash/Recycling",
    "request_reason": "Request a Large Item Pick Up",
    "date_created": "2022-01-19T13:05:22.000",
    "date_modified": "2022-01-19T13:05:25.000",
    "request_status": "Pending",
    "responsible_agency": "Department of Sanitation",
    "final_address": "540 Emerald St",
    "address_councildis": "D",
    "status": "Assigned to Contractor",
    "contractor": "Metro Disposal",
    "rowid": "855156",
    "final_x": "3668461.63713",
    "final_y": "554983.105944",
    "longitude": "-90.10844891654239",
    "latitude": "30.02040064813092",
    "geocoded_column": {
      "latitude": "30.02040064813092",
      "longitude": "-90.10844891654239"
    }
  },
  {
    "service_request": "2022-855154",
    "request_type": "Trash/Recycling",
    "request_reason": "Replace Trash Cart",
    "date_created": "2022-01-19T12:58:54.000",
    "date_modified": "2022-01-19T12:58:54.000",
    "request_status": "Pending",
    "responsible_agency": "Department of Sanitation",
    "final_address": "6600 Peony St",
    "address_councildis": "C",
    "status": "Assigned to Contractor",
    "contractor": "Richards Disposal",
    "rowid": "855154",
    "final_x": "3708071.22411",
    "final_y": "516465.260981",
    "longitude": "-89.98472820484612",
    "latitude": "29.9132669666957",
    "geocoded_column": {
      "latitude": "29.9132669666957",
      "longitude": "-89.98472820484612"
    }
  },
  {
    "service_request": "2022-855152",
    "request_type": "Roads/Drainage",
    "request_reason": "Man hole cover issue",
    "date_created": "2022-01-19T12:45:46.000",
    "date_modified": "2022-01-19T12:45:46.000",
    "request_status": "Pending",
    "responsible_agency": "Department of Public Works",
    "final_address": "1224 N Rocheblave St",
    "address_councildis": "D",
    "status": "Pending",
    "rowid": "855152",
    "final_x": "3678793.78453",
    "final_y": "537933.438217",
    "longitude": "-90.0763934276242",
    "latitude": "29.9732123452587",
    "geocoded_column": {
      "latitude": "29.9732123452587",
      "longitude": "-90.0763934276242"
    }
  },
  {
    "service_request": "2022-855151",
    "request_type": "Safety & Permits",
    "request_reason": "Safety & Permits Request (Cyber Incident Back Up)",
    "date_created": "2022-01-19T12:45:08.000",
    "date_modified": "2022-01-19T12:45:08.000",
    "request_status": "Pending",
    "responsible_agency": "Safety and Permits",
    "final_address": "3026 Canal St",
    "address_councildis": "B",
    "status": "Pending",
    "rowid": "855151",
    "final_x": "3674124.68763",
    "final_y": "535876.441415",
    "longitude": "-90.09120981775878",
    "latitude": "29.96769630703021",
    "geocoded_column": {
      "latitude": "29.96769630703021",
      "longitude": "-90.09120981775878"
    }
  },
  {
    "service_request": "2022-855150",
    "request_type": "Trash/Recycling",
    "request_reason": "MIssed Recycling Pick-Up",
    "date_created": "2022-01-19T12:44:16.000",
    "date_modified": "2022-01-19T12:44:17.000",
    "request_status": "Pending",
    "responsible_agency": "Department of Sanitation",
    "final_address": "1415 Soniat St",
    "address_councildis": "B",
    "status": "Assigned to Contractor",
    "contractor": "Richards Disposal",
    "rowid": "855150",
    "final_x": "3668477.77351",
    "final_y": "520294.472888",
    "longitude": "-90.10956852527573",
    "latitude": "29.92501806744032",
    "geocoded_column": {
      "latitude": "29.92501806744032",
      "longitude": "-90.10956852527573"
    }
  },
  {
    "service_request": "2022-855149",
    "request_type": "Trash/Recycling",
    "request_reason": "Order Recycling Cart",
    "date_created": "2022-01-19T12:43:32.000",
    "date_modified": "2022-01-19T12:43:32.000",
    "request_status": "Pending",
    "responsible_agency": "Department of Sanitation",
    "final_address": "4946 Metropolitan Dr",
    "address_councildis": "D",
    "status": "Pending",
    "rowid": "855149",
    "final_x": "3690421.8655",
    "final_y": "551808.341974",
    "longitude": "-90.03917482600825",
    "latitude": "30.011007462285228",
    "geocoded_column": {
      "latitude": "30.011007462285228",
      "longitude": "-90.03917482600825"
    }
  },
  {
    "service_request": "2022-855148",
    "request_type": "Trash/Recycling",
    "request_reason": "Request a Large Item Pick Up",
    "date_created": "2022-01-19T12:42:13.000",
    "date_modified": "2022-01-19T12:42:14.000",
    "request_status": "Pending",
    "responsible_agency": "Department of Sanitation",
    "final_address": "408 Leboeuf St",
    "address_councildis": "C",
    "status": "Assigned to Contractor",
    "contractor": "Richards Disposal",
    "rowid": "855148",
    "final_x": "3689904.16124",
    "final_y": "530158.685057",
    "longitude": "-90.0415815525006",
    "latitude": "29.95149469059292",
    "geocoded_column": {
      "latitude": "29.95149469059292",
      "longitude": "-90.0415815525006"
    }
  },
  {
    "service_request": "2022-855147",
    "request_type": "Abandoned Vehicles",
    "request_reason": "Abandoned/Junk Vehicles",
    "date_created": "2022-01-19T12:39:04.000",
    "date_modified": "2022-01-19T12:39:04.000",
    "request_status": "Pending",
    "responsible_agency": "Department of Public Works",
    "final_address": "3000 Cleveland Ave",
    "address_councildis": "B",
    "status": "Pending",
    "rowid": "855147",
    "final_x": "3674060.6235",
    "final_y": "535532.77319",
    "longitude": "-90.09142389734028",
    "latitude": "29.9667532447974",
    "geocoded_column": {
      "latitude": "29.9667532447974",
      "longitude": "-90.09142389734028"
    }
  },
  {
    "service_request": "2022-855146",
    "request_type": "Parks & Parkways",
    "request_reason": "Request Tree Service (Right of Way/Public Property)",
    "date_created": "2022-01-19T12:35:58.000",
    "date_modified": "2022-01-19T12:35:58.000",
    "request_status": "Pending",
    "responsible_agency": "Department of Parks & Parkway",
    "final_address": "1839 Audubon St",
    "address_councildis": "A",
    "status": "Pending",
    "rowid": "855146",
    "final_x": "3665811.61607",
    "final_y": "528339.35616",
    "longitude": "-90.11771533747023",
    "latitude": "29.947216957374124",
    "geocoded_column": {
      "latitude": "29.947216957374124",
      "longitude": "-90.11771533747023"
    }
  },