[
  {
    "service_request": "2024-1131561",
    "request_type": "Trash/Recycling",
    "request_reason": "Request a Large Item Pick Up",
    "date_created": "2024-09-15T23:53:41.000",
    "date_modified": "2024-09-15T23:53:42.000",
    "request_status": "Pending",
    "responsible_agency": "Department of Sanitation",
    "final_address": "1031 Henriette Delille St",
    "address_councildis": "C",
    "status": "Assigned to Contractor",
    "contractor": "IV Waste",
    "rowid": "1131561",
    "final_x": "3681851.85519",
    "final_y": "534737.509574",
    "longitude": "-90.0668469959105",
    "latitude": "29.964332048849617",
    "geocoded_column": {
      "latitude": "29.964332048849617",
      "longitude": "-90.0668469959105"
    }
  },
  {
    "service_request": "2024-1131560",
    "request_type": "Trash/Recycling",
    "request_reason": "Storm Debris Collection",
    "date_created": "2024-09-15T23:22:30.000",
    "date_modified": "2024-09-15T23:22:30.000",
    "request_status": "Pending",
    "responsible_agency": "Department of Sanitation",
    "final_address": "15510 Dwyer Blvd",
    "address_councildis": "E",
    "status": "Pending",
    "rowid": "1131560",
    "final_x": "3730925.67962",
    "final_y": "563688.651233",
    "longitude": "-89.91074329848843",
    "latitude": "30.042353362796096",
    "geocoded_column": {
      "latitude": "30.042353362796096",
      "longitude": "-89.91074329848843"
    }
  },
  {
    "service_request": "2024-1131559",
    "request_type": "Hurricane Francine Tree-Related Issues or Emergencies\t",
    "request_reason": "Hurricane Francine Tree-Related Issues or Emergencies",
    "date_created": "2024-09-15T23:20:32.000",
    "date_modified": "2024-09-15T23:20:32.000",
    "request_status": "Pending",
    "responsible_agency": "Department of Parks & Parkway",
    "final_address": "15520 Dwyer Blvd",
    "address_councildis": "E",
    "status": "Pending",
    "rowid": "1131559",
    "final_x": "3730985.17587",
    "final_y": "563708.999265",
    "longitude": "-89.91055447174456",
    "latitude": "30.04240728018116",
    "geocoded_column": {
      "latitude": "30.04240728018116",
      "longitude": "-89.91055447174456"
    }
  },
  {
    "service_request": "2024-1131558",
    "request_type": "Trash/Recycling",
    "request_reason": "Storm Debris Collection",
    "date_created": "2024-09-15T22:10:27.000",
    "date_modified": "2024-09-15T22:10:27.000",
    "request_status": "Pending",
    "responsible_agency": "Department of Sanitation",
    "final_address": "7720 Spruce St",
    "address_councildis": "A",
    "status": "Pending",
    "rowid": "1131558",
    "final_x": "3664775.48429",
    "final_y": "529563.764545",
    "longitude": "-90.12094590667361",
    "latitude": "29.950613869573143",
    "geocoded_column": {
      "latitude": "29.950613869573143",
      "longitude": "-90.12094590667361"
    }
  },
  {
    "service_request": "2024-1131557",
    "request_type": "Trash/Recycling",
    "request_reason": "Storm Debris Collection",
    "date_created": "2024-09-15T22:09:31.000",
    "date_modified": "2024-09-15T22:09:31.000",
    "request_status": "Pending",
    "responsible_agency": "Department of Sanitation",
    "final_address": "7722 Spruce St",
    "address_councildis": "A",
    "status": "Pending",
    "rowid": "1131557",
    "final_x": "3664765.09146",
    "final_y": "529569.455553",
    "longitude": "-90.12097853189991",
    "latitude": "29.950629820364885",
    "geocoded_column": {
      "latitude": "29.950629820364885",
      "longitude": "-90.12097853189991"
    }
  },
  {
    "service_request": "2024-1131556",
    "request_type": "Trash/Recycling",
    "request_reason": "Storm Debris Collection",
    "date_created": "2024-09-15T22:08:04.000",
    "date_modified": "2024-09-15T22:08:04.000",
    "request_status": "Pending",
    "responsible_agency": "Department of Sanitation",
    "final_address": "3211 Dumaine St",
    "address_councildis": "A",
    "status": "Pending",
    "rowid": "1131556",
    "final_x": "3675348.64552",
    "final_y": "538943.480266",
    "longitude": "-90.08723919011175",
    "latitude": "29.976093080575385",
    "geocoded_column": {
      "latitude": "29.976093080575385",
      "longitude": "-90.08723919011175"
    }
  },
  {
    "service_request": "2024-1131555",
    "request_type": "Streetlights",
    "request_reason": "Streetlight Outage/Malfunction",
    "date_created": "2024-09-15T20:58:36.000",
    "date_modified": "2024-09-15T20:58:37.000",
    "request_status": "Pending",
    "responsible_agency": "Department of Public Works",
    "final_address": "2524 Danneel St",
    "address_councildis": "B",
    "status": "Pending",
    "contractor": "Legacy Professional Services",
    "rowid": "1131555",
    "final_x": "3675745.58792",
    "final_y": "524097.840892",
    "longitude": "-90.08649572483905",
    "latitude": "29.935260661596065",
    "geocoded_column": {
      "latitude": "29.935260661596065",
      "longitude": "-90.08649572483905"
    }
  },
  {
    "service_request": "2024-1131554",
    "request_type": "Trash/Recycling",
    "request_reason": "Storm Debris Collection",
    "date_created": "2024-09-15T20:56:58.000",
    "date_modified": "2024-09-15T20:56:58.000",
    "request_status": "Pending",
    "responsible_agency": "Department of Sanitation",
    "final_address": "807 Weiblen Pl",
    "address_councildis": "A",
    "status": "Pending",
    "rowid": "1131554",
    "final_x": "3668676.60935",
    "final_y": "542598.814029",
    "longitude": "-90.10818805673837",
    "latitude": "29.98634183294908",
    "geocoded_column": {
      "latitude": "29.98634183294908",
      "longitude": "-90.10818805673837"
    }
  },
  {
    "service_request": "2024-1131553",
    "request_type": "Hurricane Francine Tree-Related Issues or Emergencies\t",
    "request_reason": "Hurricane Francine Tree-Related Issues or Emergencies",
    "date_created": "2024-09-15T20:54:15.000",
    "date_modified": "2024-09-15T20:54:15.000",
    "request_status": "Pending",
    "responsible_agency": "Department of Parks & Parkway",
    "final_address": "8515 Edinburgh St",
    "address_councildis": "A",
    "status": "Pending",
    "rowid": "1131553",
    "final_x": "3666341.16935",
    "final_y": "535526.51591",
    "longitude": "-90.11580220729982",
    "latitude": "29.966963836322954",
    "geocoded_column": {
      "latitude": "29.966963836322954",
      "longitude": "-90.11580220729982"
    }
  },
  {
    "service_request": "2024-1131552",
    "request_type": "Streetlights",
    "request_reason": "Streetlight Outage/Malfunction",
    "date_created": "2024-09-15T20:50:34.000",
    "date_modified": "2024-09-15T20:50:36.000",
    "request_status": "Pending",
    "responsible_agency": "Department of Public Works",
    "final_address": "6509 Wuerpel St",
    "address_councildis": "A",
    "status": "Pending",
    "contractor": "Legacy Professional Services",
    "rowid": "1131552",
    "final_x": "3667089.10477",
    "final_y": "550956.723925",
    "longitude": "-90.11292121695651",
    "latitude": "30.009369784468714",
    "geocoded_column": {
      "latitude": "30.009369784468714",
      "longitude": "-90.11292121695651"
    }
  },
  {
    "service_request": "2024-1131551",
    "request_type": "Trash/Recycling",
    "request_reason": "Storm Debris Collection",
    "date_created": "2024-09-15T20:35:04.000",
    "date_modified": "2024-09-15T20:35:04.000",
    "request_status": "Pending",
    "responsible_agency": "Department of Sanitation",
    "final_address": "4116 Vincennes Pl",
    "address_councildis": "B",
    "status": "Pending",
    "rowid": "1131551",
    "final_x": "3668548.87393",
    "final_y": "530670.712578",
    "longitude": "-90.10899409971397",
    "latitude": "29.95354729365004",
    "geocoded_column": {
      "latitude": "29.95354729365004",
      "longitude": "-90.10899409971397"
    }
  },
  {
    "service_request": "2024-1131550",
    "request_type": "Hurricane Francine Tree-Related Issues or Emergencies\t",
    "request_reason": "Hurricane Francine Tree-Related Issues or Emergencies",
    "date_created": "2024-09-15T20:32:14.000",
    "date_modified": "2024-09-15T20:32:14.000",
    "request_status": "Pending",
    "responsible_agency": "Department of Parks & Parkway",
    "final_address": "4758 Baccich St",
    "address_councildis": "D",
    "status": "Pending",
    "rowid": "1131550",
    "final_x": "3687669.01443",
    "final_y": "550827.457813",
    "longitude": "-90.04790691905524",
    "latitude": "30.008395594103053",
    "geocoded_column": {
      "latitude": "30.008395594103053",
      "longitude": "-90.04790691905524"
    }
  },
  {
    "service_request": "2024-1131548",
    "request_type": "Streetlights",
    "request_reason": "Streetlight Outage/Malfunction",
    "date_created": "2024-09-15T20:18:30.000",
    "date_modified": "2024-09-15T20:18:31.000",
    "request_status": "Pending",
    "responsible_agency": "Department of Public Works",
    "final_address": "1315 S Norman C Francis Prkwy",
    "address_councildis": "B",
    "status": "Pending",
    "contractor": "Legacy Professional Services",
    "rowid": "1131548",
    "final_x": "3669767.04442",
    "final_y": "532135.746947",
    "longitude": "-90.10509803415071",
    "latitude": "29.95753980900531",
    "geocoded_column": {
      "latitude": "29.95753980900531",
      "longitude": "-90.10509803415071"
    }
  },
  {
    "service_request": "2024-1131547",
    "request_type": "Property Maintenance",
    "request_reason": "Property Maintenance",
    "date_created": "2024-09-15T20:15:08.000",
    "date_modified": "2024-09-15T20:15:08.000",
    "request_status": "Pending",
    "responsible_agency": "Department of Code Enforcement",
    "final_address": "4658 Baccich St",
    "address_councildis": "D",
    "status": "Pending",
    "rowid": "1131547",
    "final_x": "3687705.19708",
    "final_y": "550214.531796",
    "longitude": "-90.04781433173424",
    "latitude": "30.006709155386105",
    "geocoded_column": {
      "latitude": "30.006709155386105",
      "longitude": "-90.04781433173424"
    }
  },
  {
    "service_request": "2024-1131546",
    "request_type": "Trash/Recycling",
    "request_reason": "Storm Debris Collection",
    "date_created": "2024-09-15T20:07:36.000",
    "date_modified": "2024-09-15T20:07:36.000",
    "request_status": "Pending",
    "responsible_agency": "Department of Sanitation",
    "final_address": "4330 Wellington Ave",
    "address_councildis": "D",
    "status": "Pending",
    "rowid": "1131546",
    "final_x": "3677163.03867",
    "final_y": "548308.182866",
    "longitude": "-90.08118559905748",
    "latitude": "30.00178836727099",
    "geocoded_column": {
      "latitude": "30.00178836727099",
      "longitude": "-90.08118559905748"
    }
  },
  {
    "service_request": "2024-1131545",
    "request_type": "Drainage",
    "request_reason": "Street Flooding",
    "date_created": "2024-09-15T19:24:53.000",
    "date_modified": "2024-09-15T19:24:53.000",
    "request_status": "Pending",
    "responsible_agency": "Department of Public Works",
    "final_address": "DUMAINE ST & HAGAN ST",
    "address_councildis": "A",
    "status": "Pending",
    "rowid": "1131545",
    "final_x": "3675129.9",
    "final_y": "539075.28",
    "longitude": "-90.08792552880179",
    "latitude": "29.976462023964192",
    "geocoded_column": {
      "latitude": "29.976462023964192",
      "longitude": "-90.08792552880179"
    }
  },
  {
    "service_request": "2024-1131544",
    "request_type": "Mosquito, Termite & Rodent Control",
    "request_reason": "Mosquito Complaint",
    "date_created": "2024-09-15T19:12:58.000",
    "date_modified": "2024-09-15T19:12:58.000",
    "request_status": "Pending",
    "responsible_agency": "Mosquito, Termite & Rodent Control Board",
    "final_address": "1330 Press Ct",
    "address_councildis": "C",
    "status": "Pending",
    "rowid": "1131544",
    "final_x": "3688261.41724",
    "final_y": "537106.59412",
    "longitude": "-90.04652215305347",
    "latitude": "29.970649849464582",
    "geocoded_column": {
      "latitude": "29.970649849464582",
      "longitude": "-90.04652215305347"
    }
  },
  {
    "service_request": "2024-1131543",
    "request_type": "Trash/Recycling",
    "request_reason": "Replace Trash Cart",
    "date_created": "2024-09-15T19:10:36.000",
    "date_modified": "2024-09-15T19:10:38.000",
    "request_status": "Pending",
    "responsible_agency": "Department of Sanitation",
    "final_address": "3637 Joliet St",
    "address_councildis": "A",
    "status": "Assigned to Contractor",
    "contractor": "IV Waste",
    "rowid": "1131543",
    "final_x": "3666884.36545",
    "final_y": "535843.088071",
    "longitude": "-90.1140761482692",
    "latitude": "29.967818423037414",
    "geocoded_column": {
      "latitude": "29.967818423037414",
      "longitude": "-90.1140761482692"
    }
  },
  {
    "service_request": "2024-1131542",
    "request_type": "Trash/Recycling",
    "request_reason": "Storm Debris Collection",
    "date_created": "2024-09-15T19:04:58.000",
    "date_modified": "2024-09-15T19:04:58.000",
    "request_status": "Pending",
    "responsible_agency": "Department of Sanitation",
    "final_address": "3710 Danneel St",
    "address_councildis": "B",
    "status": "Pending",
    "rowid": "1131542",
    "final_x": "3672703.71336",
    "final_y": "522500.690362",
    "longitude": "-90.09615338233826",
    "latitude": "29.930959677679333",
    "geocoded_column": {
      "latitude": "29.930959677679333",
      "longitude": "-90.09615338233826"
    }
  },
  {
    "service_request": "2024-1131541",
    "request_type": "Trash/Recycling",
    "request_reason": "Replace Recycling Cart",
    "date_created": "2024-09-15T19:04:45.000",
    "date_modified": "2024-09-15T19:04:45.000",
    "request_status": "Pending",
    "responsible_agency": "Department of Sanitation",
    "final_address": "810 Hagan St",
    "address_councildis": "A",
    "status": "Pending",
    "rowid": "1131541",
    "final_x": "3674981.66702",
    "final_y": "538828.655625",
    "longitude": "-90.08840215687268",
    "latitude": "29.975788320455532",
    "geocoded_column": {
      "latitude": "29.975788320455532",
      "longitude": "-90.08840215687268"
    }
  },
  {
    "service_request": "2024-1131540",
    "request_type": "Trash/Recycling",
    "request_reason": "Storm Debris Collection",
    "date_created": "2024-09-15T19:03:37.000",
    "date_modified": "2024-09-15T19:03:37.000",
    "request_status": "Pending",
    "responsible_agency": "Department of Sanitation",
    "final_address": "1218 Owens Blvd",
    "address_councildis": "D",
    "status": "Pending",
    "rowid": "1131540",
    "final_x": "3677038.70862",
    "final_y": "548810.079827",
    "longitude": "-90.08156104975944",
    "latitude": "30.003172141309246",
    "geocoded_column": {
      "latitude": "30.003172141309246",
      "longitude": "-90.08156104975944"
    }
  },
  {
    "service_request": "2024-1131539",
    "request_type": "Abandoned Vehicles",
    "request_reason": "Abandoned/Junk Vehicles",
    "date_created": "2024-09-15T18:47:12.000",
    "date_modified": "2024-09-15T18:47:12.000",
    "request_status": "Pending",
    "responsible_agency": "Department of Public Works",
    "final_address": "2818 Aubry St",
    "address_councildis": "D",
    "status": "Pending",
    "rowid": "1131539",
    "final_x": "3679039.21896",
    "final_y": "541562.843852",
    "longitude": "-90.07549246858741",
    "latitude": "29.98318454995022",
    "geocoded_column": {
      "latitude": "29.98318454995022",
      "longitude": "-90.07549246858741"
    }
  },
  {
    "service_request": "2024-1131538",
    "request_type": "Trash/Recycling",
    "request_reason": "Request a Large Item Pick Up",
    "date_created": "2024-09-15T18:37:03.000",
    "date_modified": "2024-09-15T18:37:04.000",
    "request_status": "Pending",
    "responsible_agency": "Department of Sanitation",
    "final_address": "15 Yellowstone Dr",
    "address_councildis": "C",
    "status": "Assigned to Contractor",
    "contractor": "Richards Disposal",
    "rowid": "1131538",
    "final_x": "3699755.65808",
    "final_y": "517908.905654",
    "longitude": "-90.01092190724974",
    "latitude": "29.91750299203132",
    "geocoded_column": {
      "latitude": "29.91750299203132",
      "longitude": "-90.01092190724974"
    }
  },
  {
    "service_request": "2024-1131537",
    "request_type": "Hurricane Francine Tree-Related Issues or Emergencies\t",
    "request_reason": "Hurricane Francine Tree-Related Issues or Emergencies",
    "date_created": "2024-09-15T18:19:06.000",
    "date_modified": "2024-09-15T18:19:06.000",
    "request_status": "Pending",
    "responsible_agency": "Department of Parks & Parkway",
    "final_address": "8600 BLK Nelson St",
    "address_councildis": "A",
    "status": "Pending",
    "rowid": "1131537",
    "final_x": "3663674.43016",
    "final_y": "533156.439708",
    "longitude": "-90.1243027908455",
    "latitude": "29.960524548035963",
    "geocoded_column": {
      "latitude": "29.960524548035963",
      "longitude": "-90.1243027908455"
    }
  },
  {
    "service_request": "2024-1131536",
    "request_type": "Trash/Recycling",
    "request_reason": "Replace Trash Cart",
    "date_created": "2024-09-15T18:15:19.000",
    "date_modified": "2024-09-15T18:15:20.000",
    "request_status": "Pending",
    "responsible_agency": "Department of Sanitation",
    "final_address": "1809 N Broad St",
    "address_councildis": "D",
    "status": "Assigned to Contractor",
    "contractor": "IV Waste",
    "rowid": "1131536",
    "final_x": "3679962.44584",
    "final_y": "541469.276748",
    "longitude": "-90.07257969386379",
    "latitude": "29.98289937389814",
    "geocoded_column": {
      "latitude": "29.98289937389814",
      "longitude": "-90.07257969386379"
    }
  },
  {
    "service_request": "2024-1131535",
    "request_type": "Trash/Recycling",
    "request_reason": "Storm Debris Collection",
    "date_created": "2024-09-15T18:12:28.000",
    "date_modified": "2024-09-15T18:12:28.000",
    "request_status": "Pending",
    "responsible_agency": "Department of Sanitation",
    "final_address": "1423 Pauline St",
    "address_councildis": "D",
    "status": "Pending",
    "rowid": "1131535",
    "final_x": "3691568.51977",
    "final_y": "536741.769735",
    "longitude": "-90.0360910117665",
    "latitude": "29.969544175557047",
    "geocoded_column": {
      "latitude": "29.969544175557047",
      "longitude": "-90.0360910117665"
    }
  },
  {
    "service_request": "2024-1131534",
    "request_type": "Trash/Recycling",
    "request_reason": "Missed Trash Pick-Up",
    "date_created": "2024-09-15T17:59:09.000",
    "date_modified": "2024-09-15T17:59:11.000",
    "request_status": "Pending",
    "responsible_agency": "Department of Sanitation",
    "final_address": "6030 N Rampart St",
    "address_councildis": "E",
    "status": "Assigned to Contractor",
    "contractor": "Waste Pro",
    "rowid": "1131534",
    "final_x": "3699203.29975",
    "final_y": "532895.9097",
    "longitude": "-90.01211992492985",
    "latitude": "29.958729558397867",
    "geocoded_column": {
      "latitude": "29.958729558397867",
      "longitude": "-90.01211992492985"
    }
  },
  {
    "service_request": "2024-1131533",
    "request_type": "Roads and Streets",
    "request_reason": "Pothole",
    "date_created": "2024-09-15T17:50:35.000",
    "date_modified": "2024-09-15T17:50:35.000",
    "request_status": "Pending",
    "responsible_agency": "Department of Public Works",
    "final_address": "3800 BLK Tchoupitoulas St",
    "address_councildis": "B",
    "status": "Pending",
    "rowid": "1131533",
    "final_x": "3673565.63216",
    "final_y": "517708.183203",
    "longitude": "-90.09359610829819",
    "latitude": "29.917756204019074",
    "geocoded_column": {
      "latitude": "29.917756204019074",
      "longitude": "-90.09359610829819"
    }
  },
  {
    "service_request": "2024-1131532",
    "request_type": "Property Maintenance",
    "request_reason": "Property Maintenance",
    "date_created": "2024-09-15T17:50:15.000",
    "date_modified": "2024-09-15T17:50:15.000",
    "request_status": "Pending",
    "responsible_agency": "Department of Code Enforcement",
    "final_address": "1904 Hollygrove St",
    "address_councildis": "A",
    "status": "Pending",
    "rowid": "1131532",
    "final_x": "3661287.97856",
    "final_y": "532419.031555",
    "longitude": "-90.13186318177263",
    "latitude": "29.958565937047688",
    "geocoded_column": {
      "latitude": "29.958565937047688",
      "longitude": "-90.13186318177263"
    }
  },
  {
    "service_request": "2024-1131531",
    "request_type": "Trash/Recycling",
    "request_reason": "Request a Large Item Pick Up",
    "date_created": "2024-09-15T17:48:00.000",
    "date_modified": "2024-09-15T17:48:01.000",
    "request_status": "Pending",
    "responsible_agency": "Department of Sanitation",
    "final_address": "1904 Hollygrove St",
    "address_councildis": "A",
    "status": "Assigned to Contractor",
    "contractor": "IV Waste",
    "rowid": "1131531",
    "final_x": "3661287.97856",
    "final_y": "532419.031555",
    "longitude": "-90.13186318177263",
    "latitude": "29.958565937047688",
    "geocoded_column": {
      "latitude": "29.958565937047688",
      "longitude": "-90.13186318177263"
    }
  },
  {
    "service_request": "2024-1131530",
    "request_type": "Trash/Recycling",
    "request_reason": "Request a Large Item Pick Up",
    "date_created": "2024-09-15T17:42:11.000",
    "date_modified": "2024-09-15T17:42:12.000",
    "request_status": "Pending",
    "responsible_agency": "Department of Sanitation",
    "final_address": "800 Poland Ave",
    "address_councildis": "C",
    "status": "Assigned to Contractor",
    "contractor": "IV Waste",
    "rowid": "1131530",
    "final_x": "3692710.14467",
    "final_y": "533903.995781",
    "longitude": "-90.03258741357921",
    "latitude": "29.961705709714334",
    "geocoded_column": {
      "latitude": "29.961705709714334",
      "longitude": "-90.03258741357921"
    }
  },
  {
    "service_request": "2024-1131529",
    "request_type": "Trash/Recycling",
    "request_reason": "Request a Large Item Pick Up",
    "date_created": "2024-09-15T17:38:19.000",
    "date_modified": "2024-09-15T17:38:20.000",
    "request_status": "Pending",
    "responsible_agency": "Department of Sanitation",
    "final_address": "1922 Cadiz St",
    "address_councildis": "B",
    "status": "Assigned to Contractor",
    "contractor": "IV Waste",
    "rowid": "1131529",
    "final_x": "3669931.49338",
    "final_y": "522055.78521",
    "longitude": "-90.10491998456405",
    "latitude": "29.929818343244776",
    "geocoded_column": {
      "latitude": "29.929818343244776",
      "longitude": "-90.10491998456405"
    }
  },
  {
    "service_request": "2024-1131527",
    "request_type": "Trash/Recycling",
    "request_reason": "Storm Debris Collection",
    "date_created": "2024-09-15T17:28:28.000",
    "date_modified": "2024-09-15T17:28:28.000",
    "request_status": "Pending",
    "responsible_agency": "Department of Sanitation",
    "final_address": "6735 Catina St",
    "address_councildis": "A",
    "status": "Pending",
    "rowid": "1131527",
    "final_x": "3667092.52461",
    "final_y": "552425.36367",
    "longitude": "-90.11286099087071",
    "latitude": "30.01340792964148",
    "geocoded_column": {
      "latitude": "30.01340792964148",
      "longitude": "-90.11286099087071"
    }
  },
  {
    "service_request": "2024-1131526",
    "request_type": "Trash/Recycling",
    "request_reason": "Storm Debris Collection",
    "date_created": "2024-09-15T17:26:06.000",
    "date_modified": "2024-09-15T17:26:06.000",
    "request_status": "Pending",
    "responsible_agency": "Department of Sanitation",
    "final_address": "6735 Catina St",
    "address_councildis": "A",
    "status": "Pending",
    "rowid": "1131526",
    "final_x": "3667092.52461",
    "final_y": "552425.36367",
    "longitude": "-90.11286099087071",
    "latitude": "30.01340792964148",
    "geocoded_column": {
      "latitude": "30.01340792964148",
      "longitude": "-90.11286099087071"
    }
  },
  {
    "service_request": "2024-1131525",
    "request_type": "Trash/Recycling",
    "request_reason": "Storm Debris Collection",
    "date_created": "2024-09-15T17:20:25.000",
    "date_modified": "2024-09-15T17:20:25.000",
    "request_status": "Pending",
    "responsible_agency": "Department of Sanitation",
    "final_address": "722 Louisa St",
    "address_councildis": "C",
    "status": "Pending",
    "rowid": "1131525",
    "final_x": "3689190.58281",
    "final_y": "534517.950789",
    "longitude": "-90.04367975914064",
    "latitude": "29.963503261728903",
    "geocoded_column": {
      "latitude": "29.963503261728903",
      "longitude": "-90.04367975914064"
    }
  },
  {
    "service_request": "2024-1131524",
    "request_type": "Trash/Recycling",
    "request_reason": "Storm Debris Collection",
    "date_created": "2024-09-15T17:11:20.000",
    "date_modified": "2024-09-15T17:11:20.000",
    "request_status": "Pending",
    "responsible_agency": "Department of Sanitation",
    "final_address": "3600 Dumaine St",
    "address_councildis": "A",
    "status": "Pending",
    "rowid": "1131524",
    "final_x": "3674416.70049",
    "final_y": "539548.40929",
    "longitude": "-90.09016182035289",
    "latitude": "29.977784263152426",
    "geocoded_column": {
      "latitude": "29.977784263152426",
      "longitude": "-90.09016182035289"
    }
  },
  {
    "service_request": "2024-1131523",
    "request_type": "Abandoned Vehicles",
    "request_reason": "Abandoned/Junk Vehicles",
    "date_created": "2024-09-15T17:10:41.000",
    "date_modified": "2024-09-15T17:10:41.000",
    "request_status": "Pending",
    "responsible_agency": "Department of Public Works",
    "final_address": "3306 Dumaine St",
    "address_councildis": "A",
    "status": "Pending",
    "rowid": "1131523",
    "final_x": "3675044.29518",
    "final_y": "539082.58977",
    "longitude": "-90.08819564426673",
    "latitude": "29.976484681428087",
    "geocoded_column": {
      "latitude": "29.976484681428087",
      "longitude": "-90.08819564426673"
    }
  },
  {
    "service_request": "2024-1131522",
    "request_type": "Hurricane Francine Tree-Related Issues or Emergencies\t",
    "request_reason": "Hurricane Francine Tree-Related Issues or Emergencies",
    "date_created": "2024-09-15T17:03:04.000",
    "date_modified": "2024-09-15T17:03:04.000",
    "request_status": "Pending",
    "responsible_agency": "Department of Parks & Parkway",
    "final_address": "1450 State St",
    "address_councildis": "A",
    "status": "Pending",
    "rowid": "1131522",
    "final_x": "3665403.60756",
    "final_y": "521613.739321",
    "longitude": "-90.11922858441115",
    "latitude": "29.92873555443688",
    "geocoded_column": {
      "latitude": "29.92873555443688",
      "longitude": "-90.11922858441115"
    }
  },
  {
    "service_request": "2024-1131521",
    "request_type": "Hurricane Francine Tree-Related Issues or Emergencies\t",
    "request_reason": "Hurricane Francine Tree-Related Issues or Emergencies",
    "date_created": "2024-09-15T16:52:59.000",
    "date_modified": "2024-09-15T16:52:59.000",
    "request_status": "Pending",
    "responsible_agency": "Department of Parks & Parkway",
    "final_address": "1115 Henry Clay Ave",
    "address_councildis": "A",
    "status": "Pending",
    "rowid": "1131521",
    "final_x": "3664273.784",
    "final_y": "520622.110584",
    "longitude": "-90.1228282901096",
    "latitude": "29.926041756281645",
    "geocoded_column": {
      "latitude": "29.926041756281645",
      "longitude": "-90.1228282901096"
    }
  },
  {
    "service_request": "2024-1131520",
    "request_type": "Streetlights",
    "request_reason": "Streetlight Outage/Malfunction",
    "date_created": "2024-09-15T16:43:17.000",
    "date_modified": "2024-09-15T16:43:18.000",
    "request_status": "Pending",
    "responsible_agency": "Department of Public Works",
    "final_address": "1408 Arts St",
    "address_councildis": "C",
    "status": "Pending",
    "contractor": "Legacy Professional Services",
    "rowid": "1131520",
    "final_x": "3687083.52905",
    "final_y": "537683.230792",
    "longitude": "-90.05022166320029",
    "latitude": "29.972271718382068",
    "geocoded_column": {
      "latitude": "29.972271718382068",
      "longitude": "-90.05022166320029"
    }
  },
  {
    "service_request": "2024-1131519",
    "request_type": "Hurricane Francine Tree-Related Issues or Emergencies\t",
    "request_reason": "Hurricane Francine Tree-Related Issues or Emergencies",
    "date_created": "2024-09-15T16:26:31.000",
    "date_modified": "2024-09-15T16:26:31.000",
    "request_status": "Pending",
    "responsible_agency": "Department of Parks & Parkway",
    "final_address": "919 Cambronne St",
    "address_councildis": "A",
    "status": "Pending",
    "rowid": "1131519",
    "final_x": "3660680.72896",
    "final_y": "528499.978112",
    "longitude": "-90.13391026753807",
    "latitude": "29.94780729304099",
    "geocoded_column": {
      "latitude": "29.94780729304099",
      "longitude": "-90.13391026753807"
    }
  },
  {
    "service_request": "2024-1131518",
    "request_type": "Trash/Recycling",
    "request_reason": "Storm Debris Collection",
    "date_created": "2024-09-15T16:22:04.000",
    "date_modified": "2024-09-15T16:22:04.000",
    "request_status": "Pending",
    "responsible_agency": "Department of Sanitation",
    "final_address": "4525 Camp St",
    "address_councildis": "B",
    "status": "Pending",
    "rowid": "1131518",
    "final_x": "3670407.27994",
    "final_y": "519141.701623",
    "longitude": "-90.10351673904493",
    "latitude": "29.921791508824825",
    "geocoded_column": {
      "latitude": "29.921791508824825",
      "longitude": "-90.10351673904493"
    }
  },
  {
    "service_request": "2024-1131517",
    "request_type": "Parks & Parkways",
    "request_reason": "Request Tree Service (Right of Way/Public Property)",
    "date_created": "2024-09-15T16:21:51.000",
    "date_modified": "2024-09-15T16:21:51.000",
    "request_status": "Pending",
    "responsible_agency": "Department of Parks & Parkway",
    "final_address": "1132 Jena St",
    "address_councildis": "B",
    "status": "Pending",
    "rowid": "1131517",
    "final_x": "3670474.96398",
    "final_y": "519734.175032",
    "longitude": "-90.10328301250803",
    "latitude": "29.923418624726903",
    "geocoded_column": {
      "latitude": "29.923418624726903",
      "longitude": "-90.10328301250803"
    }
  },
  {
    "service_request": "2024-1131516",
    "request_type": "Trash/Recycling",
    "request_reason": "Order Recycling Cart",
    "date_created": "2024-09-15T16:21:37.000",
    "date_modified": "2024-09-15T16:21:37.000",
    "request_status": "Pending",
    "responsible_agency": "Department of Sanitation",
    "final_address": "2136 Broadway St",
    "address_councildis": "A",
    "status": "Pending",
    "rowid": "1131516",
    "final_x": "3666062.4482",
    "final_y": "529425.890753",
    "longitude": "-90.1168869425692",
    "latitude": "29.950197256207634",
    "geocoded_column": {
      "latitude": "29.950197256207634",
      "longitude": "-90.1168869425692"
    }
  },
  {
    "service_request": "2024-1131515",
    "request_type": "Parks & Parkways",
    "request_reason": "Request Tree Service (Right of Way/Public Property)",
    "date_created": "2024-09-15T16:08:20.000",
    "date_modified": "2024-09-15T16:08:20.000",
    "request_status": "Pending",
    "responsible_agency": "Department of Parks & Parkway",
    "final_address": "1215 Jena St",
    "address_councildis": "B",
    "status": "Pending",
    "rowid": "1131515",
    "final_x": "3670615.84007",
    "final_y": "519914.9342",
    "longitude": "-90.10283219086377",
    "latitude": "29.92391149582826",
    "geocoded_column": {
      "latitude": "29.92391149582826",
      "longitude": "-90.10283219086377"
    }
  },
  {
    "service_request": "2024-1131514",
    "request_type": "Parks & Parkways",
    "request_reason": "Tree Stump (removal, grind)",
    "date_created": "2024-09-15T16:05:51.000",
    "date_modified": "2024-09-15T16:05:51.000",
    "request_status": "Pending",
    "responsible_agency": "Department of Parks & Parkway",
    "final_address": "1200 Jena St",
    "address_councildis": "B",
    "status": "Pending",
    "rowid": "1131514",
    "final_x": "3670511.62894",
    "final_y": "519848.444024",
    "longitude": "-90.10316340215596",
    "latitude": "29.923731745782014",
    "geocoded_column": {
      "latitude": "29.923731745782014",
      "longitude": "-90.10316340215596"
    }
  },
  {
    "service_request": "2024-1131513",
    "request_type": "Trash/Recycling",
    "request_reason": "Storm Debris Collection",
    "date_created": "2024-09-15T16:00:23.000",
    "date_modified": "2024-09-15T16:00:24.000",
    "request_status": "Pending",
    "responsible_agency": "Department of Sanitation",
    "final_address": "4501 S Johnson St",
    "address_councildis": "B",
    "status": "Pending",
    "rowid": "1131513",
    "final_x": "3669771.33735",
    "final_y": "527207.939199",
    "longitude": "-90.10525125252121",
    "latitude": "29.94398982558905",
    "geocoded_column": {
      "latitude": "29.94398982558905",
      "longitude": "-90.10525125252121"
    }
  },
  {
    "service_request": "2024-1131512",
    "request_type": "Trash/Recycling",
    "request_reason": "Request a Large Item Pick Up",
    "date_created": "2024-09-15T15:53:21.000",
    "date_modified": "2024-09-15T15:53:22.000",
    "request_status": "Pending",
    "responsible_agency": "Department of Sanitation",
    "final_address": "4443 Reynes St",
    "address_councildis": "E",
    "status": "Assigned to Contractor",
    "contractor": "Waste Pro",
    "rowid": "1131512",
    "final_x": "3699382.7777",
    "final_y": "553406.159895",
    "longitude": "-90.01080565565152",
    "latitude": "30.015119528438756",
    "geocoded_column": {
      "latitude": "30.015119528438756",
      "longitude": "-90.01080565565152"
    }
  },
  {
    "service_request": "2024-1131511",
    "request_type": "Trash/Recycling",
    "request_reason": "Illegal Dumping",
    "date_created": "2024-09-15T15:48:21.000",
    "date_modified": "2024-09-15T15:48:21.000",
    "request_status": "Pending",
    "responsible_agency": "Department of Sanitation",
    "final_address": "4806 Banks St",
    "address_councildis": "A",
    "status": "Pending",
    "rowid": "1131511",
    "final_x": "3667994.72743",
    "final_y": "539107.431562",
    "longitude": "-90.11045956069654",
    "latitude": "29.976761741538052",
    "geocoded_column": {
      "latitude": "29.976761741538052",
      "longitude": "-90.11045956069654"
    }
  },
  {
    "service_request": "2024-1131510",
    "request_type": "Trash/Recycling",
    "request_reason": "Illegal Dumping",
    "date_created": "2024-09-15T15:46:06.000",
    "date_modified": "2024-09-15T15:46:06.000",
    "request_status": "Pending",
    "responsible_agency": "Department of Sanitation",
    "final_address": "4740 Banks St",
    "address_councildis": "A",
    "status": "Pending",
    "rowid": "1131510",
    "final_x": "3668083.70356",
    "final_y": "539035.249098",
    "longitude": "-90.11018097887147",
    "latitude": "29.976560652723332",
    "geocoded_column": {
      "latitude": "29.976560652723332",
      "longitude": "-90.11018097887147"
    }
  },
  {
    "service_request": "2024-1131509",
    "request_type": "Trash/Recycling",
    "request_reason": "Request a Large Item Pick Up",
    "date_created": "2024-09-15T15:40:30.000",
    "date_modified": "2024-09-15T15:40:31.000",
    "request_status": "Pending",
    "responsible_agency": "Department of Sanitation",
    "final_address": "7032 E Tamaron Blvd",
    "address_councildis": "E",
    "status": "Assigned to Contractor",
    "contractor": "Waste Pro",
    "rowid": "1131509",
    "final_x": "3718914.33522",
    "final_y": "568354.888613",
    "longitude": "-89.94852513246578",
    "latitude": "30.0555881577649",
    "geocoded_column": {
      "latitude": "30.0555881577649",
      "longitude": "-89.94852513246578"
    }
  },
  {
    "service_request": "2024-1131508",
    "request_type": "Trash/Recycling",
    "request_reason": "Request a Large Item Pick Up",
    "date_created": "2024-09-15T15:37:19.000",
    "date_modified": "2024-09-15T15:37:20.000",
    "request_status": "Pending",
    "responsible_agency": "Department of Sanitation",
    "final_address": "901 Porteous St",
    "address_councildis": "A",
    "status": "Assigned to Contractor",
    "contractor": "IV Waste",
    "rowid": "1131508",
    "final_x": "3670296.16058",
    "final_y": "551299.520789",
    "longitude": "-90.10277736183275",
    "latitude": "30.010218043777957",
    "geocoded_column": {
      "latitude": "30.010218043777957",
      "longitude": "-90.10277736183275"
    }
  },
  {
    "service_request": "2024-1131507",
    "request_type": "Trash/Recycling",
    "request_reason": "Replace Trash Cart",
    "date_created": "2024-09-15T15:34:04.000",
    "date_modified": "2024-09-15T15:34:05.000",
    "request_status": "Pending",
    "responsible_agency": "Department of Sanitation",
    "final_address": "8338 Oak St",
    "address_councildis": "A",
    "status": "Assigned to Contractor",
    "contractor": "IV Waste",
    "rowid": "1131507",
    "final_x": "3661183.11821",
    "final_y": "529031.848",
    "longitude": "-90.13230641487593",
    "latitude": "29.949255295513606",
    "geocoded_column": {
      "latitude": "29.949255295513606",
      "longitude": "-90.13230641487593"
    }
  },
  {
    "service_request": "2024-1131506",
    "request_type": "Trash/Recycling",
    "request_reason": "Replace Trash Cart",
    "date_created": "2024-09-15T15:33:01.000",
    "date_modified": "2024-09-15T15:33:02.000",
    "request_status": "Pending",
    "responsible_agency": "Department of Sanitation",
    "final_address": "8338 Oak St",
    "address_councildis": "A",
    "status": "Assigned to Contractor",
    "contractor": "IV Waste",
    "rowid": "1131506",
    "final_x": "3661183.11821",
    "final_y": "529031.848",
    "longitude": "-90.13230641487593",
    "latitude": "29.949255295513606",
    "geocoded_column": {
      "latitude": "29.949255295513606",
      "longitude": "-90.13230641487593"
    }
  },
  {
    "service_request": "2024-1131505",
    "request_type": "Roads and Streets",
    "request_reason": "Street Subsidence (Sinking)",
    "date_created": "2024-09-15T15:31:20.000",
    "date_modified": "2024-09-15T15:31:20.000",
    "request_status": "Pending",
    "responsible_agency": "Department of Public Works",
    "final_address": "1640 Arabella St",
    "address_councildis": "A",
    "status": "Pending",
    "rowid": "1131505",
    "final_x": "3666609.8185",
    "final_y": "522476.45433",
    "longitude": "-90.11539186355049",
    "latitude": "29.931072549006483",
    "geocoded_column": {
      "latitude": "29.931072549006483",
      "longitude": "-90.11539186355049"
    }
  },
  {
    "service_request": "2024-1131504",
    "request_type": "Trash/Recycling",
    "request_reason": "Request a Large Item Pick Up",
    "date_created": "2024-09-15T15:19:30.000",
    "date_modified": "2024-09-15T15:19:31.000",
    "request_status": "Pending",
    "responsible_agency": "Department of Sanitation",
    "final_address": "7705 Jeannette St",
    "address_councildis": "A",
    "status": "Assigned to Contractor",
    "contractor": "IV Waste",
    "rowid": "1131504",
    "final_x": "3663715.75955",
    "final_y": "528250.480192",
    "longitude": "-90.12433573992229",
    "latitude": "29.947033549154934",
    "geocoded_column": {
      "latitude": "29.947033549154934",
      "longitude": "-90.12433573992229"
    }
  },
  {
    "service_request": "2024-1131503",
    "request_type": "Trash/Recycling",
    "request_reason": "Request a Large Item Pick Up",
    "date_created": "2024-09-15T15:09:48.000",
    "date_modified": "2024-09-15T15:09:49.000",
    "request_status": "Pending",
    "responsible_agency": "Department of Sanitation",
    "final_address": "3028 Fern St",
    "address_councildis": "B",
    "status": "Assigned to Contractor",
    "contractor": "IV Waste",
    "rowid": "1131503",
    "final_x": "3666987.79085",
    "final_y": "532853.675524",
    "longitude": "-90.11385000072318",
    "latitude": "29.959595499568675",
    "geocoded_column": {
      "latitude": "29.959595499568675",
      "longitude": "-90.11385000072318"
    }
  },
  {
    "service_request": "2024-1131502",
    "request_type": "Property Maintenance",
    "request_reason": "Property Maintenance",
    "date_created": "2024-09-15T15:06:56.000",
    "date_modified": "2024-09-15T15:06:56.000",
    "request_status": "Pending",
    "responsible_agency": "Department of Code Enforcement",
    "final_address": "3871 S Inwood Ave",
    "address_councildis": "C",
    "status": "Pending",
    "rowid": "1131502",
    "final_x": "3704985.22635",
    "final_y": "514059.708466",
    "longitude": "-89.99455718536169",
    "latitude": "29.906752031543167",
    "geocoded_column": {
      "latitude": "29.906752031543167",
      "longitude": "-89.99455718536169"
    }
  },
  {
    "service_request": "2024-1131501",
    "request_type": "Hurricane Francine Tree-Related Issues or Emergencies\t",
    "request_reason": "Hurricane Francine Tree-Related Issues or Emergencies",
    "date_created": "2024-09-15T15:04:09.000",
    "date_modified": "2024-09-15T15:04:09.000",
    "request_status": "Pending",
    "responsible_agency": "Department of Parks & Parkway",
    "final_address": "1219 Short St",
    "address_councildis": "A",
    "status": "Pending",
    "rowid": "1131501",
    "final_x": "3662474.16551",
    "final_y": "528163.987583",
    "longitude": "-90.12825880589268",
    "latitude": "29.946831685262104",
    "geocoded_column": {
      "latitude": "29.946831685262104",
      "longitude": "-90.12825880589268"
    }
  },
  {
    "service_request": "2024-1131500",
    "request_type": "Hurricane Francine Tree-Related Issues or Emergencies\t",
    "request_reason": "Hurricane Francine Tree-Related Issues or Emergencies",
    "date_created": "2024-09-15T15:00:20.000",
    "date_modified": "2024-09-15T15:00:20.000",
    "request_status": "Pending",
    "responsible_agency": "Department of Parks & Parkway",
    "final_address": "7712 Willow St",
    "address_councildis": "A",
    "status": "Pending",
    "rowid": "1131500",
    "final_x": "3663413.33031",
    "final_y": "527947.933631",
    "longitude": "-90.12530069707486",
    "latitude": "29.946210413904545",
    "geocoded_column": {
      "latitude": "29.946210413904545",
      "longitude": "-90.12530069707486"
    }
  },
  {
    "service_request": "2024-1131499",
    "request_type": "Trash/Recycling",
    "request_reason": "Storm Debris Collection",
    "date_created": "2024-09-15T14:56:08.000",
    "date_modified": "2024-09-15T14:56:08.000",
    "request_status": "Pending",
    "responsible_agency": "Department of Sanitation",
    "final_address": "620 S Alexander St",
    "address_councildis": "A",
    "status": "Pending",
    "rowid": "1131499",
    "final_x": "3668715.92961",
    "final_y": "537428.547912",
    "longitude": "-90.10823846337935",
    "latitude": "29.97212419205359",
    "geocoded_column": {
      "latitude": "29.97212419205359",
      "longitude": "-90.10823846337935"
    }
  },
  {
    "service_request": "2024-1131498",
    "request_type": "Trash/Recycling",
    "request_reason": "Repair Trash Cart",
    "date_created": "2024-09-15T14:53:24.000",
    "date_modified": "2024-09-15T14:53:24.000",
    "request_status": "Pending",
    "responsible_agency": "Department of Sanitation",
    "final_address": "1122 Euterpe St",
    "address_councildis": "B",
    "status": "Assigned to Contractor",
    "contractor": "IV Waste",
    "rowid": "1131498",
    "final_x": "3680089.17659",
    "final_y": "524223.559932",
    "longitude": "-90.07277865373844",
    "latitude": "29.935475671146516",
    "geocoded_column": {
      "latitude": "29.935475671146516",
      "longitude": "-90.07277865373844"
    }
  },
  {
    "service_request": "2024-1131497",
    "request_type": "Property Maintenance",
    "request_reason": "Property Maintenance",
    "date_created": "2024-09-15T14:45:32.000",
    "date_modified": "2024-09-15T14:45:32.000",
    "request_status": "Pending",
    "responsible_agency": "Department of Code Enforcement",
    "final_address": "838 Belleville St",
    "address_councildis": "C",
    "status": "Pending",
    "rowid": "1131497",
    "final_x": "3687849.58473",
    "final_y": "528409.030144",
    "longitude": "-90.0481308528061",
    "latitude": "29.946747265914542",
    "geocoded_column": {
      "latitude": "29.946747265914542",
      "longitude": "-90.0481308528061"
    }
  },
  {
    "service_request": "2024-1131496",
    "request_type": "Roads and Streets",
    "request_reason": "Pothole",
    "date_created": "2024-09-15T14:41:59.000",
    "date_modified": "2024-09-15T14:41:59.000",
    "request_status": "Pending",
    "responsible_agency": "Department of Public Works",
    "final_address": "7215 Pritchard Pl",
    "address_councildis": "B",
    "status": "Pending",
    "rowid": "1131496",
    "final_x": "3667450.27143",
    "final_y": "531660.078851",
    "longitude": "-90.11242974866029",
    "latitude": "29.956299958714066",
    "geocoded_column": {
      "latitude": "29.956299958714066",
      "longitude": "-90.11242974866029"
    }
  },
  {
    "service_request": "2024-1131495",
    "request_type": "Property Maintenance",
    "request_reason": "Property Maintenance",
    "date_created": "2024-09-15T14:37:19.000",
    "date_modified": "2024-09-15T14:37:19.000",
    "request_status": "Pending",
    "responsible_agency": "Department of Code Enforcement",
    "final_address": "7215 Pritchard Pl",
    "address_councildis": "B",
    "status": "Pending",
    "rowid": "1131495",
    "final_x": "3667450.27143",
    "final_y": "531660.078851",
    "longitude": "-90.11242974866029",
    "latitude": "29.956299958714066",
    "geocoded_column": {
      "latitude": "29.956299958714066",
      "longitude": "-90.11242974866029"
    }
  },
  {
    "service_request": "2024-1131494",
    "request_type": "Trash/Recycling",
    "request_reason": "Storm Debris Collection",
    "date_created": "2024-09-15T14:33:33.000",
    "date_modified": "2024-09-15T14:57:35.000",
    "request_status": "Pending",
    "responsible_agency": "Department of Sanitation",
    "final_address": "1115 Crete St",
    "address_councildis": "A",
    "rowid": "1131494",
    "final_x": "3677617.11163",
    "final_y": "538827.812617",
    "longitude": "-90.08007870441617",
    "latitude": "29.9757070068908",
    "geocoded_column": {
      "latitude": "29.9757070068908",
      "longitude": "-90.08007870441617"
    }
  },
  {
    "service_request": "2024-1131493",
    "request_type": "Drainage",
    "request_reason": "Street Flooding",
    "date_created": "2024-09-15T14:32:26.000",
    "date_modified": "2024-09-15T14:32:26.000",
    "request_status": "Pending",
    "responsible_agency": "Department of Public Works",
    "final_address": "815 Belleville St",
    "address_councildis": "C",
    "status": "Pending",
    "rowid": "1131493",
    "final_x": "3687760.57654",
    "final_y": "528602.50048",
    "longitude": "-90.04840503320426",
    "latitude": "29.947281988130143",
    "geocoded_column": {
      "latitude": "29.947281988130143",
      "longitude": "-90.04840503320426"
    }
  },
  {
    "service_request": "2024-1131492",
    "request_type": "Hurricane Francine Tree-Related Issues or Emergencies\t",
    "request_reason": "Hurricane Francine Tree-Related Issues or Emergencies",
    "date_created": "2024-09-15T14:31:37.000",
    "date_modified": "2024-09-15T14:31:37.000",
    "request_status": "Pending",
    "responsible_agency": "Department of Parks & Parkway",
    "final_address": "1115 Crete St",
    "address_councildis": "A",
    "status": "Pending",
    "rowid": "1131492",
    "final_x": "3677617.11163",
    "final_y": "538827.812617",
    "longitude": "-90.08007870441617",
    "latitude": "29.9757070068908",
    "geocoded_column": {
      "latitude": "29.9757070068908",
      "longitude": "-90.08007870441617"
    }
  },
  {
    "service_request": "2024-1131490",
    "request_type": "Abandoned Vehicles",
    "request_reason": "Vehicle Blocking Your Driveway",
    "date_created": "2024-09-15T14:26:03.000",
    "date_modified": "2024-09-15T14:26:03.000",
    "request_status": "Pending",
    "responsible_agency": "Department of Public Works",
    "final_address": "2720 Esplanade Ave",
    "address_councildis": "A",
    "status": "Pending",
    "rowid": "1131490",
    "final_x": "3677563.71912",
    "final_y": "539323.900362",
    "longitude": "-90.08023019845697",
    "latitude": "29.97707268316496",
    "geocoded_column": {
      "latitude": "29.97707268316496",
      "longitude": "-90.08023019845697"
    }
  },
  {
    "service_request": "2024-1131489",
    "request_type": "Trash/Recycling",
    "request_reason": "Storm Debris Collection",
    "date_created": "2024-09-15T14:24:15.000",
    "date_modified": "2024-09-15T14:24:15.000",
    "request_status": "Pending",
    "responsible_agency": "Department of Sanitation",
    "final_address": "3511 River Oaks Dr",
    "address_councildis": "C",
    "status": "Pending",
    "rowid": "1131489",
    "final_x": "3701316.83965",
    "final_y": "518134.013366",
    "longitude": "-90.00598593702196",
    "latitude": "29.918072326560722",
    "geocoded_column": {
      "latitude": "29.918072326560722",
      "longitude": "-90.00598593702196"
    }
  },
  {
    "service_request": "2024-1131488",
    "request_type": "Trash/Recycling",
    "request_reason": "Request a Large Item Pick Up",
    "date_created": "2024-09-15T14:22:21.000",
    "date_modified": "2024-09-15T14:22:22.000",
    "request_status": "Pending",
    "responsible_agency": "Department of Sanitation",
    "final_address": "302 S Scott St",
    "address_councildis": "A",
    "status": "Assigned to Contractor",
    "contractor": "IV Waste",
    "rowid": "1131488",
    "final_x": "3671294.31003",
    "final_y": "537134.281224",
    "longitude": "-90.10010549253754",
    "latitude": "29.97123900551795",
    "geocoded_column": {
      "latitude": "29.97123900551795",
      "longitude": "-90.10010549253754"
    }
  },
  {
    "service_request": "2024-1131487",
    "request_type": "Trash/Recycling",
    "request_reason": "Replace Recycling Cart",
    "date_created": "2024-09-15T14:21:10.000",
    "date_modified": "2024-09-15T14:21:10.000",
    "request_status": "Pending",
    "responsible_agency": "Department of Sanitation",
    "final_address": "1319 Madrid St",
    "address_councildis": "D",
    "status": "Pending",
    "rowid": "1131487",
    "final_x": "3676966.46594",
    "final_y": "554758.931928",
    "longitude": "-90.08158397167732",
    "latitude": "30.019531524555532",
    "geocoded_column": {
      "latitude": "30.019531524555532",
      "longitude": "-90.08158397167732"
    }
  },
  {
    "service_request": "2024-1131486",
    "request_type": "Trash/Recycling",
    "request_reason": "Return Trash Cart",
    "date_created": "2024-09-15T14:17:56.000",
    "date_modified": "2024-09-15T14:17:57.000",
    "request_status": "Pending",
    "responsible_agency": "Department of Sanitation",
    "final_address": "2834 De Soto St",
    "address_councildis": "A",
    "status": "Assigned to Contractor",
    "contractor": "IV Waste",
    "rowid": "1131486",
    "final_x": "3677159.19605",
    "final_y": "539507.860554",
    "longitude": "-90.08150146617443",
    "latitude": "29.97759066841913",
    "geocoded_column": {
      "latitude": "29.97759066841913",
      "longitude": "-90.08150146617443"
    }
  },
  {
    "service_request": "2024-1131485",
    "request_type": "Trash/Recycling",
    "request_reason": "Request a Large Item Pick Up",
    "date_created": "2024-09-15T13:47:45.000",
    "date_modified": "2024-09-15T13:47:46.000",
    "request_status": "Pending",
    "responsible_agency": "Department of Sanitation",
    "final_address": "25 Christopher Ct",
    "address_councildis": "E",
    "status": "Assigned to Contractor",
    "contractor": "Waste Pro",
    "rowid": "1131485",
    "final_x": "3716529.39122",
    "final_y": "570203.688999",
    "longitude": "-89.9559931551734",
    "latitude": "30.060750631364407",
    "geocoded_column": {
      "latitude": "30.060750631364407",
      "longitude": "-89.9559931551734"
    }
  },
  {
    "service_request": "2024-1131484",
    "request_type": "Trash/Recycling",
    "request_reason": "Request a Large Item Pick Up",
    "date_created": "2024-09-15T13:46:26.000",
    "date_modified": "2024-09-15T13:46:27.000",
    "request_status": "Pending",
    "responsible_agency": "Department of Sanitation",
    "final_address": "328 S Norman C Francis Prkwy Apt 101",
    "address_councildis": "B",
    "status": "Assigned to Contractor",
    "contractor": "IV Waste",
    "rowid": "1131484",
    "final_x": "3672705.42203",
    "final_y": "535804.820551",
    "longitude": "-90.09569434716828",
    "latitude": "29.96754160160776",
    "geocoded_column": {
      "latitude": "29.96754160160776",
      "longitude": "-90.09569434716828"
    }
  },
  {
    "service_request": "2024-1131483",
    "request_type": "Trash/Recycling",
    "request_reason": "Storm Debris Collection",
    "date_created": "2024-09-15T13:29:48.000",
    "date_modified": "2024-09-15T13:29:48.000",
    "request_status": "Pending",
    "responsible_agency": "Department of Sanitation",
    "final_address": "930 Germain St",
    "address_councildis": "A",
    "status": "Pending",
    "rowid": "1131483",
    "final_x": "3670128.78606",
    "final_y": "547698.503122",
    "longitude": "-90.1034282780798",
    "latitude": "30.00032144627672",
    "geocoded_column": {
      "latitude": "30.00032144627672",
      "longitude": "-90.1034282780798"
    }
  },
  {
    "service_request": "2024-1131482",
    "request_type": "Trash/Recycling",
    "request_reason": "Replace Trash Cart",
    "date_created": "2024-09-15T13:22:43.000",
    "date_modified": "2024-09-15T13:22:44.000",
    "request_status": "Pending",
    "responsible_agency": "Department of Sanitation",
    "final_address": "1469 N Prieur St",
    "address_councildis": "D",
    "status": "Assigned to Contractor",
    "contractor": "IV Waste",
    "rowid": "1131482",
    "final_x": "3680728.66274",
    "final_y": "537758.062472",
    "longitude": "-90.0702888022154",
    "latitude": "29.972671619696584",
    "geocoded_column": {
      "latitude": "29.972671619696584",
      "longitude": "-90.0702888022154"
    }
  },
  {
    "service_request": "2024-1131481",
    "request_type": "Trash/Recycling",
    "request_reason": "Illegal Dumping",
    "date_created": "2024-09-15T13:21:41.000",
    "date_modified": "2024-09-15T13:21:41.000",
    "request_status": "Pending",
    "responsible_agency": "Department of Sanitation",
    "final_address": "641 Gordon St",
    "address_councildis": "E",
    "status": "Pending",
    "rowid": "1131481",
    "final_x": "3698610.748",
    "final_y": "531958.523139",
    "longitude": "-90.01402512070268",
    "latitude": "29.956170851146332",
    "geocoded_column": {
      "latitude": "29.956170851146332",
      "longitude": "-90.01402512070268"
    }
  },
  {
    "service_request": "2024-1131480",
    "request_type": "Roads and Streets",
    "request_reason": "Sidewalk Damaged or Missing",
    "date_created": "2024-09-15T13:18:50.000",
    "date_modified": "2024-09-15T13:18:51.000",
    "request_status": "Pending",
    "responsible_agency": "Department of Public Works",
    "final_address": "600 BLK S Norman C Francis Pkwy",
    "address_councildis": "B",
    "status": "Pending",
    "rowid": "1131480",
    "final_x": "3671875.17524",
    "final_y": "535127.287145",
    "longitude": "-90.09833935127043",
    "latitude": "29.96570324379388",
    "geocoded_column": {
      "latitude": "29.96570324379388",
      "longitude": "-90.09833935127043"
    }
  },
  {
    "service_request": "2024-1131479",
    "request_type": "Drainage",
    "request_reason": "Drainage Manhole Cover Missing or Damaged",
    "date_created": "2024-09-15T13:14:40.000",
    "date_modified": "2024-09-15T13:14:41.000",
    "request_status": "Pending",
    "responsible_agency": "Department of Public Works",
    "final_address": "I 610 W & PARIS AVE",
    "address_councildis": "D",
    "status": "Pending",
    "rowid": "1131479",
    "final_x": "3679730.3",
    "final_y": "544625.38",
    "longitude": "-90.07320329935133",
    "latitude": "29.991584573895633",
    "geocoded_column": {
      "latitude": "29.991584573895633",
      "longitude": "-90.07320329935133"
    }
  },
  {
    "service_request": "2024-1131478",
    "request_type": "Abandoned Vehicles",
    "request_reason": "Abandoned/Junk Vehicles",
    "date_created": "2024-09-15T13:13:21.000",
    "date_modified": "2024-09-15T13:13:21.000",
    "request_status": "Pending",
    "responsible_agency": "Department of Public Works",
    "final_address": "641 Gordon St",
    "address_councildis": "E",
    "status": "Pending",
    "rowid": "1131478",
    "final_x": "3698610.748",
    "final_y": "531958.523139",
    "longitude": "-90.01402512070268",
    "latitude": "29.956170851146332",
    "geocoded_column": {
      "latitude": "29.956170851146332",
      "longitude": "-90.01402512070268"
    }
  },
  {
    "service_request": "2024-1131477",
    "request_type": "Trash/Recycling",
    "request_reason": "Request a Large Item Pick Up",
    "date_created": "2024-09-15T13:06:00.000",
    "date_modified": "2024-09-15T13:06:01.000",
    "request_status": "Pending",
    "responsible_agency": "Department of Sanitation",
    "final_address": "215 N Genois St",
    "address_councildis": "B",
    "status": "Assigned to Contractor",
    "contractor": "IV Waste",
    "rowid": "1131477",
    "final_x": "3672915.71764",
    "final_y": "537700.732232",
    "longitude": "-90.09496551980766",
    "latitude": "29.972748471178637",
    "geocoded_column": {
      "latitude": "29.972748471178637",
      "longitude": "-90.09496551980766"
    }
  },
  {
    "service_request": "2024-1131475",
    "request_type": "Drainage",
    "request_reason": "Ditch and Culvert Maintenance",
    "date_created": "2024-09-15T12:35:51.000",
    "date_modified": "2024-09-15T12:35:51.000",
    "request_status": "Pending",
    "responsible_agency": "Department of Public Works",
    "final_address": "4400 BLK Lennox Blvd",
    "address_councildis": "C",
    "status": "Pending",
    "rowid": "1131475",
    "final_x": "3700752.13684",
    "final_y": "514344.451414",
    "longitude": "-90.00790674761816",
    "latitude": "29.90767029466116",
    "geocoded_column": {
      "latitude": "29.90767029466116",
      "longitude": "-90.00790674761816"
    }
  },
  {
    "service_request": "2024-1131474",
    "request_type": "Drainage",
    "request_reason": "Ditch and Culvert Maintenance",
    "date_created": "2024-09-15T12:33:06.000",
    "date_modified": "2024-09-15T12:33:06.000",
    "request_status": "Pending",
    "responsible_agency": "Department of Public Works",
    "final_address": "4400 BLK Lennox Blvd",
    "address_councildis": "C",
    "status": "Pending",
    "rowid": "1131474",
    "final_x": "3700818.57011",
    "final_y": "514341.793939",
    "longitude": "-90.00769717419644",
    "latitude": "29.907660874342298",
    "geocoded_column": {
      "latitude": "29.907660874342298",
      "longitude": "-90.00769717419644"
    }
  },
  {
    "service_request": "2024-1131473",
    "request_type": "Trash/Recycling",
    "request_reason": "Replace Trash Cart",
    "date_created": "2024-09-15T12:33:03.000",
    "date_modified": "2024-09-15T12:33:04.000",
    "request_status": "Pending",
    "responsible_agency": "Department of Sanitation",
    "final_address": "5632 Durham Dr",
    "address_councildis": "C",
    "status": "Assigned to Contractor",
    "contractor": "Richards Disposal",
    "rowid": "1131473",
    "final_x": "3704775.21527",
    "final_y": "518807.731255",
    "longitude": "-89.99504497568162",
    "latitude": "29.919814207659062",
    "geocoded_column": {
      "latitude": "29.919814207659062",
      "longitude": "-89.99504497568162"
    }
  },
  {
    "service_request": "2024-1131472",
    "request_type": "Property Maintenance",
    "request_reason": "Property Maintenance",
    "date_created": "2024-09-15T12:32:08.000",
    "date_modified": "2024-09-15T12:32:08.000",
    "request_status": "Pending",
    "responsible_agency": "Department of Code Enforcement",
    "final_address": "622 N Pierce St",
    "address_councildis": "A",
    "status": "Pending",
    "rowid": "1131472",
    "final_x": "3672751.76577",
    "final_y": "539585.811786",
    "longitude": "-90.09541899305934",
    "latitude": "29.97793667088689",
    "geocoded_column": {
      "latitude": "29.97793667088689",
      "longitude": "-90.09541899305934"
    }
  },
  {
    "service_request": "2024-1131471",
    "request_type": "Graffiti Removal",
    "request_reason": "Graffiti Removal",
    "date_created": "2024-09-15T12:30:14.000",
    "date_modified": "2024-09-15T12:30:14.000",
    "request_status": "Pending",
    "responsible_agency": "Department of Code Enforcement",
    "final_address": "2436 St Andrew St",
    "address_councildis": "B",
    "status": "Pending",
    "rowid": "1131471",
    "final_x": "3676082.82395",
    "final_y": "526606.817534",
    "longitude": "-90.08534480018594",
    "latitude": "29.942149429230337",
    "geocoded_column": {
      "latitude": "29.942149429230337",
      "longitude": "-90.08534480018594"
    }
  },
  {
    "service_request": "2024-1131470",
    "request_type": "Traffic Signals",
    "request_reason": "Traffic Signal Malfunctioning or Damaged",
    "date_created": "2024-09-15T12:19:16.000",
    "date_modified": "2024-09-15T12:19:17.000",
    "request_status": "Pending",
    "responsible_agency": "Department of Public Works",
    "final_address": "FELICITY ST & PRYTANIA ST",
    "address_councildis": "B",
    "status": "Pending",
    "rowid": "1131470",
    "final_x": "3678936.3",
    "final_y": "524123.88",
    "longitude": "-90.07642174495375",
    "latitude": "29.935236407757465",
    "geocoded_column": {
      "latitude": "29.935236407757465",
      "longitude": "-90.07642174495375"
    }
  },
  {
    "service_request": "2024-1131469",
    "request_type": "Trash/Recycling",
    "request_reason": "Request a Large Item Pick Up",
    "date_created": "2024-09-15T12:11:09.000",
    "date_modified": "2024-09-15T12:44:36.000",
    "request_status": "Pending",
    "responsible_agency": "Department of Sanitation",
    "final_address": "2822 Bell St",
    "address_councildis": "A",
    "status": "Assigned to Contractor",
    "contractor": "IV Waste",
    "rowid": "1131469",
    "final_x": "3677160.39598",
    "final_y": "539158.054154",
    "longitude": "-90.0815097463394",
    "latitude": "29.97662878508844",
    "geocoded_column": {
      "latitude": "29.97662878508844",
      "longitude": "-90.0815097463394"
    }
  },
  {
    "service_request": "2024-1131468",
    "request_type": "Safety & Permits",
    "request_reason": "Licenses & Permits",
    "date_created": "2024-09-15T12:06:01.000",
    "date_modified": "2024-09-15T12:06:01.000",
    "request_status": "Pending",
    "responsible_agency": "Safety and Permits",
    "final_address": "1775 Joseph Guillaume Pl",
    "address_councildis": "C",
    "status": "Pending",
    "rowid": "1131468",
    "final_x": "3683462.43785",
    "final_y": "536121.270855",
    "longitude": "-90.06171241725919",
    "latitude": "29.96808786850646",
    "geocoded_column": {
      "latitude": "29.96808786850646",
      "longitude": "-90.06171241725919"
    }
  },
  {
    "service_request": "2024-1131467",
    "request_type": "Trash/Recycling",
    "request_reason": "Storm Debris Collection",
    "date_created": "2024-09-15T12:03:43.000",
    "date_modified": "2024-09-15T12:03:43.000",
    "request_status": "Pending",
    "responsible_agency": "Department of Sanitation",
    "final_address": "1742 Burbank Dr",
    "address_councildis": "D",
    "status": "Pending",
    "rowid": "1131467",
    "final_x": "3679970.13839",
    "final_y": "554423.919192",
    "longitude": "-90.07210501924665",
    "latitude": "30.01851979557942",
    "geocoded_column": {
      "latitude": "30.01851979557942",
      "longitude": "-90.07210501924665"
    }
  },
  {
    "service_request": "2024-1131466",
    "request_type": "Hurricane Francine Tree-Related Issues or Emergencies\t",
    "request_reason": "Hurricane Francine Tree-Related Issues or Emergencies",
    "date_created": "2024-09-15T11:58:16.000",
    "date_modified": "2024-09-15T11:58:17.000",
    "request_status": "Pending",
    "responsible_agency": "Department of Parks & Parkway",
    "final_address": "4211 N Derbigny St",
    "address_councildis": "D",
    "status": "Pending",
    "rowid": "1131466",
    "final_x": "3693026.60521",
    "final_y": "537418.049224",
    "longitude": "-90.03146200865876",
    "latitude": "29.971358233962714",
    "geocoded_column": {
      "latitude": "29.971358233962714",
      "longitude": "-90.03146200865876"
    }
  },
  {
    "service_request": "2024-1131465",
    "request_type": "Trash/Recycling",
    "request_reason": "Replace Trash Cart",
    "date_created": "2024-09-15T11:35:52.000",
    "date_modified": "2024-09-15T11:35:53.000",
    "request_status": "Pending",
    "responsible_agency": "Department of Sanitation",
    "final_address": "6759 Vicksburg St",
    "address_councildis": "A",
    "status": "Assigned to Contractor",
    "contractor": "IV Waste",
    "rowid": "1131465",
    "final_x": "3669427.1298",
    "final_y": "552405.762006",
    "longitude": "-90.105485509965",
    "latitude": "30.013285450975662",
    "geocoded_column": {
      "latitude": "30.013285450975662",
      "longitude": "-90.105485509965"
    }
  },
  {
    "service_request": "2024-1131464",
    "request_type": "Trash/Recycling",
    "request_reason": "Storm Debris Collection",
    "date_created": "2024-09-15T11:34:33.000",
    "date_modified": "2024-09-15T11:34:34.000",
    "request_status": "Pending",
    "responsible_agency": "Department of Sanitation",
    "final_address": "7621 Poitevent Ave",
    "address_councildis": "E",
    "status": "Pending",
    "contractor": "Waste Pro",
    "rowid": "1131464",
    "final_x": "3706998.22731",
    "final_y": "564179.977697",
    "longitude": "-89.98634448589046",
    "latitude": "30.04449942094845",
    "geocoded_column": {
      "latitude": "30.04449942094845",
      "longitude": "-89.98634448589046"
    }
  },
  {
    "service_request": "2024-1131463",
    "request_type": "Abandoned Vehicles",
    "request_reason": "Abandoned/Junk Vehicles",
    "date_created": "2024-09-15T11:24:57.000",
    "date_modified": "2024-09-15T11:24:57.000",
    "request_status": "Pending",
    "responsible_agency": "Department of Public Works",
    "final_address": "Chef Menteur Highway & Hospital Road",
    "address_councildis": "E",
    "status": "Pending",
    "rowid": "1131463",
    "final_x": "3784293.75007",
    "final_y": "608445.59457",
    "longitude": "-89.74011867256704",
    "latitude": "30.163482661730185",
    "geocoded_column": {
      "latitude": "30.163482661730185",
      "longitude": "-89.74011867256704"
    }
  },
  {
    "service_request": "2024-1131462",
    "request_type": "Trash/Recycling",
    "request_reason": "Request a Large Item Pick Up",
    "date_created": "2024-09-15T11:18:23.000",
    "date_modified": "2024-09-15T11:18:24.000",
    "request_status": "Pending",
    "responsible_agency": "Department of Sanitation",
    "final_address": "3276 Frey Pl",
    "address_councildis": "D",
    "status": "Assigned to Contractor",
    "contractor": "IV Waste",
    "rowid": "1131462",
    "final_x": "3677439.07899",
    "final_y": "544155.352014",
    "longitude": "-90.08045700546904",
    "latitude": "29.99036124679302",
    "geocoded_column": {
      "latitude": "29.99036124679302",
      "longitude": "-90.08045700546904"
    }
  },
  {
    "service_request": "2024-1131461",
    "request_type": "Abandoned Vehicles",
    "request_reason": "Abandoned/Junk Vehicles",
    "date_created": "2024-09-15T11:07:58.000",
    "date_modified": "2024-09-15T11:07:58.000",
    "request_status": "Pending",
    "responsible_agency": "Department of Public Works",
    "final_address": "10001 Lake Forest Blvd Ste 1111",
    "address_councildis": "E",
    "status": "Pending",
    "rowid": "1131461",
    "final_x": "3711403.71179",
    "final_y": "560257.821085",
    "longitude": "-89.97256848404172",
    "latitude": "30.033571924596686",
    "geocoded_column": {
      "latitude": "30.033571924596686",
      "longitude": "-89.97256848404172"
    }
  },
  {
    "service_request": "2024-1131460",
    "request_type": "Trash/Recycling",
    "request_reason": "Storm Debris Collection",
    "date_created": "2024-09-15T11:06:22.000",
    "date_modified": "2024-09-15T11:06:22.000",
    "request_status": "Pending",
    "responsible_agency": "Department of Sanitation",
    "final_address": "5901 Brighton Pl",
    "address_councildis": "C",
    "status": "Pending",
    "rowid": "1131460",
    "final_x": "3705646.91364",
    "final_y": "520043.987064",
    "longitude": "-89.9922478010014",
    "latitude": "29.923185458500157",
    "geocoded_column": {
      "latitude": "29.923185458500157",
      "longitude": "-89.9922478010014"
    }
  },
  {
    "service_request": "2024-1131459",
    "request_type": "Abandoned Vehicles",
    "request_reason": "Abandoned/Junk Vehicles",
    "date_created": "2024-09-15T11:03:12.000",
    "date_modified": "2024-09-15T11:03:12.000",
    "request_status": "Pending",
    "responsible_agency": "Department of Public Works",
    "final_address": "4710 Cardenas Dr",
    "address_councildis": "E",
    "status": "Pending",
    "rowid": "1131459",
    "final_x": "3713637.32555",
    "final_y": "556113.611418",
    "longitude": "-89.9656664048696",
    "latitude": "30.022103868488774",
    "geocoded_column": {
      "latitude": "30.022103868488774",
      "longitude": "-89.9656664048696"
    }
  },
  {
    "service_request": "2024-1131458",
    "request_type": "Drainage",
    "request_reason": "Drainage Manhole Cover Missing or Damaged",
    "date_created": "2024-09-15T11:01:39.000",
    "date_modified": "2024-09-15T11:01:40.000",
    "request_status": "Pending",
    "responsible_agency": "Department of Public Works",
    "final_address": "S GALVEZ ST & TULANE AVE",
    "address_councildis": "B",
    "status": "Pending",
    "rowid": "1131458",
    "final_x": "3676152.1",
    "final_y": "532831.78",
    "longitude": "-90.08491194997069",
    "latitude": "29.959263929358798",
    "geocoded_column": {
      "latitude": "29.959263929358798",
      "longitude": "-90.08491194997069"
    }
  },
  {
    "service_request": "2024-1131457",
    "request_type": "Hurricane Francine Tree-Related Issues or Emergencies\t",
    "request_reason": "Hurricane Francine Tree-Related Issues or Emergencies",
    "date_created": "2024-09-15T10:59:00.000",
    "date_modified": "2024-09-15T10:59:00.000",
    "request_status": "Pending",
    "responsible_agency": "Department of Parks & Parkway",
    "final_address": "121 Maryland Dr",
    "address_councildis": "A",
    "status": "Pending",
    "rowid": "1131457",
    "final_x": "3663780.89069",
    "final_y": "542326.784461",
    "longitude": "-90.12366089498397",
    "latitude": "29.985736867074955",
    "geocoded_column": {
      "latitude": "29.985736867074955",
      "longitude": "-90.12366089498397"
    }
  },
  {
    "service_request": "2024-1131456",
    "request_type": "Trash/Recycling",
    "request_reason": "Order Recycling Cart",
    "date_created": "2024-09-15T10:53:35.000",
    "date_modified": "2024-09-15T10:53:35.000",
    "request_status": "Pending",
    "responsible_agency": "Department of Sanitation",
    "final_address": "437 Huntlee Dr",
    "address_councildis": "C",
    "status": "Pending",
    "rowid": "1131456",
    "final_x": "3701802.87825",
    "final_y": "521856.321018",
    "longitude": "-90.00431551279634",
    "latitude": "29.92829189969506",
    "geocoded_column": {
      "latitude": "29.92829189969506",
      "longitude": "-90.00431551279634"
    }
  },
  {
    "service_request": "2024-1131455",
    "request_type": "Trash/Recycling",
    "request_reason": "Storm Debris Collection",
    "date_created": "2024-09-15T10:46:28.000",
    "date_modified": "2024-09-15T10:46:29.000",
    "request_status": "Pending",
    "responsible_agency": "Department of Sanitation",
    "final_address": "4029 Banks St",
    "address_councildis": "A",
    "status": "Pending",
    "rowid": "1131455",
    "final_x": "3670593.38766",
    "final_y": "537288.625672",
    "longitude": "-90.10231387113039",
    "latitude": "29.971684125052295",
    "geocoded_column": {
      "latitude": "29.971684125052295",
      "longitude": "-90.10231387113039"
    }
  },
  {
    "service_request": "2024-1131454",
    "request_type": "Trash/Recycling",
    "request_reason": "Replace Trash Cart",
    "date_created": "2024-09-15T10:46:08.000",
    "date_modified": "2024-09-15T10:46:09.000",
    "request_status": "Pending",
    "responsible_agency": "Department of Sanitation",
    "final_address": "938 N Rendon St",
    "address_councildis": "A",
    "status": "Assigned to Contractor",
    "contractor": "IV Waste",
    "rowid": "1131454",
    "final_x": "3675659.80501",
    "final_y": "539125.061578",
    "longitude": "-90.08625021502482",
    "latitude": "29.976583058947732",
    "geocoded_column": {
      "latitude": "29.976583058947732",
      "longitude": "-90.08625021502482"
    }
  },
  {
    "service_request": "2024-1131453",
    "request_type": "Drainage",
    "request_reason": "Catch Basin Clogged",
    "date_created": "2024-09-15T10:43:42.000",
    "date_modified": "2024-09-15T10:43:42.000",
    "request_status": "Pending",
    "responsible_agency": "Department of Public Works",
    "final_address": "8513 Apricot St",
    "address_councildis": "A",
    "status": "Pending",
    "rowid": "1131453",
    "final_x": "3664715.35444",
    "final_y": "533690.632133",
    "longitude": "-90.12099789935185",
    "latitude": "29.96196316082745",
    "geocoded_column": {
      "latitude": "29.96196316082745",
      "longitude": "-90.12099789935185"
    }
  },
  {
    "service_request": "2024-1131452",
    "request_type": "Hurricane Francine Tree-Related Issues or Emergencies\t",
    "request_reason": "Hurricane Francine Tree-Related Issues or Emergencies",
    "date_created": "2024-09-15T10:43:07.000",
    "date_modified": "2024-09-15T10:43:07.000",
    "request_status": "Pending",
    "responsible_agency": "Department of Parks & Parkway",
    "final_address": "5900 BLK Brighton Pl",
    "address_councildis": "C",
    "status": "Pending",
    "rowid": "1131452",
    "final_x": "3705801.71336",
    "final_y": "520082.610213",
    "longitude": "-89.99175773404967",
    "latitude": "29.923286676050076",
    "geocoded_column": {
      "latitude": "29.923286676050076",
      "longitude": "-89.99175773404967"
    }
  },
  {
    "service_request": "2024-1131451",
    "request_type": "Trash/Recycling",
    "request_reason": "Request a Large Item Pick Up",
    "date_created": "2024-09-15T10:36:32.000",
    "date_modified": "2024-09-15T10:36:33.000",
    "request_status": "Pending",
    "responsible_agency": "Department of Sanitation",
    "final_address": "1728 Gentilly Blvd",
    "address_councildis": "D",
    "status": "Assigned to Contractor",
    "contractor": "IV Waste",
    "rowid": "1131451",
    "final_x": "3678701.46286",
    "final_y": "541739.249164",
    "longitude": "-90.07655316563189",
    "latitude": "29.983679793772723",
    "geocoded_column": {
      "latitude": "29.983679793772723",
      "longitude": "-90.07655316563189"
    }
  },
  {
    "service_request": "2024-1131450",
    "request_type": "Abandoned Vehicles",
    "request_reason": "Abandoned/Junk Vehicles",
    "date_created": "2024-09-15T10:29:19.000",
    "date_modified": "2024-09-15T10:29:19.000",
    "request_status": "Pending",
    "responsible_agency": "Department of Public Works",
    "final_address": "3024 Jackson Ave",
    "address_councildis": "B",
    "status": "Pending",
    "rowid": "1131450",
    "final_x": "3674158.23048",
    "final_y": "528122.353023",
    "longitude": "-90.09136930711328",
    "latitude": "29.946374150864685",
    "geocoded_column": {
      "latitude": "29.946374150864685",
      "longitude": "-90.09136930711328"
    }
  },
  {
    "service_request": "2024-1131449",
    "request_type": "Trash/Recycling",
    "request_reason": "Storm Debris Collection",
    "date_created": "2024-09-15T10:28:34.000",
    "date_modified": "2024-09-15T10:28:34.000",
    "request_status": "Pending",
    "responsible_agency": "Department of Sanitation",
    "final_address": "5217 Tchoupitoulas St",
    "address_councildis": "B",
    "status": "Pending",
    "rowid": "1131449",
    "final_x": "3667836.76628",
    "final_y": "517243.756469",
    "longitude": "-90.11169465593656",
    "latitude": "29.916648367221562",
    "geocoded_column": {
      "latitude": "29.916648367221562",
      "longitude": "-90.11169465593656"
    }
  },
  {
    "service_request": "2024-1131448",
    "request_type": "Trash/Recycling",
    "request_reason": "Storm Debris Collection",
    "date_created": "2024-09-15T10:25:36.000",
    "date_modified": "2024-09-15T10:25:36.000",
    "request_status": "Pending",
    "responsible_agency": "Department of Sanitation",
    "final_address": "1715 Philip St",
    "address_councildis": "B",
    "status": "Pending",
    "rowid": "1131448",
    "final_x": "3676877.12673",
    "final_y": "523791.334779",
    "longitude": "-90.08293401393856",
    "latitude": "29.934383965638638",
    "geocoded_column": {
      "latitude": "29.934383965638638",
      "longitude": "-90.08293401393856"
    }
  },
  {
    "service_request": "2024-1131447",
    "request_type": "Trash/Recycling",
    "request_reason": "Request a Large Item Pick Up",
    "date_created": "2024-09-15T10:22:45.000",
    "date_modified": "2024-09-15T10:22:47.000",
    "request_status": "Pending",
    "responsible_agency": "Department of Sanitation",
    "final_address": "10311 Brookfield Dr",
    "address_councildis": "E",
    "status": "Assigned to Contractor",
    "contractor": "Waste Pro",
    "rowid": "1131447",
    "final_x": "3710438.59787",
    "final_y": "563194.590688",
    "longitude": "-89.9755083481934",
    "latitude": "30.04167834977917",
    "geocoded_column": {
      "latitude": "30.04167834977917",
      "longitude": "-89.9755083481934"
    }
  },
  {
    "service_request": "2024-1131446",
    "request_type": "Trash/Recycling",
    "request_reason": "Request a Large Item Pick Up",
    "date_created": "2024-09-15T10:19:45.000",
    "date_modified": "2024-09-15T10:19:46.000",
    "request_status": "Pending",
    "responsible_agency": "Department of Sanitation",
    "final_address": "10311 Brookfield Dr",
    "address_councildis": "E",
    "status": "Assigned to Contractor",
    "contractor": "Waste Pro",
    "rowid": "1131446",
    "final_x": "3710438.59787",
    "final_y": "563194.590688",
    "longitude": "-89.9755083481934",
    "latitude": "30.04167834977917",
    "geocoded_column": {
      "latitude": "30.04167834977917",
      "longitude": "-89.9755083481934"
    }
  },
  {
    "service_request": "2024-1131444",
    "request_type": "Streetlights",
    "request_reason": "Streetlight Outage/Malfunction",
    "date_created": "2024-09-15T10:16:23.000",
    "date_modified": "2024-09-15T10:16:24.000",
    "request_status": "Pending",
    "responsible_agency": "Department of Public Works",
    "final_address": "7444 Jade St",
    "address_councildis": "D",
    "status": "Pending",
    "contractor": "Legacy Professional Services",
    "rowid": "1131444",
    "final_x": "3670919.50663",
    "final_y": "555879.555929",
    "longitude": "-90.10065230770635",
    "latitude": "30.022793091483226",
    "geocoded_column": {
      "latitude": "30.022793091483226",
      "longitude": "-90.10065230770635"
    }
  },
  {
    "service_request": "2024-1131443",
    "request_type": "Roads and Streets",
    "request_reason": "Abandoned Service Cut",
    "date_created": "2024-09-15T10:03:45.000",
    "date_modified": "2024-09-15T10:03:45.000",
    "request_status": "Pending",
    "responsible_agency": "Department of Public Works",
    "final_address": "MAGAZINE ST & WEBSTER ST",
    "address_councildis": "A",
    "status": "Pending",
    "rowid": "1131443",
    "final_x": "3664122.8",
    "final_y": "519430.88",
    "longitude": "-90.12334461359862",
    "latitude": "29.922770630457624",
    "geocoded_column": {
      "latitude": "29.922770630457624",
      "longitude": "-90.12334461359862"
    }
  },
  {
    "service_request": "2024-1131442",
    "request_type": "Roads and Streets",
    "request_reason": "Pothole",
    "date_created": "2024-09-15T10:01:00.000",
    "date_modified": "2024-09-15T10:01:00.000",
    "request_status": "Pending",
    "responsible_agency": "Department of Public Works",
    "final_address": "LAUREL ST & WEBSTER ST",
    "address_councildis": "A",
    "status": "Pending",
    "rowid": "1131442",
    "final_x": "3663754.9",
    "final_y": "518437.98",
    "longitude": "-90.12453899776527",
    "latitude": "29.92005114251841",
    "geocoded_column": {
      "latitude": "29.92005114251841",
      "longitude": "-90.12453899776527"
    }
  },
  {
    "service_request": "2024-1131441",
    "request_type": "Trash/Recycling",
    "request_reason": "Storm Debris Collection",
    "date_created": "2024-09-15T09:57:10.000",
    "date_modified": "2024-09-15T09:57:10.000",
    "request_status": "Pending",
    "responsible_agency": "Department of Sanitation",
    "final_address": "9408 Palm St",
    "address_councildis": "A",
    "status": "Pending",
    "rowid": "1131441",
    "final_x": "3664198.11546",
    "final_y": "537835.589001",
    "longitude": "-90.12249295035443",
    "latitude": "29.97337546338181",
    "geocoded_column": {
      "latitude": "29.97337546338181",
      "longitude": "-90.12249295035443"
    }
  },
  {
    "service_request": "2024-1131440",
    "request_type": "Trash/Recycling",
    "request_reason": "Request a Large Item Pick Up",
    "date_created": "2024-09-15T09:53:51.000",
    "date_modified": "2024-09-15T09:53:52.000",
    "request_status": "Pending",
    "responsible_agency": "Department of Sanitation",
    "final_address": "9830 Morrison Rd",
    "address_councildis": "E",
    "status": "Assigned to Contractor",
    "contractor": "Waste Pro",
    "rowid": "1131440",
    "final_x": "3707910.13188",
    "final_y": "562926.344224",
    "longitude": "-89.98350914893025",
    "latitude": "30.041022921529713",
    "geocoded_column": {
      "latitude": "30.041022921529713",
      "longitude": "-89.98350914893025"
    }
  },
  {
    "service_request": "2024-1131439",
    "request_type": "Abandoned Vehicles",
    "request_reason": "Abandoned/Junk Vehicles",
    "date_created": "2024-09-15T09:53:07.000",
    "date_modified": "2024-09-15T09:53:07.000",
    "request_status": "Pending",
    "responsible_agency": "Department of Public Works",
    "final_address": "4808 St Claude Ave",
    "address_councildis": "E",
    "status": "Pending",
    "rowid": "1131439",
    "final_x": "3695140.33008",
    "final_y": "534421.409861",
    "longitude": "-90.0248946657472",
    "latitude": "29.963052336513883",
    "geocoded_column": {
      "latitude": "29.963052336513883",
      "longitude": "-90.0248946657472"
    }
  },
  {
    "service_request": "2024-1131438",
    "request_type": "Trash/Recycling",
    "request_reason": "Request a Large Item Pick Up",
    "date_created": "2024-09-15T09:53:03.000",
    "date_modified": "2024-09-15T09:53:04.000",
    "request_status": "Pending",
    "responsible_agency": "Department of Sanitation",
    "final_address": "9830 Morrison Rd",
    "address_councildis": "E",
    "status": "Assigned to Contractor",
    "contractor": "Waste Pro",
    "rowid": "1131438",
    "final_x": "3707910.13188",
    "final_y": "562926.344224",
    "longitude": "-89.98350914893025",
    "latitude": "30.041022921529713",
    "geocoded_column": {
      "latitude": "30.041022921529713",
      "longitude": "-89.98350914893025"
    }
  },
  {
    "service_request": "2024-1131437",
    "request_type": "Alley Ways",
    "request_reason": "Alley Way Regrading",
    "date_created": "2024-09-15T09:45:20.000",
    "date_modified": "2024-09-15T09:45:20.000",
    "request_status": "Pending",
    "responsible_agency": "Department of Public Works",
    "final_address": "6349 Milne Blvd",
    "address_councildis": "A",
    "status": "Pending",
    "rowid": "1131437",
    "final_x": "3667393.5065",
    "final_y": "549956.024852",
    "longitude": "-90.1119932020746",
    "latitude": "30.00660929281324",
    "geocoded_column": {
      "latitude": "30.00660929281324",
      "longitude": "-90.1119932020746"
    }
  },
  {
    "service_request": "2024-1131436",
    "request_type": "Abandoned Vehicles",
    "request_reason": "Abandoned/Junk Vehicles",
    "date_created": "2024-09-15T09:44:58.000",
    "date_modified": "2024-09-15T09:44:58.000",
    "request_status": "Pending",
    "responsible_agency": "Department of Public Works",
    "final_address": "2207 St Ann St",
    "address_councildis": "D",
    "status": "Pending",
    "rowid": "1131436",
    "final_x": "3678544.2765",
    "final_y": "536042.292871",
    "longitude": "-90.07724689685622",
    "latitude": "29.96801986674429",
    "geocoded_column": {
      "latitude": "29.96801986674429",
      "longitude": "-90.07724689685622"
    }
  },
  {
    "service_request": "2024-1131435",
    "request_type": "Abandoned Vehicles",
    "request_reason": "Abandoned/Junk Vehicles",
    "date_created": "2024-09-15T09:42:45.000",
    "date_modified": "2024-09-15T09:42:45.000",
    "request_status": "Pending",
    "responsible_agency": "Department of Public Works",
    "final_address": "2207 St Ann St",
    "address_councildis": "D",
    "status": "Pending",
    "rowid": "1131435",
    "final_x": "3678544.2765",
    "final_y": "536042.292871",
    "longitude": "-90.07724689685622",
    "latitude": "29.96801986674429",
    "geocoded_column": {
      "latitude": "29.96801986674429",
      "longitude": "-90.07724689685622"
    }
  },
  {
    "service_request": "2024-1131434",
    "request_type": "Roads and Streets",
    "request_reason": "Pothole",
    "date_created": "2024-09-15T09:41:42.000",
    "date_modified": "2024-09-15T09:41:42.000",
    "request_status": "Pending",
    "responsible_agency": "Department of Public Works",
    "final_address": "CITY PARK AVE & I 10 E & METAIRIE RD",
    "address_councildis": "A",
    "status": "Pending",
    "rowid": "1131434",
    "final_x": "3666908.3",
    "final_y": "540680.08",
    "longitude": "-90.11383798908375",
    "latitude": "29.981117832474713",
    "geocoded_column": {
      "latitude": "29.981117832474713",
      "longitude": "-90.11383798908375"
    }
  },
  {
    "service_request": "2024-1131433",
    "request_type": "Trash/Recycling",
    "request_reason": "Request a Large Item Pick Up",
    "date_created": "2024-09-15T09:38:54.000",
    "date_modified": "2024-09-15T09:38:54.000",
    "request_status": "Pending",
    "responsible_agency": "Department of Sanitation",
    "final_address": "7711 Birch St",
    "address_councildis": "A",
    "status": "Assigned to Contractor",
    "contractor": "IV Waste",
    "rowid": "1131433",
    "final_x": "3663954.26714",
    "final_y": "528521.214976",
    "longitude": "-90.1235736543242",
    "latitude": "29.947771060925213",
    "geocoded_column": {
      "latitude": "29.947771060925213",
      "longitude": "-90.1235736543242"
    }
  },
  {
    "service_request": "2024-1131432",
    "request_type": "Trash/Recycling",
    "request_reason": "Storm Debris Collection",
    "date_created": "2024-09-15T09:29:36.000",
    "date_modified": "2024-09-15T09:29:36.000",
    "request_status": "Pending",
    "responsible_agency": "Department of Sanitation",
    "final_address": "1016 Amelia St",
    "address_councildis": "B",
    "status": "Pending",
    "rowid": "1131432",
    "final_x": "3673672.57294",
    "final_y": "518898.491831",
    "longitude": "-90.09321789222086",
    "latitude": "29.92102599074262",
    "geocoded_column": {
      "latitude": "29.92102599074262",
      "longitude": "-90.09321789222086"
    }
  },
  {
    "service_request": "2024-1131431",
    "request_type": "Streetlights",
    "request_reason": "Streetlight Knocked Down/Leaning",
    "date_created": "2024-09-15T09:28:14.000",
    "date_modified": "2024-09-15T09:28:15.000",
    "request_status": "Pending",
    "responsible_agency": "Department of Public Works",
    "final_address": "6521 Spanish Fort Blvd",
    "address_councildis": "D",
    "status": "Pending",
    "contractor": "Legacy Professional Services",
    "rowid": "1131431",
    "final_x": "3674192.7538",
    "final_y": "556167.959578",
    "longitude": "-90.09029969566677",
    "latitude": "30.02348886776225",
    "geocoded_column": {
      "latitude": "30.02348886776225",
      "longitude": "-90.09029969566677"
    }
  },
  {
    "service_request": "2024-1131430",
    "request_type": "Trash/Recycling",
    "request_reason": "Missed Trash Pick-Up",
    "date_created": "2024-09-15T09:25:20.000",
    "date_modified": "2024-09-15T10:10:36.000",
    "case_close_date": "2024-09-15T05:10:36.000",
    "request_status": "Closed",
    "responsible_agency": "Department of Sanitation",
    "final_address": "1828 Duels St",
    "address_councildis": "D",
    "status": "Invalid Request",
    "contractor": "IV Waste",
    "contractor_action": "Invalid Request",
    "rowid": "1131430",
    "final_x": "3681798.84604",
    "final_y": "542309.345101",
    "longitude": "-90.06675008555878",
    "latitude": "29.985153580968362",
    "geocoded_column": {
      "latitude": "29.985153580968362",
      "longitude": "-90.06675008555878"
    }
  },
  {
    "service_request": "2024-1131429",
    "request_type": "Trash/Recycling",
    "request_reason": "Request a Large Item Pick Up",
    "date_created": "2024-09-15T09:14:17.000",
    "date_modified": "2024-09-15T09:14:18.000",
    "request_status": "Pending",
    "responsible_agency": "Department of Sanitation",
    "final_address": "900 BLK Saint Ferdinand St",
    "address_councildis": "C",
    "status": "Assigned to Contractor",
    "contractor": "IV Waste",
    "rowid": "1131429",
    "final_x": "3687561.18783",
    "final_y": "535707.725288",
    "longitude": "-90.04878308141697",
    "latitude": "29.966825052948025",
    "geocoded_column": {
      "latitude": "29.966825052948025",
      "longitude": "-90.04878308141697"
    }
  },
  {
    "service_request": "2024-1131428",
    "request_type": "Hurricane Francine Tree-Related Issues or Emergencies\t",
    "request_reason": "Hurricane Francine Tree-Related Issues or Emergencies",
    "date_created": "2024-09-15T09:08:52.000",
    "date_modified": "2024-09-15T09:08:52.000",
    "request_status": "Pending",
    "responsible_agency": "Department of Parks & Parkway",
    "final_address": "5937 Elysian Fields Ave",
    "address_councildis": "D",
    "status": "Pending",
    "rowid": "1131428",
    "final_x": "3683674.38927",
    "final_y": "554914.52668",
    "longitude": "-90.06038373226562",
    "latitude": "30.019756155718678",
    "geocoded_column": {
      "latitude": "30.019756155718678",
      "longitude": "-90.06038373226562"
    }
  },
  {
    "service_request": "2024-1131427",
    "request_type": "Trash/Recycling",
    "request_reason": "Request a Large Item Pick Up",
    "date_created": "2024-09-15T08:53:35.000",
    "date_modified": "2024-09-15T08:53:36.000",
    "request_status": "Pending",
    "responsible_agency": "Department of Sanitation",
    "final_address": "14022 Wales St",
    "address_councildis": "E",
    "status": "Assigned to Contractor",
    "contractor": "Waste Pro",
    "rowid": "1131427",
    "final_x": "3718296.21196",
    "final_y": "572651.069801",
    "longitude": "-89.95031497687506",
    "latitude": "30.067421391758533",
    "geocoded_column": {
      "latitude": "30.067421391758533",
      "longitude": "-89.95031497687506"
    }
  },
  {
    "service_request": "2024-1131426",
    "request_type": "Trash/Recycling",
    "request_reason": "Missed Trash Pick-Up",
    "date_created": "2024-09-15T08:46:17.000",
    "date_modified": "2024-09-15T09:31:23.000",
    "case_close_date": "2024-09-15T04:31:23.000",
    "request_status": "Closed",
    "responsible_agency": "Department of Sanitation",
    "final_address": "4922 Clara St",
    "address_councildis": "B",
    "status": "Invalid Request",
    "contractor": "IV Waste",
    "contractor_action": "Invalid Request",
    "rowid": "1131426",
    "final_x": "3669011.5906",
    "final_y": "524931.062844",
    "longitude": "-90.10772688160439",
    "latitude": "29.93775151975768",
    "geocoded_column": {
      "latitude": "29.93775151975768",
      "longitude": "-90.10772688160439"
    }
  },
  {
    "service_request": "2024-1131425",
    "request_type": "Drainage",
    "request_reason": "Drainage Manhole Cover Missing or Damaged",
    "date_created": "2024-09-15T08:12:16.000",
    "date_modified": "2024-09-15T08:12:16.000",
    "request_status": "Pending",
    "responsible_agency": "Department of Public Works",
    "final_address": "7001 Bundy Rd",
    "address_councildis": "E",
    "status": "Pending",
    "rowid": "1131425",
    "final_x": "3707172.18622",
    "final_y": "561290.770526",
    "longitude": "-89.985902077464",
    "latitude": "30.036549623983145",
    "geocoded_column": {
      "latitude": "30.036549623983145",
      "longitude": "-89.985902077464"
    }
  },
  {
    "service_request": "2024-1131424",
    "request_type": "Roads and Streets",
    "request_reason": "Street Subsidence (Sinking)",
    "date_created": "2024-09-15T07:55:33.000",
    "date_modified": "2024-09-15T07:55:33.000",
    "request_status": "Pending",
    "responsible_agency": "Department of Public Works",
    "final_address": "SELMA ST & DEMONTLUZIN ST",
    "address_councildis": "D",
    "status": "Pending",
    "rowid": "1131424",
    "final_x": "3687058.7",
    "final_y": "551610.48",
    "longitude": "-90.0498073790366",
    "latitude": "30.010567430409612",
    "geocoded_column": {
      "latitude": "30.010567430409612",
      "longitude": "-90.0498073790366"
    }
  },
  {
    "service_request": "2024-1131423",
    "request_type": "Abandoned Vehicles",
    "request_reason": "Abandoned/Junk Vehicles",
    "date_created": "2024-09-15T07:51:15.000",
    "date_modified": "2024-09-15T07:51:15.000",
    "request_status": "Pending",
    "responsible_agency": "Department of Public Works",
    "final_address": "MONROE ST & NELSON ST",
    "address_councildis": "A",
    "status": "Pending",
    "rowid": "1131423",
    "final_x": "3663548.2",
    "final_y": "533278.18",
    "longitude": "-90.12469734717335",
    "latitude": "29.96086295581736",
    "geocoded_column": {
      "latitude": "29.96086295581736",
      "longitude": "-90.12469734717335"
    }
  },
  {
    "service_request": "2024-1131422",
    "request_type": "Streetlights",
    "request_reason": "Streetlight Outage/Malfunction",
    "date_created": "2024-09-15T07:49:14.000",
    "date_modified": "2024-09-15T07:49:15.000",
    "request_status": "Pending",
    "responsible_agency": "Department of Public Works",
    "final_address": "WALKER ST & MEMPHIS ST",
    "address_councildis": "A",
    "status": "Pending",
    "contractor": "Legacy Professional Services",
    "rowid": "1131422",
    "final_x": "3669801.9",
    "final_y": "553921.98",
    "longitude": "-90.10425004697152",
    "latitude": "30.017443466231118",
    "geocoded_column": {
      "latitude": "30.017443466231118",
      "longitude": "-90.10425004697152"
    }
  },
  {
    "service_request": "2024-1131421",
    "request_type": "Streetlights",
    "request_reason": "Streetlight Outage/Malfunction",
    "date_created": "2024-09-15T07:45:53.000",
    "date_modified": "2024-09-15T07:45:54.000",
    "request_status": "Pending",
    "responsible_agency": "Department of Public Works",
    "final_address": "VICKSBURG ST & WALKER ST",
    "address_councildis": "A",
    "status": "Pending",
    "contractor": "Legacy Professional Services",
    "rowid": "1131421",
    "final_x": "3669483.4",
    "final_y": "553951.78",
    "longitude": "-90.10525537375072",
    "latitude": "30.0175347956451",
    "geocoded_column": {
      "latitude": "30.0175347956451",
      "longitude": "-90.10525537375072"
    }
  },
  {
    "service_request": "2024-1131420",
    "request_type": "Trash/Recycling",
    "request_reason": "Repair Trash Cart",
    "date_created": "2024-09-15T07:34:49.000",
    "date_modified": "2024-09-15T07:34:50.000",
    "request_status": "Pending",
    "responsible_agency": "Department of Sanitation",
    "final_address": "2904 OReilly St",
    "address_councildis": "D",
    "status": "Assigned to Contractor",
    "contractor": "IV Waste",
    "rowid": "1131420",
    "final_x": "3679048.7325",
    "final_y": "542016.095692",
    "longitude": "-90.07544670398656",
    "latitude": "29.984430547515824",
    "geocoded_column": {
      "latitude": "29.984430547515824",
      "longitude": "-90.07544670398656"
    }
  },
  {
    "service_request": "2024-1131419",
    "request_type": "Traffic Signals",
    "request_reason": "Traffic Signal Malfunctioning or Damaged",
    "date_created": "2024-09-15T07:23:14.000",
    "date_modified": "2024-09-15T07:23:14.000",
    "request_status": "Pending",
    "responsible_agency": "Department of Public Works",
    "final_address": "FELICITY ST & PRYTANIA ST",
    "address_councildis": "B",
    "status": "Pending",
    "rowid": "1131419",
    "final_x": "3678936.3",
    "final_y": "524123.88",
    "longitude": "-90.07642174495375",
    "latitude": "29.935236407757465",
    "geocoded_column": {
      "latitude": "29.935236407757465",
      "longitude": "-90.07642174495375"
    }
  },
  {
    "service_request": "2024-1131418",
    "request_type": "Trash/Recycling",
    "request_reason": "Request a Large Item Pick Up",
    "date_created": "2024-09-15T06:51:19.000",
    "date_modified": "2024-09-15T06:51:20.000",
    "request_status": "Pending",
    "responsible_agency": "Department of Sanitation",
    "final_address": "7500 BLK Scottwood Dr",
    "address_councildis": "E",
    "status": "Assigned to Contractor",
    "contractor": "Waste Pro",
    "rowid": "1131418",
    "final_x": "3717430.9191",
    "final_y": "570513.097935",
    "longitude": "-89.95313170307645",
    "latitude": "30.0615715498675",
    "geocoded_column": {
      "latitude": "30.0615715498675",
      "longitude": "-89.95313170307645"
    }
  },