[
  {
    "service_request": "2024-1113092",
    "request_type": "Traffic Signals/Signs/Striping/Streetlights",
    "request_reason": "Street Light Outage/Malfunction",
    "date_created": "2024-07-16T22:56:23.000",
    "date_modified": "2024-07-16T22:56:24.000",
    "request_status": "Pending",
    "responsible_agency": "Department of Public Works",
    "final_address": "3624 N Rampart St",
    "address_councildis": "C",
    "status": "Assigned to Contractor",
    "contractor": "Legacy Professional Services",
    "rowid": "1113092",
    "final_x": "3690807.02755",
    "final_y": "535060.182022",
    "longitude": "-90.03855586860355",
    "latitude": "29.96494408352629",
    "geocoded_column": {
      "latitude": "29.96494408352629",
      "longitude": "-90.03855586860355"
    }
  },
  {
    "service_request": "2024-1113091",
    "request_type": "Trash/Recycling",
    "request_reason": "Illegal Dumping",
    "date_created": "2024-07-16T21:53:01.000",
    "date_modified": "2024-07-16T21:53:01.000",
    "request_status": "Pending",
    "responsible_agency": "Department of Sanitation",
    "final_address": "718 Barracks St",
    "address_councildis": "C",
    "status": "Pending",
    "rowid": "1113091",
    "final_x": "3683729.19087",
    "final_y": "534267.298885",
    "longitude": "-90.06093501799654",
    "latitude": "29.962981942276564",
    "geocoded_column": {
      "latitude": "29.962981942276564",
      "longitude": "-90.06093501799654"
    }
  },
  {
    "service_request": "2024-1113089",
    "request_type": "Traffic Signals/Signs/Striping/Streetlights",
    "request_reason": "Street Light Outage/Malfunction",
    "date_created": "2024-07-16T21:40:19.000",
    "date_modified": "2024-07-16T21:40:20.000",
    "request_status": "Pending",
    "responsible_agency": "Department of Public Works",
    "final_address": "DAUPHINE ST & GALLIER ST",
    "address_councildis": "C",
    "status": "Assigned to Contractor",
    "contractor": "Legacy Professional Services",
    "rowid": "1113089",
    "final_x": "3690181.4",
    "final_y": "534494.78",
    "longitude": "-90.0405517002611",
    "latitude": "29.9634088495161",
    "geocoded_column": {
      "latitude": "29.9634088495161",
      "longitude": "-90.0405517002611"
    }
  },
  {
    "service_request": "2024-1113088",
    "request_type": "Trash/Recycling",
    "request_reason": "Replace Recycling Cart",
    "date_created": "2024-07-16T21:39:54.000",
    "date_modified": "2024-07-16T21:39:54.000",
    "request_status": "Pending",
    "responsible_agency": "Department of Sanitation",
    "final_address": "10801 Harrow Rd",
    "address_councildis": "E",
    "status": "Pending",
    "rowid": "1113088",
    "final_x": "3711298.5093",
    "final_y": "563646.814817",
    "longitude": "-89.9727737680425",
    "latitude": "30.042893738014666",
    "geocoded_column": {
      "latitude": "30.042893738014666",
      "longitude": "-89.9727737680425"
    }
  },
  {
    "service_request": "2024-1113087",
    "request_type": "Roads/Drainage",
    "request_reason": "Street Flooding / Drainage",
    "date_created": "2024-07-16T21:32:53.000",
    "date_modified": "2024-07-16T21:32:53.000",
    "request_status": "Pending",
    "responsible_agency": "Department of Public Works",
    "final_address": "4646 Chrysler St",
    "address_councildis": "E",
    "status": "Pending",
    "rowid": "1113087",
    "final_x": "3715263.57848",
    "final_y": "556434.709018",
    "longitude": "-89.9605157570778",
    "latitude": "30.02293328689707",
    "geocoded_column": {
      "latitude": "30.02293328689707",
      "longitude": "-89.9605157570778"
    }
  },
  {
    "service_request": "2024-1113086",
    "request_type": "Trash/Recycling",
    "request_reason": "Request a Large Item Pick Up",
    "date_created": "2024-07-16T21:22:42.000",
    "date_modified": "2024-07-16T21:22:43.000",
    "request_status": "Pending",
    "responsible_agency": "Department of Sanitation",
    "final_address": "3504 Republic St",
    "address_councildis": "D",
    "status": "Assigned to Contractor",
    "contractor": "IV Waste",
    "rowid": "1113086",
    "final_x": "3680432.64667",
    "final_y": "545290.323791",
    "longitude": "-90.07096159978485",
    "latitude": "29.99339167763523",
    "geocoded_column": {
      "latitude": "29.99339167763523",
      "longitude": "-90.07096159978485"
    }
  },
  {
    "service_request": "2024-1113085",
    "request_type": "Trash/Recycling",
    "request_reason": "Replace Trash Cart",
    "date_created": "2024-07-16T21:09:39.000",
    "date_modified": "2024-07-16T21:09:40.000",
    "request_status": "Pending",
    "responsible_agency": "Department of Sanitation",
    "final_address": "7527 Burthe St",
    "address_councildis": "A",
    "status": "Assigned to Contractor",
    "contractor": "IV Waste",
    "rowid": "1113085",
    "final_x": "3662696.16967",
    "final_y": "526344.38003",
    "longitude": "-90.12761830795549",
    "latitude": "29.941821924024435",
    "geocoded_column": {
      "latitude": "29.941821924024435",
      "longitude": "-90.12761830795549"
    }
  },
  {
    "service_request": "2024-1113084",
    "request_type": "Trash/Recycling",
    "request_reason": "Replace Trash Cart",
    "date_created": "2024-07-16T20:57:10.000",
    "date_modified": "2024-07-16T20:57:11.000",
    "request_status": "Pending",
    "responsible_agency": "Department of Sanitation",
    "final_address": "6120 Catina St",
    "address_councildis": "A",
    "status": "Assigned to Contractor",
    "contractor": "IV Waste",
    "rowid": "1113084",
    "final_x": "3666731.16692",
    "final_y": "548246.13941",
    "longitude": "-90.1141431892791",
    "latitude": "30.00192709591028",
    "geocoded_column": {
      "latitude": "30.00192709591028",
      "longitude": "-90.1141431892791"
    }
  },
  {
    "service_request": "2024-1113083",
    "request_type": "Trash/Recycling",
    "request_reason": "Illegal Dumping",
    "date_created": "2024-07-16T20:11:44.000",
    "date_modified": "2024-07-16T20:11:44.000",
    "request_status": "Pending",
    "responsible_agency": "Department of Sanitation",
    "final_address": "1679 N Broad St",
    "address_councildis": "D",
    "status": "Pending",
    "rowid": "1113083",
    "final_x": "3679458.47765",
    "final_y": "540729.876811",
    "longitude": "-90.07419714405697",
    "latitude": "29.980881518689365",
    "geocoded_column": {
      "latitude": "29.980881518689365",
      "longitude": "-90.07419714405697"
    }
  },
  {
    "service_request": "2024-1113082",
    "request_type": "Roads/Drainage",
    "request_reason": "Man hole cover issue",
    "date_created": "2024-07-16T20:08:56.000",
    "date_modified": "2024-07-16T20:08:56.000",
    "request_status": "Pending",
    "responsible_agency": "Department of Public Works",
    "final_address": "MANDOLIN ST & ST ANTHONY AVE",
    "address_councildis": "D",
    "status": "Pending",
    "rowid": "1113082",
    "final_x": "3682566.6",
    "final_y": "548342.48",
    "longitude": "-90.06411399685514",
    "latitude": "30.00171920200416",
    "geocoded_column": {
      "latitude": "30.00171920200416",
      "longitude": "-90.06411399685514"
    }
  },
  {
    "service_request": "2024-1113081",
    "request_type": "Property Maintenance",
    "request_reason": "Property Maintenance",
    "date_created": "2024-07-16T20:07:05.000",
    "date_modified": "2024-07-16T20:07:05.000",
    "request_status": "Pending",
    "responsible_agency": "Department of Code Enforcement",
    "final_address": "4300 St Anthony Ave",
    "address_councildis": "D",
    "status": "Pending",
    "rowid": "1113081",
    "final_x": "3682410.59708",
    "final_y": "548389.114898",
    "longitude": "-90.06460519444556",
    "latitude": "30.001852181733472",
    "geocoded_column": {
      "latitude": "30.001852181733472",
      "longitude": "-90.06460519444556"
    }
  },
  {
    "service_request": "2024-1113080",
    "request_type": "Trash/Recycling",
    "request_reason": "Request a Large Item Pick Up",
    "date_created": "2024-07-16T20:00:31.000",
    "date_modified": "2024-07-16T20:00:31.000",
    "request_status": "Pending",
    "responsible_agency": "Department of Sanitation",
    "final_address": "4348 Maple Leaf Dr",
    "address_councildis": "C",
    "status": "Assigned to Contractor",
    "contractor": "Richards Disposal",
    "rowid": "1113080",
    "final_x": "3706684.11217",
    "final_y": "515433.874996",
    "longitude": "-89.98914450333561",
    "latitude": "29.91047582840889",
    "geocoded_column": {
      "latitude": "29.91047582840889",
      "longitude": "-89.98914450333561"
    }
  },
  {
    "service_request": "2024-1113079",
    "request_type": "Trash/Recycling",
    "request_reason": "Request a Large Item Pick Up",
    "date_created": "2024-07-16T19:32:34.000",
    "date_modified": "2024-07-16T19:32:35.000",
    "request_status": "Pending",
    "responsible_agency": "Department of Sanitation",
    "final_address": "4320 Pitt St",
    "address_councildis": "B",
    "status": "Assigned to Contractor",
    "contractor": "IV Waste",
    "rowid": "1113079",
    "final_x": "3671120.50491",
    "final_y": "520554.92492",
    "longitude": "-90.10121741801706",
    "latitude": "29.925656354485497",
    "geocoded_column": {
      "latitude": "29.925656354485497",
      "longitude": "-90.10121741801706"
    }
  },
  {
    "service_request": "2024-1113078",
    "request_type": "Safety & Permits",
    "request_reason": "Licenses & Permits",
    "date_created": "2024-07-16T19:27:42.000",
    "date_modified": "2024-07-16T19:27:42.000",
    "request_status": "Pending",
    "responsible_agency": "Safety and Permits",
    "final_address": "4200 Erato St",
    "address_councildis": "B",
    "status": "Pending",
    "rowid": "1113078",
    "final_x": "3671078.23419",
    "final_y": "531331.231554",
    "longitude": "-90.10098499630955",
    "latitude": "29.955288946853482",
    "geocoded_column": {
      "latitude": "29.955288946853482",
      "longitude": "-90.10098499630955"
    }
  },
  {
    "service_request": "2024-1113077",
    "request_type": "Abandoned Vehicles",
    "request_reason": "Abandoned/Junk Vehicles",
    "date_created": "2024-07-16T19:00:25.000",
    "date_modified": "2024-07-16T19:00:25.000",
    "request_status": "Pending",
    "responsible_agency": "Department of Public Works",
    "final_address": "3312 Thalia St",
    "address_councildis": "B",
    "status": "Pending",
    "rowid": "1113077",
    "final_x": "3674153.52244",
    "final_y": "529033.930048",
    "longitude": "-90.09135297548642",
    "latitude": "29.948880827175575",
    "geocoded_column": {
      "latitude": "29.948880827175575",
      "longitude": "-90.09135297548642"
    }
  },
  {
    "service_request": "2024-1113076",
    "request_type": "Traffic Signals/Signs/Striping/Streetlights",
    "request_reason": "Traffic Signal Malfunctioning/Damaged",
    "date_created": "2024-07-16T18:45:20.000",
    "date_modified": "2024-07-16T18:45:20.000",
    "request_status": "Pending",
    "responsible_agency": "Department of Public Works",
    "final_address": "POYDRAS ST & S ROBERTSON ST",
    "address_councildis": "B",
    "status": "Pending",
    "rowid": "1113076",
    "final_x": "3677834.2",
    "final_y": "530351.88",
    "longitude": "-90.07968595812345",
    "latitude": "29.952394538005795",
    "geocoded_column": {
      "latitude": "29.952394538005795",
      "longitude": "-90.07968595812345"
    }
  },
  {
    "service_request": "2024-1113075",
    "request_type": "Trash/Recycling",
    "request_reason": "Request a Large Item Pick Up",
    "date_created": "2024-07-16T18:42:45.000",
    "date_modified": "2024-07-16T18:42:46.000",
    "request_status": "Pending",
    "responsible_agency": "Department of Sanitation",
    "final_address": "7918 Spruce St",
    "address_councildis": "A",
    "status": "Assigned to Contractor",
    "contractor": "IV Waste",
    "rowid": "1113075",
    "final_x": "3664285.813",
    "final_y": "529999.387073",
    "longitude": "-90.1224775083034",
    "latitude": "29.951825927884688",
    "geocoded_column": {
      "latitude": "29.951825927884688",
      "longitude": "-90.1224775083034"
    }
  },
  {
    "service_request": "2024-1113074",
    "request_type": "Trash/Recycling",
    "request_reason": "Request a Large Item Pick Up",
    "date_created": "2024-07-16T18:38:32.000",
    "date_modified": "2024-07-16T18:38:34.000",
    "request_status": "Pending",
    "responsible_agency": "Department of Sanitation",
    "final_address": "4717 Loyola Ave",
    "address_councildis": "B",
    "status": "Assigned to Contractor",
    "contractor": "IV Waste",
    "rowid": "1113074",
    "final_x": "3669363.87822",
    "final_y": "522904.349947",
    "longitude": "-90.1066831761177",
    "latitude": "29.932168344872142",
    "geocoded_column": {
      "latitude": "29.932168344872142",
      "longitude": "-90.1066831761177"
    }
  },
  {
    "service_request": "2024-1113073",
    "request_type": "Property Maintenance",
    "request_reason": "Property Maintenance",
    "date_created": "2024-07-16T18:32:27.000",
    "date_modified": "2024-07-16T18:32:27.000",
    "request_status": "Pending",
    "responsible_agency": "Department of Code Enforcement",
    "final_address": "3604 Washington Ave",
    "address_councildis": "B",
    "status": "Pending",
    "rowid": "1113073",
    "final_x": "3671956.53748",
    "final_y": "528446.046976",
    "longitude": "-90.09830982487985",
    "latitude": "29.947329637281655",
    "geocoded_column": {
      "latitude": "29.947329637281655",
      "longitude": "-90.09830982487985"
    }
  },
  {
    "service_request": "2024-1113072",
    "request_type": "Trash/Recycling",
    "request_reason": "Illegal Dumping",
    "date_created": "2024-07-16T18:24:13.000",
    "date_modified": "2024-07-16T18:24:13.000",
    "request_status": "Pending",
    "responsible_agency": "Department of Sanitation",
    "final_address": "3908 Hamilton St",
    "address_councildis": "A",
    "status": "Pending",
    "rowid": "1113072",
    "final_x": "3665852.91533",
    "final_y": "537935.073289",
    "longitude": "-90.11726339664511",
    "latitude": "29.9736008257379",
    "geocoded_column": {
      "latitude": "29.9736008257379",
      "longitude": "-90.11726339664511"
    }
  },
  {
    "service_request": "2024-1113071",
    "request_type": "Trash/Recycling",
    "request_reason": "Request a Large Item Pick Up",
    "date_created": "2024-07-16T18:15:15.000",
    "date_modified": "2024-07-16T18:15:16.000",
    "request_status": "Pending",
    "responsible_agency": "Department of Sanitation",
    "final_address": "4618 Galahad Dr",
    "address_councildis": "E",
    "status": "Assigned to Contractor",
    "contractor": "Waste Pro",
    "rowid": "1113071",
    "final_x": "3707229.58046",
    "final_y": "554559.900568",
    "longitude": "-89.98597081985412",
    "latitude": "30.018040507691868",
    "geocoded_column": {
      "latitude": "30.018040507691868",
      "longitude": "-89.98597081985412"
    }
  },
  {
    "service_request": "2024-1113070",
    "request_type": "Trash/Recycling",
    "request_reason": "Request a Large Item Pick Up",
    "date_created": "2024-07-16T18:13:44.000",
    "date_modified": "2024-07-16T18:13:45.000",
    "request_status": "Pending",
    "responsible_agency": "Department of Sanitation",
    "final_address": "4618 Galahad Dr",
    "address_councildis": "E",
    "status": "Assigned to Contractor",
    "contractor": "Waste Pro",
    "rowid": "1113070",
    "final_x": "3707229.58046",
    "final_y": "554559.900568",
    "longitude": "-89.98597081985412",
    "latitude": "30.018040507691868",
    "geocoded_column": {
      "latitude": "30.018040507691868",
      "longitude": "-89.98597081985412"
    }
  },
  {
    "service_request": "2024-1113069",
    "request_type": "Roads/Drainage",
    "request_reason": "Catch Basin - Clogged",
    "date_created": "2024-07-16T17:48:48.000",
    "date_modified": "2024-07-16T17:48:48.000",
    "request_status": "Pending",
    "responsible_agency": "Department of Public Works",
    "final_address": "300 BLK S Rendon St",
    "address_councildis": "B",
    "status": "Pending",
    "rowid": "1113069",
    "final_x": "3672985.21764",
    "final_y": "535657.368434",
    "longitude": "-90.09481577828065",
    "latitude": "29.96712784517229",
    "geocoded_column": {
      "latitude": "29.96712784517229",
      "longitude": "-90.09481577828065"
    }
  },
  {
    "service_request": "2024-1113068",
    "request_type": "Trash/Recycling",
    "request_reason": "MIssed Recycling Pick-Up",
    "date_created": "2024-07-16T17:46:44.000",
    "date_modified": "2024-07-16T17:46:45.000",
    "request_status": "Pending",
    "responsible_agency": "Department of Sanitation",
    "final_address": "1914 Adams St",
    "address_councildis": "A",
    "status": "Assigned to Contractor",
    "contractor": "IV Waste",
    "rowid": "1113068",
    "final_x": "3664770.9088",
    "final_y": "529319.459777",
    "longitude": "-90.12096851552486",
    "latitude": "29.94994224358321",
    "geocoded_column": {
      "latitude": "29.94994224358321",
      "longitude": "-90.12096851552486"
    }
  },
  {
    "service_request": "2024-1113067",
    "request_type": "Trash/Recycling",
    "request_reason": "Request a Large Item Pick Up",
    "date_created": "2024-07-16T17:42:49.000",
    "date_modified": "2024-07-16T17:42:50.000",
    "request_status": "Pending",
    "responsible_agency": "Department of Sanitation",
    "final_address": "5542 Chatham Dr",
    "address_councildis": "D",
    "status": "Assigned to Contractor",
    "contractor": "IV Waste",
    "rowid": "1113067",
    "final_x": "3679641.27439",
    "final_y": "552916.108375",
    "longitude": "-90.07319650292024",
    "latitude": "30.014383811412316",
    "geocoded_column": {
      "latitude": "30.014383811412316",
      "longitude": "-90.07319650292024"
    }
  },
  {
    "service_request": "2024-1113066",
    "request_type": "Trash/Recycling",
    "request_reason": "Request a Large Item Pick Up",
    "date_created": "2024-07-16T17:41:23.000",
    "date_modified": "2024-07-16T17:41:24.000",
    "request_status": "Pending",
    "responsible_agency": "Department of Sanitation",
    "final_address": "5550 Chatham Dr",
    "address_councildis": "D",
    "status": "Assigned to Contractor",
    "contractor": "IV Waste",
    "rowid": "1113066",
    "final_x": "3679636.00699",
    "final_y": "552975.504983",
    "longitude": "-90.0732110814838",
    "latitude": "30.014547289887794",
    "geocoded_column": {
      "latitude": "30.014547289887794",
      "longitude": "-90.0732110814838"
    }
  },
  {
    "service_request": "2024-1113065",
    "request_type": "Trash/Recycling",
    "request_reason": "Repair Trash Cart",
    "date_created": "2024-07-16T17:26:22.000",
    "date_modified": "2024-07-16T17:26:23.000",
    "request_status": "Pending",
    "responsible_agency": "Department of Sanitation",
    "final_address": "401 Henry Clay Ave",
    "address_councildis": "A",
    "status": "Assigned to Contractor",
    "contractor": "IV Waste",
    "rowid": "1113065",
    "final_x": "3663323.44538",
    "final_y": "518259.537782",
    "longitude": "-90.125906834101",
    "latitude": "29.919572990303546",
    "geocoded_column": {
      "latitude": "29.919572990303546",
      "longitude": "-90.125906834101"
    }
  },
  {
    "service_request": "2024-1113064",
    "request_type": "Trash/Recycling",
    "request_reason": "Request a Large Item Pick Up",
    "date_created": "2024-07-16T17:25:03.000",
    "date_modified": "2024-07-16T17:49:23.000",
    "case_close_date": "2024-07-16T12:49:23.000",
    "request_status": "Closed",
    "responsible_agency": "Department of Sanitation",
    "final_address": "6200 BLK Urquhart St",
    "address_councildis": "E",
    "status": "Duplicate Request",
    "contractor": "Waste Pro",
    "contractor_action": "Duplicate",
    "rowid": "1113064",
    "final_x": "3700264.07614",
    "final_y": "533796.007655",
    "longitude": "-90.00873743168708",
    "latitude": "29.961170832063527",
    "geocoded_column": {
      "latitude": "29.961170832063527",
      "longitude": "-90.00873743168708"
    }
  },
  {
    "service_request": "2024-1113063",
    "request_type": "Trash/Recycling",
    "request_reason": "Request a Large Item Pick Up",
    "date_created": "2024-07-16T17:23:12.000",
    "date_modified": "2024-07-16T17:48:26.000",
    "case_close_date": "2024-07-16T12:48:26.000",
    "request_status": "Closed",
    "responsible_agency": "Department of Sanitation",
    "final_address": "6200 BLK Urquhart St",
    "address_councildis": "E",
    "status": "Duplicate Request",
    "contractor": "Waste Pro",
    "contractor_action": "Duplicate",
    "rowid": "1113063",
    "final_x": "3700264.07614",
    "final_y": "533796.007655",
    "longitude": "-90.00873743168708",
    "latitude": "29.961170832063527",
    "geocoded_column": {
      "latitude": "29.961170832063527",
      "longitude": "-90.00873743168708"
    }
  },
  {
    "service_request": "2024-1113062",
    "request_type": "Trash/Recycling",
    "request_reason": "Order Trash Cart",
    "date_created": "2024-07-16T17:22:37.000",
    "date_modified": "2024-07-16T17:22:38.000",
    "request_status": "Pending",
    "responsible_agency": "Department of Sanitation",
    "final_address": "7611 Brevard Ave",
    "address_councildis": "E",
    "status": "Assigned to Contractor",
    "contractor": "Waste Pro",
    "rowid": "1113062",
    "final_x": "3706446.75281",
    "final_y": "563371.595296",
    "longitude": "-89.98811737729018",
    "latitude": "30.042294504546543",
    "geocoded_column": {
      "latitude": "30.042294504546543",
      "longitude": "-89.98811737729018"
    }
  },
  {
    "service_request": "2024-1113060",
    "request_type": "Trash/Recycling",
    "request_reason": "Request a Large Item Pick Up",
    "date_created": "2024-07-16T17:21:13.000",
    "date_modified": "2024-07-16T17:21:13.000",
    "request_status": "Pending",
    "responsible_agency": "Department of Sanitation",
    "final_address": "6200 BLK Urquhart St",
    "address_councildis": "E",
    "status": "Assigned to Contractor",
    "contractor": "Waste Pro",
    "rowid": "1113060",
    "final_x": "3700264.07614",
    "final_y": "533796.007655",
    "longitude": "-90.00873743168708",
    "latitude": "29.961170832063527",
    "geocoded_column": {
      "latitude": "29.961170832063527",
      "longitude": "-90.00873743168708"
    }
  },
  {
    "service_request": "2024-1113059",
    "request_type": "Property Maintenance",
    "request_reason": "Property Maintenance",
    "date_created": "2024-07-16T17:16:20.000",
    "date_modified": "2024-07-16T17:16:20.000",
    "request_status": "Pending",
    "responsible_agency": "Department of Code Enforcement",
    "final_address": "6046 Pines Blvd",
    "address_councildis": "D",
    "status": "Pending",
    "rowid": "1113059",
    "final_x": "3696185.44323",
    "final_y": "556057.734681",
    "longitude": "-90.02081170516817",
    "latitude": "30.022511441711345",
    "geocoded_column": {
      "latitude": "30.022511441711345",
      "longitude": "-90.02081170516817"
    }
  },
  {
    "service_request": "2024-1113058",
    "request_type": "Property Maintenance",
    "request_reason": "Property Maintenance",
    "date_created": "2024-07-16T17:14:30.000",
    "date_modified": "2024-07-16T17:14:30.000",
    "request_status": "Pending",
    "responsible_agency": "Department of Code Enforcement",
    "final_address": "6045 Pines Blvd",
    "address_councildis": "D",
    "status": "Pending",
    "rowid": "1113058",
    "final_x": "3696148.54659",
    "final_y": "556164.707098",
    "longitude": "-90.0209244177289",
    "latitude": "30.02280673734054",
    "geocoded_column": {
      "latitude": "30.02280673734054",
      "longitude": "-90.0209244177289"
    }
  },
  {
    "service_request": "2024-1113057",
    "request_type": "Trash/Recycling",
    "request_reason": "Repair Trash Cart",
    "date_created": "2024-07-16T17:07:40.000",
    "date_modified": "2024-07-16T17:07:42.000",
    "request_status": "Pending",
    "responsible_agency": "Department of Sanitation",
    "final_address": "2540 DAbadie St",
    "address_councildis": "D",
    "status": "Assigned to Contractor",
    "contractor": "IV Waste",
    "rowid": "1113057",
    "final_x": "3679680.04194",
    "final_y": "540597.525323",
    "longitude": "-90.07350194200791",
    "latitude": "29.980510901603438",
    "geocoded_column": {
      "latitude": "29.980510901603438",
      "longitude": "-90.07350194200791"
    }
  },
  {
    "service_request": "2024-1113056",
    "request_type": "Property Maintenance",
    "request_reason": "Property Maintenance",
    "date_created": "2024-07-16T17:05:30.000",
    "date_modified": "2024-07-16T17:05:30.000",
    "request_status": "Pending",
    "responsible_agency": "Department of Code Enforcement",
    "final_address": "6900 Dorian St",
    "address_councildis": "D",
    "status": "Pending",
    "rowid": "1113056",
    "final_x": "3696272.60106",
    "final_y": "556205.904538",
    "longitude": "-90.02053094464333",
    "latitude": "30.02291610719101",
    "geocoded_column": {
      "latitude": "30.02291610719101",
      "longitude": "-90.02053094464333"
    }
  },
  {
    "service_request": "2024-1113055",
    "request_type": "Property Maintenance",
    "request_reason": "Property Maintenance",
    "date_created": "2024-07-16T17:02:19.000",
    "date_modified": "2024-07-16T17:02:19.000",
    "request_status": "Pending",
    "responsible_agency": "Department of Code Enforcement",
    "final_address": "522 Warrington Dr",
    "address_councildis": "D",
    "status": "Pending",
    "rowid": "1113055",
    "final_x": "3681116.51093",
    "final_y": "548730.265747",
    "longitude": "-90.06868145433653",
    "latitude": "30.00282955997219",
    "geocoded_column": {
      "latitude": "30.00282955997219",
      "longitude": "-90.06868145433653"
    }
  },
  {
    "service_request": "2024-1113054",
    "request_type": "Trash/Recycling",
    "request_reason": "Request a Large Item Pick Up",
    "date_created": "2024-07-16T17:02:00.000",
    "date_modified": "2024-07-16T17:02:01.000",
    "request_status": "Pending",
    "responsible_agency": "Department of Sanitation",
    "final_address": "1819 Peniston St",
    "address_councildis": "B",
    "status": "Assigned to Contractor",
    "contractor": "IV Waste",
    "rowid": "1113054",
    "final_x": "3672716.07163",
    "final_y": "521993.395834",
    "longitude": "-90.09613166038616",
    "latitude": "29.929564414379865",
    "geocoded_column": {
      "latitude": "29.929564414379865",
      "longitude": "-90.09613166038616"
    }
  },
  {
    "service_request": "2024-1113053",
    "request_type": "Property Maintenance",
    "request_reason": "Property Maintenance",
    "date_created": "2024-07-16T17:00:20.000",
    "date_modified": "2024-07-16T17:00:21.000",
    "request_status": "Pending",
    "responsible_agency": "Department of Code Enforcement",
    "final_address": "9136 Forshey St",
    "address_councildis": "A",
    "status": "Pending",
    "rowid": "1113053",
    "final_x": "3664152.92084",
    "final_y": "536469.639495",
    "longitude": "-90.12268126454326",
    "latitude": "29.969620867644394",
    "geocoded_column": {
      "latitude": "29.969620867644394",
      "longitude": "-90.12268126454326"
    }
  },
  {
    "service_request": "2024-1113052",
    "request_type": "Property Maintenance",
    "request_reason": "Property Maintenance",
    "date_created": "2024-07-16T16:58:56.000",
    "date_modified": "2024-07-16T16:59:10.000",
    "request_status": "Pending",
    "responsible_agency": "Department of Code Enforcement",
    "final_address": "6500 Hayne Blvd",
    "address_councildis": "E",
    "status": "Pending",
    "rowid": "1113052",
    "final_x": "3696612.29853",
    "final_y": "560577.78883",
    "longitude": "-90.01929916428138",
    "latitude": "30.034926411399354",
    "geocoded_column": {
      "latitude": "30.034926411399354",
      "longitude": "-90.01929916428138"
    }
  },
  {
    "service_request": "2024-1113051",
    "request_type": "Abandoned Vehicles",
    "request_reason": "Abandoned/Junk Vehicles",
    "date_created": "2024-07-16T16:57:38.000",
    "date_modified": "2024-07-16T16:57:38.000",
    "request_status": "Pending",
    "responsible_agency": "Department of Public Works",
    "final_address": "416 Warrington Dr",
    "address_councildis": "D",
    "status": "Pending",
    "rowid": "1113051",
    "final_x": "3681432.81647",
    "final_y": "548206.920786",
    "longitude": "-90.06770046371807",
    "latitude": "30.001380945701566",
    "geocoded_column": {
      "latitude": "30.001380945701566",
      "longitude": "-90.06770046371807"
    }
  },
  {
    "service_request": "2024-1113050",
    "request_type": "Property Maintenance",
    "request_reason": "Property Maintenance",
    "date_created": "2024-07-16T16:56:01.000",
    "date_modified": "2024-07-16T16:56:01.000",
    "request_status": "Pending",
    "responsible_agency": "Department of Code Enforcement",
    "final_address": "6051 Kuebel Dr",
    "address_councildis": "E",
    "status": "Pending",
    "rowid": "1113050",
    "final_x": "3695221.77347",
    "final_y": "559849.437149",
    "longitude": "-90.02371972431789",
    "latitude": "30.03296749673373",
    "geocoded_column": {
      "latitude": "30.03296749673373",
      "longitude": "-90.02371972431789"
    }
  },
  {
    "service_request": "2024-1113049",
    "request_type": "Property Maintenance",
    "request_reason": "Property Maintenance",
    "date_created": "2024-07-16T16:54:27.000",
    "date_modified": "2024-07-16T16:54:28.000",
    "request_status": "Pending",
    "responsible_agency": "Department of Code Enforcement",
    "final_address": "4949 Corinne St",
    "address_councildis": "E",
    "status": "Pending",
    "rowid": "1113049",
    "final_x": "3715015.91531",
    "final_y": "557792.216155",
    "longitude": "-89.96124694470682",
    "latitude": "30.026674049117286",
    "geocoded_column": {
      "latitude": "30.026674049117286",
      "longitude": "-89.96124694470682"
    }
  },
  {
    "service_request": "2024-1113048",
    "request_type": "Trash/Recycling",
    "request_reason": "Replace Trash Cart",
    "date_created": "2024-07-16T16:51:04.000",
    "date_modified": "2024-07-16T16:51:05.000",
    "request_status": "Pending",
    "responsible_agency": "Department of Sanitation",
    "final_address": "2809 Banks St",
    "address_councildis": "B",
    "status": "Assigned to Contractor",
    "contractor": "IV Waste",
    "rowid": "1113048",
    "final_x": "3674112.91841",
    "final_y": "534602.173766",
    "longitude": "-90.0912906056501",
    "latitude": "29.964192851232948",
    "geocoded_column": {
      "latitude": "29.964192851232948",
      "longitude": "-90.0912906056501"
    }
  },
  {
    "service_request": "2024-1113047",
    "request_type": "Trash/Recycling",
    "request_reason": "Missed Trash Pick-Up",
    "date_created": "2024-07-16T16:50:37.000",
    "date_modified": "2024-07-16T16:50:38.000",
    "request_status": "Pending",
    "responsible_agency": "Department of Sanitation",
    "final_address": "3128 Ursulines Ave",
    "address_councildis": "A",
    "status": "Assigned to Contractor",
    "contractor": "IV Waste",
    "rowid": "1113047",
    "final_x": "3675901.56725",
    "final_y": "539414.377738",
    "longitude": "-90.08547670380095",
    "latitude": "29.977371341988764",
    "geocoded_column": {
      "latitude": "29.977371341988764",
      "longitude": "-90.08547670380095"
    }
  },
  {
    "service_request": "2024-1113046",
    "request_type": "Property Maintenance",
    "request_reason": "Property Maintenance",
    "date_created": "2024-07-16T16:47:41.000",
    "date_modified": "2024-07-16T16:47:42.000",
    "request_status": "Pending",
    "responsible_agency": "Department of Code Enforcement",
    "final_address": "7922 Lamb Rd",
    "address_councildis": "E",
    "status": "Pending",
    "rowid": "1113046",
    "final_x": "3696580.08362",
    "final_y": "560200.269917",
    "longitude": "-90.0194146479941",
    "latitude": "30.03388939543747",
    "geocoded_column": {
      "latitude": "30.03388939543747",
      "longitude": "-90.0194146479941"
    }
  },
  {
    "service_request": "2024-1113045",
    "request_type": "Trash/Recycling",
    "request_reason": "Request a Large Item Pick Up",
    "date_created": "2024-07-16T16:46:53.000",
    "date_modified": "2024-07-16T16:46:54.000",
    "request_status": "Pending",
    "responsible_agency": "Department of Sanitation",
    "final_address": "4620 Lennox Blvd",
    "address_councildis": "C",
    "status": "Assigned to Contractor",
    "contractor": "Richards Disposal",
    "rowid": "1113045",
    "final_x": "3700852.62589",
    "final_y": "513666.958706",
    "longitude": "-90.00761433269719",
    "latitude": "29.905804222118054",
    "geocoded_column": {
      "latitude": "29.905804222118054",
      "longitude": "-90.00761433269719"
    }
  },
  {
    "service_request": "2024-1113044",
    "request_type": "Parks & Parkways",
    "request_reason": "Request Grass Cutting Service (City Owned Property)",
    "date_created": "2024-07-16T16:40:01.000",
    "date_modified": "2024-07-16T16:40:01.000",
    "request_status": "Pending",
    "responsible_agency": "Department of Parks & Parkway",
    "final_address": "2621 Banks St A",
    "address_councildis": "B",
    "status": "Pending",
    "rowid": "1113044",
    "final_x": "3674944.06638",
    "final_y": "533980.767237",
    "longitude": "-90.08868722317226",
    "latitude": "29.962459393806533",
    "geocoded_column": {
      "latitude": "29.962459393806533",
      "longitude": "-90.08868722317226"
    }
  },
  {
    "service_request": "2024-1113043",
    "request_type": "Traffic Signals/Signs/Striping/Streetlights",
    "request_reason": "Traffic Signal Malfunctioning/Damaged",
    "date_created": "2024-07-16T16:38:47.000",
    "date_modified": "2024-07-16T16:38:48.000",
    "request_status": "Pending",
    "responsible_agency": "Department of Public Works",
    "final_address": "CHEF MENTEUR HWY & READ BLVD",
    "address_councildis": "E",
    "status": "Pending",
    "rowid": "1113043",
    "final_x": "3712879.3",
    "final_y": "554816.48",
    "longitude": "-89.96811038290976",
    "latitude": "30.018562123005566",
    "geocoded_column": {
      "latitude": "30.018562123005566",
      "longitude": "-89.96811038290976"
    }
  },
  {
    "service_request": "2024-1113042",
    "request_type": "Parks & Parkways",
    "request_reason": "Request Tree Service (Right of Way/Public Property)",
    "date_created": "2024-07-16T16:36:11.000",
    "date_modified": "2024-07-16T16:36:12.000",
    "request_status": "Pending",
    "responsible_agency": "Department of Parks & Parkway",
    "final_address": "8417 Freret St",
    "address_councildis": "A",
    "status": "Pending",
    "rowid": "1113042",
    "final_x": "3660599.31072",
    "final_y": "528725.724096",
    "longitude": "-90.13415987916204",
    "latitude": "29.948430365599883",
    "geocoded_column": {
      "latitude": "29.948430365599883",
      "longitude": "-90.13415987916204"
    }
  },
  {
    "service_request": "2024-1113041",
    "request_type": "Trash/Recycling",
    "request_reason": "Request a Large Item Pick Up",
    "date_created": "2024-07-16T16:35:17.000",
    "date_modified": "2024-07-16T16:35:18.000",
    "request_status": "Pending",
    "responsible_agency": "Department of Sanitation",
    "final_address": "7831 Haney Dr",
    "address_councildis": "E",
    "status": "Assigned to Contractor",
    "contractor": "Waste Pro",
    "rowid": "1113041",
    "final_x": "3712200.29483",
    "final_y": "567942.333029",
    "longitude": "-89.96976223638922",
    "latitude": "30.054675199536945",
    "geocoded_column": {
      "latitude": "30.054675199536945",
      "longitude": "-89.96976223638922"
    }
  },
  {
    "service_request": "2024-1113040",
    "request_type": "Trash/Recycling",
    "request_reason": "Request a Large Item Pick Up",
    "date_created": "2024-07-16T16:32:29.000",
    "date_modified": "2024-07-16T16:32:30.000",
    "request_status": "Pending",
    "responsible_agency": "Department of Sanitation",
    "final_address": "658 N Pierce St",
    "address_councildis": "A",
    "status": "Assigned to Contractor",
    "contractor": "IV Waste",
    "rowid": "1113040",
    "final_x": "3672923.39483",
    "final_y": "539782.205066",
    "longitude": "-90.09487022318817",
    "latitude": "29.978471585920897",
    "geocoded_column": {
      "latitude": "29.978471585920897",
      "longitude": "-90.09487022318817"
    }
  },
  {
    "service_request": "2024-1113039",
    "request_type": "Trash/Recycling",
    "request_reason": "Order Trash Cart",
    "date_created": "2024-07-16T16:30:04.000",
    "date_modified": "2024-07-16T16:30:05.000",
    "request_status": "Pending",
    "responsible_agency": "Department of Sanitation",
    "final_address": "8229 Nelson St Apt 104",
    "address_councildis": "A",
    "status": "Assigned to Contractor",
    "contractor": "IV Waste",
    "rowid": "1113039",
    "final_x": "3664756.88077",
    "final_y": "532280.067779",
    "longitude": "-90.120913896783",
    "latitude": "29.958083362096453",
    "geocoded_column": {
      "latitude": "29.958083362096453",
      "longitude": "-90.120913896783"
    }
  },
  {
    "service_request": "2024-1113038",
    "request_type": "Property Maintenance",
    "request_reason": "Property Maintenance",
    "date_created": "2024-07-16T16:20:36.000",
    "date_modified": "2024-07-16T16:20:36.000",
    "request_status": "Pending",
    "responsible_agency": "Department of Code Enforcement",
    "final_address": "8121 Freret St",
    "address_councildis": "A",
    "status": "Pending",
    "rowid": "1113038",
    "final_x": "3661353.5001",
    "final_y": "528039.147391",
    "longitude": "-90.13180130844552",
    "latitude": "29.946520774584897",
    "geocoded_column": {
      "latitude": "29.946520774584897",
      "longitude": "-90.13180130844552"
    }
  },
  {
    "service_request": "2024-1113037",
    "request_type": "Trash/Recycling",
    "request_reason": "Dead Animal Pick Up",
    "date_created": "2024-07-16T16:17:20.000",
    "date_modified": "2024-07-16T16:17:21.000",
    "request_status": "Pending",
    "responsible_agency": "Department of Sanitation",
    "final_address": "4750 Viola St",
    "address_councildis": "E",
    "status": "Assigned to Contractor",
    "contractor": "Waste Pro",
    "rowid": "1113037",
    "final_x": "3703917.9299",
    "final_y": "555247.565081",
    "longitude": "-89.99640894599209",
    "latitude": "30.020037977729757",
    "geocoded_column": {
      "latitude": "30.020037977729757",
      "longitude": "-89.99640894599209"
    }
  },
  {
    "service_request": "2024-1113036",
    "request_type": "Roads/Drainage",
    "request_reason": "Pothole",
    "date_created": "2024-07-16T16:16:22.000",
    "date_modified": "2024-07-16T16:16:22.000",
    "request_status": "Pending",
    "responsible_agency": "Department of Public Works",
    "final_address": "6216 Camp St",
    "address_councildis": "A",
    "status": "Pending",
    "rowid": "1113036",
    "final_x": "3663748.11187",
    "final_y": "519930.497272",
    "longitude": "-90.12451072353035",
    "latitude": "29.92415529590064",
    "geocoded_column": {
      "latitude": "29.92415529590064",
      "longitude": "-90.12451072353035"
    }
  },
  {
    "service_request": "2024-1113035",
    "request_type": "Safety & Permits",
    "request_reason": "Licenses & Permits",
    "date_created": "2024-07-16T16:15:06.000",
    "date_modified": "2024-07-16T16:15:07.000",
    "request_status": "Pending",
    "responsible_agency": "Safety and Permits",
    "final_address": "5508 Magazine St",
    "address_councildis": "A",
    "status": "Pending",
    "rowid": "1113035",
    "final_x": "3666329.3042",
    "final_y": "518779.927863",
    "longitude": "-90.11640134805745",
    "latitude": "29.920916463814887",
    "geocoded_column": {
      "latitude": "29.920916463814887",
      "longitude": "-90.11640134805745"
    }
  },
  {
    "service_request": "2024-1113034",
    "request_type": "Trash/Recycling",
    "request_reason": "Request a Large Item Pick Up",
    "date_created": "2024-07-16T16:09:37.000",
    "date_modified": "2024-07-16T16:09:38.000",
    "request_status": "Pending",
    "responsible_agency": "Department of Sanitation",
    "final_address": "7600 Adventure Ave",
    "address_councildis": "E",
    "status": "Assigned to Contractor",
    "contractor": "Waste Pro",
    "rowid": "1113034",
    "final_x": "3725541.6304",
    "final_y": "570549.477351",
    "longitude": "-89.9274927158791",
    "latitude": "30.061400457185247",
    "geocoded_column": {
      "latitude": "30.061400457185247",
      "longitude": "-89.9274927158791"
    }
  },
  {
    "service_request": "2024-1113033",
    "request_type": "Trash/Recycling",
    "request_reason": "Request a Large Item Pick Up",
    "date_created": "2024-07-16T16:04:16.000",
    "date_modified": "2024-07-16T16:04:17.000",
    "request_status": "Pending",
    "responsible_agency": "Department of Sanitation",
    "final_address": "7661 Jonlee Dr",
    "address_councildis": "E",
    "status": "Assigned to Contractor",
    "contractor": "Waste Pro",
    "rowid": "1113033",
    "final_x": "3716996.91205",
    "final_y": "570808.271143",
    "longitude": "-89.95449235515908",
    "latitude": "30.062397520594082",
    "geocoded_column": {
      "latitude": "30.062397520594082",
      "longitude": "-89.95449235515908"
    }
  },
  {
    "service_request": "2024-1113032",
    "request_type": "Roads/Drainage",
    "request_reason": "Catch Basin - Clogged",
    "date_created": "2024-07-16T16:03:37.000",
    "date_modified": "2024-07-16T16:03:37.000",
    "request_status": "Pending",
    "responsible_agency": "Department of Public Works",
    "final_address": "1437 Allen Toussaint Blvd",
    "address_councildis": "D",
    "status": "Pending",
    "rowid": "1113032",
    "final_x": "3678236.10779",
    "final_y": "555444.131097",
    "longitude": "-90.0775485972214",
    "latitude": "30.021377375126377",
    "geocoded_column": {
      "latitude": "30.021377375126377",
      "longitude": "-90.0775485972214"
    }
  },
  {
    "service_request": "2024-1113031",
    "request_type": "Trash/Recycling",
    "request_reason": "Repair Trash Cart",
    "date_created": "2024-07-16T16:02:44.000",
    "date_modified": "2024-07-16T16:02:45.000",
    "request_status": "Pending",
    "responsible_agency": "Department of Sanitation",
    "final_address": "1437 Allen Toussaint Blvd",
    "address_councildis": "D",
    "status": "Assigned to Contractor",
    "contractor": "IV Waste",
    "rowid": "1113031",
    "final_x": "3678236.10779",
    "final_y": "555444.131097",
    "longitude": "-90.0775485972214",
    "latitude": "30.021377375126377",
    "geocoded_column": {
      "latitude": "30.021377375126377",
      "longitude": "-90.0775485972214"
    }
  },
  {
    "service_request": "2024-1113030",
    "request_type": "Traffic Signals/Signs/Striping/Streetlights",
    "request_reason": "Traffic Sign Missing/Damaged",
    "date_created": "2024-07-16T16:00:34.000",
    "date_modified": "2024-07-16T16:00:35.000",
    "request_status": "Pending",
    "responsible_agency": "Department of Public Works",
    "final_address": "TCHOUPITOULAS ST & HENDERSTON ST",
    "address_councildis": "B",
    "status": "Pending",
    "rowid": "1113030",
    "final_x": "3682142.76",
    "final_y": "524105.36",
    "longitude": "-90.06629960944835",
    "latitude": "29.935088380982346",
    "geocoded_column": {
      "latitude": "29.935088380982346",
      "longitude": "-90.06629960944835"
    }
  },
  {
    "service_request": "2024-1113029",
    "request_type": "Trash/Recycling",
    "request_reason": "Request a Large Item Pick Up",
    "date_created": "2024-07-16T15:59:36.000",
    "date_modified": "2024-07-16T15:59:37.000",
    "request_status": "Pending",
    "responsible_agency": "Department of Sanitation",
    "final_address": "8 Christopher Ct",
    "address_councildis": "E",
    "status": "Assigned to Contractor",
    "contractor": "Waste Pro",
    "rowid": "1113029",
    "final_x": "3716514.12428",
    "final_y": "570390.273319",
    "longitude": "-89.9560343237798",
    "latitude": "30.0612641654228",
    "geocoded_column": {
      "latitude": "30.0612641654228",
      "longitude": "-89.9560343237798"
    }
  },
  {
    "service_request": "2024-1113028",
    "request_type": "Traffic Signals/Signs/Striping/Streetlights",
    "request_reason": "Street Light Outage/Malfunction",
    "date_created": "2024-07-16T15:59:34.000",
    "date_modified": "2024-07-16T15:59:35.000",
    "request_status": "Pending",
    "responsible_agency": "Department of Public Works",
    "final_address": "7919 Marquis St",
    "address_councildis": "E",
    "status": "Assigned to Contractor",
    "contractor": "Legacy Professional Services",
    "rowid": "1113028",
    "final_x": "3710662.31121",
    "final_y": "567200.79946",
    "longitude": "-89.9746512097746",
    "latitude": "30.052686517847278",
    "geocoded_column": {
      "latitude": "30.052686517847278",
      "longitude": "-89.9746512097746"
    }
  },
  {
    "service_request": "2024-1113027",
    "request_type": "Traffic Signals/Signs/Striping/Streetlights",
    "request_reason": "Street Light Outage/Malfunction",
    "date_created": "2024-07-16T15:58:37.000",
    "date_modified": "2024-07-16T15:58:38.000",
    "request_status": "Pending",
    "responsible_agency": "Department of Public Works",
    "final_address": "7933 Marquis St",
    "address_councildis": "E",
    "status": "Assigned to Contractor",
    "contractor": "Legacy Professional Services",
    "rowid": "1113027",
    "final_x": "3710609.30392",
    "final_y": "567290.478244",
    "longitude": "-89.9748153886318",
    "latitude": "30.05293482624531",
    "geocoded_column": {
      "latitude": "30.05293482624531",
      "longitude": "-89.9748153886318"
    }
  },
  {
    "service_request": "2024-1113026",
    "request_type": "Traffic Signals/Signs/Striping/Streetlights",
    "request_reason": "Street Light Outage/Malfunction",
    "date_created": "2024-07-16T15:57:49.000",
    "date_modified": "2024-07-16T15:57:49.000",
    "request_status": "Pending",
    "responsible_agency": "Department of Public Works",
    "final_address": "11300 Hayne Blvd",
    "address_councildis": "E",
    "status": "Assigned to Contractor",
    "contractor": "Legacy Professional Services",
    "rowid": "1113026",
    "final_x": "3710445.70296",
    "final_y": "567586.383908",
    "longitude": "-89.97532139680018",
    "latitude": "30.053753779072142",
    "geocoded_column": {
      "latitude": "30.053753779072142",
      "longitude": "-89.97532139680018"
    }
  },
  {
    "service_request": "2024-1113025",
    "request_type": "Traffic Signals/Signs/Striping/Streetlights",
    "request_reason": "Street Light Outage/Malfunction",
    "date_created": "2024-07-16T15:54:32.000",
    "date_modified": "2024-07-16T15:54:33.000",
    "request_status": "Pending",
    "responsible_agency": "Department of Public Works",
    "final_address": "11300 Hayne Blvd",
    "address_councildis": "E",
    "status": "Assigned to Contractor",
    "contractor": "Legacy Professional Services",
    "rowid": "1113025",
    "final_x": "3710445.70296",
    "final_y": "567586.383908",
    "longitude": "-89.97532139680018",
    "latitude": "30.053753779072142",
    "geocoded_column": {
      "latitude": "30.053753779072142",
      "longitude": "-89.97532139680018"
    }
  },
  {
    "service_request": "2024-1113024",
    "request_type": "Trash/Recycling",
    "request_reason": "Request a Large Item Pick Up",
    "date_created": "2024-07-16T15:53:30.000",
    "date_modified": "2024-07-16T15:53:31.000",
    "request_status": "Pending",
    "responsible_agency": "Department of Sanitation",
    "final_address": "6 Pointe Coupee Pl",
    "address_councildis": "E",
    "status": "Assigned to Contractor",
    "contractor": "Waste Pro",
    "rowid": "1113024",
    "final_x": "3725318.82905",
    "final_y": "564396.639457",
    "longitude": "-89.92843544049664",
    "latitude": "30.044490246491318",
    "geocoded_column": {
      "latitude": "30.044490246491318",
      "longitude": "-89.92843544049664"
    }
  },
  {
    "service_request": "2024-1113023",
    "request_type": "Trash/Recycling",
    "request_reason": "Request a Large Item Pick Up",
    "date_created": "2024-07-16T15:52:01.000",
    "date_modified": "2024-07-16T15:52:02.000",
    "request_status": "Pending",
    "responsible_agency": "Department of Sanitation",
    "final_address": "12990 N Lake Carmel Dr",
    "address_councildis": "E",
    "status": "Assigned to Contractor",
    "contractor": "Waste Pro",
    "rowid": "1113023",
    "final_x": "3716566.7148",
    "final_y": "568639.318821",
    "longitude": "-89.9559346198289",
    "latitude": "30.056448027004883",
    "geocoded_column": {
      "latitude": "30.056448027004883",
      "longitude": "-89.9559346198289"
    }
  },
  {
    "service_request": "2024-1113022",
    "request_type": "Roads/Drainage",
    "request_reason": "Catch Basin - Clogged",
    "date_created": "2024-07-16T15:46:40.000",
    "date_modified": "2024-07-16T15:47:24.000",
    "request_status": "Pending",
    "responsible_agency": "Department of Public Works",
    "final_address": "1360 Mendez St",
    "address_councildis": "D",
    "status": "Pending",
    "rowid": "1113022",
    "final_x": "3677502.50856",
    "final_y": "552903.489879",
    "longitude": "-90.07995438232764",
    "latitude": "30.014413616091797",
    "geocoded_column": {
      "latitude": "30.014413616091797",
      "longitude": "-90.07995438232764"
    }
  },
  {
    "service_request": "2024-1113021",
    "request_type": "Property Maintenance",
    "request_reason": "Property Maintenance",
    "date_created": "2024-07-16T15:45:00.000",
    "date_modified": "2024-07-16T15:45:49.000",
    "request_status": "Pending",
    "responsible_agency": "Department of Code Enforcement",
    "final_address": "2553 Valence St",
    "address_councildis": "B",
    "status": "Pending",
    "rowid": "1113021",
    "final_x": "3669445.81703",
    "final_y": "524195.374716",
    "longitude": "-90.10638086107399",
    "latitude": "29.935715836257465",
    "geocoded_column": {
      "latitude": "29.935715836257465",
      "longitude": "-90.10638086107399"
    }
  },
  {
    "service_request": "2024-1113020",
    "request_type": "Trash/Recycling",
    "request_reason": "Request a Large Item Pick Up",
    "date_created": "2024-07-16T15:38:47.000",
    "date_modified": "2024-07-16T16:10:33.000",
    "request_status": "Pending",
    "responsible_agency": "Department of Sanitation",
    "final_address": "7430 Oak St, New Orleans, Louisiana, 70118",
    "address_councildis": "A",
    "status": "Assigned to Contractor",
    "contractor": "IV Waste",
    "rowid": "1113020",
    "final_x": "3663546.32544",
    "final_y": "526887.309502",
    "longitude": "-90.12491609992045",
    "latitude": "29.943290181214167",
    "geocoded_column": {
      "latitude": "29.943290181214167",
      "longitude": "-90.12491609992045"
    }
  },
  {
    "service_request": "2024-1113019",
    "request_type": "Roads/Drainage",
    "request_reason": "Pothole",
    "date_created": "2024-07-16T15:37:31.000",
    "date_modified": "2024-07-16T15:38:02.000",
    "case_close_date": "2024-07-16T10:38:02.000",
    "request_status": "Closed",
    "responsible_agency": "Department of Public Works",
    "final_address": "5500 BLK York St",
    "address_councildis": "A",
    "status": "Resolved",
    "rowid": "1113019",
    "final_x": "3668438.7369",
    "final_y": "528721.589654",
    "longitude": "-90.1094076063712",
    "latitude": "29.94819107754139",
    "geocoded_column": {
      "latitude": "29.94819107754139",
      "longitude": "-90.1094076063712"
    }
  },
  {
    "service_request": "2024-1113018",
    "request_type": "Roads/Drainage",
    "request_reason": "Street Flooding / Drainage",
    "date_created": "2024-07-16T15:34:37.000",
    "date_modified": "2024-07-16T15:34:37.000",
    "request_status": "Pending",
    "responsible_agency": "Department of Public Works",
    "final_address": "427 Millaudon St",
    "address_councildis": "A",
    "status": "Pending",
    "rowid": "1113018",
    "final_x": "3662052.33485",
    "final_y": "524731.582652",
    "longitude": "-90.12970452575424",
    "latitude": "29.937405855579375",
    "geocoded_column": {
      "latitude": "29.937405855579375",
      "longitude": "-90.12970452575424"
    }
  },
  {
    "service_request": "2024-1113017",
    "request_type": "Roads/Drainage",
    "request_reason": "Street Flooding / Drainage",
    "date_created": "2024-07-16T15:33:14.000",
    "date_modified": "2024-07-16T15:33:14.000",
    "request_status": "Pending",
    "responsible_agency": "Department of Public Works",
    "final_address": "427 Millaudon St",
    "address_councildis": "A",
    "status": "Pending",
    "rowid": "1113017",
    "final_x": "3662052.33485",
    "final_y": "524731.582652",
    "longitude": "-90.12970452575424",
    "latitude": "29.937405855579375",
    "geocoded_column": {
      "latitude": "29.937405855579375",
      "longitude": "-90.12970452575424"
    }
  },
  {
    "service_request": "2024-1113016",
    "request_type": "Trash/Recycling",
    "request_reason": "Request a Large Item Pick Up",
    "date_created": "2024-07-16T15:32:25.000",
    "date_modified": "2024-07-16T15:32:26.000",
    "request_status": "Pending",
    "responsible_agency": "Department of Sanitation",
    "final_address": "11308 King Richard Dr",
    "address_councildis": "E",
    "status": "Assigned to Contractor",
    "contractor": "Waste Pro",
    "rowid": "1113016",
    "final_x": "3717314.2334",
    "final_y": "556428.16009",
    "longitude": "-89.95403647609145",
    "latitude": "30.02284756597243",
    "geocoded_column": {
      "latitude": "30.02284756597243",
      "longitude": "-89.95403647609145"
    }
  },
  {
    "service_request": "2024-1113015",
    "request_type": "Trash/Recycling",
    "request_reason": "Illegal Dumping",
    "date_created": "2024-07-16T15:31:37.000",
    "date_modified": "2024-07-16T15:31:38.000",
    "request_status": "Pending",
    "responsible_agency": "Department of Sanitation",
    "final_address": "1 Earhart Blvd",
    "address_councildis": "B",
    "status": "Pending",
    "rowid": "1113015",
    "final_x": "3669172.05185",
    "final_y": "532017.478019",
    "longitude": "-90.10698084754388",
    "latitude": "29.957232131761604",
    "geocoded_column": {
      "latitude": "29.957232131761604",
      "longitude": "-90.10698084754388"
    }
  },
  {
    "service_request": "2024-1113014",
    "request_type": "Trash/Recycling",
    "request_reason": "Request a Large Item Pick Up",
    "date_created": "2024-07-16T15:23:37.000",
    "date_modified": "2024-07-16T15:23:38.000",
    "request_status": "Pending",
    "responsible_agency": "Department of Sanitation",
    "final_address": "7320 Crestmont Rd",
    "address_councildis": "E",
    "status": "Assigned to Contractor",
    "contractor": "Waste Pro",
    "rowid": "1113014",
    "final_x": "3699917.91856",
    "final_y": "559400.419549",
    "longitude": "-90.00889596503265",
    "latitude": "30.03158445357107",
    "geocoded_column": {
      "latitude": "30.03158445357107",
      "longitude": "-90.00889596503265"
    }
  },
  {
    "service_request": "2024-1113013",
    "request_type": "Trash/Recycling",
    "request_reason": "Request a Large Item Pick Up",
    "date_created": "2024-07-16T15:23:18.000",
    "date_modified": "2024-07-16T15:23:19.000",
    "request_status": "Pending",
    "responsible_agency": "Department of Sanitation",
    "final_address": "1137 Lizardi St",
    "address_councildis": "E",
    "status": "Assigned to Contractor",
    "contractor": "Waste Pro",
    "rowid": "1113013",
    "final_x": "3696683.23587",
    "final_y": "534399.299525",
    "longitude": "-90.02002318252026",
    "latitude": "29.962943005973607",
    "geocoded_column": {
      "latitude": "29.962943005973607",
      "longitude": "-90.02002318252026"
    }
  },
  {
    "service_request": "2024-1113012",
    "request_type": "Trash/Recycling",
    "request_reason": "Request a Large Item Pick Up",
    "date_created": "2024-07-16T15:22:16.000",
    "date_modified": "2024-07-16T15:22:17.000",
    "request_status": "Pending",
    "responsible_agency": "Department of Sanitation",
    "final_address": "9211 Dwyer Rd",
    "address_councildis": "E",
    "status": "Assigned to Contractor",
    "contractor": "Waste Pro",
    "rowid": "1113012",
    "final_x": "3708704.47044",
    "final_y": "557146.028955",
    "longitude": "-89.98121434939222",
    "latitude": "30.025103583869438",
    "geocoded_column": {
      "latitude": "30.025103583869438",
      "longitude": "-89.98121434939222"
    }
  },
  {
    "service_request": "2024-1113011",
    "request_type": "Trash/Recycling",
    "request_reason": "Repair Trash Cart",
    "date_created": "2024-07-16T15:20:51.000",
    "date_modified": "2024-07-16T15:20:52.000",
    "request_status": "Pending",
    "responsible_agency": "Department of Sanitation",
    "final_address": "6429 Milne Blvd",
    "address_councildis": "A",
    "status": "Assigned to Contractor",
    "contractor": "IV Waste",
    "rowid": "1113011",
    "final_x": "3667440.04717",
    "final_y": "550426.463956",
    "longitude": "-90.11183032377073",
    "latitude": "30.007901472307765",
    "geocoded_column": {
      "latitude": "30.007901472307765",
      "longitude": "-90.11183032377073"
    }
  },
  {
    "service_request": "2024-1113010",
    "request_type": "Trash/Recycling",
    "request_reason": "Order Trash Cart",
    "date_created": "2024-07-16T15:19:03.000",
    "date_modified": "2024-07-16T15:19:04.000",
    "request_status": "Pending",
    "responsible_agency": "Department of Sanitation",
    "final_address": "13240 St Helena Pl",
    "address_councildis": "E",
    "status": "Assigned to Contractor",
    "contractor": "Waste Pro",
    "rowid": "1113010",
    "final_x": "3727003.80147",
    "final_y": "564367.135329",
    "longitude": "-89.92311138478345",
    "latitude": "30.044352210011308",
    "geocoded_column": {
      "latitude": "30.044352210011308",
      "longitude": "-89.92311138478345"
    }
  },
  {
    "service_request": "2024-1113009",
    "request_type": "Trash/Recycling",
    "request_reason": "Request a Large Item Pick Up",
    "date_created": "2024-07-16T15:18:20.000",
    "date_modified": "2024-07-16T15:18:22.000",
    "request_status": "Pending",
    "responsible_agency": "Department of Sanitation",
    "final_address": "6596 Harbourview Dr",
    "address_councildis": "E",
    "status": "Assigned to Contractor",
    "contractor": "Waste Pro",
    "rowid": "1113009",
    "final_x": "3699030.96906",
    "final_y": "555929.084633",
    "longitude": "-90.01182526494887",
    "latitude": "30.022067773265775",
    "geocoded_column": {
      "latitude": "30.022067773265775",
      "longitude": "-90.01182526494887"
    }
  },
  {
    "service_request": "2024-1113008",
    "request_type": "Trash/Recycling",
    "request_reason": "Order Trash Cart",
    "date_created": "2024-07-16T15:17:25.000",
    "date_modified": "2024-07-16T15:17:25.000",
    "request_status": "Pending",
    "responsible_agency": "Department of Sanitation",
    "final_address": "6596 Harbourview Dr",
    "address_councildis": "E",
    "status": "Assigned to Contractor",
    "contractor": "Waste Pro",
    "rowid": "1113008",
    "final_x": "3699030.96906",
    "final_y": "555929.084633",
    "longitude": "-90.01182526494887",
    "latitude": "30.022067773265775",
    "geocoded_column": {
      "latitude": "30.022067773265775",
      "longitude": "-90.01182526494887"
    }
  },
  {
    "service_request": "2024-1113007",
    "request_type": "Roads/Drainage",
    "request_reason": "Pothole",
    "date_created": "2024-07-16T15:17:11.000",
    "date_modified": "2024-07-16T15:17:11.000",
    "request_status": "Pending",
    "responsible_agency": "Department of Public Works",
    "final_address": "1312 Milan St",
    "address_councildis": "B",
    "status": "Pending",
    "rowid": "1113007",
    "final_x": "3671625.82823",
    "final_y": "520286.919608",
    "longitude": "-90.09963137110304",
    "latitude": "29.92490447494246",
    "geocoded_column": {
      "latitude": "29.92490447494246",
      "longitude": "-90.09963137110304"
    }
  },
  {
    "service_request": "2024-1113006",
    "request_type": "Roads/Drainage",
    "request_reason": "Pothole",
    "date_created": "2024-07-16T15:16:36.000",
    "date_modified": "2024-07-16T15:16:36.000",
    "request_status": "Pending",
    "responsible_agency": "Department of Public Works",
    "final_address": "1112 Constantinople St",
    "address_councildis": "B",
    "status": "Pending",
    "rowid": "1113006",
    "final_x": "3672348.95259",
    "final_y": "519796.384952",
    "longitude": "-90.09736540233975",
    "latitude": "29.923534233550217",
    "geocoded_column": {
      "latitude": "29.923534233550217",
      "longitude": "-90.09736540233975"
    }
  },
  {
    "service_request": "2024-1113005",
    "request_type": "Roads/Drainage",
    "request_reason": "Catch Basin - Clogged",
    "date_created": "2024-07-16T15:15:18.000",
    "date_modified": "2024-07-16T15:15:19.000",
    "request_status": "Pending",
    "responsible_agency": "Department of Public Works",
    "final_address": "704 N Claiborne Ave",
    "address_councildis": "C",
    "status": "Pending",
    "rowid": "1113005",
    "final_x": "3679855.98338",
    "final_y": "534548.098565",
    "longitude": "-90.07315637551983",
    "latitude": "29.96387174020195",
    "geocoded_column": {
      "latitude": "29.96387174020195",
      "longitude": "-90.07315637551983"
    }
  },
  {
    "service_request": "2024-1113004",
    "request_type": "Taxi Issues",
    "request_reason": "Taxi Complaint",
    "date_created": "2024-07-16T15:12:23.000",
    "date_modified": "2024-07-16T15:12:24.000",
    "request_status": "Pending",
    "responsible_agency": "Ground Transportation Bureau",
    "final_address": "BOURBON ST & CONTI ST",
    "address_councildis": "C",
    "status": "Pending",
    "rowid": "1113004",
    "final_x": "3681602.8",
    "final_y": "531809.98",
    "longitude": "-90.06773560288511",
    "latitude": "29.956289907748616",
    "geocoded_column": {
      "latitude": "29.956289907748616",
      "longitude": "-90.06773560288511"
    }
  },
  {
    "service_request": "2024-1113003",
    "request_type": "Property Maintenance",
    "request_reason": "Property Maintenance",
    "date_created": "2024-07-16T15:10:41.000",
    "date_modified": "2024-07-16T15:10:42.000",
    "request_status": "Pending",
    "responsible_agency": "Department of Code Enforcement",
    "final_address": "1832 Feliciana St",
    "address_councildis": "D",
    "status": "Pending",
    "rowid": "1113003",
    "final_x": "3689420.84412",
    "final_y": "538957.785994",
    "longitude": "-90.04279471039592",
    "latitude": "29.97570412090604",
    "geocoded_column": {
      "latitude": "29.97570412090604",
      "longitude": "-90.04279471039592"
    }
  },
  {
    "service_request": "2024-1113002",
    "request_type": "Traffic Signals/Signs/Striping/Streetlights",
    "request_reason": "Street Light Outage/Malfunction",
    "date_created": "2024-07-16T15:10:08.000",
    "date_modified": "2024-07-16T15:10:09.000",
    "request_status": "Pending",
    "responsible_agency": "Department of Public Works",
    "final_address": "1622 Elizardi Blvd",
    "address_councildis": "C",
    "status": "Assigned to Contractor",
    "contractor": "Legacy Professional Services",
    "rowid": "1113002",
    "final_x": "3694747.57373",
    "final_y": "525181.478397",
    "longitude": "-90.02646772692059",
    "latitude": "29.93765807039192",
    "geocoded_column": {
      "latitude": "29.93765807039192",
      "longitude": "-90.02646772692059"
    }
  },
  {
    "service_request": "2024-1113001",
    "request_type": "Roads/Drainage",
    "request_reason": "Pothole",
    "date_created": "2024-07-16T15:07:27.000",
    "date_modified": "2024-07-16T15:07:27.000",
    "request_status": "Pending",
    "responsible_agency": "Department of Public Works",
    "final_address": "1600 Basin St",
    "address_councildis": "C",
    "status": "Pending",
    "rowid": "1113001",
    "final_x": "3680083.14523",
    "final_y": "534450.042117",
    "longitude": "-90.07244242762194",
    "latitude": "29.963595247014634",
    "geocoded_column": {
      "latitude": "29.963595247014634",
      "longitude": "-90.07244242762194"
    }
  },
  {
    "service_request": "2024-1113000",
    "request_type": "Trash/Recycling",
    "request_reason": "Replace Trash Cart",
    "date_created": "2024-07-16T15:07:26.000",
    "date_modified": "2024-07-16T15:08:33.000",
    "request_status": "Pending",
    "responsible_agency": "Department of Sanitation",
    "final_address": "1111 Teche St",
    "address_councildis": "C",
    "status": "Assigned to Contractor",
    "contractor": "Richards Disposal",
    "rowid": "1113000",
    "final_x": "3686558.18889",
    "final_y": "527421.407487",
    "longitude": "-90.05224311274613",
    "latitude": "29.94407140355857",
    "geocoded_column": {
      "latitude": "29.94407140355857",
      "longitude": "-90.05224311274613"
    }
  },
  {
    "service_request": "2024-1112999",
    "request_type": "Roads/Drainage",
    "request_reason": "Pothole",
    "date_created": "2024-07-16T15:06:02.000",
    "date_modified": "2024-07-16T15:06:02.000",
    "request_status": "Pending",
    "responsible_agency": "Department of Public Works",
    "final_address": "300 BLK N Solomon St",
    "address_councildis": "A",
    "status": "Pending",
    "rowid": "1112999",
    "final_x": "3671184.67695",
    "final_y": "539508.839077",
    "longitude": "-90.10037103603183",
    "latitude": "29.97777148100365",
    "geocoded_column": {
      "latitude": "29.97777148100365",
      "longitude": "-90.10037103603183"
    }
  },
  {
    "service_request": "2024-1112998",
    "request_type": "Trash/Recycling",
    "request_reason": "Request a Large Item Pick Up",
    "date_created": "2024-07-16T15:05:57.000",
    "date_modified": "2024-07-16T15:05:58.000",
    "request_status": "Pending",
    "responsible_agency": "Department of Sanitation",
    "final_address": "4031 Athis Ct",
    "address_councildis": "D",
    "status": "Assigned to Contractor",
    "contractor": "IV Waste",
    "rowid": "1112998",
    "final_x": "3688451.64841",
    "final_y": "554623.349016",
    "longitude": "-90.0452995330909",
    "latitude": "30.01880873123938",
    "geocoded_column": {
      "latitude": "30.01880873123938",
      "longitude": "-90.0452995330909"
    }
  },
  {
    "service_request": "2024-1112997",
    "request_type": "Trash/Recycling",
    "request_reason": "Order Recycling Cart",
    "date_created": "2024-07-16T15:05:36.000",
    "date_modified": "2024-07-16T15:05:37.000",
    "request_status": "Pending",
    "responsible_agency": "Department of Sanitation",
    "final_address": "5351 St Anthony Ave",
    "address_councildis": "D",
    "status": "Pending",
    "rowid": "1112997",
    "final_x": "3682298.3606",
    "final_y": "552880.932887",
    "longitude": "-90.06480266588406",
    "latitude": "30.01420647602664",
    "geocoded_column": {
      "latitude": "30.01420647602664",
      "longitude": "-90.06480266588406"
    }
  },
  {
    "service_request": "2024-1112996",
    "request_type": "Trash/Recycling",
    "request_reason": "Order Trash Cart",
    "date_created": "2024-07-16T15:05:28.000",
    "date_modified": "2024-07-16T15:05:29.000",
    "request_status": "Pending",
    "responsible_agency": "Department of Sanitation",
    "final_address": "5351 St Anthony Ave",
    "address_councildis": "D",
    "status": "Assigned to Contractor",
    "contractor": "IV Waste",
    "rowid": "1112996",
    "final_x": "3682298.3606",
    "final_y": "552880.932887",
    "longitude": "-90.06480266588406",
    "latitude": "30.01420647602664",
    "geocoded_column": {
      "latitude": "30.01420647602664",
      "longitude": "-90.06480266588406"
    }
  },
  {
    "service_request": "2024-1112995",
    "request_type": "Roads/Drainage",
    "request_reason": "Pothole",
    "date_created": "2024-07-16T15:03:48.000",
    "date_modified": "2024-07-16T15:03:48.000",
    "request_status": "Pending",
    "responsible_agency": "Department of Public Works",
    "final_address": "1718 Esplanade Ave",
    "address_councildis": "D",
    "status": "Pending",
    "rowid": "1112995",
    "final_x": "3680832.63919",
    "final_y": "536813.318152",
    "longitude": "-90.0699933220186",
    "latitude": "29.9700707466415",
    "geocoded_column": {
      "latitude": "29.9700707466415",
      "longitude": "-90.0699933220186"
    }
  },
  {
    "service_request": "2024-1112994",
    "request_type": "Roads/Drainage",
    "request_reason": "Pothole",
    "date_created": "2024-07-16T15:02:34.000",
    "date_modified": "2024-07-16T15:02:34.000",
    "request_status": "Pending",
    "responsible_agency": "Department of Public Works",
    "final_address": "3494 Esplanade Ave",
    "address_councildis": "A",
    "status": "Pending",
    "rowid": "1112994",
    "final_x": "3674769.03925",
    "final_y": "541478.8203",
    "longitude": "-90.08898280070932",
    "latitude": "29.983081714956555",
    "geocoded_column": {
      "latitude": "29.983081714956555",
      "longitude": "-90.08898280070932"
    }
  },
  {
    "service_request": "2024-1112993",
    "request_type": "Abandoned Vehicles",
    "request_reason": "Abandoned/Junk Vehicles",
    "date_created": "2024-07-16T15:00:24.000",
    "date_modified": "2024-07-16T15:00:24.000",
    "request_status": "Pending",
    "responsible_agency": "Department of Public Works",
    "final_address": "1722 Napoleon Ave",
    "address_councildis": "B",
    "status": "Pending",
    "rowid": "1112993",
    "final_x": "3670696.21083",
    "final_y": "521439.149369",
    "longitude": "-90.10252680681653",
    "latitude": "29.928100227501655",
    "geocoded_column": {
      "latitude": "29.928100227501655",
      "longitude": "-90.10252680681653"
    }
  },
  {
    "service_request": "2024-1112992",
    "request_type": "Trash/Recycling",
    "request_reason": "Replace Trash Cart",
    "date_created": "2024-07-16T14:58:41.000",
    "date_modified": "2024-07-16T14:58:42.000",
    "request_status": "Pending",
    "responsible_agency": "Department of Sanitation",
    "final_address": "6 Tennyson Pl",
    "address_councildis": "C",
    "status": "Assigned to Contractor",
    "contractor": "Richards Disposal",
    "rowid": "1112992",
    "final_x": "3705002.29771",
    "final_y": "517419.517622",
    "longitude": "-89.99437939716854",
    "latitude": "29.915989805118706",
    "geocoded_column": {
      "latitude": "29.915989805118706",
      "longitude": "-89.99437939716854"
    }
  },
  {
    "service_request": "2024-1112991",
    "request_type": "Roads/Drainage",
    "request_reason": "Pothole",
    "date_created": "2024-07-16T14:58:28.000",
    "date_modified": "2024-07-16T14:58:52.000",
    "case_close_date": "2024-07-16T09:58:52.000",
    "request_status": "Closed",
    "responsible_agency": "Department of Public Works",
    "final_address": "4315 Lotus St",
    "address_councildis": "D",
    "status": "Resolved",
    "rowid": "1112991",
    "final_x": "3687739.85238",
    "final_y": "548594.315667",
    "longitude": "-90.04776227571656",
    "latitude": "30.00225308190391",
    "geocoded_column": {
      "latitude": "30.00225308190391",
      "longitude": "-90.04776227571656"
    }
  },
  {
    "service_request": "2024-1112990",
    "request_type": "Roads/Drainage",
    "request_reason": "Pothole",
    "date_created": "2024-07-16T14:57:22.000",
    "date_modified": "2024-07-16T14:57:49.000",
    "case_close_date": "2024-07-16T09:57:49.000",
    "request_status": "Closed",
    "responsible_agency": "Department of Public Works",
    "final_address": "208 Norland Ave",
    "address_councildis": "C",
    "status": "Resolved",
    "rowid": "1112990",
    "final_x": "3706444.87934",
    "final_y": "520480.647032",
    "longitude": "-89.98971278684647",
    "latitude": "29.92436041686961",
    "geocoded_column": {
      "latitude": "29.92436041686961",
      "longitude": "-89.98971278684647"
    }
  },
  {
    "service_request": "2024-1112989",
    "request_type": "Trash/Recycling",
    "request_reason": "Request a Large Item Pick Up",
    "date_created": "2024-07-16T14:56:49.000",
    "date_modified": "2024-07-16T14:56:49.000",
    "request_status": "Pending",
    "responsible_agency": "Department of Sanitation",
    "final_address": "7227 Zimple St",
    "address_councildis": "A",
    "status": "Assigned to Contractor",
    "contractor": "IV Waste",
    "rowid": "1112989",
    "final_x": "3663786.63335",
    "final_y": "526365.79603",
    "longitude": "-90.12417475879697",
    "latitude": "29.941849215171754",
    "geocoded_column": {
      "latitude": "29.941849215171754",
      "longitude": "-90.12417475879697"
    }
  },
  {
    "service_request": "2024-1112988",
    "request_type": "Trash/Recycling",
    "request_reason": "Request a Large Item Pick Up",
    "date_created": "2024-07-16T14:53:08.000",
    "date_modified": "2024-07-16T14:53:09.000",
    "request_status": "Pending",
    "responsible_agency": "Department of Sanitation",
    "final_address": "4954 Warren Dr",
    "address_councildis": "E",
    "status": "Assigned to Contractor",
    "contractor": "Waste Pro",
    "rowid": "1112988",
    "final_x": "3713273.37861",
    "final_y": "557391.219995",
    "longitude": "-89.96676822799627",
    "latitude": "30.025628726979832",
    "geocoded_column": {
      "latitude": "30.025628726979832",
      "longitude": "-89.96676822799627"
    }
  },
  {
    "service_request": "2024-1112987",
    "request_type": "Trash/Recycling",
    "request_reason": "Repair Trash Cart",
    "date_created": "2024-07-16T14:50:47.000",
    "date_modified": "2024-07-16T14:53:24.000",
    "request_status": "Pending",
    "responsible_agency": "Department of Sanitation",
    "final_address": "10701 Harrow Rd",
    "address_councildis": "E",
    "status": "Assigned to Contractor",
    "contractor": "Waste Pro",
    "rowid": "1112987",
    "final_x": "3711150.9411",
    "final_y": "563538.936544",
    "longitude": "-89.97324418589007",
    "latitude": "30.042601933158046",
    "geocoded_column": {
      "latitude": "30.042601933158046",
      "longitude": "-89.97324418589007"
    }
  },
  {
    "service_request": "2024-1112986",
    "request_type": "Trash/Recycling",
    "request_reason": "Request a Large Item Pick Up",
    "date_created": "2024-07-16T14:50:46.000",
    "date_modified": "2024-07-16T14:50:47.000",
    "request_status": "Pending",
    "responsible_agency": "Department of Sanitation",
    "final_address": "4015 Vincennes Pl",
    "address_councildis": "B",
    "status": "Assigned to Contractor",
    "contractor": "IV Waste",
    "rowid": "1112986",
    "final_x": "3668461.44858",
    "final_y": "530041.528193",
    "longitude": "-90.10929137588087",
    "latitude": "29.951819810809543",
    "geocoded_column": {
      "latitude": "29.951819810809543",
      "longitude": "-90.10929137588087"
    }
  },
  {
    "service_request": "2024-1112984",
    "request_type": "Trash/Recycling",
    "request_reason": "Order Trash Cart",
    "date_created": "2024-07-16T14:48:40.000",
    "date_modified": "2024-07-16T14:48:41.000",
    "request_status": "Pending",
    "responsible_agency": "Department of Sanitation",
    "final_address": "5125 Camp St",
    "address_councildis": "B",
    "status": "Assigned to Contractor",
    "contractor": "IV Waste",
    "rowid": "1112984",
    "final_x": "3668163.269",
    "final_y": "519025.402295",
    "longitude": "-90.11060406598885",
    "latitude": "29.92153775681756",
    "geocoded_column": {
      "latitude": "29.92153775681756",
      "longitude": "-90.11060406598885"
    }
  },
  {
    "service_request": "2024-1112983",
    "request_type": "Trash/Recycling",
    "request_reason": "Order Trash Cart",
    "date_created": "2024-07-16T14:48:07.000",
    "date_modified": "2024-07-16T14:48:08.000",
    "request_status": "Pending",
    "responsible_agency": "Department of Sanitation",
    "final_address": "3833 Frenchmen St",
    "address_councildis": "D",
    "status": "Assigned to Contractor",
    "contractor": "IV Waste",
    "rowid": "1112983",
    "final_x": "3683773.78703",
    "final_y": "546846.597841",
    "longitude": "-90.06035287370858",
    "latitude": "29.997569239994462",
    "geocoded_column": {
      "latitude": "29.997569239994462",
      "longitude": "-90.06035287370858"
    }
  },
  {
    "service_request": "2024-1112982",
    "request_type": "Trash/Recycling",
    "request_reason": "Order Recycling Cart",
    "date_created": "2024-07-16T14:46:25.000",
    "date_modified": "2024-07-16T14:46:26.000",
    "request_status": "Pending",
    "responsible_agency": "Department of Sanitation",
    "final_address": "4214 Loyola Ave",
    "address_councildis": "B",
    "status": "Pending",
    "rowid": "1112982",
    "final_x": "3671262.69697",
    "final_y": "523023.309691",
    "longitude": "-90.1006847372496",
    "latitude": "29.93243941580251",
    "geocoded_column": {
      "latitude": "29.93243941580251",
      "longitude": "-90.1006847372496"
    }
  },
  {
    "service_request": "2024-1112981",
    "request_type": "Trash/Recycling",
    "request_reason": "Order Trash Cart",
    "date_created": "2024-07-16T14:42:51.000",
    "date_modified": "2024-07-16T14:42:51.000",
    "request_status": "Pending",
    "responsible_agency": "Department of Sanitation",
    "final_address": "5125 Camp St",
    "address_councildis": "B",
    "status": "Assigned to Contractor",
    "contractor": "IV Waste",
    "rowid": "1112981",
    "final_x": "3668163.269",
    "final_y": "519025.402295",
    "longitude": "-90.11060406598885",
    "latitude": "29.92153775681756",
    "geocoded_column": {
      "latitude": "29.92153775681756",
      "longitude": "-90.11060406598885"
    }
  },
  {
    "service_request": "2024-1112980",
    "request_type": "Parks & Parkways",
    "request_reason": "Request Tree Service (Right of Way/Public Property)",
    "date_created": "2024-07-16T14:41:37.000",
    "date_modified": "2024-07-16T14:41:37.000",
    "request_status": "Pending",
    "responsible_agency": "Department of Parks & Parkway",
    "final_address": "5130 Perrier St",
    "address_councildis": "B",
    "status": "Pending",
    "rowid": "1112980",
    "final_x": "3668126.78503",
    "final_y": "519868.891",
    "longitude": "-90.11069082050695",
    "latitude": "29.92385815469864",
    "geocoded_column": {
      "latitude": "29.92385815469864",
      "longitude": "-90.11069082050695"
    }
  },
  {
    "service_request": "2024-1112979",
    "request_type": "Trash/Recycling",
    "request_reason": "Request a Large Item Pick Up",
    "date_created": "2024-07-16T14:40:46.000",
    "date_modified": "2024-07-16T14:40:46.000",
    "request_status": "Pending",
    "responsible_agency": "Department of Sanitation",
    "final_address": "1626 Elizardi Blvd",
    "address_councildis": "C",
    "status": "Assigned to Contractor",
    "contractor": "Richards Disposal",
    "rowid": "1112979",
    "final_x": "3694745.54454",
    "final_y": "525128.967805",
    "longitude": "-90.02647602395092",
    "latitude": "29.937513747944134",
    "geocoded_column": {
      "latitude": "29.937513747944134",
      "longitude": "-90.02647602395092"
    }
  },
  {
    "service_request": "2024-1112978",
    "request_type": "Trash/Recycling",
    "request_reason": "Request a Large Item Pick Up",
    "date_created": "2024-07-16T14:39:02.000",
    "date_modified": "2024-07-16T14:39:03.000",
    "request_status": "Pending",
    "responsible_agency": "Department of Sanitation",
    "final_address": "2646 Allen Toussaint Blvd",
    "address_councildis": "D",
    "status": "Assigned to Contractor",
    "contractor": "IV Waste",
    "rowid": "1112978",
    "final_x": "3686839.07932",
    "final_y": "555926.612249",
    "longitude": "-90.05034855913685",
    "latitude": "30.022441966007037",
    "geocoded_column": {
      "latitude": "30.022441966007037",
      "longitude": "-90.05034855913685"
    }
  },
  {
    "service_request": "2024-1112977",
    "request_type": "Trash/Recycling",
    "request_reason": "Replace Trash Cart",
    "date_created": "2024-07-16T14:36:18.000",
    "date_modified": "2024-07-16T14:36:19.000",
    "request_status": "Pending",
    "responsible_agency": "Department of Sanitation",
    "final_address": "2738 Comet St",
    "address_councildis": "C",
    "status": "Assigned to Contractor",
    "contractor": "Richards Disposal",
    "rowid": "1112977",
    "final_x": "3699857.86864",
    "final_y": "520733.918777",
    "longitude": "-90.01049634448523",
    "latitude": "29.925267567459702",
    "geocoded_column": {
      "latitude": "29.925267567459702",
      "longitude": "-90.01049634448523"
    }
  },
  {
    "service_request": "2024-1112976",
    "request_type": "Trash/Recycling",
    "request_reason": "Illegal Dumping",
    "date_created": "2024-07-16T14:35:56.000",
    "date_modified": "2024-07-16T14:35:56.000",
    "request_status": "Pending",
    "responsible_agency": "Department of Sanitation",
    "final_address": "7232 Bunker Hill Rd",
    "address_councildis": "E",
    "status": "Pending",
    "rowid": "1112976",
    "final_x": "3705490.58347",
    "final_y": "561152.946462",
    "longitude": "-89.99122134748191",
    "latitude": "30.036224927261273",
    "geocoded_column": {
      "latitude": "30.036224927261273",
      "longitude": "-89.99122134748191"
    }
  },
  {
    "service_request": "2024-1112975",
    "request_type": "Parks & Parkways",
    "request_reason": "Request Tree Service (Right of Way/Public Property)",
    "date_created": "2024-07-16T14:35:55.000",
    "date_modified": "2024-07-16T14:35:55.000",
    "request_status": "Pending",
    "responsible_agency": "Department of Parks & Parkway",
    "final_address": "3700 Rue Delphine",
    "address_councildis": "C",
    "status": "Pending",
    "rowid": "1112975",
    "final_x": "3703075.93226",
    "final_y": "516947.119413",
    "longitude": "-90.00047705768716",
    "latitude": "29.914752627239714",
    "geocoded_column": {
      "latitude": "29.914752627239714",
      "longitude": "-90.00047705768716"
    }
  },
  {
    "service_request": "2024-1112974",
    "request_type": "Trash/Recycling",
    "request_reason": "Order Trash Cart",
    "date_created": "2024-07-16T14:32:24.000",
    "date_modified": "2024-07-16T14:32:25.000",
    "request_status": "Pending",
    "responsible_agency": "Department of Sanitation",
    "final_address": "2738 Comet St",
    "address_councildis": "C",
    "status": "Assigned to Contractor",
    "contractor": "Richards Disposal",
    "rowid": "1112974",
    "final_x": "3699857.86864",
    "final_y": "520733.918777",
    "longitude": "-90.01049634448523",
    "latitude": "29.925267567459702",
    "geocoded_column": {
      "latitude": "29.925267567459702",
      "longitude": "-90.01049634448523"
    }
  },
  {
    "service_request": "2024-1112973",
    "request_type": "Trash/Recycling",
    "request_reason": "Replace Trash Cart",
    "date_created": "2024-07-16T14:30:20.000",
    "date_modified": "2024-07-16T14:30:21.000",
    "request_status": "Pending",
    "responsible_agency": "Department of Sanitation",
    "final_address": "4735 Bienville Ave",
    "address_councildis": "A",
    "status": "Assigned to Contractor",
    "contractor": "IV Waste",
    "rowid": "1112973",
    "final_x": "3669435.03802",
    "final_y": "540659.837963",
    "longitude": "-90.10585807286333",
    "latitude": "29.98098798922178",
    "geocoded_column": {
      "latitude": "29.98098798922178",
      "longitude": "-90.10585807286333"
    }
  },
  {
    "service_request": "2024-1112972",
    "request_type": "Trash/Recycling",
    "request_reason": "Request a Large Item Pick Up",
    "date_created": "2024-07-16T14:26:11.000",
    "date_modified": "2024-07-16T14:26:12.000",
    "request_status": "Pending",
    "responsible_agency": "Department of Sanitation",
    "final_address": "2048 Treasure St",
    "address_councildis": "D",
    "status": "Assigned to Contractor",
    "contractor": "IV Waste",
    "rowid": "1112972",
    "final_x": "3683377.30709",
    "final_y": "543906.753166",
    "longitude": "-90.06170840453571",
    "latitude": "29.9894978187485",
    "geocoded_column": {
      "latitude": "29.9894978187485",
      "longitude": "-90.06170840453571"
    }
  },
  {
    "service_request": "2024-1112971",
    "request_type": "Trash/Recycling",
    "request_reason": "Order Recycling Cart",
    "date_created": "2024-07-16T14:24:24.000",
    "date_modified": "2024-07-16T14:24:25.000",
    "request_status": "Pending",
    "responsible_agency": "Department of Sanitation",
    "final_address": "135 Westpark Ct",
    "address_councildis": "C",
    "status": "Pending",
    "rowid": "1112971",
    "final_x": "3695799.43178",
    "final_y": "522073.59993",
    "longitude": "-90.02325912969182",
    "latitude": "29.929079441563918",
    "geocoded_column": {
      "latitude": "29.929079441563918",
      "longitude": "-90.02325912969182"
    }
  },
  {
    "service_request": "2024-1112970",
    "request_type": "Traffic Signals/Signs/Striping/Streetlights",
    "request_reason": "Street Light Outage/Malfunction",
    "date_created": "2024-07-16T14:24:12.000",
    "date_modified": "2024-07-16T14:24:13.000",
    "request_status": "Pending",
    "responsible_agency": "Department of Public Works",
    "final_address": "6543 Foch Rd",
    "address_councildis": "D",
    "status": "Assigned to Contractor",
    "contractor": "Legacy Professional Services",
    "rowid": "1112970",
    "final_x": "3697090.53578",
    "final_y": "555336.197849",
    "longitude": "-90.01797801579357",
    "latitude": "30.020498951330264",
    "geocoded_column": {
      "latitude": "30.020498951330264",
      "longitude": "-90.01797801579357"
    }
  },
  {
    "service_request": "2024-1112969",
    "request_type": "Trash/Recycling",
    "request_reason": "Repair Recycling Cart",
    "date_created": "2024-07-16T14:24:05.000",
    "date_modified": "2024-07-16T14:24:06.000",
    "request_status": "Pending",
    "responsible_agency": "Department of Sanitation",
    "final_address": "434 S Clark St",
    "address_councildis": "B",
    "status": "Pending",
    "rowid": "1112969",
    "final_x": "3671967.28955",
    "final_y": "535763.739847",
    "longitude": "-90.09802678880364",
    "latitude": "29.967450544974547",
    "geocoded_column": {
      "latitude": "29.967450544974547",
      "longitude": "-90.09802678880364"
    }
  },
  {
    "service_request": "2024-1112968",
    "request_type": "Trash/Recycling",
    "request_reason": "Repair Trash Cart",
    "date_created": "2024-07-16T14:22:44.000",
    "date_modified": "2024-07-16T14:45:17.000",
    "case_close_date": "2024-07-16T09:45:17.000",
    "request_status": "Closed",
    "responsible_agency": "Department of Sanitation",
    "final_address": "434 S Clark St",
    "address_councildis": "B",
    "status": "Duplicate Request",
    "contractor": "IV Waste",
    "contractor_action": "Duplicate",
    "rowid": "1112968",
    "final_x": "3671967.28955",
    "final_y": "535763.739847",
    "longitude": "-90.09802678880364",
    "latitude": "29.967450544974547",
    "geocoded_column": {
      "latitude": "29.967450544974547",
      "longitude": "-90.09802678880364"
    }
  },
  {
    "service_request": "2024-1112967",
    "request_type": "Trash/Recycling",
    "request_reason": "Repair Trash Cart",
    "date_created": "2024-07-16T14:22:12.000",
    "date_modified": "2024-07-16T14:22:13.000",
    "request_status": "Pending",
    "responsible_agency": "Department of Sanitation",
    "final_address": "434 S Clark St",
    "address_councildis": "B",
    "status": "Assigned to Contractor",
    "contractor": "IV Waste",
    "rowid": "1112967",
    "final_x": "3671967.28955",
    "final_y": "535763.739847",
    "longitude": "-90.09802678880364",
    "latitude": "29.967450544974547",
    "geocoded_column": {
      "latitude": "29.967450544974547",
      "longitude": "-90.09802678880364"
    }
  },
  {
    "service_request": "2024-1112966",
    "request_type": "Trash/Recycling",
    "request_reason": "Order Recycling Cart",
    "date_created": "2024-07-16T14:22:11.000",
    "date_modified": "2024-07-16T14:22:11.000",
    "request_status": "Closed",
    "responsible_agency": "Department of Sanitation",
    "final_address": "135 Westpark Ct",
    "address_councildis": "C",
    "status": "Resolved",
    "rowid": "1112966",
    "final_x": "3695799.43178",
    "final_y": "522073.59993",
    "longitude": "-90.02325912969182",
    "latitude": "29.929079441563918",
    "geocoded_column": {
      "latitude": "29.929079441563918",
      "longitude": "-90.02325912969182"
    }
  },
  {
    "service_request": "2024-1112965",
    "request_type": "Trash/Recycling",
    "request_reason": "Order Recycling Cart",
    "date_created": "2024-07-16T14:21:34.000",
    "date_modified": "2024-07-16T14:21:34.000",
    "request_status": "Pending",
    "responsible_agency": "Department of Sanitation",
    "final_address": "1232 Magazine St",
    "address_councildis": "B",
    "status": "Pending",
    "rowid": "1112965",
    "final_x": "3680624.22971",
    "final_y": "525348.283325",
    "longitude": "-90.07105037231962",
    "latitude": "29.938552091805473",
    "geocoded_column": {
      "latitude": "29.938552091805473",
      "longitude": "-90.07105037231962"
    }
  },
  {
    "service_request": "2024-1112964",
    "request_type": "Trash/Recycling",
    "request_reason": "Request a Large Item Pick Up",
    "date_created": "2024-07-16T14:21:01.000",
    "date_modified": "2024-07-16T14:21:02.000",
    "request_status": "Pending",
    "responsible_agency": "Department of Sanitation",
    "final_address": "8330 Curran Rd",
    "address_councildis": "E",
    "status": "Assigned to Contractor",
    "contractor": "Waste Pro",
    "rowid": "1112964",
    "final_x": "3703174.39582",
    "final_y": "562011.511327",
    "longitude": "-89.99850929324624",
    "latitude": "30.038660035961524",
    "geocoded_column": {
      "latitude": "30.038660035961524",
      "longitude": "-89.99850929324624"
    }
  },
  {
    "service_request": "2024-1112963",
    "request_type": "Trash/Recycling",
    "request_reason": "Request a Large Item Pick Up",
    "date_created": "2024-07-16T14:19:12.000",
    "date_modified": "2024-07-16T14:19:13.000",
    "request_status": "Pending",
    "responsible_agency": "Department of Sanitation",
    "final_address": "615 Tricou St",
    "address_councildis": "E",
    "status": "Assigned to Contractor",
    "contractor": "Waste Pro",
    "rowid": "1112963",
    "final_x": "3699509.21975",
    "final_y": "531413.538627",
    "longitude": "-90.01120792538072",
    "latitude": "29.954643861382557",
    "geocoded_column": {
      "latitude": "29.954643861382557",
      "longitude": "-90.01120792538072"
    }
  },
  {
    "service_request": "2024-1112962",
    "request_type": "Trash/Recycling",
    "request_reason": "Illegal Dumping",
    "date_created": "2024-07-16T14:16:44.000",
    "date_modified": "2024-07-16T14:16:45.000",
    "request_status": "Pending",
    "responsible_agency": "Department of Sanitation",
    "final_address": "2100 BLK Soniat St",
    "address_councildis": "B",
    "status": "Pending",
    "rowid": "1112962",
    "final_x": "3668496.61015",
    "final_y": "523395.051095",
    "longitude": "-90.1094045184711",
    "latitude": "29.933543116396454",
    "geocoded_column": {
      "latitude": "29.933543116396454",
      "longitude": "-90.1094045184711"
    }
  },
  {
    "service_request": "2024-1112961",
    "request_type": "Trash/Recycling",
    "request_reason": "Illegal Dumping",
    "date_created": "2024-07-16T14:15:59.000",
    "date_modified": "2024-07-16T14:16:00.000",
    "request_status": "Pending",
    "responsible_agency": "Department of Sanitation",
    "final_address": "2549 N Tonti St",
    "address_councildis": "D",
    "status": "Pending",
    "rowid": "1112961",
    "final_x": "3686923.25679",
    "final_y": "540939.446539",
    "longitude": "-90.05061270769134",
    "latitude": "29.98123009943322",
    "geocoded_column": {
      "latitude": "29.98123009943322",
      "longitude": "-90.05061270769134"
    }
  },
  {
    "service_request": "2024-1112960",
    "request_type": "Trash/Recycling",
    "request_reason": "Order Trash Cart",
    "date_created": "2024-07-16T14:14:52.000",
    "date_modified": "2024-07-16T14:14:53.000",
    "request_status": "Pending",
    "responsible_agency": "Department of Sanitation",
    "final_address": "3116 Spain St",
    "address_councildis": "D",
    "status": "Assigned to Contractor",
    "contractor": "IV Waste",
    "rowid": "1112960",
    "final_x": "3685449.18153",
    "final_y": "544279.961295",
    "longitude": "-90.05515080365096",
    "latitude": "29.99046062246766",
    "geocoded_column": {
      "latitude": "29.99046062246766",
      "longitude": "-90.05515080365096"
    }
  },
  {
    "service_request": "2024-1112959",
    "request_type": "Trash/Recycling",
    "request_reason": "Request a Large Item Pick Up",
    "date_created": "2024-07-16T14:13:55.000",
    "date_modified": "2024-07-16T14:13:56.000",
    "request_status": "Pending",
    "responsible_agency": "Department of Sanitation",
    "final_address": "2559 N Tonti St",
    "address_councildis": "D",
    "status": "Assigned to Contractor",
    "contractor": "IV Waste",
    "rowid": "1112959",
    "final_x": "3687005.97462",
    "final_y": "540946.090891",
    "longitude": "-90.0503512128461",
    "latitude": "29.98124582263733",
    "geocoded_column": {
      "latitude": "29.98124582263733",
      "longitude": "-90.0503512128461"
    }
  },
  {
    "service_request": "2024-1112958",
    "request_type": "Trash/Recycling",
    "request_reason": "Request a Large Item Pick Up",
    "date_created": "2024-07-16T14:12:41.000",
    "date_modified": "2024-07-16T14:12:42.000",
    "request_status": "Pending",
    "responsible_agency": "Department of Sanitation",
    "final_address": "11301 Prentiss Ave",
    "address_councildis": "E",
    "status": "Assigned to Contractor",
    "contractor": "Waste Pro",
    "rowid": "1112958",
    "final_x": "3717039.43122",
    "final_y": "556840.331994",
    "longitude": "-89.95488911059726",
    "latitude": "30.023989967248013",
    "geocoded_column": {
      "latitude": "30.023989967248013",
      "longitude": "-89.95488911059726"
    }
  },
  {
    "service_request": "2024-1112957",
    "request_type": "Property Maintenance",
    "request_reason": "Property Maintenance",
    "date_created": "2024-07-16T14:11:14.000",
    "date_modified": "2024-07-16T14:11:15.000",
    "request_status": "Pending",
    "responsible_agency": "Department of Code Enforcement",
    "final_address": "1300 BLK Milton St",
    "address_councildis": "D",
    "status": "Pending",
    "rowid": "1112957",
    "final_x": "3677558.60941",
    "final_y": "546083.1527",
    "longitude": "-90.08001283316462",
    "latitude": "29.995658428246674",
    "geocoded_column": {
      "latitude": "29.995658428246674",
      "longitude": "-90.08001283316462"
    }
  },
  {
    "service_request": "2024-1112956",
    "request_type": "Trash/Recycling",
    "request_reason": "Illegal Dumping",
    "date_created": "2024-07-16T14:10:37.000",
    "date_modified": "2024-07-16T14:10:37.000",
    "request_status": "Pending",
    "responsible_agency": "Department of Sanitation",
    "final_address": "7841 Symmes Ave",
    "address_councildis": "E",
    "status": "Pending",
    "rowid": "1112956",
    "final_x": "3707523.60657",
    "final_y": "565305.309794",
    "longitude": "-89.98464219945024",
    "latitude": "30.047576642043303",
    "geocoded_column": {
      "latitude": "30.047576642043303",
      "longitude": "-89.98464219945024"
    }
  },
  {
    "service_request": "2024-1112955",
    "request_type": "Trash/Recycling",
    "request_reason": "Request a Large Item Pick Up",
    "date_created": "2024-07-16T14:10:30.000",
    "date_modified": "2024-07-16T14:10:31.000",
    "request_status": "Pending",
    "responsible_agency": "Department of Sanitation",
    "final_address": "4011 Fairmont Dr",
    "address_councildis": "D",
    "status": "Assigned to Contractor",
    "contractor": "IV Waste",
    "rowid": "1112955",
    "final_x": "3684860.02799",
    "final_y": "546997.532305",
    "longitude": "-90.05691616383346",
    "latitude": "29.997951029056612",
    "geocoded_column": {
      "latitude": "29.997951029056612",
      "longitude": "-90.05691616383346"
    }
  },
  {
    "service_request": "2024-1112954",
    "request_type": "Abandoned Vehicles",
    "request_reason": "Abandoned/Junk Vehicles",
    "date_created": "2024-07-16T14:09:44.000",
    "date_modified": "2024-07-16T14:11:35.000",
    "request_status": "Pending",
    "responsible_agency": "Department of Public Works",
    "final_address": "4521 Martin Luther King, Jr. Blvd",
    "address_councildis": "B",
    "status": "Pending",
    "rowid": "1112954",
    "final_x": "3669950.77825",
    "final_y": "531568.093315",
    "longitude": "-90.10453707793906",
    "latitude": "29.955973532239504",
    "geocoded_column": {
      "latitude": "29.955973532239504",
      "longitude": "-90.10453707793906"
    }
  },
  {
    "service_request": "2024-1112953",
    "request_type": "Abandoned Vehicles",
    "request_reason": "Abandoned/Junk Vehicles",
    "date_created": "2024-07-16T14:09:05.000",
    "date_modified": "2024-07-16T14:09:05.000",
    "request_status": "Pending",
    "responsible_agency": "Department of Public Works",
    "final_address": "4521 Martin Luther King, Jr. Blvd",
    "address_councildis": "B",
    "status": "Pending",
    "rowid": "1112953",
    "final_x": "3669950.77825",
    "final_y": "531568.093315",
    "longitude": "-90.10453707793906",
    "latitude": "29.955973532239504",
    "geocoded_column": {
      "latitude": "29.955973532239504",
      "longitude": "-90.10453707793906"
    }
  },
  {
    "service_request": "2024-1112952",
    "request_type": "Trash/Recycling",
    "request_reason": "Request a Large Item Pick Up",
    "date_created": "2024-07-16T14:04:30.000",
    "date_modified": "2024-07-16T14:04:31.000",
    "request_status": "Pending",
    "responsible_agency": "Department of Sanitation",
    "final_address": "4900 Lonely Oak Dr",
    "address_councildis": "E",
    "status": "Assigned to Contractor",
    "contractor": "Waste Pro",
    "rowid": "1112952",
    "final_x": "3702213.77028",
    "final_y": "555124.694745",
    "longitude": "-90.00179802374822",
    "latitude": "30.01975469358343",
    "geocoded_column": {
      "latitude": "30.01975469358343",
      "longitude": "-90.00179802374822"
    }
  },