[
  {
    "service_request": "2022-859102",
    "request_type": "Traffic Signals/Signs/Striping/Streetlights",
    "request_reason": "Traffic Sign Missing/Damaged",
    "date_created": "2022-02-06T00:58:02.000",
    "date_modified": "2022-02-06T00:58:02.000",
    "request_status": "Pending",
    "responsible_agency": "Department of Public Works",
    "final_address": "NAPOLEON AVE & MAGAZINE ST",
    "address_councildis": "B",
    "status": "Pending",
    "rowid": "859102",
    "final_x": "3671097.2",
    "final_y": "518798.38",
    "longitude": "-90.10135060208529",
    "latitude": "29.920827104580972",
    "geocoded_column": {
      "latitude": "29.920827104580972",
      "longitude": "-90.10135060208529"
    }
  },
  {
    "service_request": "2022-859101",
    "request_type": "Trash/Recycling",
    "request_reason": "Repair Recycling Cart",
    "date_created": "2022-02-06T00:54:33.000",
    "date_modified": "2022-02-06T00:54:33.000",
    "request_status": "Pending",
    "responsible_agency": "Department of Sanitation",
    "final_address": "722 Austerlitz St",
    "address_councildis": "B",
    "status": "Pending",
    "rowid": "859101",
    "final_x": "3672880.05908",
    "final_y": "518405.496566",
    "longitude": "-90.09573631409013",
    "latitude": "29.91969397173766",
    "geocoded_column": {
      "latitude": "29.91969397173766",
      "longitude": "-90.09573631409013"
    }
  },
  {
    "service_request": "2022-859100",
    "request_type": "Traffic Signals/Signs/Striping/Streetlights",
    "request_reason": "Street Light Outage/Malfunction",
    "date_created": "2022-02-06T00:32:46.000",
    "date_modified": "2022-02-06T00:32:47.000",
    "request_status": "Pending",
    "responsible_agency": "Department of Public Works",
    "final_address": "3830 General Taylor St",
    "address_councildis": "B",
    "status": "Pending",
    "contractor": "Royal Engineering",
    "rowid": "859100",
    "final_x": "3670757.65409",
    "final_y": "528855.047936",
    "longitude": "-90.10208129040248",
    "latitude": "29.948489732658352",
    "geocoded_column": {
      "latitude": "29.948489732658352",
      "longitude": "-90.10208129040248"
    }
  },
  {
    "service_request": "2022-859099",
    "request_type": "Trash/Recycling",
    "request_reason": "Request a Large Item Pick Up",
    "date_created": "2022-02-06T00:18:16.000",
    "date_modified": "2022-02-06T00:18:16.000",
    "request_status": "Pending",
    "responsible_agency": "Department of Sanitation",
    "final_address": "1102 Napoleon Ave",
    "address_councildis": "B",
    "status": "Assigned to Contractor",
    "contractor": "Richards Disposal",
    "rowid": "859099",
    "final_x": "3670849.32795",
    "final_y": "519551.032375",
    "longitude": "-90.10210749471138",
    "latitude": "29.922903985104078",
    "geocoded_column": {
      "latitude": "29.922903985104078",
      "longitude": "-90.10210749471138"
    }
  },
  {
    "service_request": "2022-859098",
    "request_type": "Roads/Drainage",
    "request_reason": "Damaged Sidewalk",
    "date_created": "2022-02-05T22:04:31.000",
    "date_modified": "2022-02-05T22:04:31.000",
    "request_status": "Pending",
    "responsible_agency": "Department of Public Works",
    "final_address": "3205 Lafitte Ave",
    "address_councildis": "A",
    "status": "Pending",
    "rowid": "859098",
    "final_x": "3674754.71797",
    "final_y": "537494.713544",
    "longitude": "-90.08916467191563",
    "latitude": "29.972127212231857",
    "geocoded_column": {
      "latitude": "29.972127212231857",
      "longitude": "-90.08916467191563"
    }
  },
  {
    "service_request": "2022-859097",
    "request_type": "Roads/Drainage",
    "request_reason": "Accessibility Ramps, Curbs and Sidewalk Repair",
    "date_created": "2022-02-05T22:00:22.000",
    "date_modified": "2022-02-05T22:00:22.000",
    "request_status": "Pending",
    "responsible_agency": "Department of Public Works",
    "final_address": "3201 Lafitte Ave",
    "address_councildis": "A",
    "status": "Pending",
    "rowid": "859097",
    "final_x": "3674780.96385",
    "final_y": "537476.89428",
    "longitude": "-90.08908239404842",
    "latitude": "29.972077431687246",
    "geocoded_column": {
      "latitude": "29.972077431687246",
      "longitude": "-90.08908239404842"
    }
  },
  {
    "service_request": "2022-859096",
    "request_type": "Roads/Drainage",
    "request_reason": "Road Shoulder Repair",
    "date_created": "2022-02-05T21:57:03.000",
    "date_modified": "2022-02-05T21:57:03.000",
    "request_status": "Pending",
    "responsible_agency": "Department of Public Works",
    "final_address": "3201 Lafitte Ave",
    "address_councildis": "A",
    "status": "Pending",
    "rowid": "859096",
    "final_x": "3674780.96385",
    "final_y": "537476.89428",
    "longitude": "-90.08908239404842",
    "latitude": "29.972077431687246",
    "geocoded_column": {
      "latitude": "29.972077431687246",
      "longitude": "-90.08908239404842"
    }
  },
  {
    "service_request": "2022-859095",
    "request_type": "Health Related Questions",
    "request_reason": "Noise Ordinance Complaint",
    "date_created": "2022-02-05T21:50:45.000",
    "date_modified": "2022-02-05T21:50:45.000",
    "request_status": "Pending",
    "responsible_agency": "Health Department",
    "final_address": "718 Bourbon St, New Orleans, Louisiana, 70116",
    "address_councildis": "C",
    "status": "Pending",
    "rowid": "859095",
    "final_x": "3682364.17781",
    "final_y": "532746.008004",
    "longitude": "-90.06529872053143",
    "latitude": "29.95884052062511",
    "geocoded_column": {
      "latitude": "29.95884052062511",
      "longitude": "-90.06529872053143"
    }
  },
  {
    "service_request": "2022-859094",
    "request_type": "COVID-19",
    "request_reason": "COVID-19 Business Non-Compliance",
    "date_created": "2022-02-05T21:31:11.000",
    "date_modified": "2022-02-05T21:31:12.000",
    "request_status": "Pending",
    "responsible_agency": "Safety and Permits",
    "final_address": "1507 Frenchmen St",
    "address_councildis": "C",
    "status": "Pending",
    "rowid": "859094",
    "final_x": "3684493.60053",
    "final_y": "537823.100105",
    "longitude": "-90.0583961716705",
    "latitude": "29.97273580160939",
    "geocoded_column": {
      "latitude": "29.97273580160939",
      "longitude": "-90.0583961716705"
    }
  },
  {
    "service_request": "2022-859093",
    "request_type": "Traffic Signals/Signs/Striping/Streetlights",
    "request_reason": "Street Light Outage/Malfunction",
    "date_created": "2022-02-05T20:53:56.000",
    "date_modified": "2022-02-05T20:53:56.000",
    "request_status": "Pending",
    "responsible_agency": "Department of Public Works",
    "final_address": "6125 Patton St",
    "address_councildis": "A",
    "status": "Pending",
    "contractor": "Royal Engineering",
    "rowid": "859093",
    "final_x": "3663704.36954",
    "final_y": "518927.199991",
    "longitude": "-90.12468221000961",
    "latitude": "29.92139781066274",
    "geocoded_column": {
      "latitude": "29.92139781066274",
      "longitude": "-90.12468221000961"
    }
  },
  {
    "service_request": "2022-859092",
    "request_type": "Safety & Permits",
    "request_reason": "Licenses & Permits",
    "date_created": "2022-02-05T20:27:58.000",
    "date_modified": "2022-02-05T20:27:58.000",
    "request_status": "Pending",
    "responsible_agency": "Safety and Permits",
    "final_address": "2528 Freret St",
    "address_councildis": "B",
    "status": "Pending",
    "rowid": "859092",
    "final_x": "3674702.13403",
    "final_y": "525631.967165",
    "longitude": "-90.08973734866446",
    "latitude": "29.939510186982613",
    "geocoded_column": {
      "latitude": "29.939510186982613",
      "longitude": "-90.08973734866446"
    }
  },
  {
    "service_request": "2022-859091",
    "request_type": "Traffic Signals/Signs/Striping/Streetlights",
    "request_reason": "Traffic Sign Missing/Damaged",
    "date_created": "2022-02-05T20:22:19.000",
    "date_modified": "2022-02-05T20:22:19.000",
    "request_status": "Pending",
    "responsible_agency": "Department of Public Works",
    "final_address": "11901 Morrison Rd",
    "address_councildis": "E",
    "status": "Pending",
    "rowid": "859091",
    "final_x": "3713659.83231",
    "final_y": "566866.85738",
    "longitude": "-89.96518959633639",
    "latitude": "30.051670242774247",
    "geocoded_column": {
      "latitude": "30.051670242774247",
      "longitude": "-89.96518959633639"
    }
  },
  {
    "service_request": "2022-859090",
    "request_type": "Trash/Recycling",
    "request_reason": "Missed Trash Pick-Up",
    "date_created": "2022-02-05T20:22:13.000",
    "date_modified": "2022-02-05T20:22:14.000",
    "request_status": "Pending",
    "responsible_agency": "Department of Sanitation",
    "final_address": "5810 Chamberlain Dr, New Orleans, Louisiana, 70122",
    "address_councildis": "D",
    "status": "Assigned to Contractor",
    "contractor": "Metro Disposal",
    "rowid": "859090",
    "final_x": "3679258.26786",
    "final_y": "553924.250648",
    "longitude": "-90.074371616807",
    "latitude": "30.01716741409558",
    "geocoded_column": {
      "latitude": "30.01716741409558",
      "longitude": "-90.074371616807"
    }
  },
  {
    "service_request": "2022-859087",
    "request_type": "Traffic Signals/Signs/Striping/Streetlights",
    "request_reason": "Street Light Outage/Malfunction",
    "date_created": "2022-02-05T18:21:25.000",
    "date_modified": "2022-02-05T18:21:26.000",
    "request_status": "Pending",
    "responsible_agency": "Department of Public Works",
    "final_address": "6218 Eads St",
    "address_councildis": "D",
    "status": "Pending",
    "contractor": "Royal Engineering",
    "rowid": "859087",
    "final_x": "3686650.87657",
    "final_y": "556203.329498",
    "longitude": "-90.05093344758514",
    "latitude": "30.023208628660285",
    "geocoded_column": {
      "latitude": "30.023208628660285",
      "longitude": "-90.05093344758514"
    }
  },
  {
    "service_request": "2022-859084",
    "request_type": "Abandoned Vehicles",
    "request_reason": "Abandoned/Junk Vehicles",
    "date_created": "2022-02-05T17:39:39.000",
    "date_modified": "2022-02-05T17:39:39.000",
    "request_status": "Pending",
    "responsible_agency": "Department of Public Works",
    "final_address": "1724 Rousselin Dr",
    "address_councildis": "D",
    "status": "Pending",
    "rowid": "859084",
    "final_x": "3679936.23189",
    "final_y": "540689.614667",
    "longitude": "-90.0726895837578",
    "latitude": "29.980756367673845",
    "geocoded_column": {
      "latitude": "29.980756367673845",
      "longitude": "-90.0726895837578"
    }
  },
  {
    "service_request": "2022-859083",
    "request_type": "Trash/Recycling",
    "request_reason": "Request a Large Item Pick Up",
    "date_created": "2022-02-05T17:27:17.000",
    "date_modified": "2022-02-05T17:27:18.000",
    "request_status": "Pending",
    "responsible_agency": "Department of Sanitation",
    "final_address": "6824 Louis Xiv St",
    "address_councildis": "A",
    "status": "Assigned to Contractor",
    "contractor": "Metro Disposal",
    "rowid": "859083",
    "final_x": "3668493.68922",
    "final_y": "552928.129751",
    "longitude": "-90.10841705341161",
    "latitude": "30.014749248448318",
    "geocoded_column": {
      "latitude": "30.014749248448318",
      "longitude": "-90.10841705341161"
    }
  },
  {
    "service_request": "2022-859082",
    "request_type": "Abandoned Vehicles",
    "request_reason": "Abandoned/Junk Vehicles",
    "date_created": "2022-02-05T17:16:55.000",
    "date_modified": "2022-02-05T17:16:55.000",
    "request_status": "Pending",
    "responsible_agency": "Department of Public Works",
    "final_address": "1420 Elmira Ave",
    "address_councildis": "C",
    "status": "Pending",
    "rowid": "859082",
    "final_x": "3688094.10486",
    "final_y": "526330.075582",
    "longitude": "-90.04743247957893",
    "latitude": "29.94102330474881",
    "geocoded_column": {
      "latitude": "29.94102330474881",
      "longitude": "-90.04743247957893"
    }
  },
  {
    "service_request": "2022-859081",
    "request_type": "Trash/Recycling",
    "request_reason": "Order Recycling Cart",
    "date_created": "2022-02-05T16:41:27.000",
    "date_modified": "2022-02-05T16:41:27.000",
    "request_status": "Pending",
    "responsible_agency": "Department of Sanitation",
    "final_address": "5844 Sylvia Dr",
    "address_councildis": "A",
    "status": "Pending",
    "rowid": "859081",
    "final_x": "3664425.42432",
    "final_y": "546723.553489",
    "longitude": "-90.1214781866089",
    "latitude": "29.99780776352773",
    "geocoded_column": {
      "latitude": "29.99780776352773",
      "longitude": "-90.1214781866089"
    }
  },
  {
    "service_request": "2022-859080",
    "request_type": "Abandoned Vehicles",
    "request_reason": "Abandoned/Junk Vehicles",
    "date_created": "2022-02-05T16:39:11.000",
    "date_modified": "2022-02-05T16:39:11.000",
    "request_status": "Pending",
    "responsible_agency": "Department of Public Works",
    "final_address": "METROPOLITAN ST & CLOVER ST",
    "address_councildis": "D",
    "status": "Pending",
    "rowid": "859080",
    "final_x": "3691583.4",
    "final_y": "546887.88",
    "longitude": "-90.03568114403484",
    "latitude": "29.99744187598206",
    "geocoded_column": {
      "latitude": "29.99744187598206",
      "longitude": "-90.03568114403484"
    }
  },
  {
    "service_request": "2022-859079",
    "request_type": "COVID-19",
    "request_reason": "COVID-19 Business Non-Compliance",
    "date_created": "2022-02-05T16:23:02.000",
    "date_modified": "2022-02-05T16:23:03.000",
    "request_status": "Pending",
    "responsible_agency": "Safety and Permits",
    "final_address": "401 Poydras St",
    "address_councildis": "B",
    "status": "Pending",
    "rowid": "859079",
    "final_x": "3681808.52399",
    "final_y": "529171.636928",
    "longitude": "-90.06717805362322",
    "latitude": "29.94902910721006",
    "geocoded_column": {
      "latitude": "29.94902910721006",
      "longitude": "-90.06717805362322"
    }
  },
  {
    "service_request": "2022-859078",
    "request_type": "Traffic Signals/Signs/Striping/Streetlights",
    "request_reason": "Traffic Signal Malfunctioning/Damaged",
    "date_created": "2022-02-05T16:21:18.000",
    "date_modified": "2022-02-05T16:21:18.000",
    "request_status": "Pending",
    "responsible_agency": "Department of Public Works",
    "final_address": "ELYSIAN FIELDS AVE & GENTILLY BLVD",
    "address_councildis": "D",
    "status": "Pending",
    "rowid": "859078",
    "final_x": "3684059.79",
    "final_y": "547584.11",
    "longitude": "-90.05942349799389",
    "latitude": "29.99958839427118",
    "geocoded_column": {
      "latitude": "29.99958839427118",
      "longitude": "-90.05942349799389"
    }
  },
  {
    "service_request": "2022-859077",
    "request_type": "Trash/Recycling",
    "request_reason": "Repair Trash Cart",
    "date_created": "2022-02-05T16:16:58.000",
    "date_modified": "2022-02-05T16:16:59.000",
    "request_status": "Pending",
    "responsible_agency": "Department of Sanitation",
    "final_address": "2037 Soniat St",
    "address_councildis": "B",
    "status": "Assigned to Contractor",
    "contractor": "Richards Disposal",
    "rowid": "859077",
    "final_x": "3668528.85076",
    "final_y": "523178.183099",
    "longitude": "-90.10931004985449",
    "latitude": "29.9329458518581",
    "geocoded_column": {
      "latitude": "29.9329458518581",
      "longitude": "-90.10931004985449"
    }
  },
  {
    "service_request": "2022-859076",
    "request_type": "Trash/Recycling",
    "request_reason": "Illegal Dumping",
    "date_created": "2022-02-05T16:12:40.000",
    "date_modified": "2022-02-05T16:12:40.000",
    "request_status": "Pending",
    "responsible_agency": "Department of Sanitation",
    "final_address": "2136 First St",
    "address_councildis": "B",
    "status": "Pending",
    "rowid": "859076",
    "final_x": "3675770.18222",
    "final_y": "524935.862909",
    "longitude": "-90.08638928981267",
    "latitude": "29.937564212080613",
    "geocoded_column": {
      "latitude": "29.937564212080613",
      "longitude": "-90.08638928981267"
    }
  },
  {
    "service_request": "2022-859075",
    "request_type": "Abandoned Vehicles",
    "request_reason": "Abandoned/Junk Vehicles",
    "date_created": "2022-02-05T16:04:11.000",
    "date_modified": "2022-02-05T16:04:11.000",
    "request_status": "Pending",
    "responsible_agency": "Department of Public Works",
    "final_address": "BULLARD AVE & BULLARD EXIT & I 10 E ONRAMP",
    "address_councildis": "E",
    "status": "Pending",
    "rowid": "859075",
    "final_x": "3715053.1",
    "final_y": "564701.98",
    "longitude": "-89.96086792252497",
    "latitude": "30.04567189724097",
    "geocoded_column": {
      "latitude": "30.04567189724097",
      "longitude": "-89.96086792252497"
    }
  },
  {
    "service_request": "2022-859074",
    "request_type": "Trash/Recycling",
    "request_reason": "Request a Large Item Pick Up",
    "date_created": "2022-02-05T15:49:02.000",
    "date_modified": "2022-02-05T15:49:03.000",
    "request_status": "Pending",
    "responsible_agency": "Department of Sanitation",
    "final_address": "3101 Cambronne St",
    "address_councildis": "A",
    "status": "Assigned to Contractor",
    "contractor": "Richards Disposal",
    "rowid": "859074",
    "final_x": "3665798.00237",
    "final_y": "534120.450437",
    "longitude": "-90.11756465050563",
    "latitude": "29.96311347864441",
    "geocoded_column": {
      "latitude": "29.96311347864441",
      "longitude": "-90.11756465050563"
    }
  },
  {
    "service_request": "2022-859073",
    "request_type": "Traffic Signals/Signs/Striping/Streetlights",
    "request_reason": "Street Light Outage/Malfunction",
    "date_created": "2022-02-05T15:46:22.000",
    "date_modified": "2022-02-05T15:46:23.000",
    "request_status": "Pending",
    "responsible_agency": "Department of Public Works",
    "final_address": "4734 Redwood St",
    "address_councildis": "E",
    "status": "Pending",
    "contractor": "Royal Engineering",
    "rowid": "859073",
    "final_x": "3712416.85842",
    "final_y": "556110.441306",
    "longitude": "-89.96952285331214",
    "latitude": "30.0221351503776",
    "geocoded_column": {
      "latitude": "30.0221351503776",
      "longitude": "-89.96952285331214"
    }
  },
  {
    "service_request": "2022-859072",
    "request_type": "Traffic Signals/Signs/Striping/Streetlights",
    "request_reason": "Street Light Outage/Malfunction",
    "date_created": "2022-02-05T15:43:14.000",
    "date_modified": "2022-02-05T15:43:15.000",
    "request_status": "Pending",
    "responsible_agency": "Department of Public Works",
    "final_address": "4734 Redwood St",
    "address_councildis": "E",
    "status": "Pending",
    "contractor": "Royal Engineering",
    "rowid": "859072",
    "final_x": "3712416.85842",
    "final_y": "556110.441306",
    "longitude": "-89.96952285331214",
    "latitude": "30.0221351503776",
    "geocoded_column": {
      "latitude": "30.0221351503776",
      "longitude": "-89.96952285331214"
    }
  },
  {
    "service_request": "2022-859071",
    "request_type": "Roads/Drainage",
    "request_reason": "Man hole cover issue",
    "date_created": "2022-02-05T15:28:48.000",
    "date_modified": "2022-02-05T15:28:48.000",
    "request_status": "Pending",
    "responsible_agency": "Department of Public Works",
    "final_address": "OLD GENTILLY RD & LOUISA ST",
    "address_councildis": "D",
    "status": "Pending",
    "rowid": "859071",
    "final_x": "3691562.7",
    "final_y": "549283.78",
    "longitude": "-90.03566081991953",
    "latitude": "30.004030369093243",
    "geocoded_column": {
      "latitude": "30.004030369093243",
      "longitude": "-90.03566081991953"
    }
  },
  {
    "service_request": "2022-859070",
    "request_type": "Trash/Recycling",
    "request_reason": "Replace Trash Cart",
    "date_created": "2022-02-05T15:26:27.000",
    "date_modified": "2022-02-05T15:26:28.000",
    "request_status": "Pending",
    "responsible_agency": "Department of Sanitation",
    "final_address": "5720 Brighton Pl",
    "address_councildis": "C",
    "status": "Assigned to Contractor",
    "contractor": "Richards Disposal",
    "rowid": "859070",
    "final_x": "3704675.31838",
    "final_y": "520340.52556",
    "longitude": "-89.9953038010276",
    "latitude": "29.92403206848023",
    "geocoded_column": {
      "latitude": "29.92403206848023",
      "longitude": "-89.9953038010276"
    }
  },
  {
    "service_request": "2022-859069",
    "request_type": "Trash/Recycling",
    "request_reason": "Illegal Dumping",
    "date_created": "2022-02-05T15:14:42.000",
    "date_modified": "2022-02-05T15:14:42.000",
    "request_status": "Pending",
    "responsible_agency": "Department of Sanitation",
    "final_address": "7914 Lucerne St",
    "address_councildis": "E",
    "status": "Pending",
    "rowid": "859069",
    "final_x": "3710138.76126",
    "final_y": "566837.21322",
    "longitude": "-89.97631959728938",
    "latitude": "30.05170386212734",
    "geocoded_column": {
      "latitude": "30.05170386212734",
      "longitude": "-89.97631959728938"
    }
  },
  {
    "service_request": "2022-859068",
    "request_type": "Roads/Drainage",
    "request_reason": "Pothole",
    "date_created": "2022-02-05T14:57:49.000",
    "date_modified": "2022-02-05T14:57:49.000",
    "request_status": "Pending",
    "responsible_agency": "Department of Public Works",
    "final_address": "1617 Piety St",
    "address_councildis": "D",
    "status": "Pending",
    "rowid": "859068",
    "final_x": "3690394.04899",
    "final_y": "537843.448969",
    "longitude": "-90.03976079934257",
    "latitude": "29.97260991356172",
    "geocoded_column": {
      "latitude": "29.97260991356172",
      "longitude": "-90.03976079934257"
    }
  },
  {
    "service_request": "2022-859067",
    "request_type": "Abandoned Vehicles",
    "request_reason": "Abandoned/Junk Vehicles",
    "date_created": "2022-02-05T14:52:42.000",
    "date_modified": "2022-02-05T14:52:42.000",
    "request_status": "Pending",
    "responsible_agency": "Department of Public Works",
    "final_address": "4TH ST & ROUSSEAU ST",
    "address_councildis": "B",
    "status": "Pending",
    "rowid": "859067",
    "final_x": "3678565.1",
    "final_y": "519126.28",
    "longitude": "-90.07776650597091",
    "latitude": "29.921505830710498",
    "geocoded_column": {
      "latitude": "29.921505830710498",
      "longitude": "-90.07776650597091"
    }
  },
  {
    "service_request": "2022-859066",
    "request_type": "Abandoned Vehicles",
    "request_reason": "Abandoned/Junk Vehicles",
    "date_created": "2022-02-05T14:50:02.000",
    "date_modified": "2022-02-05T14:50:02.000",
    "request_status": "Pending",
    "responsible_agency": "Department of Public Works",
    "final_address": "823 Valmont St",
    "address_councildis": "B",
    "status": "Pending",
    "rowid": "859066",
    "final_x": "3667502.40141",
    "final_y": "518443.39679",
    "longitude": "-90.11270971571602",
    "latitude": "29.91995679944107",
    "geocoded_column": {
      "latitude": "29.91995679944107",
      "longitude": "-90.11270971571602"
    }
  },
  {
    "service_request": "2022-859065",
    "request_type": "Traffic Signals/Signs/Striping/Streetlights",
    "request_reason": "Street Light Outage/Malfunction",
    "date_created": "2022-02-05T14:45:27.000",
    "date_modified": "2022-02-05T14:45:28.000",
    "request_status": "Pending",
    "responsible_agency": "Department of Public Works",
    "final_address": "4032 Athis Ct",
    "address_councildis": "D",
    "status": "Pending",
    "contractor": "Royal Engineering",
    "rowid": "859065",
    "final_x": "3688581.23849",
    "final_y": "554646.060184",
    "longitude": "-90.04488926878895",
    "latitude": "30.018867172452055",
    "geocoded_column": {
      "latitude": "30.018867172452055",
      "longitude": "-90.04488926878895"
    }
  },
  {
    "service_request": "2022-859064",
    "request_type": "Trash/Recycling",
    "request_reason": "Order Trash Cart",
    "date_created": "2022-02-05T14:39:02.000",
    "date_modified": "2022-02-05T14:39:03.000",
    "request_status": "Pending",
    "responsible_agency": "Department of Sanitation",
    "final_address": "2300 Mandeville St",
    "address_councildis": "D",
    "status": "Assigned to Contractor",
    "contractor": "Metro Disposal",
    "rowid": "859064",
    "final_x": "3685382.27477",
    "final_y": "540826.517515",
    "longitude": "-90.05548379766218",
    "latitude": "29.980966927695484",
    "geocoded_column": {
      "latitude": "29.980966927695484",
      "longitude": "-90.05548379766218"
    }
  },
  {
    "service_request": "2022-859063",
    "request_type": "Safety & Permits",
    "request_reason": "Licenses & Permits",
    "date_created": "2022-02-05T14:34:12.000",
    "date_modified": "2022-02-05T14:34:12.000",
    "request_status": "Pending",
    "responsible_agency": "Safety and Permits",
    "status": "Pending",
    "rowid": "859063",
    "longitude": "0.0",
    "latitude": "0.0",
    "geocoded_column": {
      "latitude": "0.0",
      "longitude": "0.0"
    }
  },
  {
    "service_request": "2022-859062",
    "request_type": "Property Maintenance",
    "request_reason": "Property Maintenance",
    "date_created": "2022-02-05T14:33:37.000",
    "date_modified": "2022-02-05T14:33:37.000",
    "request_status": "Pending",
    "responsible_agency": "Department of Code Enforcement",
    "final_address": "2031 Lapeyrouse St",
    "address_councildis": "D",
    "status": "Pending",
    "rowid": "859062",
    "final_x": "3680877.07899",
    "final_y": "538878.006089",
    "longitude": "-90.06978107330599",
    "latitude": "29.975746578083157",
    "geocoded_column": {
      "latitude": "29.975746578083157",
      "longitude": "-90.06978107330599"
    }
  },
  {
    "service_request": "2022-859061",
    "request_type": "Trash/Recycling",
    "request_reason": "Request a Large Item Pick Up",
    "date_created": "2022-02-05T14:04:00.000",
    "date_modified": "2022-02-05T14:04:01.000",
    "request_status": "Pending",
    "responsible_agency": "Department of Sanitation",
    "final_address": "8129 Hickory St",
    "address_councildis": "A",
    "status": "Assigned to Contractor",
    "contractor": "Richards Disposal",
    "rowid": "859061",
    "final_x": "3663231.30515",
    "final_y": "530125.988673",
    "longitude": "-90.12580294499652",
    "latitude": "29.952204639968194",
    "geocoded_column": {
      "latitude": "29.952204639968194",
      "longitude": "-90.12580294499652"
    }
  },
  {
    "service_request": "2022-859060",
    "request_type": "Trash/Recycling",
    "request_reason": "Request a Large Item Pick Up",
    "date_created": "2022-02-05T14:01:38.000",
    "date_modified": "2022-02-05T14:01:39.000",
    "request_status": "Pending",
    "responsible_agency": "Department of Sanitation",
    "final_address": "5925 Freret St",
    "address_councildis": "A",
    "status": "Assigned to Contractor",
    "contractor": "Richards Disposal",
    "rowid": "859060",
    "final_x": "3666648.83028",
    "final_y": "524353.910396",
    "longitude": "-90.11520570013761",
    "latitude": "29.936233814551056",
    "geocoded_column": {
      "latitude": "29.936233814551056",
      "longitude": "-90.11520570013761"
    }
  },
  {
    "service_request": "2022-859059",
    "request_type": "Property Maintenance",
    "request_reason": "Property Maintenance",
    "date_created": "2022-02-05T13:52:53.000",
    "date_modified": "2022-02-05T13:52:53.000",
    "request_status": "Pending",
    "responsible_agency": "Department of Code Enforcement",
    "final_address": "3120 Paris Ave",
    "address_councildis": "D",
    "status": "Pending",
    "rowid": "859059",
    "final_x": "3679690.10178",
    "final_y": "544018.358734",
    "longitude": "-90.07335136127693",
    "latitude": "29.989916694340458",
    "geocoded_column": {
      "latitude": "29.989916694340458",
      "longitude": "-90.07335136127693"
    }
  },
  {
    "service_request": "2022-859058",
    "request_type": "Trash/Recycling",
    "request_reason": "Request a Large Item Pick Up",
    "date_created": "2022-02-05T13:52:36.000",
    "date_modified": "2022-02-05T13:52:36.000",
    "request_status": "Pending",
    "responsible_agency": "Department of Sanitation",
    "final_address": "1220 St Roch Ave",
    "address_councildis": "C",
    "status": "Assigned to Contractor",
    "contractor": "Metro Disposal",
    "rowid": "859058",
    "final_x": "3686364.70953",
    "final_y": "536964.05076",
    "longitude": "-90.05251720147659",
    "latitude": "29.970316337850523",
    "geocoded_column": {
      "latitude": "29.970316337850523",
      "longitude": "-90.05251720147659"
    }
  },
  {
    "service_request": "2022-859057",
    "request_type": "Property Maintenance",
    "request_reason": "Property Maintenance",
    "date_created": "2022-02-05T13:50:11.000",
    "date_modified": "2022-02-05T13:50:11.000",
    "request_status": "Pending",
    "responsible_agency": "Department of Code Enforcement",
    "final_address": "3120 Paris Ave",
    "address_councildis": "D",
    "status": "Pending",
    "rowid": "859057",
    "final_x": "3679690.10178",
    "final_y": "544018.358734",
    "longitude": "-90.07335136127693",
    "latitude": "29.989916694340458",
    "geocoded_column": {
      "latitude": "29.989916694340458",
      "longitude": "-90.07335136127693"
    }
  },
  {
    "service_request": "2022-859056",
    "request_type": "Trash/Recycling",
    "request_reason": "Request a Large Item Pick Up",
    "date_created": "2022-02-05T13:49:10.000",
    "date_modified": "2022-02-05T13:49:10.000",
    "request_status": "Pending",
    "responsible_agency": "Department of Sanitation",
    "final_address": "1220 St Roch Ave",
    "address_councildis": "C",
    "status": "Assigned to Contractor",
    "contractor": "Metro Disposal",
    "rowid": "859056",
    "final_x": "3686364.70953",
    "final_y": "536964.05076",
    "longitude": "-90.05251720147659",
    "latitude": "29.970316337850523",
    "geocoded_column": {
      "latitude": "29.970316337850523",
      "longitude": "-90.05251720147659"
    }
  },
  {
    "service_request": "2022-859055",
    "request_type": "Trash/Recycling",
    "request_reason": "Order Trash Cart",
    "date_created": "2022-02-05T13:44:20.000",
    "date_modified": "2022-02-05T13:44:21.000",
    "request_status": "Pending",
    "responsible_agency": "Department of Sanitation",
    "final_address": "2005 Rev. John Raphael, Jr. Way Apt A",
    "address_councildis": "B",
    "status": "Assigned to Contractor",
    "contractor": "Richards Disposal",
    "rowid": "859055",
    "final_x": "3676168.2932",
    "final_y": "526433.066046",
    "longitude": "-90.08508093092436",
    "latitude": "29.941669109989284",
    "geocoded_column": {
      "latitude": "29.941669109989284",
      "longitude": "-90.08508093092436"
    }
  },
  {
    "service_request": "2022-859054",
    "request_type": "Traffic Signals/Signs/Striping/Streetlights",
    "request_reason": "Street Light Outage/Malfunction",
    "date_created": "2022-02-05T13:44:00.000",
    "date_modified": "2022-02-05T13:44:00.000",
    "request_status": "Pending",
    "responsible_agency": "Department of Public Works",
    "final_address": "7040 Pinebrook Dr",
    "address_councildis": "E",
    "status": "Pending",
    "contractor": "Royal Engineering",
    "rowid": "859054",
    "final_x": "3719515.24729",
    "final_y": "569711.089126",
    "longitude": "-89.94657390819788",
    "latitude": "30.05929716283975",
    "geocoded_column": {
      "latitude": "30.05929716283975",
      "longitude": "-89.94657390819788"
    }
  },
  {
    "service_request": "2022-859053",
    "request_type": "Abandoned Vehicles",
    "request_reason": "Abandoned/Junk Vehicles",
    "date_created": "2022-02-05T13:42:54.000",
    "date_modified": "2022-02-05T13:42:54.000",
    "request_status": "Pending",
    "responsible_agency": "Department of Public Works",
    "final_address": "3800 Virgil Blvd",
    "address_councildis": "D",
    "status": "Pending",
    "rowid": "859053",
    "final_x": "3680558.95957",
    "final_y": "546500.607633",
    "longitude": "-90.0705204640828",
    "latitude": "29.996715702641783",
    "geocoded_column": {
      "latitude": "29.996715702641783",
      "longitude": "-90.0705204640828"
    }
  },
  {
    "service_request": "2022-859052",
    "request_type": "Roads/Drainage",
    "request_reason": "Street Flooding / Drainage",
    "date_created": "2022-02-05T13:34:25.000",
    "date_modified": "2022-02-05T13:34:25.000",
    "request_status": "Pending",
    "responsible_agency": "Department of Public Works",
    "final_address": "6572 General Diaz St, New Orleans, Louisiana, 70124",
    "address_councildis": "A",
    "status": "Pending",
    "rowid": "859052",
    "final_x": "3669824.12212",
    "final_y": "551217.093973",
    "longitude": "-90.10427150458375",
    "latitude": "30.010005329549813",
    "geocoded_column": {
      "latitude": "30.010005329549813",
      "longitude": "-90.10427150458375"
    }
  },
  {
    "service_request": "2022-859051",
    "request_type": "Property Maintenance",
    "request_reason": "Property Maintenance",
    "date_created": "2022-02-05T13:31:57.000",
    "date_modified": "2022-02-05T13:31:57.000",
    "request_status": "Pending",
    "responsible_agency": "Department of Code Enforcement",
    "final_address": "1901 Elysian Fields Ave",
    "address_councildis": "D",
    "status": "Pending",
    "rowid": "859051",
    "final_x": "3684880.52885",
    "final_y": "539303.815562",
    "longitude": "-90.05712209801497",
    "latitude": "29.976795408126044",
    "geocoded_column": {
      "latitude": "29.976795408126044",
      "longitude": "-90.05712209801497"
    }
  },
  {
    "service_request": "2022-859050",
    "request_type": "Abandoned Vehicles",
    "request_reason": "Abandoned/Junk Vehicles",
    "date_created": "2022-02-05T13:28:13.000",
    "date_modified": "2022-02-05T13:28:13.000",
    "request_status": "Pending",
    "responsible_agency": "Department of Public Works",
    "final_address": "532 Webster St",
    "address_councildis": "A",
    "status": "Pending",
    "rowid": "859050",
    "final_x": "3663823.4857",
    "final_y": "518726.607799",
    "longitude": "-90.12431289177701",
    "latitude": "29.920842789318897",
    "geocoded_column": {
      "latitude": "29.920842789318897",
      "longitude": "-90.12431289177701"
    }
  },
  {
    "service_request": "2022-859049",
    "request_type": "Trash/Recycling",
    "request_reason": "Request a Large Item Pick Up",
    "date_created": "2022-02-05T13:22:49.000",
    "date_modified": "2022-02-05T13:22:50.000",
    "request_status": "Pending",
    "responsible_agency": "Department of Sanitation",
    "final_address": "1623 Behrman Ave",
    "address_councildis": "C",
    "status": "Assigned to Contractor",
    "contractor": "Richards Disposal",
    "rowid": "859049",
    "final_x": "3691267.99241",
    "final_y": "525356.370173",
    "longitude": "-90.03744674304217",
    "latitude": "29.93824762687837",
    "geocoded_column": {
      "latitude": "29.93824762687837",
      "longitude": "-90.03744674304217"
    }
  },
  {
    "service_request": "2022-859048",
    "request_type": "Roads/Drainage",
    "request_reason": "Man hole cover issue",
    "date_created": "2022-02-05T13:21:48.000",
    "date_modified": "2022-02-05T13:21:48.000",
    "request_status": "Pending",
    "responsible_agency": "Department of Public Works",
    "final_address": "5600 Patton St",
    "address_councildis": "A",
    "status": "Pending",
    "rowid": "859048",
    "final_x": "3665876.09479",
    "final_y": "518193.170934",
    "longitude": "-90.11785157710464",
    "latitude": "29.919316293251125",
    "geocoded_column": {
      "latitude": "29.919316293251125",
      "longitude": "-90.11785157710464"
    }
  },
  {
    "service_request": "2022-859047",
    "request_type": "Abandoned Vehicles",
    "request_reason": "Vehicle Blocking Your Driveway",
    "date_created": "2022-02-05T13:17:08.000",
    "date_modified": "2022-02-05T13:18:28.000",
    "request_status": "Pending",
    "responsible_agency": "Department of Public Works",
    "final_address": "4535 Francis Dr",
    "address_councildis": "D",
    "status": "Pending",
    "rowid": "859047",
    "final_x": "3698412.27319",
    "final_y": "553282.875991",
    "longitude": "-90.01387645854352",
    "latitude": "30.014811308733346",
    "geocoded_column": {
      "latitude": "30.014811308733346",
      "longitude": "-90.01387645854352"
    }
  },
  {
    "service_request": "2022-859046",
    "request_type": "Trash/Recycling",
    "request_reason": "Order Recycling Cart",
    "date_created": "2022-02-05T13:12:36.000",
    "date_modified": "2022-02-05T13:12:36.000",
    "request_status": "Pending",
    "responsible_agency": "Department of Sanitation",
    "final_address": "6023 Freret St",
    "address_councildis": "A",
    "status": "Pending",
    "rowid": "859046",
    "final_x": "3666246.58292",
    "final_y": "524549.3319",
    "longitude": "-90.11646906030212",
    "latitude": "29.9367829133896",
    "geocoded_column": {
      "latitude": "29.9367829133896",
      "longitude": "-90.11646906030212"
    }
  },
  {
    "service_request": "2022-859045",
    "request_type": "Roads/Drainage",
    "request_reason": "Street Flooding / Drainage",
    "date_created": "2022-02-05T13:01:44.000",
    "date_modified": "2022-02-05T13:01:44.000",
    "request_status": "Pending",
    "responsible_agency": "Department of Public Works",
    "final_address": "6232 Carlisle Ct",
    "address_councildis": "C",
    "status": "Pending",
    "rowid": "859045",
    "final_x": "3707194.20728",
    "final_y": "516543.932469",
    "longitude": "-89.987493396082",
    "latitude": "29.91351163935187",
    "geocoded_column": {
      "latitude": "29.91351163935187",
      "longitude": "-89.987493396082"
    }
  },
  {
    "service_request": "2022-859043",
    "request_type": "Roads/Drainage",
    "request_reason": "Pothole",
    "date_created": "2022-02-05T12:59:01.000",
    "date_modified": "2022-02-05T12:59:01.000",
    "request_status": "Pending",
    "responsible_agency": "Department of Public Works",
    "final_address": "GENERAL DE GAULLE DR & BEHRMAN AVE",
    "address_councildis": "C",
    "status": "Pending",
    "rowid": "859043",
    "final_x": "3691980.1",
    "final_y": "522529.88",
    "longitude": "-90.0352996482907",
    "latitude": "29.930453576198886",
    "geocoded_column": {
      "latitude": "29.930453576198886",
      "longitude": "-90.0352996482907"
    }
  },
  {
    "service_request": "2022-859042",
    "request_type": "Trash/Recycling",
    "request_reason": "Missed Trash Pick-Up",
    "date_created": "2022-02-05T12:57:13.000",
    "date_modified": "2022-02-05T12:57:14.000",
    "request_status": "Pending",
    "responsible_agency": "Department of Sanitation",
    "final_address": "1410 Third St",
    "address_councildis": "B",
    "status": "Assigned to Contractor",
    "contractor": "Richards Disposal",
    "rowid": "859042",
    "final_x": "3676858.08853",
    "final_y": "522138.553466",
    "longitude": "-90.08305105084322",
    "latitude": "29.929839927888427",
    "geocoded_column": {
      "latitude": "29.929839927888427",
      "longitude": "-90.08305105084322"
    }
  },
  {
    "service_request": "2022-859041",
    "request_type": "Traffic Signals/Signs/Striping/Streetlights",
    "request_reason": "Street Light Outage/Malfunction",
    "date_created": "2022-02-05T12:41:18.000",
    "date_modified": "2022-02-05T12:41:18.000",
    "request_status": "Pending",
    "responsible_agency": "Department of Public Works",
    "final_address": "869 Robert E Lee Blvd",
    "address_councildis": "D",
    "status": "Pending",
    "contractor": "Royal Engineering",
    "rowid": "859041",
    "final_x": "3670465.38561",
    "final_y": "554692.200216",
    "longitude": "-90.10212754260152",
    "latitude": "30.019541712298764",
    "geocoded_column": {
      "latitude": "30.019541712298764",
      "longitude": "-90.10212754260152"
    }
  },
  {
    "service_request": "2022-859040",
    "request_type": "Traffic Signals/Signs/Striping/Streetlights",
    "request_reason": "Street Light Outage/Malfunction",
    "date_created": "2022-02-05T12:40:35.000",
    "date_modified": "2022-02-05T12:40:35.000",
    "request_status": "Pending",
    "responsible_agency": "Department of Public Works",
    "final_address": "814 Dauphine St",
    "address_councildis": "C",
    "status": "Pending",
    "contractor": "Royal Engineering",
    "rowid": "859040",
    "final_x": "3682315.00674",
    "final_y": "533300.349956",
    "longitude": "-90.06543462076566",
    "latitude": "29.960366267900095",
    "geocoded_column": {
      "latitude": "29.960366267900095",
      "longitude": "-90.06543462076566"
    }
  },
  {
    "service_request": "2022-859039",
    "request_type": "Trash/Recycling",
    "request_reason": "MIssed Recycling Pick-Up",
    "date_created": "2022-02-05T12:39:47.000",
    "date_modified": "2022-02-05T12:39:48.000",
    "request_status": "Pending",
    "responsible_agency": "Department of Sanitation",
    "final_address": "2421 St Ann St",
    "address_councildis": "D",
    "status": "Assigned to Contractor",
    "contractor": "Richards Disposal",
    "rowid": "859039",
    "final_x": "3677889.76053",
    "final_y": "536557.202439",
    "longitude": "-90.0792960863288",
    "latitude": "29.96945540463584",
    "geocoded_column": {
      "latitude": "29.96945540463584",
      "longitude": "-90.0792960863288"
    }
  },
  {
    "service_request": "2022-859038",
    "request_type": "Trash/Recycling",
    "request_reason": "Missed Trash Pick-Up",
    "date_created": "2022-02-05T12:38:08.000",
    "date_modified": "2022-02-05T12:38:09.000",
    "request_status": "Pending",
    "responsible_agency": "Department of Sanitation",
    "final_address": "8620 Marks St",
    "address_councildis": "A",
    "status": "Assigned to Contractor",
    "contractor": "Richards Disposal",
    "rowid": "859038",
    "final_x": "3667394.43521",
    "final_y": "537297.721608",
    "longitude": "-90.11241637937157",
    "latitude": "29.971803247118014",
    "geocoded_column": {
      "latitude": "29.971803247118014",
      "longitude": "-90.11241637937157"
    }
  },
  {
    "service_request": "2022-859037",
    "request_type": "Trash/Recycling",
    "request_reason": "MIssed Recycling Pick-Up",
    "date_created": "2022-02-05T12:36:18.000",
    "date_modified": "2022-02-05T12:36:19.000",
    "request_status": "Pending",
    "responsible_agency": "Department of Sanitation",
    "final_address": "4036 Vincennes Pl",
    "address_councildis": "B",
    "status": "Assigned to Contractor",
    "contractor": "Richards Disposal",
    "rowid": "859037",
    "final_x": "3668447.2281",
    "final_y": "530448.084866",
    "longitude": "-90.10932256462821",
    "latitude": "29.95293812635065",
    "geocoded_column": {
      "latitude": "29.95293812635065",
      "longitude": "-90.10932256462821"
    }
  },
  {
    "service_request": "2022-859035",
    "request_type": "Roads/Drainage",
    "request_reason": "Street Flooding / Drainage",
    "date_created": "2022-02-05T12:23:41.000",
    "date_modified": "2022-02-05T12:23:41.000",
    "request_status": "Pending",
    "responsible_agency": "Department of Public Works",
    "final_address": "5500 Feliciana Dr, New Orleans, Louisiana, 70126",
    "address_councildis": "D",
    "status": "Pending",
    "rowid": "859035",
    "final_x": "3689881.18544",
    "final_y": "553534.697559",
    "longitude": "-90.04082151956499",
    "latitude": "30.015771081791055",
    "geocoded_column": {
      "latitude": "30.015771081791055",
      "longitude": "-90.04082151956499"
    }
  },
  {
    "service_request": "2022-859034",
    "request_type": "Trash/Recycling",
    "request_reason": "Request a Large Item Pick Up",
    "date_created": "2022-02-05T12:15:43.000",
    "date_modified": "2022-02-05T12:15:43.000",
    "request_status": "Pending",
    "responsible_agency": "Department of Sanitation",
    "final_address": "2107 Law St",
    "address_councildis": "D",
    "status": "Assigned to Contractor",
    "contractor": "Metro Disposal",
    "rowid": "859034",
    "final_x": "3683521.90037",
    "final_y": "541775.711884",
    "longitude": "-90.0613264012952",
    "latitude": "29.983633794635004",
    "geocoded_column": {
      "latitude": "29.983633794635004",
      "longitude": "-90.0613264012952"
    }
  },
  {
    "service_request": "2022-859033",
    "request_type": "Traffic Signals/Signs/Striping/Streetlights",
    "request_reason": "Street Light Outage/Malfunction",
    "date_created": "2022-02-05T12:14:34.000",
    "date_modified": "2022-02-05T12:15:02.000",
    "request_status": "Pending",
    "responsible_agency": "Department of Public Works",
    "final_address": "3521 Clematis St",
    "address_councildis": "D",
    "status": "Pending",
    "contractor": "Royal Engineering",
    "rowid": "859033",
    "final_x": "3686538.47887",
    "final_y": "545891.429136",
    "longitude": "-90.05165306046976",
    "latitude": "29.994858125717393",
    "geocoded_column": {
      "latitude": "29.994858125717393",
      "longitude": "-90.05165306046976"
    }
  },
  {
    "service_request": "2022-859032",
    "request_type": "Traffic Signals/Signs/Striping/Streetlights",
    "request_reason": "Traffic Signal Malfunctioning/Damaged",
    "date_created": "2022-02-05T12:13:13.000",
    "date_modified": "2022-02-05T12:13:15.000",
    "request_status": "Pending",
    "responsible_agency": "Department of Public Works",
    "final_address": "CHEF MENTEUR HWY & OLD GENTILLY RD",
    "address_councildis": "E",
    "status": "Pending",
    "rowid": "859032",
    "final_x": "3708343.4",
    "final_y": "553514.98",
    "longitude": "-89.9824905276032",
    "latitude": "30.015131321629127",
    "geocoded_column": {
      "latitude": "30.015131321629127",
      "longitude": "-89.9824905276032"
    }
  },
  {
    "service_request": "2022-859031",
    "request_type": "Abandoned Vehicles",
    "request_reason": "Abandoned/Junk Vehicles",
    "date_created": "2022-02-05T12:09:07.000",
    "date_modified": "2022-02-05T12:09:07.000",
    "request_status": "Pending",
    "responsible_agency": "Department of Public Works",
    "final_address": "LAKE WILLOW DR & HUNTINGTON PARK DR & CROWDER BLVD",
    "address_councildis": "E",
    "status": "Pending",
    "rowid": "859031",
    "final_x": "3704312.8",
    "final_y": "559687.28",
    "longitude": "-89.9949974442887",
    "latitude": "30.032232797519963",
    "geocoded_column": {
      "latitude": "30.032232797519963",
      "longitude": "-89.9949974442887"
    }
  },
  {
    "service_request": "2022-859030",
    "request_type": "Abandoned Vehicles",
    "request_reason": "Abandoned/Junk Vehicles",
    "date_created": "2022-02-05T12:07:14.000",
    "date_modified": "2022-02-05T12:07:14.000",
    "request_status": "Pending",
    "responsible_agency": "Department of Public Works",
    "final_address": "6600 BLK Lake Willow Dr",
    "address_councildis": "E",
    "status": "Pending",
    "rowid": "859030",
    "final_x": "3704136.04379",
    "final_y": "559596.379282",
    "longitude": "-89.99555935558243",
    "latitude": "30.031988531459035",
    "geocoded_column": {
      "latitude": "30.031988531459035",
      "longitude": "-89.99555935558243"
    }
  },
  {
    "service_request": "2022-859029",
    "request_type": "COVID-19",
    "request_reason": "COVID-19 Business Non-Compliance",
    "date_created": "2022-02-05T12:05:38.000",
    "date_modified": "2022-02-05T12:05:40.000",
    "request_status": "Pending",
    "responsible_agency": "Safety and Permits",
    "final_address": "2440 Chartres St",
    "address_councildis": "C",
    "status": "Pending",
    "rowid": "859029",
    "final_x": "3686255.61679",
    "final_y": "534574.380037",
    "longitude": "-90.05294605748315",
    "latitude": "29.963748926501207",
    "geocoded_column": {
      "latitude": "29.963748926501207",
      "longitude": "-90.05294605748315"
    }
  },
  {
    "service_request": "2022-859028",
    "request_type": "Trash/Recycling",
    "request_reason": "Request a Large Item Pick Up",
    "date_created": "2022-02-05T11:54:30.000",
    "date_modified": "2022-02-05T11:54:31.000",
    "request_status": "Pending",
    "responsible_agency": "Department of Sanitation",
    "final_address": "6111 Milne Blvd",
    "address_councildis": "A",
    "status": "Assigned to Contractor",
    "contractor": "Metro Disposal",
    "rowid": "859028",
    "final_x": "3667224.41441",
    "final_y": "548181.133842",
    "longitude": "-90.11258714861131",
    "latitude": "30.001733913108062",
    "geocoded_column": {
      "latitude": "30.001733913108062",
      "longitude": "-90.11258714861131"
    }
  },
  {
    "service_request": "2022-859027",
    "request_type": "Tax and Revenue",
    "request_reason": "Business Renewal",
    "date_created": "2022-02-05T11:39:53.000",
    "date_modified": "2022-02-05T11:39:53.000",
    "request_status": "Pending",
    "responsible_agency": "Bureau of Revenue",
    "status": "Pending",
    "rowid": "859027",
    "longitude": "0.0",
    "latitude": "0.0",
    "geocoded_column": {
      "latitude": "0.0",
      "longitude": "0.0"
    }
  },
  {
    "service_request": "2022-859026",
    "request_type": "Trash/Recycling",
    "request_reason": "Missed Trash Pick-Up",
    "date_created": "2022-02-05T11:34:59.000",
    "date_modified": "2022-02-05T11:35:00.000",
    "request_status": "Pending",
    "responsible_agency": "Department of Sanitation",
    "final_address": "3523 Hollygrove St",
    "address_councildis": "A",
    "status": "Assigned to Contractor",
    "contractor": "Richards Disposal",
    "rowid": "859026",
    "final_x": "3665287.36775",
    "final_y": "536691.538631",
    "longitude": "-90.11909114167858",
    "latitude": "29.970198010139722",
    "geocoded_column": {
      "latitude": "29.970198010139722",
      "longitude": "-90.11909114167858"
    }
  },
  {
    "service_request": "2022-859025",
    "request_type": "Trash/Recycling",
    "request_reason": "Illegal Dumping",
    "date_created": "2022-02-05T11:05:56.000",
    "date_modified": "2022-02-05T11:05:56.000",
    "request_status": "Pending",
    "responsible_agency": "Department of Sanitation",
    "final_address": "2800 BLK N Robertson St",
    "address_councildis": "C",
    "status": "Pending",
    "rowid": "859025",
    "final_x": "3688238.07788",
    "final_y": "537772.939662",
    "longitude": "-90.04657222928527",
    "latitude": "29.972482786478018",
    "geocoded_column": {
      "latitude": "29.972482786478018",
      "longitude": "-90.04657222928527"
    }
  },
  {
    "service_request": "2022-859024",
    "request_type": "Roads/Drainage",
    "request_reason": "Alley Way",
    "date_created": "2022-02-05T11:00:33.000",
    "date_modified": "2022-02-05T11:00:33.000",
    "request_status": "Pending",
    "responsible_agency": "Department of Public Works",
    "final_address": "6932 Orleans Ave",
    "address_councildis": "A",
    "status": "Pending",
    "rowid": "859024",
    "final_x": "3671364.8802",
    "final_y": "553376.538839",
    "longitude": "-90.09933020096534",
    "latitude": "30.01589750597947",
    "geocoded_column": {
      "latitude": "30.01589750597947",
      "longitude": "-90.09933020096534"
    }
  },
  {
    "service_request": "2022-859023",
    "request_type": "Traffic Signals/Signs/Striping/Streetlights",
    "request_reason": "Street Light Outage/Malfunction",
    "date_created": "2022-02-05T10:59:32.000",
    "date_modified": "2022-02-05T10:59:33.000",
    "request_status": "Pending",
    "responsible_agency": "Department of Public Works",
    "final_address": "6932 Orleans Ave",
    "address_councildis": "A",
    "status": "Pending",
    "contractor": "Royal Engineering",
    "rowid": "859023",
    "final_x": "3671364.8802",
    "final_y": "553376.538839",
    "longitude": "-90.09933020096534",
    "latitude": "30.01589750597947",
    "geocoded_column": {
      "latitude": "30.01589750597947",
      "longitude": "-90.09933020096534"
    }
  },
  {
    "service_request": "2022-859022",
    "request_type": "Parks & Parkways",
    "request_reason": "Request Tree Service (Right of Way/Public Property)",
    "date_created": "2022-02-05T10:58:49.000",
    "date_modified": "2022-02-05T10:58:49.000",
    "request_status": "Pending",
    "responsible_agency": "Department of Parks & Parkway",
    "final_address": "1635 Sixth St",
    "address_councildis": "B",
    "status": "Pending",
    "rowid": "859022",
    "final_x": "3675336.13045",
    "final_y": "522543.51449",
    "longitude": "-90.08784172110525",
    "latitude": "29.930999014846805",
    "geocoded_column": {
      "latitude": "29.930999014846805",
      "longitude": "-90.08784172110525"
    }
  },
  {
    "service_request": "2022-859021",
    "request_type": "Trash/Recycling",
    "request_reason": "Request a Large Item Pick Up",
    "date_created": "2022-02-05T10:56:04.000",
    "date_modified": "2022-02-05T10:56:05.000",
    "request_status": "Pending",
    "responsible_agency": "Department of Sanitation",
    "final_address": "905 Walker St",
    "address_councildis": "A",
    "status": "Assigned to Contractor",
    "contractor": "Metro Disposal",
    "rowid": "859021",
    "final_x": "3670531.64487",
    "final_y": "553951.214168",
    "longitude": "-90.1019433455469",
    "latitude": "30.017502306553514",
    "geocoded_column": {
      "latitude": "30.017502306553514",
      "longitude": "-90.1019433455469"
    }
  },
  {
    "service_request": "2022-859020",
    "request_type": "Trash/Recycling",
    "request_reason": "Missed Trash Pick-Up",
    "date_created": "2022-02-05T10:55:20.000",
    "date_modified": "2022-02-05T10:57:24.000",
    "request_status": "Pending",
    "responsible_agency": "Department of Sanitation",
    "final_address": "4730 Pontchartrain Blvd",
    "address_councildis": "A",
    "status": "Assigned to Contractor",
    "contractor": "Richards Disposal",
    "rowid": "859020",
    "final_x": "3667497.33172",
    "final_y": "538483.786121",
    "longitude": "-90.11205149100157",
    "latitude": "29.975061512618705",
    "geocoded_column": {
      "latitude": "29.975061512618705",
      "longitude": "-90.11205149100157"
    }
  },
  {
    "service_request": "2022-859019",
    "request_type": "Roads/Drainage",
    "request_reason": "Pothole",
    "date_created": "2022-02-05T10:54:54.000",
    "date_modified": "2022-02-05T10:54:54.000",
    "request_status": "Pending",
    "responsible_agency": "Department of Public Works",
    "final_address": "S CLAIBORNE AVE & TOLEDANO ST",
    "address_councildis": "B",
    "status": "Pending",
    "rowid": "859019",
    "final_x": "3672686.1",
    "final_y": "526316.28",
    "longitude": "-90.09607892276615",
    "latitude": "29.941451833708907",
    "geocoded_column": {
      "latitude": "29.941451833708907",
      "longitude": "-90.09607892276615"
    }
  },
  {
    "service_request": "2022-859018",
    "request_type": "COVID-19",
    "request_reason": "COVID-19 Business Non-Compliance",
    "date_created": "2022-02-05T10:54:10.000",
    "date_modified": "2022-02-05T10:54:11.000",
    "request_status": "Pending",
    "responsible_agency": "Safety and Permits",
    "final_address": "628 St Charles Ave",
    "address_councildis": "B",
    "status": "Pending",
    "rowid": "859018",
    "final_x": "3680579.83138",
    "final_y": "528636.391488",
    "longitude": "-90.07107618649849",
    "latitude": "29.94759463706911",
    "geocoded_column": {
      "latitude": "29.94759463706911",
      "longitude": "-90.07107618649849"
    }
  },
  {
    "service_request": "2022-859017",
    "request_type": "Trash/Recycling",
    "request_reason": "Illegal Dumping",
    "date_created": "2022-02-05T10:34:38.000",
    "date_modified": "2022-02-05T10:34:38.000",
    "request_status": "Pending",
    "responsible_agency": "Department of Sanitation",
    "final_address": "3123 Nashville Ave",
    "address_councildis": "A",
    "status": "Pending",
    "rowid": "859017",
    "final_x": "3667888.72199",
    "final_y": "527329.695935",
    "longitude": "-90.11119110847129",
    "latitude": "29.9443799640894",
    "geocoded_column": {
      "latitude": "29.9443799640894",
      "longitude": "-90.11119110847129"
    }
  },
  {
    "service_request": "2022-859016",
    "request_type": "Property Maintenance",
    "request_reason": "Property Maintenance",
    "date_created": "2022-02-05T10:33:21.000",
    "date_modified": "2022-02-05T10:33:21.000",
    "request_status": "Pending",
    "responsible_agency": "Department of Code Enforcement",
    "final_address": "3123 Nashville Ave",
    "address_councildis": "A",
    "status": "Pending",
    "rowid": "859016",
    "final_x": "3667888.72199",
    "final_y": "527329.695935",
    "longitude": "-90.11119110847129",
    "latitude": "29.9443799640894",
    "geocoded_column": {
      "latitude": "29.9443799640894",
      "longitude": "-90.11119110847129"
    }
  },
  {
    "service_request": "2022-859015",
    "request_type": "Trash/Recycling",
    "request_reason": "Request a Large Item Pick Up",
    "date_created": "2022-02-05T10:24:48.000",
    "date_modified": "2022-02-05T10:24:48.000",
    "request_status": "Pending",
    "responsible_agency": "Department of Sanitation",
    "final_address": "4437 Carondelet St",
    "address_councildis": "B",
    "status": "Assigned to Contractor",
    "contractor": "Richards Disposal",
    "rowid": "859015",
    "final_x": "3670471.49697",
    "final_y": "521275.684409",
    "longitude": "-90.10324171902985",
    "latitude": "29.927657386290356",
    "geocoded_column": {
      "latitude": "29.927657386290356",
      "longitude": "-90.10324171902985"
    }
  },
  {
    "service_request": "2022-859014",
    "request_type": "Abandoned Vehicles",
    "request_reason": "Abandoned/Junk Vehicles",
    "date_created": "2022-02-05T10:21:44.000",
    "date_modified": "2022-02-05T10:21:44.000",
    "request_status": "Pending",
    "responsible_agency": "Department of Public Works",
    "final_address": "731 S Solomon St",
    "address_councildis": "A",
    "status": "Pending",
    "rowid": "859014",
    "final_x": "3668954.0123",
    "final_y": "536694.295751",
    "longitude": "-90.10751136393722",
    "latitude": "29.970098243050572",
    "geocoded_column": {
      "latitude": "29.970098243050572",
      "longitude": "-90.10751136393722"
    }
  },
  {
    "service_request": "2022-859013",
    "request_type": "Trash/Recycling",
    "request_reason": "Missed Trash Pick-Up",
    "date_created": "2022-02-05T10:11:27.000",
    "date_modified": "2022-02-05T10:11:27.000",
    "request_status": "Pending",
    "responsible_agency": "Department of Sanitation",
    "final_address": "4709 Banks St",
    "address_councildis": "A",
    "status": "Assigned to Contractor",
    "contractor": "Richards Disposal",
    "rowid": "859013",
    "final_x": "3668355.41191",
    "final_y": "538997.639178",
    "longitude": "-90.10932410669825",
    "latitude": "29.97644926016694",
    "geocoded_column": {
      "latitude": "29.97644926016694",
      "longitude": "-90.10932410669825"
    }
  },
  {
    "service_request": "2022-859012",
    "request_type": "Roads/Drainage",
    "request_reason": "Catch Basin - Clogged",
    "date_created": "2022-02-05T10:10:30.000",
    "date_modified": "2022-02-05T10:10:30.000",
    "request_status": "Pending",
    "responsible_agency": "Department of Public Works",
    "final_address": "1601 Simon Bolivar Ave",
    "address_councildis": "B",
    "status": "Pending",
    "rowid": "859012",
    "final_x": "3677066.19054",
    "final_y": "526481.22931",
    "longitude": "-90.08224442510749",
    "latitude": "29.941774616668855",
    "geocoded_column": {
      "latitude": "29.941774616668855",
      "longitude": "-90.08224442510749"
    }
  },
  {
    "service_request": "2022-859011",
    "request_type": "Trash/Recycling",
    "request_reason": "Missed Trash Pick-Up",
    "date_created": "2022-02-05T10:08:39.000",
    "date_modified": "2022-02-05T10:08:40.000",
    "request_status": "Pending",
    "responsible_agency": "Department of Sanitation",
    "final_address": "3216 General Ogden St",
    "address_councildis": "A",
    "status": "Assigned to Contractor",
    "contractor": "Richards Disposal",
    "rowid": "859011",
    "final_x": "3664758.79674",
    "final_y": "535700.010887",
    "longitude": "-90.12079356798154",
    "latitude": "29.967487027534066",
    "geocoded_column": {
      "latitude": "29.967487027534066",
      "longitude": "-90.12079356798154"
    }
  },
  {
    "service_request": "2022-859010",
    "request_type": "Property Maintenance",
    "request_reason": "Property Maintenance",
    "date_created": "2022-02-05T10:02:24.000",
    "date_modified": "2022-02-05T10:02:24.000",
    "request_status": "Pending",
    "responsible_agency": "Department of Code Enforcement",
    "final_address": "2273 N Derbigny St",
    "address_councildis": "D",
    "status": "Pending",
    "rowid": "859010",
    "final_x": "3685521.43279",
    "final_y": "538598.048905",
    "longitude": "-90.05512279136902",
    "latitude": "29.974835153878672",
    "geocoded_column": {
      "latitude": "29.974835153878672",
      "longitude": "-90.05512279136902"
    }
  },
  {
    "service_request": "2022-859009",
    "request_type": "Property Maintenance",
    "request_reason": "Property Maintenance",
    "date_created": "2022-02-05T10:00:27.000",
    "date_modified": "2022-02-05T10:00:28.000",
    "request_status": "Pending",
    "responsible_agency": "Department of Code Enforcement",
    "final_address": "2279 N Derbigny St",
    "address_councildis": "D",
    "status": "Pending",
    "rowid": "859009",
    "final_x": "3685566.73782",
    "final_y": "538603.851849",
    "longitude": "-90.05497950248139",
    "latitude": "29.974849720224363",
    "geocoded_column": {
      "latitude": "29.974849720224363",
      "longitude": "-90.05497950248139"
    }
  },
  {
    "service_request": "2022-859008",
    "request_type": "Trash/Recycling",
    "request_reason": "Repair Trash Cart",
    "date_created": "2022-02-05T09:32:44.000",
    "date_modified": "2022-02-05T09:32:44.000",
    "request_status": "Pending",
    "responsible_agency": "Department of Sanitation",
    "final_address": "502 Whitney Ave",
    "address_councildis": "C",
    "status": "Assigned to Contractor",
    "contractor": "Richards Disposal",
    "rowid": "859008",
    "final_x": "3690319.91036",
    "final_y": "529723.107265",
    "longitude": "-90.04028434393486",
    "latitude": "29.95028410789239",
    "geocoded_column": {
      "latitude": "29.95028410789239",
      "longitude": "-90.04028434393486"
    }
  },
  {
    "service_request": "2022-859007",
    "request_type": "COVID-19",
    "request_reason": "COVID-19 Business Non-Compliance",
    "date_created": "2022-02-05T09:32:14.000",
    "date_modified": "2022-02-05T09:32:15.000",
    "request_status": "Pending",
    "responsible_agency": "Safety and Permits",
    "final_address": "2116 Magazine St",
    "address_councildis": "B",
    "status": "Pending",
    "rowid": "859007",
    "final_x": "3679071.82997",
    "final_y": "522198.238394",
    "longitude": "-90.07606058147137",
    "latitude": "29.92993743734954",
    "geocoded_column": {
      "latitude": "29.92993743734954",
      "longitude": "-90.07606058147137"
    }
  },
  {
    "service_request": "2022-859005",
    "request_type": "COVID-19",
    "request_reason": "COVID-19 Business Non-Compliance",
    "date_created": "2022-02-05T09:28:35.000",
    "date_modified": "2022-02-05T09:28:36.000",
    "request_status": "Pending",
    "responsible_agency": "Safety and Permits",
    "final_address": "2854 St Charles Ave",
    "address_councildis": "B",
    "status": "Pending",
    "rowid": "859005",
    "final_x": "3675569.25301",
    "final_y": "522212.16409",
    "longitude": "-90.08711716046099",
    "latitude": "29.93008093924849",
    "geocoded_column": {
      "latitude": "29.93008093924849",
      "longitude": "-90.08711716046099"
    }
  },
  {
    "service_request": "2022-859004",
    "request_type": "Safety & Permits",
    "request_reason": "Licenses & Permits",
    "date_created": "2022-02-05T09:28:26.000",
    "date_modified": "2022-02-05T09:28:26.000",
    "request_status": "Pending",
    "responsible_agency": "Safety and Permits",
    "final_address": "500 BLK Iberville St",
    "address_councildis": "C",
    "status": "Pending",
    "rowid": "859004",
    "final_x": "3682007.67138",
    "final_y": "530585.783432",
    "longitude": "-90.06649989359747",
    "latitude": "29.95291148006257",
    "geocoded_column": {
      "latitude": "29.95291148006257",
      "longitude": "-90.06649989359747"
    }
  },
  {
    "service_request": "2022-859001",
    "request_type": "Trash/Recycling",
    "request_reason": "Missed Trash Pick-Up",
    "date_created": "2022-02-05T09:27:27.000",
    "date_modified": "2022-02-05T09:27:28.000",
    "request_status": "Pending",
    "responsible_agency": "Department of Sanitation",
    "final_address": "1359 Magazine St",
    "address_councildis": "B",
    "status": "Assigned to Contractor",
    "contractor": "Richards Disposal",
    "rowid": "859001",
    "final_x": "3680379.00667",
    "final_y": "524761.252028",
    "longitude": "-90.07184497036754",
    "latitude": "29.93694537608828",
    "geocoded_column": {
      "latitude": "29.93694537608828",
      "longitude": "-90.07184497036754"
    }
  },
  {
    "service_request": "2022-858997",
    "request_type": "Roads/Drainage",
    "request_reason": "Street Subsidence (Sinking)",
    "date_created": "2022-02-05T09:12:07.000",
    "date_modified": "2022-02-05T09:13:57.000",
    "request_status": "Pending",
    "responsible_agency": "Department of Public Works",
    "final_address": "2322 Ap Tureaud Ave",
    "address_councildis": "D",
    "status": "Pending",
    "rowid": "858997",
    "final_x": "3681556.98786",
    "final_y": "540687.967371",
    "longitude": "-90.06757058540195",
    "latitude": "29.98070270843743",
    "geocoded_column": {
      "latitude": "29.98070270843743",
      "longitude": "-90.06757058540195"
    }
  },
  {
    "service_request": "2022-858996",
    "request_type": "Trash/Recycling",
    "request_reason": "Order Trash Cart",
    "date_created": "2022-02-05T09:00:58.000",
    "date_modified": "2022-02-05T09:00:59.000",
    "request_status": "Pending",
    "responsible_agency": "Department of Sanitation",
    "final_address": "2468 Dauphine St",
    "address_councildis": "C",
    "status": "Assigned to Contractor",
    "contractor": "Metro Disposal",
    "rowid": "858996",
    "final_x": "3686450.30562",
    "final_y": "535305.655238",
    "longitude": "-90.05230543332338",
    "latitude": "29.965753696369642",
    "geocoded_column": {
      "latitude": "29.965753696369642",
      "longitude": "-90.05230543332338"
    }
  },
  {
    "service_request": "2022-858995",
    "request_type": "Trash/Recycling",
    "request_reason": "Replace Trash Cart",
    "date_created": "2022-02-05T08:44:28.000",
    "date_modified": "2022-02-05T08:44:28.000",
    "request_status": "Pending",
    "responsible_agency": "Department of Sanitation",
    "final_address": "1730 Joliet St",
    "address_councildis": "A",
    "status": "Assigned to Contractor",
    "contractor": "Richards Disposal",
    "rowid": "858995",
    "final_x": "3662238.74848",
    "final_y": "530845.76621",
    "longitude": "-90.12891310475061",
    "latitude": "29.954212520124766",
    "geocoded_column": {
      "latitude": "29.954212520124766",
      "longitude": "-90.12891310475061"
    }
  },
  {
    "service_request": "2022-858993",
    "request_type": "Trash/Recycling",
    "request_reason": "Order Recycling Cart",
    "date_created": "2022-02-05T07:51:29.000",
    "date_modified": "2022-02-05T07:51:29.000",
    "request_status": "Pending",
    "responsible_agency": "Department of Sanitation",
    "final_address": "639 S Alexander St",
    "address_councildis": "A",
    "status": "Pending",
    "rowid": "858993",
    "final_x": "3668572.95476",
    "final_y": "537361.230152",
    "longitude": "-90.1086922753592",
    "latitude": "29.971943293222072",
    "geocoded_column": {
      "latitude": "29.971943293222072",
      "longitude": "-90.1086922753592"
    }
  },
  {
    "service_request": "2022-858992",
    "request_type": "Traffic Signals/Signs/Striping/Streetlights",
    "request_reason": "Street Light Outage/Malfunction",
    "date_created": "2022-02-05T06:47:34.000",
    "date_modified": "2022-02-05T06:47:34.000",
    "request_status": "Pending",
    "responsible_agency": "Department of Public Works",
    "final_address": "1518 Simon Bolivar Ave",
    "address_councildis": "B",
    "status": "Pending",
    "contractor": "Royal Engineering",
    "rowid": "858992",
    "final_x": "3677266.96194",
    "final_y": "526520.972094",
    "longitude": "-90.08160917739548",
    "latitude": "29.941877867042155",
    "geocoded_column": {
      "latitude": "29.941877867042155",
      "longitude": "-90.08160917739548"
    }
  },
  {
    "service_request": "2022-858991",
    "request_type": "Property Maintenance",
    "request_reason": "Property Maintenance",
    "date_created": "2022-02-05T03:20:26.000",
    "date_modified": "2022-02-05T03:20:26.000",
    "request_status": "Pending",
    "responsible_agency": "Department of Code Enforcement",
    "final_address": "8454 Morrison Rd",
    "address_councildis": "E",
    "status": "Pending",
    "rowid": "858991",
    "final_x": "3704153.11594",
    "final_y": "560889.20963",
    "longitude": "-89.99545770593257",
    "latitude": "30.035542761128102",
    "geocoded_column": {
      "latitude": "30.035542761128102",
      "longitude": "-89.99545770593257"
    }
  },
  {
    "service_request": "2022-858990",
    "request_type": "Traffic Signals/Signs/Striping/Streetlights",
    "request_reason": "Street Light Outage/Malfunction",
    "date_created": "2022-02-04T23:58:16.000",
    "date_modified": "2022-02-04T23:58:17.000",
    "request_status": "Pending",
    "responsible_agency": "Department of Public Works",
    "final_address": "4692 Perrault Walk",
    "address_councildis": "E",
    "status": "Pending",
    "contractor": "Royal Engineering",
    "rowid": "858990",
    "final_x": "3709880.14763",
    "final_y": "555349.295321",
    "longitude": "-89.97756660397108",
    "latitude": "30.020125070761043",
    "geocoded_column": {
      "latitude": "30.020125070761043",
      "longitude": "-89.97756660397108"
    }
  },
  {
    "service_request": "2022-858989",
    "request_type": "Roads/Drainage",
    "request_reason": "Street Subsidence (Sinking)",
    "date_created": "2022-02-04T21:17:59.000",
    "date_modified": "2022-02-04T21:17:59.000",
    "request_status": "Pending",
    "responsible_agency": "Department of Public Works",
    "final_address": "2525 Pressburg St",
    "address_councildis": "D",
    "status": "Pending",
    "rowid": "858989",
    "final_x": "3685938.09468",
    "final_y": "554824.423448",
    "longitude": "-90.05323435527293",
    "latitude": "30.01943906243818",
    "geocoded_column": {
      "latitude": "30.01943906243818",
      "longitude": "-90.05323435527293"
    }
  },
  {
    "service_request": "2022-858988",
    "request_type": "Roads/Drainage",
    "request_reason": "Damaged Sidewalk",
    "date_created": "2022-02-04T20:05:21.000",
    "date_modified": "2022-02-04T20:05:21.000",
    "request_status": "Pending",
    "responsible_agency": "Department of Public Works",
    "final_address": "2027 St Ann St",
    "address_councildis": "D",
    "status": "Pending",
    "rowid": "858988",
    "final_x": "3678972.44366",
    "final_y": "535708.329415",
    "longitude": "-90.07590630312161",
    "latitude": "29.967088668519153",
    "geocoded_column": {
      "latitude": "29.967088668519153",
      "longitude": "-90.07590630312161"
    }
  },
  {
    "service_request": "2022-858987",
    "request_type": "Trash/Recycling",
    "request_reason": "Request a Large Item Pick Up",
    "date_created": "2022-02-04T20:01:08.000",
    "date_modified": "2022-02-04T20:01:09.000",
    "request_status": "Pending",
    "responsible_agency": "Department of Sanitation",
    "final_address": "7630 Burke Ave",
    "address_councildis": "E",
    "status": "Assigned to Contractor",
    "contractor": "Metro Disposal",
    "rowid": "858987",
    "final_x": "3705326.75051",
    "final_y": "563001.059872",
    "longitude": "-89.99167070259158",
    "latitude": "30.041311785490947",
    "geocoded_column": {
      "latitude": "30.041311785490947",
      "longitude": "-89.99167070259158"
    }
  },
  {
    "service_request": "2022-858986",
    "request_type": "Roads/Drainage",
    "request_reason": "Pothole",
    "date_created": "2022-02-04T19:26:25.000",
    "date_modified": "2022-02-04T19:26:25.000",
    "request_status": "Pending",
    "responsible_agency": "Department of Public Works",
    "final_address": "LAKE FOREST BLVD & EASTOVER DR",
    "address_councildis": "E",
    "status": "Pending",
    "rowid": "858986",
    "final_x": "3719364.8",
    "final_y": "562445.78",
    "longitude": "-89.94732723953163",
    "latitude": "30.039325561656305",
    "geocoded_column": {
      "latitude": "30.039325561656305",
      "longitude": "-89.94732723953163"
    }
  },
  {
    "service_request": "2022-858985",
    "request_type": "Traffic Signals/Signs/Striping/Streetlights",
    "request_reason": "Traffic Sign Missing/Damaged",
    "date_created": "2022-02-04T19:25:01.000",
    "date_modified": "2022-02-04T19:25:01.000",
    "request_status": "Pending",
    "responsible_agency": "Department of Public Works",
    "final_address": "DUBLIN ST & MAPLE ST",
    "address_councildis": "A",
    "status": "Pending",
    "rowid": "858985",
    "final_x": "3660764.8",
    "final_y": "527581.28",
    "longitude": "-90.13367518986306",
    "latitude": "29.945278746055436",
    "geocoded_column": {
      "latitude": "29.945278746055436",
      "longitude": "-90.13367518986306"
    }
  },
  {
    "service_request": "2022-858984",
    "request_type": "Safety & Permits",
    "request_reason": "Licenses & Permits",
    "date_created": "2022-02-04T19:14:20.000",
    "date_modified": "2022-02-04T19:14:20.000",
    "request_status": "Pending",
    "responsible_agency": "Safety and Permits",
    "status": "Pending",
    "rowid": "858984",
    "longitude": "0.0",
    "latitude": "0.0",
    "geocoded_column": {
      "latitude": "0.0",
      "longitude": "0.0"
    }
  },
  {
    "service_request": "2022-858983",
    "request_type": "Trash/Recycling",
    "request_reason": "Replace Trash Cart",
    "date_created": "2022-02-04T19:05:59.000",
    "date_modified": "2022-02-04T19:06:00.000",
    "request_status": "Pending",
    "responsible_agency": "Department of Sanitation",
    "final_address": "5231 Timber Haven Ln",
    "address_councildis": "C",
    "status": "Assigned to Contractor",
    "contractor": "Richards Disposal",
    "rowid": "858983",
    "final_x": "3703559.45162",
    "final_y": "511371.855024",
    "longitude": "-89.9991558109626",
    "latitude": "29.899407074373514",
    "geocoded_column": {
      "latitude": "29.899407074373514",
      "longitude": "-89.9991558109626"
    }
  },
  {
    "service_request": "2022-858982",
    "request_type": "Traffic Signals/Signs/Striping/Streetlights",
    "request_reason": "Traffic Signal Malfunctioning/Damaged",
    "date_created": "2022-02-04T18:31:25.000",
    "date_modified": "2022-02-04T18:31:25.000",
    "request_status": "Pending",
    "responsible_agency": "Department of Public Works",
    "final_address": "4400 Knight Dr",
    "address_councildis": "E",
    "status": "Pending",
    "rowid": "858982",
    "final_x": "3708244.82321",
    "final_y": "553688.404631",
    "longitude": "-89.98279552264754",
    "latitude": "30.015611367366485",
    "geocoded_column": {
      "latitude": "30.015611367366485",
      "longitude": "-89.98279552264754"
    }
  },
  {
    "service_request": "2022-858980",
    "request_type": "Traffic Signals/Signs/Striping/Streetlights",
    "request_reason": "Street Light Outage/Malfunction",
    "date_created": "2022-02-04T18:22:54.000",
    "date_modified": "2022-02-04T18:22:54.000",
    "request_status": "Pending",
    "responsible_agency": "Department of Public Works",
    "final_address": "8200 BLK Apricot St",
    "address_councildis": "A",
    "status": "Pending",
    "contractor": "Royal Engineering",
    "rowid": "858980",
    "final_x": "3665431.89646",
    "final_y": "532980.797343",
    "longitude": "-90.1187589218819",
    "latitude": "29.959990482669497",
    "geocoded_column": {
      "latitude": "29.959990482669497",
      "longitude": "-90.1187589218819"
    }
  },
  {
    "service_request": "2022-858979",
    "request_type": "Traffic Signals/Signs/Striping/Streetlights",
    "request_reason": "Street Light Outage/Malfunction",
    "date_created": "2022-02-04T18:22:23.000",
    "date_modified": "2022-02-04T18:23:34.000",
    "request_status": "Pending",
    "responsible_agency": "Department of Public Works",
    "final_address": "8200 BLK Apricot St",
    "address_councildis": "A",
    "status": "Pending",
    "contractor": "Royal Engineering",
    "rowid": "858979",
    "final_x": "3665431.89646",
    "final_y": "532980.797343",
    "longitude": "-90.1187589218819",
    "latitude": "29.959990482669497",
    "geocoded_column": {
      "latitude": "29.959990482669497",
      "longitude": "-90.1187589218819"
    }
  },
  {
    "service_request": "2022-858978",
    "request_type": "Traffic Signals/Signs/Striping/Streetlights",
    "request_reason": "Street Light Outage/Malfunction",
    "date_created": "2022-02-04T18:21:59.000",
    "date_modified": "2022-02-04T18:22:00.000",
    "request_status": "Pending",
    "responsible_agency": "Department of Public Works",
    "final_address": "8200 BLK Apricot St",
    "address_councildis": "A",
    "status": "Pending",
    "contractor": "Royal Engineering",
    "rowid": "858978",
    "final_x": "3665431.89646",
    "final_y": "532980.797343",
    "longitude": "-90.1187589218819",
    "latitude": "29.959990482669497",
    "geocoded_column": {
      "latitude": "29.959990482669497",
      "longitude": "-90.1187589218819"
    }
  },
  {
    "service_request": "2022-858977",
    "request_type": "Trash/Recycling",
    "request_reason": "Missed Trash Pick-Up",
    "date_created": "2022-02-04T18:10:55.000",
    "date_modified": "2022-02-04T18:10:56.000",
    "case_close_date": "2021-02-01T18:00:00.000",
    "request_status": "Pending",
    "responsible_agency": "Department of Sanitation",
    "final_address": "7620 Bullard Ave",
    "address_councildis": "E",
    "status": "Assigned to Contractor",
    "contractor": "Metro Disposal",
    "rowid": "858977",
    "final_x": "3713008.24773",
    "final_y": "567410.591652",
    "longitude": "-89.96722853927938",
    "latitude": "30.053186666195426",
    "geocoded_column": {
      "latitude": "30.053186666195426",
      "longitude": "-89.96722853927938"
    }
  },
  {
    "service_request": "2022-858976",
    "request_type": "Traffic Signals/Signs/Striping/Streetlights",
    "request_reason": "Traffic Sign Missing/Damaged",
    "date_created": "2022-02-04T17:58:34.000",
    "date_modified": "2022-02-04T17:58:34.000",
    "request_status": "Pending",
    "responsible_agency": "Department of Public Works",
    "final_address": "9005 Apple St",
    "address_councildis": "A",
    "status": "Pending",
    "rowid": "858976",
    "final_x": "3662991.48813",
    "final_y": "534305.032965",
    "longitude": "-90.12642119140068",
    "latitude": "29.96370260100619",
    "geocoded_column": {
      "latitude": "29.96370260100619",
      "longitude": "-90.12642119140068"
    }
  },
  {
    "service_request": "2022-858975",
    "request_type": "Trash/Recycling",
    "request_reason": "Request a Large Item Pick Up",
    "date_created": "2022-02-04T17:51:16.000",
    "date_modified": "2022-02-04T17:51:16.000",
    "case_close_date": "2019-03-28T19:00:00.000",
    "request_status": "Closed",
    "responsible_agency": "Department of Sanitation",
    "final_address": "3671 Timber Ct",
    "address_councildis": "C",
    "status": "Assigned to Contractor",
    "contractor": "Richards Disposal",
    "contractor_action": "Completed",
    "rowid": "858975",
    "final_x": "3703873.82103",
    "final_y": "511736.868208",
    "longitude": "-89.99815028800948",
    "latitude": "29.900400668462765",
    "geocoded_column": {
      "latitude": "29.900400668462765",
      "longitude": "-89.99815028800948"
    }
  },
  {
    "service_request": "2022-858974",
    "request_type": "Roads/Drainage",
    "request_reason": "Catch Basin - Clogged",
    "date_created": "2022-02-04T17:26:38.000",
    "date_modified": "2022-02-04T17:26:38.000",
    "request_status": "Pending",
    "responsible_agency": "Department of Public Works",
    "final_address": "814 City Park Ave",
    "address_councildis": "A",
    "status": "Pending",
    "rowid": "858974",
    "final_x": "3671152.52206",
    "final_y": "541658.819532",
    "longitude": "-90.10039952740178",
    "latitude": "29.98368414658626",
    "geocoded_column": {
      "latitude": "29.98368414658626",
      "longitude": "-90.10039952740178"
    }
  },
  {
    "service_request": "2022-858973",
    "request_type": "Roads/Drainage",
    "request_reason": "Street Subsidence (Sinking)",
    "date_created": "2022-02-04T17:25:40.000",
    "date_modified": "2022-02-04T17:25:41.000",
    "request_status": "Pending",
    "responsible_agency": "Department of Public Works",
    "final_address": "CURRAN BLVD & SHELLY ST",
    "address_councildis": "E",
    "status": "Pending",
    "rowid": "858973",
    "final_x": "3695961.4",
    "final_y": "559096.58",
    "longitude": "-90.02140968703718",
    "latitude": "30.030874163604334",
    "geocoded_column": {
      "latitude": "30.030874163604334",
      "longitude": "-90.02140968703718"
    }
  },
  {
    "service_request": "2022-858972",
    "request_type": "Trash/Recycling",
    "request_reason": "Order Recycling Cart",
    "date_created": "2022-02-04T17:25:16.000",
    "date_modified": "2022-02-04T17:25:16.000",
    "request_status": "Pending",
    "responsible_agency": "Department of Sanitation",
    "final_address": "814 City Park Ave",
    "address_councildis": "A",
    "status": "Pending",
    "rowid": "858972",
    "final_x": "3671152.52206",
    "final_y": "541658.819532",
    "longitude": "-90.10039952740178",
    "latitude": "29.98368414658626",
    "geocoded_column": {
      "latitude": "29.98368414658626",
      "longitude": "-90.10039952740178"
    }
  },
  {
    "service_request": "2022-858971",
    "request_type": "Trash/Recycling",
    "request_reason": "Repair Trash Cart",
    "date_created": "2022-02-04T17:16:23.000",
    "date_modified": "2022-02-04T17:16:24.000",
    "request_status": "Pending",
    "responsible_agency": "Department of Sanitation",
    "final_address": "3826 Perrier St",
    "address_councildis": "B",
    "status": "Assigned to Contractor",
    "contractor": "Richards Disposal",
    "rowid": "858971",
    "final_x": "3672856.89121",
    "final_y": "520223.766008",
    "longitude": "-90.09574745451529",
    "latitude": "29.924694319551772",
    "geocoded_column": {
      "latitude": "29.924694319551772",
      "longitude": "-90.09574745451529"
    }
  },
  {
    "service_request": "2022-858970",
    "request_type": "Roads/Drainage",
    "request_reason": "Street Subsidence (Sinking)",
    "date_created": "2022-02-04T17:13:55.000",
    "date_modified": "2022-02-04T17:13:55.000",
    "request_status": "Pending",
    "responsible_agency": "Department of Public Works",
    "final_address": "1616 N Prieur St",
    "address_councildis": "D",
    "status": "Pending",
    "rowid": "858970",
    "final_x": "3681500.32085",
    "final_y": "538536.671625",
    "longitude": "-90.06782460804065",
    "latitude": "29.974789114494484",
    "geocoded_column": {
      "latitude": "29.974789114494484",
      "longitude": "-90.06782460804065"
    }
  },
  {
    "service_request": "2022-858969",
    "request_type": "Trash/Recycling",
    "request_reason": "Replace Trash Cart",
    "date_created": "2022-02-04T17:04:36.000",
    "date_modified": "2022-02-04T17:04:37.000",
    "request_status": "Pending",
    "responsible_agency": "Department of Sanitation",
    "final_address": "10701 Guildford Rd",
    "address_councildis": "E",
    "status": "Assigned to Contractor",
    "contractor": "Metro Disposal",
    "rowid": "858969",
    "final_x": "3710993.75761",
    "final_y": "563744.267873",
    "longitude": "-89.97373324351571",
    "latitude": "30.043171641010883",
    "geocoded_column": {
      "latitude": "30.043171641010883",
      "longitude": "-89.97373324351571"
    }
  },
  {
    "service_request": "2022-858968",
    "request_type": "Roads/Drainage",
    "request_reason": "Catch Basin - Clogged",
    "date_created": "2022-02-04T16:49:39.000",
    "date_modified": "2022-02-04T16:49:39.000",
    "case_close_date": "2020-09-27T19:00:00.000",
    "request_status": "Pending",
    "responsible_agency": "Department of Public Works",
    "final_address": "6944 Foch Rd",
    "address_councildis": "D",
    "status": "Pending",
    "contractor": "Royal Engineering",
    "rowid": "858968",
    "final_x": "3696475.82365",
    "final_y": "556607.435866",
    "longitude": "-90.01987426705585",
    "latitude": "30.024013762167378",
    "geocoded_column": {
      "latitude": "30.024013762167378",
      "longitude": "-90.01987426705585"
    }
  },
  {
    "service_request": "2022-858967",
    "request_type": "Traffic Signals/Signs/Striping/Streetlights",
    "request_reason": "Street Light Outage/Malfunction",
    "date_created": "2022-02-04T16:47:45.000",
    "date_modified": "2022-02-04T16:47:46.000",
    "case_close_date": "2020-09-27T19:00:00.000",
    "request_status": "Pending",
    "responsible_agency": "Department of Public Works",
    "final_address": "6944 Foch Rd",
    "address_councildis": "D",
    "status": "Pending",
    "contractor": "Royal Engineering",
    "rowid": "858967",
    "final_x": "3696475.82365",
    "final_y": "556607.435866",
    "longitude": "-90.01987426705585",
    "latitude": "30.024013762167378",
    "geocoded_column": {
      "latitude": "30.024013762167378",
      "longitude": "-90.01987426705585"
    }
  },
  {
    "service_request": "2022-858966",
    "request_type": "COVID-19",
    "request_reason": "COVID-19 Business Non-Compliance",
    "date_created": "2022-02-04T16:45:13.000",
    "date_modified": "2022-02-04T16:45:14.000",
    "request_status": "Pending",
    "responsible_agency": "Safety and Permits",
    "final_address": "701 Baronne St",
    "address_councildis": "B",
    "status": "Pending",
    "rowid": "858966",
    "final_x": "3679665.86792",
    "final_y": "528714.887488",
    "longitude": "-90.07395920111927",
    "latitude": "29.947838127385015",
    "geocoded_column": {
      "latitude": "29.947838127385015",
      "longitude": "-90.07395920111927"
    }
  },
  {
    "service_request": "2022-858965",
    "request_type": "Abandoned Vehicles",
    "request_reason": "Abandoned/Junk Vehicles",
    "date_created": "2022-02-04T16:37:12.000",
    "date_modified": "2022-02-04T16:37:12.000",
    "request_status": "Pending",
    "responsible_agency": "Department of Public Works",
    "final_address": "446 S Rendon St",
    "address_councildis": "B",
    "status": "Pending",
    "rowid": "858965",
    "final_x": "3672694.09691",
    "final_y": "535204.82151",
    "longitude": "-90.09575057740463",
    "latitude": "29.96589214227739",
    "geocoded_column": {
      "latitude": "29.96589214227739",
      "longitude": "-90.09575057740463"
    }
  },
  {
    "service_request": "2022-858964",
    "request_type": "Abandoned Vehicles",
    "request_reason": "Vehicle Blocking Your Driveway",
    "date_created": "2022-02-04T16:27:31.000",
    "date_modified": "2022-02-04T16:27:31.000",
    "request_status": "Pending",
    "responsible_agency": "Department of Public Works",
    "final_address": "8001 Sycamore St",
    "address_councildis": "A",
    "status": "Pending",
    "rowid": "858964",
    "final_x": "3664654.28256",
    "final_y": "530731.804354",
    "longitude": "-90.1212895894244",
    "latitude": "29.95382912620364",
    "geocoded_column": {
      "latitude": "29.95382912620364",
      "longitude": "-90.1212895894244"
    }
  },
  {
    "service_request": "2022-858963",
    "request_type": "Trash/Recycling",
    "request_reason": "Request a Large Item Pick Up",
    "date_created": "2022-02-04T16:24:44.000",
    "date_modified": "2022-02-04T16:24:45.000",
    "request_status": "Pending",
    "responsible_agency": "Department of Sanitation",
    "final_address": "4126 Copernicus St",
    "address_councildis": "C",
    "status": "Assigned to Contractor",
    "contractor": "Richards Disposal",
    "rowid": "858963",
    "final_x": "3699221.4936",
    "final_y": "523315.464251",
    "longitude": "-90.01241122405335",
    "latitude": "29.932386114438852",
    "geocoded_column": {
      "latitude": "29.932386114438852",
      "longitude": "-90.01241122405335"
    }
  },
  {
    "service_request": "2022-858962",
    "request_type": "Trash/Recycling",
    "request_reason": "Order Recycling Cart",
    "date_created": "2022-02-04T16:19:45.000",
    "date_modified": "2022-02-04T16:19:45.000",
    "request_status": "Pending",
    "responsible_agency": "Department of Sanitation",
    "final_address": "4050 Oregon St",
    "address_councildis": "C",
    "status": "Pending",
    "rowid": "858962",
    "final_x": "3694610.42166",
    "final_y": "518106.116598",
    "longitude": "-90.02715535525164",
    "latitude": "29.918207531517485",
    "geocoded_column": {
      "latitude": "29.918207531517485",
      "longitude": "-90.02715535525164"
    }
  },
  {
    "service_request": "2022-858961",
    "request_type": "Abandoned Vehicles",
    "request_reason": "Abandoned/Junk Vehicles",
    "date_created": "2022-02-04T16:19:02.000",
    "date_modified": "2022-02-04T16:19:02.000",
    "request_status": "Pending",
    "responsible_agency": "Department of Public Works",
    "final_address": "3124 Chippewa St",
    "address_councildis": "B",
    "status": "Pending",
    "rowid": "858961",
    "final_x": "3676770.05595",
    "final_y": "518801.543607",
    "longitude": "-90.08344386431206",
    "latitude": "29.920666872741098",
    "geocoded_column": {
      "latitude": "29.920666872741098",
      "longitude": "-90.08344386431206"
    }
  },
  {
    "service_request": "2022-858960",
    "request_type": "Trash/Recycling",
    "request_reason": "Order Recycling Cart",
    "date_created": "2022-02-04T15:55:02.000",
    "date_modified": "2022-02-04T15:55:02.000",
    "request_status": "Pending",
    "responsible_agency": "Department of Sanitation",
    "final_address": "1739 First St",
    "address_councildis": "B",
    "status": "Pending",
    "rowid": "858960",
    "final_x": "3676627.73275",
    "final_y": "523844.196667",
    "longitude": "-90.08371952439937",
    "latitude": "29.93453679944904",
    "geocoded_column": {
      "latitude": "29.93453679944904",
      "longitude": "-90.08371952439937"
    }
  },
  {
    "service_request": "2022-858959",
    "request_type": "Tax and Revenue",
    "request_reason": "Sales Tax Question",
    "date_created": "2022-02-04T15:52:48.000",
    "date_modified": "2022-02-04T16:24:24.000",
    "request_status": "Pending",
    "responsible_agency": "Bureau of Revenue",
    "final_address": "New Orleans,LA",
    "rowid": "858959",
    "longitude": "0.0",
    "latitude": "0.0",
    "geocoded_column": {
      "latitude": "0.0",
      "longitude": "0.0"
    }
  },
  {
    "service_request": "2022-858958",
    "request_type": "Traffic Signals/Signs/Striping/Streetlights",
    "request_reason": "Traffic Sign Missing/Damaged",
    "date_created": "2022-02-04T15:52:26.000",
    "date_modified": "2022-02-04T15:52:26.000",
    "request_status": "Pending",
    "responsible_agency": "Department of Public Works",
    "final_address": "6325 LaSalle Pl",
    "address_councildis": "A",
    "status": "Pending",
    "rowid": "858958",
    "final_x": "3665296.73773",
    "final_y": "524570.799548",
    "longitude": "-90.11946706149749",
    "latitude": "29.936869644919845",
    "geocoded_column": {
      "latitude": "29.936869644919845",
      "longitude": "-90.11946706149749"
    }
  },
  {
    "service_request": "2022-858957",
    "request_type": "Roads/Drainage",
    "request_reason": "Catch Basin - Clogged",
    "date_created": "2022-02-04T15:43:43.000",
    "date_modified": "2022-02-04T15:43:43.000",
    "request_status": "Pending",
    "responsible_agency": "Department of Public Works",
    "final_address": "5703 Constance St",
    "address_councildis": "A",
    "status": "Pending",
    "rowid": "858957",
    "final_x": "3665730.74356",
    "final_y": "518713.313207",
    "longitude": "-90.11829296962726",
    "latitude": "29.92075076045043",
    "geocoded_column": {
      "latitude": "29.92075076045043",
      "longitude": "-90.11829296962726"
    }
  },
  {
    "service_request": "2022-858956",
    "request_type": "Trash/Recycling",
    "request_reason": "Order Trash Cart",
    "date_created": "2022-02-04T15:42:26.000",
    "date_modified": "2022-02-04T15:42:27.000",
    "request_status": "Pending",
    "responsible_agency": "Department of Sanitation",
    "final_address": "1903 Rosary Dr",
    "address_councildis": "D",
    "status": "Assigned to Contractor",
    "contractor": "Metro Disposal",
    "rowid": "858956",
    "final_x": "3681528.26338",
    "final_y": "555135.827033",
    "longitude": "-90.06715706000692",
    "latitude": "30.02043003291037",
    "geocoded_column": {
      "latitude": "30.02043003291037",
      "longitude": "-90.06715706000692"
    }
  },
  {
    "service_request": "2022-858955",
    "request_type": "Tax and Revenue",
    "request_reason": "Occupational License Tax",
    "date_created": "2022-02-04T15:39:45.000",
    "date_modified": "2022-02-04T15:39:46.000",
    "request_status": "Pending",
    "responsible_agency": "Bureau of Revenue",
    "status": "Pending",
    "rowid": "858955",
    "longitude": "0.0",
    "latitude": "0.0",
    "geocoded_column": {
      "latitude": "0.0",
      "longitude": "0.0"
    }
  },
  {
    "service_request": "2022-858954",
    "request_type": "Safety & Permits",
    "request_reason": "Licenses & Permits",
    "date_created": "2022-02-04T15:36:42.000",
    "date_modified": "2022-02-04T16:15:13.000",
    "request_status": "Pending",
    "responsible_agency": "Safety and Permits",
    "final_address": "4725 Crowder Blvd",
    "address_councildis": "E",
    "status": "Pending",
    "rowid": "858954",
    "final_x": "3706558.65041",
    "final_y": "555623.069017",
    "longitude": "-89.98805124686034",
    "latitude": "30.02098548502369",
    "geocoded_column": {
      "latitude": "30.02098548502369",
      "longitude": "-89.98805124686034"
    }
  },
  {
    "service_request": "2022-858953",
    "request_type": "Property Maintenance",
    "request_reason": "Property Maintenance",
    "date_created": "2022-02-04T15:35:42.000",
    "date_modified": "2022-02-04T16:17:51.000",
    "request_status": "Pending",
    "responsible_agency": "Department of Code Enforcement",
    "final_address": "4725 Crowder Blvd",
    "address_councildis": "E",
    "status": "Pending",
    "rowid": "858953",
    "final_x": "3706558.65041",
    "final_y": "555623.069017",
    "longitude": "-89.98805124686034",
    "latitude": "30.02098548502369",
    "geocoded_column": {
      "latitude": "30.02098548502369",
      "longitude": "-89.98805124686034"
    }
  },
  {
    "service_request": "2022-858952",
    "request_type": "Abandoned Vehicles",
    "request_reason": "Abandoned/Junk Vehicles",
    "date_created": "2022-02-04T15:33:01.000",
    "date_modified": "2022-02-04T15:33:01.000",
    "request_status": "Pending",
    "responsible_agency": "Department of Public Works",
    "final_address": "2100 Milton St",
    "address_councildis": "D",
    "status": "Pending",
    "rowid": "858952",
    "final_x": "3683618.58946",
    "final_y": "546535.449617",
    "longitude": "-90.06085405317981",
    "latitude": "29.99671843359879",
    "geocoded_column": {
      "latitude": "29.99671843359879",
      "longitude": "-90.06085405317981"
    }
  },
  {
    "service_request": "2022-858951",
    "request_type": "Traffic Signals/Signs/Striping/Streetlights",
    "request_reason": "Street Light Outage/Malfunction",
    "date_created": "2022-02-04T15:27:10.000",
    "date_modified": "2022-02-04T15:27:11.000",
    "request_status": "Pending",
    "responsible_agency": "Department of Public Works",
    "final_address": "338 36Th St",
    "address_councildis": "A",
    "status": "Pending",
    "contractor": "Royal Engineering",
    "rowid": "858951",
    "final_x": "3665085.3552",
    "final_y": "551877.471382",
    "longitude": "-90.11922095778962",
    "latitude": "30.01196004896911",
    "geocoded_column": {
      "latitude": "30.01196004896911",
      "longitude": "-90.11922095778962"
    }
  },
  {
    "service_request": "2022-858950",
    "request_type": "Traffic Signals/Signs/Striping/Streetlights",
    "request_reason": "Street Light Outage/Malfunction",
    "date_created": "2022-02-04T15:17:06.000",
    "date_modified": "2022-02-04T15:17:07.000",
    "request_status": "Pending",
    "responsible_agency": "Department of Public Works",
    "final_address": "1827 Frenchmen St",
    "address_councildis": "D",
    "status": "Pending",
    "contractor": "Royal Engineering",
    "rowid": "858950",
    "final_x": "3684402.1645",
    "final_y": "539075.872714",
    "longitude": "-90.05864092914933",
    "latitude": "29.97618328626132",
    "geocoded_column": {
      "latitude": "29.97618328626132",
      "longitude": "-90.05864092914933"
    }
  },
  {
    "service_request": "2022-858949",
    "request_type": "Trash/Recycling",
    "request_reason": "Illegal Dumping",
    "date_created": "2022-02-04T15:16:06.000",
    "date_modified": "2022-02-04T15:16:06.000",
    "request_status": "Pending",
    "responsible_agency": "Department of Sanitation",
    "final_address": "7912 Forshey St",
    "address_councildis": "B",
    "status": "Pending",
    "rowid": "858949",
    "final_x": "3667474.18503",
    "final_y": "533446.200196",
    "longitude": "-90.11229413606814",
    "latitude": "29.961210504488204",
    "geocoded_column": {
      "latitude": "29.961210504488204",
      "longitude": "-90.11229413606814"
    }
  },