[
  {
    "service_request": "2025-1242461",
    "request_type": "Abandoned Vehicles",
    "request_reason": "Abandoned/Junk Vehicles",
    "date_created": "2025-11-25T21:56:08.000",
    "date_modified": "2025-11-25T21:56:09.000",
    "request_status": "Pending",
    "responsible_agency": "Department of Public Works",
    "final_address": "5900 Tchoupitoulas St",
    "address_councildis": "A",
    "status": "Pending",
    "rowid": "1242461",
    "final_x": "3664784.09159",
    "final_y": "517255.629301",
    "longitude": "-90.12132979741575",
    "latitude": "29.91677015230357",
    "geocoded_column": {
      "latitude": "29.91677015230357",
      "longitude": "-90.12132979741575"
    }
  },
  {
    "service_request": "2025-1242460",
    "request_type": "Property Maintenance",
    "request_reason": "Property Maintenance",
    "date_created": "2025-11-25T21:53:48.000",
    "date_modified": "2025-11-25T21:53:50.000",
    "request_status": "Pending",
    "responsible_agency": "Department of Code Enforcement",
    "final_address": "827 Belleville St",
    "address_councildis": "C",
    "status": "Pending",
    "rowid": "1242460",
    "final_x": "3687758.62364",
    "final_y": "528497.171776",
    "longitude": "-90.04841492851232",
    "latitude": "29.946992430346842",
    "geocoded_column": {
      "latitude": "29.946992430346842",
      "longitude": "-90.04841492851232"
    }
  },
  {
    "service_request": "2025-1242459",
    "request_type": "Trash/Recycling",
    "request_reason": "Missed Trash Pick-Up",
    "date_created": "2025-11-25T20:58:25.000",
    "date_modified": "2025-11-25T20:58:28.000",
    "request_status": "Pending",
    "responsible_agency": "Department of Sanitation",
    "final_address": "718 N Murat St",
    "address_councildis": "A",
    "status": "Assigned to Contractor",
    "contractor": "IV Waste",
    "rowid": "1242459",
    "final_x": "3671244.20007",
    "final_y": "541342.01486",
    "longitude": "-90.10012072816382",
    "latitude": "29.982810329196948",
    "geocoded_column": {
      "latitude": "29.982810329196948",
      "longitude": "-90.10012072816382"
    }
  },
  {
    "service_request": "2025-1242458",
    "request_type": "Abandoned Vehicles",
    "request_reason": "Abandoned/Junk Vehicles",
    "date_created": "2025-11-25T20:42:38.000",
    "date_modified": "2025-11-25T20:42:40.000",
    "request_status": "Pending",
    "responsible_agency": "Department of Public Works",
    "final_address": "1302 St Denis St",
    "address_councildis": "D",
    "status": "Pending",
    "rowid": "1242458",
    "final_x": "3677456.85154",
    "final_y": "545667.35336",
    "longitude": "-90.08034864033688",
    "latitude": "29.994518186275755",
    "geocoded_column": {
      "latitude": "29.994518186275755",
      "longitude": "-90.08034864033688"
    }
  },
  {
    "service_request": "2025-1242457",
    "request_type": "Trash/Recycling",
    "request_reason": "Request a Large Item Pick Up",
    "date_created": "2025-11-25T20:20:06.000",
    "date_modified": "2025-11-25T20:20:08.000",
    "request_status": "Pending",
    "responsible_agency": "Department of Sanitation",
    "final_address": "6069 Wingate Dr",
    "address_councildis": "D",
    "status": "Assigned to Contractor",
    "contractor": "IV Waste",
    "rowid": "1242457",
    "final_x": "3681217.61992",
    "final_y": "555470.215769",
    "longitude": "-90.06812693193024",
    "latitude": "30.021358914582358",
    "geocoded_column": {
      "latitude": "30.021358914582358",
      "longitude": "-90.06812693193024"
    }
  },
  {
    "service_request": "2025-1242456",
    "request_type": "Trash/Recycling",
    "request_reason": "Request a Large Item Pick Up",
    "date_created": "2025-11-25T20:09:59.000",
    "date_modified": "2025-11-25T20:10:00.000",
    "request_status": "Pending",
    "responsible_agency": "Department of Sanitation",
    "final_address": "4711 Coliseum St",
    "address_councildis": "B",
    "status": "Assigned to Contractor",
    "contractor": "IV Waste",
    "rowid": "1242456",
    "final_x": "3669729.15591",
    "final_y": "519737.56908",
    "longitude": "-90.10563714098716",
    "latitude": "29.92344995064671",
    "geocoded_column": {
      "latitude": "29.92344995064671",
      "longitude": "-90.10563714098716"
    }
  },
  {
    "service_request": "2025-1242455",
    "request_type": "General Services",
    "request_reason": "General Service Request",
    "date_created": "2025-11-25T19:45:44.000",
    "date_modified": "2025-11-25T19:45:47.000",
    "request_status": "Pending",
    "responsible_agency": "Orleans Parish Communication District",
    "final_address": "2832 Saint Ann St, New Orleans, Louisiana, 70119",
    "address_councildis": "A",
    "status": "Pending",
    "rowid": "1242455",
    "final_x": "3676221.36078",
    "final_y": "537707.722952",
    "longitude": "-90.08452543424423",
    "latitude": "29.97266904560213",
    "geocoded_column": {
      "latitude": "29.97266904560213",
      "longitude": "-90.08452543424423"
    }
  },
  {
    "service_request": "2025-1242454",
    "request_type": "Trash/Recycling",
    "request_reason": "Order Recycling Cart",
    "date_created": "2025-11-25T19:43:56.000",
    "date_modified": "2025-11-25T19:43:58.000",
    "request_status": "Pending",
    "responsible_agency": "Department of Sanitation",
    "final_address": "2832 Saint Ann St, New Orleans, Louisiana, 70119",
    "address_councildis": "A",
    "status": "Pending",
    "rowid": "1242454",
    "final_x": "3676221.36078",
    "final_y": "537707.722952",
    "longitude": "-90.08452543424423",
    "latitude": "29.97266904560213",
    "geocoded_column": {
      "latitude": "29.97266904560213",
      "longitude": "-90.08452543424423"
    }
  },
  {
    "service_request": "2025-1242453",
    "request_type": "Trash/Recycling",
    "request_reason": "Repair Trash Cart",
    "date_created": "2025-11-25T19:41:03.000",
    "date_modified": "2025-11-25T19:41:07.000",
    "request_status": "Pending",
    "responsible_agency": "Department of Sanitation",
    "final_address": "2832 Saint Ann St, New Orleans, Louisiana, 70119",
    "address_councildis": "A",
    "status": "Assigned to Contractor",
    "contractor": "IV Waste",
    "rowid": "1242453",
    "final_x": "3676221.36078",
    "final_y": "537707.722952",
    "longitude": "-90.08452543424423",
    "latitude": "29.97266904560213",
    "geocoded_column": {
      "latitude": "29.97266904560213",
      "longitude": "-90.08452543424423"
    }
  },
  {
    "service_request": "2025-1242452",
    "request_type": "Trash/Recycling",
    "request_reason": "Missed Trash Pick-Up",
    "date_created": "2025-11-25T19:05:52.000",
    "date_modified": "2025-11-25T19:05:54.000",
    "request_status": "Pending",
    "responsible_agency": "Department of Sanitation",
    "final_address": "717 Evelina St",
    "address_councildis": "C",
    "status": "Assigned to Contractor",
    "contractor": "Richards Disposal",
    "rowid": "1242452",
    "final_x": "3687668.62953",
    "final_y": "529460.512641",
    "longitude": "-90.04866497116821",
    "latitude": "29.94964406327142",
    "geocoded_column": {
      "latitude": "29.94964406327142",
      "longitude": "-90.04866497116821"
    }
  },
  {
    "service_request": "2025-1242451",
    "request_type": "Abandoned Vehicles",
    "request_reason": "Abandoned/Junk Vehicles",
    "date_created": "2025-11-25T19:00:04.000",
    "date_modified": "2025-11-25T19:00:06.000",
    "request_status": "Pending",
    "responsible_agency": "Department of Public Works",
    "final_address": "2421 Cambronne St",
    "address_councildis": "A",
    "status": "Pending",
    "rowid": "1242451",
    "final_x": "3664241.8569",
    "final_y": "532424.421443",
    "longitude": "-90.1225353893967",
    "latitude": "29.958495261843943",
    "geocoded_column": {
      "latitude": "29.958495261843943",
      "longitude": "-90.1225353893967"
    }
  },
  {
    "service_request": "2025-1242450",
    "request_type": "Trash/Recycling",
    "request_reason": "Request a Large Item Pick Up",
    "date_created": "2025-11-25T18:45:25.000",
    "date_modified": "2025-11-25T18:45:27.000",
    "request_status": "Pending",
    "responsible_agency": "Department of Sanitation",
    "final_address": "5509 Cameron Blvd",
    "address_councildis": "D",
    "status": "Assigned to Contractor",
    "contractor": "IV Waste",
    "rowid": "1242450",
    "final_x": "3682652.72668",
    "final_y": "553110.948439",
    "longitude": "-90.0636749952641",
    "latitude": "30.01482814318348",
    "geocoded_column": {
      "latitude": "30.01482814318348",
      "longitude": "-90.0636749952641"
    }
  },
  {
    "service_request": "2025-1242449",
    "request_type": "Trash/Recycling",
    "request_reason": "Repair Recycling Cart",
    "date_created": "2025-11-25T18:40:41.000",
    "date_modified": "2025-11-25T18:40:43.000",
    "request_status": "Pending",
    "responsible_agency": "Department of Sanitation",
    "final_address": "1 BLK English Turn Dr",
    "address_councildis": "C",
    "status": "Pending",
    "rowid": "1242449",
    "final_x": "3718939.026",
    "final_y": "514664.624658",
    "longitude": "-89.95049513509709",
    "latitude": "29.907959675622806",
    "geocoded_column": {
      "latitude": "29.907959675622806",
      "longitude": "-89.95049513509709"
    }
  },
  {
    "service_request": "2025-1242448",
    "request_type": "Roads and Streets",
    "request_reason": "Street Subsidence (Sinking)",
    "date_created": "2025-11-25T18:32:09.000",
    "date_modified": "2025-11-25T18:32:11.000",
    "request_status": "Pending",
    "responsible_agency": "Sewerage & Water Board",
    "final_address": "1001 S Carrollton Ave",
    "address_councildis": "A",
    "status": "Pending",
    "rowid": "1242448",
    "final_x": "3661808.19206",
    "final_y": "527684.704767",
    "longitude": "-90.13037742554897",
    "latitude": "29.945533052555525",
    "geocoded_column": {
      "latitude": "29.945533052555525",
      "longitude": "-90.13037742554897"
    }
  },
  {
    "service_request": "2025-1242447",
    "request_type": "Trash/Recycling",
    "request_reason": "Request a Large Item Pick Up",
    "date_created": "2025-11-25T18:18:03.000",
    "date_modified": "2025-11-25T18:18:06.000",
    "request_status": "Pending",
    "responsible_agency": "Department of Sanitation",
    "final_address": "2131 Joseph St",
    "address_councildis": "A",
    "status": "Assigned to Contractor",
    "contractor": "IV Waste",
    "rowid": "1242447",
    "final_x": "3667303.17242",
    "final_y": "523996.552956",
    "longitude": "-90.1131519285362",
    "latitude": "29.93523205238563",
    "geocoded_column": {
      "latitude": "29.93523205238563",
      "longitude": "-90.1131519285362"
    }
  },
  {
    "service_request": "2025-1242446",
    "request_type": "Trash/Recycling",
    "request_reason": "Request a Large Item Pick Up",
    "date_created": "2025-11-25T17:57:21.000",
    "date_modified": "2025-11-25T17:57:23.000",
    "request_status": "Pending",
    "responsible_agency": "Department of Sanitation",
    "final_address": "4814 Nottingham Dr",
    "address_councildis": "E",
    "status": "Assigned to Contractor",
    "contractor": "Waste Pro",
    "rowid": "1242446",
    "final_x": "3716286.26751",
    "final_y": "557214.636891",
    "longitude": "-89.95725473203404",
    "latitude": "30.025044048348413",
    "geocoded_column": {
      "latitude": "30.025044048348413",
      "longitude": "-89.95725473203404"
    }
  },
  {
    "service_request": "2025-1242445",
    "request_type": "Trash/Recycling",
    "request_reason": "Request a Large Item Pick Up",
    "date_created": "2025-11-25T17:55:28.000",
    "date_modified": "2025-11-25T17:55:31.000",
    "request_status": "Pending",
    "responsible_agency": "Department of Sanitation",
    "final_address": "3708 Preston Pl",
    "address_councildis": "C",
    "status": "Assigned to Contractor",
    "contractor": "Richards Disposal",
    "rowid": "1242445",
    "final_x": "3708492.66558",
    "final_y": "517395.232437",
    "longitude": "-89.98336343777682",
    "latitude": "29.915810419512944",
    "geocoded_column": {
      "latitude": "29.915810419512944",
      "longitude": "-89.98336343777682"
    }
  },
  {
    "service_request": "2025-1242444",
    "request_type": "Trash/Recycling",
    "request_reason": "Order Recycling Cart",
    "date_created": "2025-11-25T17:50:46.000",
    "date_modified": "2025-11-25T17:50:49.000",
    "request_status": "Pending",
    "responsible_agency": "Department of Sanitation",
    "final_address": "2436 Verbena St",
    "address_councildis": "D",
    "status": "Pending",
    "rowid": "1242444",
    "final_x": "3685913.66217",
    "final_y": "547660.29333",
    "longitude": "-90.05356437373472",
    "latitude": "29.999741068409353",
    "geocoded_column": {
      "latitude": "29.999741068409353",
      "longitude": "-90.05356437373472"
    }
  },
  {
    "service_request": "2025-1242443",
    "request_type": "Abandoned Vehicles",
    "request_reason": "Abandoned/Junk Vehicles",
    "date_created": "2025-11-25T17:46:08.000",
    "date_modified": "2025-11-25T17:46:10.000",
    "request_status": "Pending",
    "responsible_agency": "Department of Public Works",
    "final_address": "1624 Broadway St",
    "address_councildis": "A",
    "status": "Pending",
    "rowid": "1242443",
    "final_x": "3665042.58196",
    "final_y": "527897.905791",
    "longitude": "-90.1201582364038",
    "latitude": "29.94602552231003",
    "geocoded_column": {
      "latitude": "29.94602552231003",
      "longitude": "-90.1201582364038"
    }
  },
  {
    "service_request": "2025-1242442",
    "request_type": "Trash/Recycling",
    "request_reason": "Replace Trash Cart",
    "date_created": "2025-11-25T17:30:39.000",
    "date_modified": "2025-11-25T17:30:41.000",
    "request_status": "Pending",
    "responsible_agency": "Department of Sanitation",
    "final_address": "1004 Philip St",
    "address_councildis": "B",
    "status": "Assigned to Contractor",
    "contractor": "IV Waste",
    "rowid": "1242442",
    "final_x": "3678703.40386",
    "final_y": "521580.386105",
    "longitude": "-90.07724502196974",
    "latitude": "29.928249656103322",
    "geocoded_column": {
      "latitude": "29.928249656103322",
      "longitude": "-90.07724502196974"
    }
  },
  {
    "service_request": "2025-1242440",
    "request_type": "Trash/Recycling",
    "request_reason": "Request a Large Item Pick Up",
    "date_created": "2025-11-25T17:20:30.000",
    "date_modified": "2025-11-25T17:20:32.000",
    "request_status": "Pending",
    "responsible_agency": "Department of Sanitation",
    "final_address": "4911 Sandalwood St",
    "address_councildis": "E",
    "status": "Assigned to Contractor",
    "contractor": "Waste Pro",
    "rowid": "1242440",
    "final_x": "3712205.42226",
    "final_y": "557149.154779",
    "longitude": "-89.97015188573648",
    "latitude": "30.024998121279673",
    "geocoded_column": {
      "latitude": "30.024998121279673",
      "longitude": "-89.97015188573648"
    }
  },
  {
    "service_request": "2025-1242439",
    "request_type": "General Services",
    "request_reason": "General Service Request",
    "date_created": "2025-11-25T17:11:36.000",
    "date_modified": "2025-11-25T17:11:38.000",
    "request_status": "Pending",
    "responsible_agency": "Orleans Parish Communication District",
    "final_address": "2131 St Anthony St",
    "address_councildis": "D",
    "status": "Pending",
    "rowid": "1242439",
    "final_x": "3683242.85116",
    "final_y": "540144.324107",
    "longitude": "-90.06226494494688",
    "latitude": "29.979156565238473",
    "geocoded_column": {
      "latitude": "29.979156565238473",
      "longitude": "-90.06226494494688"
    }
  },
  {
    "service_request": "2025-1242438",
    "request_type": "Trash/Recycling",
    "request_reason": "Missed Trash Pick-Up",
    "date_created": "2025-11-25T17:09:05.000",
    "date_modified": "2025-11-25T17:09:07.000",
    "request_status": "Pending",
    "responsible_agency": "Department of Sanitation",
    "final_address": "10311 Flossmoor Dr",
    "address_councildis": "E",
    "status": "Assigned to Contractor",
    "contractor": "Waste Pro",
    "rowid": "1242438",
    "final_x": "3709955.83768",
    "final_y": "563931.027297",
    "longitude": "-89.97700648445907",
    "latitude": "30.04371897655244",
    "geocoded_column": {
      "latitude": "30.04371897655244",
      "longitude": "-89.97700648445907"
    }
  },
  {
    "service_request": "2025-1242437",
    "request_type": "Roads and Streets",
    "request_reason": "Pothole",
    "date_created": "2025-11-25T17:02:11.000",
    "date_modified": "2025-11-25T17:02:21.000",
    "request_status": "Pending",
    "responsible_agency": "Department of Public Works",
    "final_address": "6656 Argonne Blvd",
    "address_councildis": "A",
    "status": "Pending",
    "rowid": "1242437",
    "final_x": "3670506.56283",
    "final_y": "551641.339157",
    "longitude": "-90.10210101692682",
    "latitude": "30.011151709108024",
    "geocoded_column": {
      "latitude": "30.011151709108024",
      "longitude": "-90.10210101692682"
    }
  },
  {
    "service_request": "2025-1242436",
    "request_type": "Roads and Streets",
    "request_reason": "Pothole",
    "date_created": "2025-11-25T17:02:10.000",
    "date_modified": "2025-11-25T17:02:12.000",
    "request_status": "Pending",
    "responsible_agency": "Department of Public Works",
    "final_address": "6656 Argonne Blvd",
    "address_councildis": "A",
    "status": "Pending",
    "rowid": "1242436",
    "final_x": "3670506.56283",
    "final_y": "551641.339157",
    "longitude": "-90.10210101692682",
    "latitude": "30.011151709108024",
    "geocoded_column": {
      "latitude": "30.011151709108024",
      "longitude": "-90.10210101692682"
    }
  },
  {
    "service_request": "2025-1242435",
    "request_type": "Trash/Recycling",
    "request_reason": "Return Recycling Cart",
    "date_created": "2025-11-25T16:54:57.000",
    "date_modified": "2025-11-25T16:54:58.000",
    "request_status": "Pending",
    "responsible_agency": "Department of Sanitation",
    "final_address": "4871 Lennox Blvd",
    "address_councildis": "C",
    "status": "Pending",
    "rowid": "1242435",
    "final_x": "3700611.49943",
    "final_y": "512423.367793",
    "longitude": "-90.00842072149607",
    "latitude": "29.902392434840337",
    "geocoded_column": {
      "latitude": "29.902392434840337",
      "longitude": "-90.00842072149607"
    }
  },
  {
    "service_request": "2025-1242434",
    "request_type": "Health Related Request",
    "request_reason": "Noise Ordinance Complaint",
    "date_created": "2025-11-25T16:54:05.000",
    "date_modified": "2025-11-25T16:54:06.000",
    "request_status": "Pending",
    "responsible_agency": "Health Department",
    "final_address": "2444 Dreux Ave, New Orleans, Louisiana, 70122",
    "address_councildis": "D",
    "status": "Pending",
    "rowid": "1242434",
    "final_x": "3685710.50889",
    "final_y": "552075.21519",
    "longitude": "-90.05405043050037",
    "latitude": "30.011886738314047",
    "geocoded_column": {
      "latitude": "30.011886738314047",
      "longitude": "-90.05405043050037"
    }
  },
  {
    "service_request": "2025-1242433",
    "request_type": "Roads and Streets",
    "request_reason": "Pothole",
    "date_created": "2025-11-25T16:53:33.000",
    "date_modified": "2025-11-25T16:53:36.000",
    "request_status": "Pending",
    "responsible_agency": "Department of Public Works",
    "final_address": "OAK ST & S CARROLLTON AVE",
    "address_councildis": "A",
    "status": "Pending",
    "rowid": "1242433",
    "final_x": "3661989.2",
    "final_y": "528349.78",
    "longitude": "-90.12978386560482",
    "latitude": "29.947356570354405",
    "geocoded_column": {
      "latitude": "29.947356570354405",
      "longitude": "-90.12978386560482"
    }
  },
  {
    "service_request": "2025-1242432",
    "request_type": "Trash/Recycling",
    "request_reason": "Return Trash Cart",
    "date_created": "2025-11-25T16:40:13.000",
    "date_modified": "2025-11-25T16:40:15.000",
    "request_status": "Pending",
    "responsible_agency": "Department of Sanitation",
    "final_address": "1407 Napoleon Ave",
    "address_councildis": "B",
    "status": "Assigned to Contractor",
    "contractor": "IV Waste",
    "rowid": "1242432",
    "final_x": "3670998.53083",
    "final_y": "520430.918264",
    "longitude": "-90.10160666198563",
    "latitude": "29.925318981634103",
    "geocoded_column": {
      "latitude": "29.925318981634103",
      "longitude": "-90.10160666198563"
    }
  },
  {
    "service_request": "2025-1242431",
    "request_type": "Trash/Recycling",
    "request_reason": "Request a Large Item Pick Up",
    "date_created": "2025-11-25T16:31:19.000",
    "date_modified": "2025-11-25T16:31:21.000",
    "request_status": "Pending",
    "responsible_agency": "Department of Sanitation",
    "final_address": "937 Henry Clay Ave",
    "address_councildis": "A",
    "status": "Assigned to Contractor",
    "contractor": "IV Waste",
    "rowid": "1242431",
    "final_x": "3664079.17332",
    "final_y": "520141.523896",
    "longitude": "-90.12345864054552",
    "latitude": "29.92472594535707",
    "geocoded_column": {
      "latitude": "29.92472594535707",
      "longitude": "-90.12345864054552"
    }
  },
  {
    "service_request": "2025-1242430",
    "request_type": "Trash/Recycling",
    "request_reason": "Order Trash Cart",
    "date_created": "2025-11-25T16:26:29.000",
    "date_modified": "2025-11-25T16:26:32.000",
    "request_status": "Pending",
    "responsible_agency": "Department of Sanitation",
    "final_address": "14033 Linden St",
    "address_councildis": "E",
    "status": "Assigned to Contractor",
    "contractor": "Waste Pro",
    "rowid": "1242430",
    "final_x": "3718442.30271",
    "final_y": "572567.474729",
    "longitude": "-89.94985635333187",
    "latitude": "30.067186691198465",
    "geocoded_column": {
      "latitude": "30.067186691198465",
      "longitude": "-89.94985635333187"
    }
  },
  {
    "service_request": "2025-1242429",
    "request_type": "Trash/Recycling",
    "request_reason": "Order Recycling Cart",
    "date_created": "2025-11-25T16:18:29.000",
    "date_modified": "2025-11-25T16:18:31.000",
    "request_status": "Pending",
    "responsible_agency": "Department of Sanitation",
    "final_address": "1629 Leon C Simon Dr, New Orleans, Louisiana, 70122",
    "address_councildis": "D",
    "status": "Pending",
    "rowid": "1242429",
    "final_x": "3679281.28783",
    "final_y": "555697.672281",
    "longitude": "-90.07423731186135",
    "latitude": "30.022042983424733",
    "geocoded_column": {
      "latitude": "30.022042983424733",
      "longitude": "-90.07423731186135"
    }
  },
  {
    "service_request": "2025-1242428",
    "request_type": "Trash/Recycling",
    "request_reason": "Request a Large Item Pick Up",
    "date_created": "2025-11-25T16:02:32.000",
    "date_modified": "2025-11-25T16:02:33.000",
    "request_status": "Pending",
    "responsible_agency": "Department of Sanitation",
    "final_address": "2101 Adams St",
    "address_councildis": "A",
    "status": "Assigned to Contractor",
    "contractor": "IV Waste",
    "rowid": "1242428",
    "final_x": "3665232.16711",
    "final_y": "529714.857217",
    "longitude": "-90.11949887749869",
    "latitude": "29.95101603102012",
    "geocoded_column": {
      "latitude": "29.95101603102012",
      "longitude": "-90.11949887749869"
    }
  },
  {
    "service_request": "2025-1242427",
    "request_type": "Trash/Recycling",
    "request_reason": "Request a Large Item Pick Up",
    "date_created": "2025-11-25T16:01:30.000",
    "date_modified": "2025-11-25T16:01:32.000",
    "request_status": "Pending",
    "responsible_agency": "Department of Sanitation",
    "final_address": "11400 Will Stutley Dr",
    "address_councildis": "E",
    "status": "Assigned to Contractor",
    "contractor": "Waste Pro",
    "rowid": "1242427",
    "final_x": "3717430.99116",
    "final_y": "558209.854363",
    "longitude": "-89.9535997637599",
    "latitude": "30.02774264871035",
    "geocoded_column": {
      "latitude": "30.02774264871035",
      "longitude": "-89.9535997637599"
    }
  },
  {
    "service_request": "2025-1242426",
    "request_type": "Trash/Recycling",
    "request_reason": "Illegal Dumping",
    "date_created": "2025-11-25T15:56:26.000",
    "date_modified": "2025-11-25T15:56:27.000",
    "request_status": "Pending",
    "responsible_agency": "Department of Sanitation",
    "final_address": "700 BLK Burdette St",
    "address_councildis": "A",
    "status": "Pending",
    "rowid": "1242426",
    "final_x": "3661739.44387",
    "final_y": "526455.235591",
    "longitude": "-90.13063523163463",
    "latitude": "29.942154388365356",
    "geocoded_column": {
      "latitude": "29.942154388365356",
      "longitude": "-90.13063523163463"
    }
  },
  {
    "service_request": "2025-1242425",
    "request_type": "Streetlights",
    "request_reason": "Streetlight Outage/Malfunction",
    "date_created": "2025-11-25T15:55:14.000",
    "date_modified": "2025-11-25T15:55:15.000",
    "request_status": "Pending",
    "responsible_agency": "Department of Public Works",
    "final_address": "3734 Preston Pl",
    "address_councildis": "C",
    "status": "Pending",
    "rowid": "1242425",
    "final_x": "3708378.44664",
    "final_y": "517253.907317",
    "longitude": "-89.983729207399",
    "latitude": "29.91542552421949",
    "geocoded_column": {
      "latitude": "29.91542552421949",
      "longitude": "-89.983729207399"
    }
  },
  {
    "service_request": "2025-1242424",
    "request_type": "Trash/Recycling",
    "request_reason": "Repair Recycling Cart",
    "date_created": "2025-11-25T15:53:53.000",
    "date_modified": "2025-11-25T15:53:55.000",
    "request_status": "Pending",
    "responsible_agency": "Department of Sanitation",
    "final_address": "4590 Lennox Blvd",
    "address_councildis": "C",
    "status": "Pending",
    "rowid": "1242424",
    "final_x": "3700858.6442",
    "final_y": "513899.653426",
    "longitude": "-90.00758684157496",
    "latitude": "29.906443862539565",
    "geocoded_column": {
      "latitude": "29.906443862539565",
      "longitude": "-90.00758684157496"
    }
  },
  {
    "service_request": "2025-1242423",
    "request_type": "Mosquito, Termite & Rodent Control",
    "request_reason": "Mosquito Complaint",
    "date_created": "2025-11-25T15:46:11.000",
    "date_modified": "2025-11-25T15:46:13.000",
    "request_status": "Pending",
    "responsible_agency": "Mosquito, Termite & Rodent Control Board",
    "final_address": "4800 Redwood St",
    "address_councildis": "E",
    "status": "Pending",
    "rowid": "1242423",
    "final_x": "3712387.7669",
    "final_y": "556423.85929",
    "longitude": "-89.9696029879221",
    "latitude": "30.022997878525725",
    "geocoded_column": {
      "latitude": "30.022997878525725",
      "longitude": "-89.9696029879221"
    }
  },
  {
    "service_request": "2025-1242422",
    "request_type": "Roads and Streets",
    "request_reason": "Debris in Driving Lanes",
    "date_created": "2025-11-25T15:45:10.000",
    "date_modified": "2025-11-25T15:46:57.000",
    "request_status": "Pending",
    "responsible_agency": "Department of Public Works",
    "final_address": "UPPERLINE ST & S MIRO ST",
    "address_councildis": "B",
    "status": "Pending",
    "rowid": "1242422",
    "final_x": "3669293.5",
    "final_y": "527738.28",
    "longitude": "-90.10674199696516",
    "latitude": "29.945462163793263",
    "geocoded_column": {
      "latitude": "29.945462163793263",
      "longitude": "-90.10674199696516"
    }
  },
  {
    "service_request": "2025-1242421",
    "request_type": "Trash/Recycling",
    "request_reason": "Replace Recycling Cart",
    "date_created": "2025-11-25T15:38:21.000",
    "date_modified": "2025-11-25T15:38:23.000",
    "request_status": "Pending",
    "responsible_agency": "Department of Sanitation",
    "final_address": "8410 Pritchard Pl",
    "address_councildis": "A",
    "status": "Pending",
    "rowid": "1242421",
    "final_x": "3665162.58535",
    "final_y": "533652.404677",
    "longitude": "-90.11958688646845",
    "latitude": "29.961845029306357",
    "geocoded_column": {
      "latitude": "29.961845029306357",
      "longitude": "-90.11958688646845"
    }
  },
  {
    "service_request": "2025-1242420",
    "request_type": "Trash/Recycling",
    "request_reason": "Order Trash Cart",
    "date_created": "2025-11-25T15:35:25.000",
    "date_modified": "2025-11-25T15:35:27.000",
    "request_status": "Pending",
    "responsible_agency": "Department of Sanitation",
    "final_address": "903 Belleville St",
    "address_councildis": "C",
    "status": "Assigned to Contractor",
    "contractor": "Richards Disposal",
    "rowid": "1242420",
    "final_x": "3687735.24892",
    "final_y": "528307.474432",
    "longitude": "-90.04849544697929",
    "latitude": "29.946471548057215",
    "geocoded_column": {
      "latitude": "29.946471548057215",
      "longitude": "-90.04849544697929"
    }
  },
  {
    "service_request": "2025-1242419",
    "request_type": "Streetlights",
    "request_reason": "Streetlight Outage/Malfunction",
    "date_created": "2025-11-25T15:33:50.000",
    "date_modified": "2025-11-25T15:33:55.000",
    "request_status": "Pending",
    "responsible_agency": "Department of Public Works",
    "final_address": "0 BLK Dunleith Ct",
    "address_councildis": "A",
    "status": "Pending",
    "rowid": "1242419",
    "final_x": "3663422.94543",
    "final_y": "525097.883319",
    "longitude": "-90.12536520382461",
    "latitude": "29.938373406873588",
    "geocoded_column": {
      "latitude": "29.938373406873588",
      "longitude": "-90.12536520382461"
    }
  },
  {
    "service_request": "2025-1242418",
    "request_type": "Trash/Recycling",
    "request_reason": "Order Trash Cart",
    "date_created": "2025-11-25T15:24:24.000",
    "date_modified": "2025-11-25T15:24:25.000",
    "request_status": "Pending",
    "responsible_agency": "Department of Sanitation",
    "final_address": "426 Elmira Ave",
    "address_councildis": "C",
    "status": "Assigned to Contractor",
    "contractor": "Richards Disposal",
    "rowid": "1242418",
    "final_x": "3688272.08265",
    "final_y": "530096.833153",
    "longitude": "-90.04673704096317",
    "latitude": "29.951375109402175",
    "geocoded_column": {
      "latitude": "29.951375109402175",
      "longitude": "-90.04673704096317"
    }
  },
  {
    "service_request": "2025-1242417",
    "request_type": "Trash/Recycling",
    "request_reason": "Order Second Trash Cart",
    "date_created": "2025-11-25T15:13:35.000",
    "date_modified": "2025-11-25T15:13:36.000",
    "request_status": "Pending",
    "responsible_agency": "Department of Sanitation",
    "final_address": "4140 St Peter St",
    "address_councildis": "A",
    "status": "Assigned to Contractor",
    "contractor": "IV Waste",
    "rowid": "1242417",
    "final_x": "3672222.89025",
    "final_y": "540142.840779",
    "longitude": "-90.09707038935633",
    "latitude": "29.979484011130275",
    "geocoded_column": {
      "latitude": "29.979484011130275",
      "longitude": "-90.09707038935633"
    }
  },
  {
    "service_request": "2025-1242416",
    "request_type": "Streetlights",
    "request_reason": "Streetlight Outage/Malfunction",
    "date_created": "2025-11-25T15:12:21.000",
    "date_modified": "2025-11-25T15:12:23.000",
    "request_status": "Pending",
    "responsible_agency": "Department of Public Works",
    "final_address": "4611 Lancelot Dr",
    "address_councildis": "E",
    "status": "Pending",
    "rowid": "1242416",
    "final_x": "3707618.18366",
    "final_y": "554538.39964",
    "longitude": "-89.9847437918546",
    "latitude": "30.017968818369006",
    "geocoded_column": {
      "latitude": "30.017968818369006",
      "longitude": "-89.9847437918546"
    }
  },
  {
    "service_request": "2025-1242415",
    "request_type": "Trash/Recycling",
    "request_reason": "Replace Recycling Cart",
    "date_created": "2025-11-25T15:08:08.000",
    "date_modified": "2025-11-25T15:08:10.000",
    "request_status": "Pending",
    "responsible_agency": "Department of Sanitation",
    "final_address": "303 Stafford Pl",
    "address_councildis": "A",
    "status": "Pending",
    "rowid": "1242415",
    "final_x": "3665384.0256",
    "final_y": "553994.704856",
    "longitude": "-90.11820638903559",
    "latitude": "30.017772994739225",
    "geocoded_column": {
      "latitude": "30.017772994739225",
      "longitude": "-90.11820638903559"
    }
  },
  {
    "service_request": "2025-1242414",
    "request_type": "Trash/Recycling",
    "request_reason": "Order Recycling Cart",
    "date_created": "2025-11-25T15:07:41.000",
    "date_modified": "2025-11-25T15:07:42.000",
    "request_status": "Pending",
    "responsible_agency": "Department of Sanitation",
    "final_address": "729 General Pershing St",
    "address_councildis": "B",
    "status": "Pending",
    "rowid": "1242414",
    "final_x": "3671543.06049",
    "final_y": "518326.250166",
    "longitude": "-90.09995926236756",
    "latitude": "29.919515708681004",
    "geocoded_column": {
      "latitude": "29.919515708681004",
      "longitude": "-90.09995926236756"
    }
  },
  {
    "service_request": "2025-1242413",
    "request_type": "Trash/Recycling",
    "request_reason": "Replace Trash Cart",
    "date_created": "2025-11-25T15:06:45.000",
    "date_modified": "2025-11-25T15:06:46.000",
    "request_status": "Pending",
    "responsible_agency": "Department of Sanitation",
    "final_address": "4140 St Peter St",
    "address_councildis": "A",
    "status": "Assigned to Contractor",
    "contractor": "IV Waste",
    "rowid": "1242413",
    "final_x": "3672222.89025",
    "final_y": "540142.840779",
    "longitude": "-90.09707038935633",
    "latitude": "29.979484011130275",
    "geocoded_column": {
      "latitude": "29.979484011130275",
      "longitude": "-90.09707038935633"
    }
  },
  {
    "service_request": "2025-1242412",
    "request_type": "Trash/Recycling",
    "request_reason": "Request a Large Item Pick Up",
    "date_created": "2025-11-25T15:04:50.000",
    "date_modified": "2025-11-25T15:04:51.000",
    "request_status": "Pending",
    "responsible_agency": "Department of Sanitation",
    "final_address": "66 Yosemite Dr",
    "address_councildis": "C",
    "status": "Assigned to Contractor",
    "contractor": "Richards Disposal",
    "rowid": "1242412",
    "final_x": "3699591.65975",
    "final_y": "516291.505204",
    "longitude": "-90.01149844802671",
    "latitude": "29.913060893703026",
    "geocoded_column": {
      "latitude": "29.913060893703026",
      "longitude": "-90.01149844802671"
    }
  },
  {
    "service_request": "2025-1242411",
    "request_type": "Trash/Recycling",
    "request_reason": "Repair Recycling Cart",
    "date_created": "2025-11-25T15:03:41.000",
    "date_modified": "2025-11-25T15:03:42.000",
    "request_status": "Pending",
    "responsible_agency": "Department of Sanitation",
    "final_address": "1918 Ellen Park Pl",
    "address_councildis": "C",
    "status": "Pending",
    "rowid": "1242411",
    "final_x": "3703017.53297",
    "final_y": "523756.258107",
    "longitude": "-90.00041137521688",
    "latitude": "29.93347727070808",
    "geocoded_column": {
      "latitude": "29.93347727070808",
      "longitude": "-90.00041137521688"
    }
  },
  {
    "service_request": "2025-1242410",
    "request_type": "Trash/Recycling",
    "request_reason": "Request a Large Item Pick Up",
    "date_created": "2025-11-25T14:58:51.000",
    "date_modified": "2025-11-25T14:58:53.000",
    "request_status": "Pending",
    "responsible_agency": "Department of Sanitation",
    "final_address": "1208 Sumner St",
    "address_councildis": "C",
    "status": "Assigned to Contractor",
    "contractor": "Richards Disposal",
    "rowid": "1242410",
    "final_x": "3691124.45065",
    "final_y": "526945.524222",
    "longitude": "-90.03784319275364",
    "latitude": "29.942621720712612",
    "geocoded_column": {
      "latitude": "29.942621720712612",
      "longitude": "-90.03784319275364"
    }
  },
  {
    "service_request": "2025-1242409",
    "request_type": "Streetlights",
    "request_reason": "Streetlight Outage/Malfunction",
    "date_created": "2025-11-25T14:54:29.000",
    "date_modified": "2025-11-25T14:54:31.000",
    "request_status": "Pending",
    "responsible_agency": "Department of Public Works",
    "final_address": "2748 Memorial Park Dr",
    "address_councildis": "C",
    "status": "Pending",
    "rowid": "1242409",
    "final_x": "3693139.63606",
    "final_y": "520950.265145",
    "longitude": "-90.03169583128569",
    "latitude": "29.92607400141357",
    "geocoded_column": {
      "latitude": "29.92607400141357",
      "longitude": "-90.03169583128569"
    }
  },
  {
    "service_request": "2025-1242408",
    "request_type": "Trash/Recycling",
    "request_reason": "Request a Large Item Pick Up",
    "date_created": "2025-11-25T14:50:59.000",
    "date_modified": "2025-11-25T14:51:01.000",
    "request_status": "Pending",
    "responsible_agency": "Department of Sanitation",
    "final_address": "4438 Cerise Ave",
    "address_councildis": "E",
    "status": "Assigned to Contractor",
    "contractor": "Waste Pro",
    "rowid": "1242408",
    "final_x": "3708700.44772",
    "final_y": "554041.804504",
    "longitude": "-89.98134279603082",
    "latitude": "30.01656830620188",
    "geocoded_column": {
      "latitude": "30.01656830620188",
      "longitude": "-89.98134279603082"
    }
  },
  {
    "service_request": "2025-1242407",
    "request_type": "Property Maintenance",
    "request_reason": "Property Maintenance",
    "date_created": "2025-11-25T14:50:36.000",
    "date_modified": "2025-11-25T15:11:28.000",
    "case_close_date": "2025-11-25T09:11:28.000",
    "request_status": "Closed",
    "responsible_agency": "Department of Code Enforcement",
    "final_address": "2227 N Villere St",
    "address_councildis": "C",
    "status": "Referred to Code Enforcement",
    "rowid": "1242407",
    "final_x": "3685231.95631",
    "final_y": "537467.262856",
    "longitude": "-90.05607683831545",
    "latitude": "29.971734763019423",
    "geocoded_column": {
      "latitude": "29.971734763019423",
      "longitude": "-90.05607683831545"
    }
  },
  {
    "service_request": "2025-1242406",
    "request_type": "Trash/Recycling",
    "request_reason": "Order Recycling Cart",
    "date_created": "2025-11-25T14:47:55.000",
    "date_modified": "2025-11-25T14:47:56.000",
    "request_status": "Pending",
    "responsible_agency": "Department of Sanitation",
    "final_address": "6314 S Claiborne Ave",
    "address_councildis": "A",
    "status": "Pending",
    "rowid": "1242406",
    "final_x": "3666894.88954",
    "final_y": "527946.116479",
    "longitude": "-90.11430823022015",
    "latitude": "29.946104030771266",
    "geocoded_column": {
      "latitude": "29.946104030771266",
      "longitude": "-90.11430823022015"
    }
  },
  {
    "service_request": "2025-1242405",
    "request_type": "Trash/Recycling",
    "request_reason": "Start Trash Service",
    "date_created": "2025-11-25T14:47:25.000",
    "date_modified": "2025-11-25T14:47:28.000",
    "request_status": "Pending",
    "responsible_agency": "Department of Sanitation",
    "final_address": "6314 S Claiborne Ave",
    "address_councildis": "A",
    "status": "Assigned to Contractor",
    "contractor": "IV Waste",
    "rowid": "1242405",
    "final_x": "3666894.88954",
    "final_y": "527946.116479",
    "longitude": "-90.11430823022015",
    "latitude": "29.946104030771266",
    "geocoded_column": {
      "latitude": "29.946104030771266",
      "longitude": "-90.11430823022015"
    }
  },
  {
    "service_request": "2025-1242404",
    "request_type": "Trash/Recycling",
    "request_reason": "Repair Trash Cart",
    "date_created": "2025-11-25T14:44:44.000",
    "date_modified": "2025-11-25T14:44:54.000",
    "request_status": "Pending",
    "responsible_agency": "Department of Sanitation",
    "final_address": "3312 Touro St",
    "address_councildis": "D",
    "status": "Assigned to Contractor",
    "contractor": "IV Waste",
    "rowid": "1242404",
    "final_x": "3683493.10146",
    "final_y": "544838.070031",
    "longitude": "-90.06130998627921",
    "latitude": "29.99205507573491",
    "geocoded_column": {
      "latitude": "29.99205507573491",
      "longitude": "-90.06130998627921"
    }
  },
  {
    "service_request": "2025-1242403",
    "request_type": "Trash/Recycling",
    "request_reason": "Request a Large Item Pick Up",
    "date_created": "2025-11-25T14:44:41.000",
    "date_modified": "2025-11-25T14:44:45.000",
    "request_status": "Pending",
    "responsible_agency": "Department of Sanitation",
    "final_address": "6200 Eastover Dr",
    "address_councildis": "E",
    "status": "Assigned to Contractor",
    "contractor": "Waste Pro",
    "rowid": "1242403",
    "final_x": "3717498.93983",
    "final_y": "564868.848546",
    "longitude": "-89.95313159758682",
    "latitude": "30.046049938574868",
    "geocoded_column": {
      "latitude": "30.046049938574868",
      "longitude": "-89.95313159758682"
    }
  },
  {
    "service_request": "2025-1242402",
    "request_type": "Trash/Recycling",
    "request_reason": "Request a Large Item Pick Up",
    "date_created": "2025-11-25T14:42:19.000",
    "date_modified": "2025-11-25T14:42:21.000",
    "request_status": "Pending",
    "responsible_agency": "Department of Sanitation",
    "final_address": "1933 Alvar St",
    "address_councildis": "D",
    "status": "Assigned to Contractor",
    "contractor": "IV Waste",
    "rowid": "1242402",
    "final_x": "3692354.62493",
    "final_y": "538651.245961",
    "longitude": "-90.03354003037157",
    "latitude": "29.974770063082804",
    "geocoded_column": {
      "latitude": "29.974770063082804",
      "longitude": "-90.03354003037157"
    }
  },
  {
    "service_request": "2025-1242401",
    "request_type": "Trash/Recycling",
    "request_reason": "Order Recycling Cart",
    "date_created": "2025-11-25T14:36:45.000",
    "date_modified": "2025-11-25T14:36:47.000",
    "request_status": "Pending",
    "responsible_agency": "Department of Sanitation",
    "final_address": "7541 Morel St",
    "address_councildis": "E",
    "status": "Pending",
    "rowid": "1242401",
    "final_x": "3719149.11903",
    "final_y": "571603.356904",
    "longitude": "-89.94765886612052",
    "latitude": "30.064512287519054",
    "geocoded_column": {
      "latitude": "30.064512287519054",
      "longitude": "-89.94765886612052"
    }
  },
  {
    "service_request": "2025-1242400",
    "request_type": "Trash/Recycling",
    "request_reason": "Repair Trash Cart",
    "date_created": "2025-11-25T14:36:09.000",
    "date_modified": "2025-11-25T14:36:11.000",
    "request_status": "Pending",
    "responsible_agency": "Department of Sanitation",
    "final_address": "7541 Morel St",
    "address_councildis": "E",
    "status": "Assigned to Contractor",
    "contractor": "Waste Pro",
    "rowid": "1242400",
    "final_x": "3719149.11903",
    "final_y": "571603.356904",
    "longitude": "-89.94765886612052",
    "latitude": "30.064512287519054",
    "geocoded_column": {
      "latitude": "30.064512287519054",
      "longitude": "-89.94765886612052"
    }
  },
  {
    "service_request": "2025-1242399",
    "request_type": "Trash/Recycling",
    "request_reason": "Request a Large Item Pick Up",
    "date_created": "2025-11-25T14:35:51.000",
    "date_modified": "2025-11-25T14:35:52.000",
    "request_status": "Pending",
    "responsible_agency": "Department of Sanitation",
    "final_address": "1839 Soniat St",
    "address_councildis": "B",
    "status": "Assigned to Contractor",
    "contractor": "IV Waste",
    "rowid": "1242399",
    "final_x": "3668557.0249",
    "final_y": "522465.15097",
    "longitude": "-90.1092451529735",
    "latitude": "29.930984413835066",
    "geocoded_column": {
      "latitude": "29.930984413835066",
      "longitude": "-90.1092451529735"
    }
  },
  {
    "service_request": "2025-1242398",
    "request_type": "Trash/Recycling",
    "request_reason": "Request a Large Item Pick Up",
    "date_created": "2025-11-25T14:35:35.000",
    "date_modified": "2025-11-25T14:38:18.000",
    "request_status": "Pending",
    "responsible_agency": "Department of Sanitation",
    "final_address": "7600 Symmes Ave",
    "address_councildis": "E",
    "status": "Assigned to Contractor",
    "contractor": "Waste Pro",
    "rowid": "1242398",
    "final_x": "3707849.92529",
    "final_y": "564522.969313",
    "longitude": "-89.98363998529048",
    "latitude": "30.045414953882887",
    "geocoded_column": {
      "latitude": "30.045414953882887",
      "longitude": "-89.98363998529048"
    }
  },
  {
    "service_request": "2025-1242397",
    "request_type": "Trash/Recycling",
    "request_reason": "Repair Trash Cart",
    "date_created": "2025-11-25T14:29:22.000",
    "date_modified": "2025-11-25T14:29:23.000",
    "request_status": "Pending",
    "responsible_agency": "Department of Sanitation",
    "final_address": "49 Allard Blvd",
    "address_councildis": "A",
    "status": "Assigned to Contractor",
    "contractor": "IV Waste",
    "rowid": "1242397",
    "final_x": "3672788.2882",
    "final_y": "540763.790155",
    "longitude": "-90.09526344288044",
    "latitude": "29.981174624332734",
    "geocoded_column": {
      "latitude": "29.981174624332734",
      "longitude": "-90.09526344288044"
    }
  },
  {
    "service_request": "2025-1242396",
    "request_type": "Roads and Streets",
    "request_reason": "Road Shoulder Damage",
    "date_created": "2025-11-25T14:28:10.000",
    "date_modified": "2025-11-25T14:28:11.000",
    "request_status": "Pending",
    "responsible_agency": "Department of Public Works",
    "final_address": "1538 Music St",
    "address_councildis": "C",
    "status": "Pending",
    "rowid": "1242396",
    "final_x": "3686671.41628",
    "final_y": "538245.887497",
    "longitude": "-90.05150330418006",
    "latitude": "29.973831509993293",
    "geocoded_column": {
      "latitude": "29.973831509993293",
      "longitude": "-90.05150330418006"
    }
  },
  {
    "service_request": "2025-1242395",
    "request_type": "Trash/Recycling",
    "request_reason": "Order Recycling Cart",
    "date_created": "2025-11-25T14:28:09.000",
    "date_modified": "2025-11-25T14:28:11.000",
    "request_status": "Pending",
    "responsible_agency": "Department of Sanitation",
    "final_address": "4307 Woodland Dr",
    "address_councildis": "C",
    "status": "Pending",
    "rowid": "1242395",
    "final_x": "3705311.02206",
    "final_y": "514658.712627",
    "longitude": "-89.993506844775",
    "latitude": "29.908388617291006",
    "geocoded_column": {
      "latitude": "29.908388617291006",
      "longitude": "-89.993506844775"
    }
  },
  {
    "service_request": "2025-1242394",
    "request_type": "Trash/Recycling",
    "request_reason": "Request a Large Item Pick Up",
    "date_created": "2025-11-25T14:26:17.000",
    "date_modified": "2025-11-25T14:26:18.000",
    "request_status": "Pending",
    "responsible_agency": "Department of Sanitation",
    "final_address": "6552 Virgilian St",
    "address_councildis": "D",
    "status": "Assigned to Contractor",
    "contractor": "Waste Pro",
    "rowid": "1242394",
    "final_x": "3697192.93136",
    "final_y": "555436.854617",
    "longitude": "-90.01765082661952",
    "latitude": "30.020772486847964",
    "geocoded_column": {
      "latitude": "30.020772486847964",
      "longitude": "-90.01765082661952"
    }
  },
  {
    "service_request": "2025-1242393",
    "request_type": "Trash/Recycling",
    "request_reason": "Order Second Trash Cart",
    "date_created": "2025-11-25T14:24:56.000",
    "date_modified": "2025-11-25T14:25:18.000",
    "request_status": "Pending",
    "responsible_agency": "Department of Sanitation",
    "final_address": "6551 Canal Blvd",
    "address_councildis": "A",
    "status": "Assigned to Contractor",
    "contractor": "IV Waste",
    "rowid": "1242393",
    "final_x": "3668987.75527",
    "final_y": "551094.371093",
    "longitude": "-90.10691805122596",
    "latitude": "30.00969252553549",
    "geocoded_column": {
      "latitude": "30.00969252553549",
      "longitude": "-90.10691805122596"
    }
  },
  {
    "service_request": "2025-1242392",
    "request_type": "Drainage",
    "request_reason": "Illegal Dumping (Sewer Odor)",
    "date_created": "2025-11-25T14:16:15.000",
    "date_modified": "2025-11-25T14:16:17.000",
    "request_status": "Pending",
    "responsible_agency": "Sewerage & Water Board",
    "final_address": "3900 BLK Urquhart St",
    "address_councildis": "D",
    "status": "Pending",
    "rowid": "1242392",
    "final_x": "3691826.84006",
    "final_y": "536072.449952",
    "longitude": "-90.03529916285221",
    "latitude": "29.96769573841905",
    "geocoded_column": {
      "latitude": "29.96769573841905",
      "longitude": "-90.03529916285221"
    }
  },
  {
    "service_request": "2025-1242391",
    "request_type": "Trash/Recycling",
    "request_reason": "Request a Large Item Pick Up",
    "date_created": "2025-11-25T14:10:19.000",
    "date_modified": "2025-11-25T14:10:20.000",
    "request_status": "Pending",
    "responsible_agency": "Department of Sanitation",
    "final_address": "7410 W Laverne St",
    "address_councildis": "D",
    "status": "Assigned to Contractor",
    "contractor": "Waste Pro",
    "rowid": "1242391",
    "final_x": "3695310.68138",
    "final_y": "558006.046363",
    "longitude": "-90.02350535808644",
    "latitude": "30.027896081788107",
    "geocoded_column": {
      "latitude": "30.027896081788107",
      "longitude": "-90.02350535808644"
    }
  },
  {
    "service_request": "2025-1242390",
    "request_type": "Trash/Recycling",
    "request_reason": "Illegal Dumping",
    "date_created": "2025-11-25T14:07:05.000",
    "date_modified": "2025-11-25T14:08:08.000",
    "request_status": "Pending",
    "responsible_agency": "Department of Sanitation",
    "final_address": "I 10 W SERVICE RD & WRIGHT RD",
    "address_councildis": "E",
    "status": "Pending",
    "rowid": "1242390",
    "final_x": "3712734.1",
    "final_y": "563386.88",
    "longitude": "-89.96824655099546",
    "latitude": "30.042132073687252",
    "geocoded_column": {
      "latitude": "30.042132073687252",
      "longitude": "-89.96824655099546"
    }
  },
  {
    "service_request": "2025-1242389",
    "request_type": "Street and Traffic Signs",
    "request_reason": "Stop Sign Missing or Damaged",
    "date_created": "2025-11-25T14:05:06.000",
    "date_modified": "2025-11-25T14:05:10.000",
    "request_status": "Pending",
    "responsible_agency": "Department of Public Works",
    "final_address": "1401 Casa Calvo St",
    "address_councildis": "C",
    "status": "Pending",
    "rowid": "1242389",
    "final_x": "3692017.22563",
    "final_y": "526159.769406",
    "longitude": "-90.03505261405658",
    "latitude": "29.940433379682077",
    "geocoded_column": {
      "latitude": "29.940433379682077",
      "longitude": "-90.03505261405658"
    }
  },
  {
    "service_request": "2025-1242388",
    "request_type": "Trash/Recycling",
    "request_reason": "Illegal Dumping",
    "date_created": "2025-11-25T14:05:00.000",
    "date_modified": "2025-11-25T14:05:01.000",
    "request_status": "Pending",
    "responsible_agency": "Department of Sanitation",
    "final_address": "3200 BLK General Ogden St",
    "address_councildis": "A",
    "status": "Pending",
    "rowid": "1242388",
    "final_x": "3664800.12213",
    "final_y": "535691.580964",
    "longitude": "-90.12066334278671",
    "latitude": "29.967462645510324",
    "geocoded_column": {
      "latitude": "29.967462645510324",
      "longitude": "-90.12066334278671"
    }
  },
  {
    "service_request": "2025-1242387",
    "request_type": "Trash/Recycling",
    "request_reason": "Illegal Dumping",
    "date_created": "2025-11-25T14:02:59.000",
    "date_modified": "2025-11-25T14:03:01.000",
    "request_status": "Pending",
    "responsible_agency": "Department of Sanitation",
    "final_address": "3500 BLK Hamilton St",
    "address_councildis": "A",
    "status": "Pending",
    "rowid": "1242387",
    "final_x": "3664989.11815",
    "final_y": "536937.068302",
    "longitude": "-90.12002483859776",
    "latitude": "29.970881822401996",
    "geocoded_column": {
      "latitude": "29.970881822401996",
      "longitude": "-90.12002483859776"
    }
  },
  {
    "service_request": "2025-1242386",
    "request_type": "Trash/Recycling",
    "request_reason": "Order Recycling Cart",
    "date_created": "2025-11-25T14:01:57.000",
    "date_modified": "2025-11-25T14:01:59.000",
    "request_status": "Pending",
    "responsible_agency": "Department of Sanitation",
    "final_address": "7622 Burthe St",
    "address_councildis": "A",
    "status": "Pending",
    "rowid": "1242386",
    "final_x": "3662397.53549",
    "final_y": "526508.765758",
    "longitude": "-90.12855570570441",
    "latitude": "29.942282569598564",
    "geocoded_column": {
      "latitude": "29.942282569598564",
      "longitude": "-90.12855570570441"
    }
  },
  {
    "service_request": "2025-1242385",
    "request_type": "Roads and Streets",
    "request_reason": "Street Subsidence (Sinking)",
    "date_created": "2025-11-25T14:01:04.000",
    "date_modified": "2025-11-25T14:01:06.000",
    "request_status": "Pending",
    "responsible_agency": "Sewerage & Water Board",
    "final_address": "6560 Argonne Blvd",
    "address_councildis": "A",
    "status": "Pending",
    "rowid": "1242385",
    "final_x": "3670456.51067",
    "final_y": "551112.412501",
    "longitude": "-90.10227710595206",
    "latitude": "30.009698825857654",
    "geocoded_column": {
      "latitude": "30.009698825857654",
      "longitude": "-90.10227710595206"
    }
  },
  {
    "service_request": "2025-1242384",
    "request_type": "Trash/Recycling",
    "request_reason": "Replace Trash Cart",
    "date_created": "2025-11-25T14:00:58.000",
    "date_modified": "2025-11-25T14:01:00.000",
    "request_status": "Pending",
    "responsible_agency": "Department of Sanitation",
    "final_address": "7622 Burthe St",
    "address_councildis": "A",
    "status": "Assigned to Contractor",
    "contractor": "IV Waste",
    "rowid": "1242384",
    "final_x": "3662397.53549",
    "final_y": "526508.765758",
    "longitude": "-90.12855570570441",
    "latitude": "29.942282569598564",
    "geocoded_column": {
      "latitude": "29.942282569598564",
      "longitude": "-90.12855570570441"
    }
  },
  {
    "service_request": "2025-1242383",
    "request_type": "Trash/Recycling",
    "request_reason": "Request a Large Item Pick Up",
    "date_created": "2025-11-25T13:59:29.000",
    "date_modified": "2025-11-25T14:01:41.000",
    "request_status": "Pending",
    "responsible_agency": "Department of Sanitation",
    "final_address": "11211 N Interstate 10 Service Rd",
    "address_councildis": "E",
    "status": "Assigned to Contractor",
    "contractor": "Waste Pro",
    "rowid": "1242383",
    "final_x": "3713186.00184",
    "final_y": "563865.262177",
    "longitude": "-89.96680035262347",
    "latitude": "30.043432620885643",
    "geocoded_column": {
      "latitude": "30.043432620885643",
      "longitude": "-89.96680035262347"
    }
  },
  {
    "service_request": "2025-1242382",
    "request_type": "Trash/Recycling",
    "request_reason": "Repair Trash Cart",
    "date_created": "2025-11-25T13:57:45.000",
    "date_modified": "2025-11-25T13:57:46.000",
    "request_status": "Pending",
    "responsible_agency": "Department of Sanitation",
    "final_address": "7549 Elmdale Rd",
    "address_councildis": "E",
    "status": "Assigned to Contractor",
    "contractor": "Waste Pro",
    "rowid": "1242382",
    "final_x": "3709677.56312",
    "final_y": "564553.262497",
    "longitude": "-89.97786268135943",
    "latitude": "30.04543892792313",
    "geocoded_column": {
      "latitude": "30.04543892792313",
      "longitude": "-89.97786268135943"
    }
  },
  {
    "service_request": "2025-1242381",
    "request_type": "Trash/Recycling",
    "request_reason": "Order Second Trash Cart",
    "date_created": "2025-11-25T13:56:52.000",
    "date_modified": "2025-11-25T13:56:54.000",
    "request_status": "Pending",
    "responsible_agency": "Department of Sanitation",
    "final_address": "7549 Elmdale Rd",
    "address_councildis": "E",
    "status": "Assigned to Contractor",
    "contractor": "Waste Pro",
    "rowid": "1242381",
    "final_x": "3709677.56312",
    "final_y": "564553.262497",
    "longitude": "-89.97786268135943",
    "latitude": "30.04543892792313",
    "geocoded_column": {
      "latitude": "30.04543892792313",
      "longitude": "-89.97786268135943"
    }
  },
  {
    "service_request": "2025-1242380",
    "request_type": "Trash/Recycling",
    "request_reason": "Order Recycling Cart",
    "date_created": "2025-11-25T13:55:32.000",
    "date_modified": "2025-11-25T13:55:33.000",
    "request_status": "Pending",
    "responsible_agency": "Department of Sanitation",
    "final_address": "2266 Carondelet St",
    "address_councildis": "B",
    "status": "Pending",
    "rowid": "1242380",
    "final_x": "3676984.32187",
    "final_y": "523651.487163",
    "longitude": "-90.08260042075553",
    "latitude": "29.93399621356161",
    "geocoded_column": {
      "latitude": "29.93399621356161",
      "longitude": "-90.08260042075553"
    }
  },
  {
    "service_request": "2025-1242379",
    "request_type": "Trash/Recycling",
    "request_reason": "Request a Large Item Pick Up",
    "date_created": "2025-11-25T13:54:43.000",
    "date_modified": "2025-11-25T13:54:44.000",
    "request_status": "Pending",
    "responsible_agency": "Department of Sanitation",
    "final_address": "11440 Zenith St",
    "address_councildis": "E",
    "status": "Assigned to Contractor",
    "contractor": "Waste Pro",
    "rowid": "1242379",
    "final_x": "3712007.28658",
    "final_y": "566309.436707",
    "longitude": "-89.9704336760293",
    "latitude": "30.050191712802423",
    "geocoded_column": {
      "latitude": "30.050191712802423",
      "longitude": "-89.9704336760293"
    }
  },
  {
    "service_request": "2025-1242378",
    "request_type": "Property Maintenance",
    "request_reason": "Property Maintenance",
    "date_created": "2025-11-25T13:54:39.000",
    "date_modified": "2025-11-25T15:19:57.000",
    "case_close_date": "2025-11-25T09:19:55.000",
    "request_status": "Closed",
    "responsible_agency": "Department of Code Enforcement",
    "final_address": "7555 Elmdale Rd",
    "address_councildis": "E",
    "status": "Referred to Code Enforcement",
    "rowid": "1242378",
    "final_x": "3709659.18955",
    "final_y": "564593.106785",
    "longitude": "-89.97791926066756",
    "latitude": "30.04554908133711",
    "geocoded_column": {
      "latitude": "30.04554908133711",
      "longitude": "-89.97791926066756"
    }
  },
  {
    "service_request": "2025-1242377",
    "request_type": "Trash/Recycling",
    "request_reason": "Repair Recycling Cart",
    "date_created": "2025-11-25T13:53:15.000",
    "date_modified": "2025-11-25T13:53:16.000",
    "request_status": "Pending",
    "responsible_agency": "Department of Sanitation",
    "final_address": "4826 Coronado Dr",
    "address_councildis": "E",
    "status": "Pending",
    "rowid": "1242377",
    "final_x": "3714029.094",
    "final_y": "556760.299354",
    "longitude": "-89.96440411662816",
    "latitude": "30.023869141328706",
    "geocoded_column": {
      "latitude": "30.023869141328706",
      "longitude": "-89.96440411662816"
    }
  },
  {
    "service_request": "2025-1242376",
    "request_type": "Trash/Recycling",
    "request_reason": "Request a Large Item Pick Up",
    "date_created": "2025-11-25T13:52:45.000",
    "date_modified": "2025-11-25T13:52:47.000",
    "request_status": "Pending",
    "responsible_agency": "Department of Sanitation",
    "final_address": "5059 W St Andrews Cir",
    "address_councildis": "E",
    "status": "Assigned to Contractor",
    "contractor": "Waste Pro",
    "rowid": "1242376",
    "final_x": "3719040.0661",
    "final_y": "559677.031517",
    "longitude": "-89.94845923499015",
    "latitude": "30.031723422169648",
    "geocoded_column": {
      "latitude": "30.031723422169648",
      "longitude": "-89.94845923499015"
    }
  },
  {
    "service_request": "2025-1242375",
    "request_type": "Trash/Recycling",
    "request_reason": "Repair Trash Cart",
    "date_created": "2025-11-25T13:52:21.000",
    "date_modified": "2025-11-25T13:52:23.000",
    "request_status": "Pending",
    "responsible_agency": "Department of Sanitation",
    "final_address": "4826 Coronado Dr",
    "address_councildis": "E",
    "status": "Assigned to Contractor",
    "contractor": "Waste Pro",
    "rowid": "1242375",
    "final_x": "3714029.094",
    "final_y": "556760.299354",
    "longitude": "-89.96440411662816",
    "latitude": "30.023869141328706",
    "geocoded_column": {
      "latitude": "30.023869141328706",
      "longitude": "-89.96440411662816"
    }
  },
  {
    "service_request": "2025-1242374",
    "request_type": "Trash/Recycling",
    "request_reason": "Order Trash Cart",
    "date_created": "2025-11-25T13:49:22.000",
    "date_modified": "2025-11-25T13:49:24.000",
    "request_status": "Pending",
    "responsible_agency": "Department of Sanitation",
    "final_address": "2266 Carondelet St",
    "address_councildis": "B",
    "status": "Assigned to Contractor",
    "contractor": "IV Waste",
    "rowid": "1242374",
    "final_x": "3676984.32187",
    "final_y": "523651.487163",
    "longitude": "-90.08260042075553",
    "latitude": "29.93399621356161",
    "geocoded_column": {
      "latitude": "29.93399621356161",
      "longitude": "-90.08260042075553"
    }
  },
  {
    "service_request": "2025-1242373",
    "request_type": "Abandoned Vehicles",
    "request_reason": "Abandoned/Junk Vehicles",
    "date_created": "2025-11-25T13:45:50.000",
    "date_modified": "2025-11-25T13:45:52.000",
    "request_status": "Pending",
    "responsible_agency": "Department of Public Works",
    "final_address": "8100 BLK Leake Ave",
    "address_councildis": "A",
    "status": "Pending",
    "rowid": "1242373",
    "final_x": "3660420.41009",
    "final_y": "526946.933427",
    "longitude": "-90.13478349358279",
    "latitude": "29.943544404387048",
    "geocoded_column": {
      "latitude": "29.943544404387048",
      "longitude": "-90.13478349358279"
    }
  },
  {
    "service_request": "2025-1242372",
    "request_type": "Trash/Recycling",
    "request_reason": "Replace Trash Cart",
    "date_created": "2025-11-25T13:44:32.000",
    "date_modified": "2025-11-25T13:44:35.000",
    "request_status": "Pending",
    "responsible_agency": "Department of Sanitation",
    "final_address": "2622 Urquhart St",
    "address_councildis": "C",
    "status": "Assigned to Contractor",
    "contractor": "IV Waste",
    "rowid": "1242372",
    "final_x": "3687483.67676",
    "final_y": "537118.642056",
    "longitude": "-90.04897791770404",
    "latitude": "29.970706970307322",
    "geocoded_column": {
      "latitude": "29.970706970307322",
      "longitude": "-90.04897791770404"
    }
  },
  {
    "service_request": "2025-1242371",
    "request_type": "Trash/Recycling",
    "request_reason": "Order Recycling Cart",
    "date_created": "2025-11-25T13:43:32.000",
    "date_modified": "2025-11-25T13:43:34.000",
    "request_status": "Pending",
    "responsible_agency": "Department of Sanitation",
    "final_address": "1500 Camp St, New Orleans, Louisiana, 70130",
    "address_councildis": "B",
    "status": "Pending",
    "rowid": "1242371",
    "final_x": "3679833.75432",
    "final_y": "523875.159612",
    "longitude": "-90.0735971156865",
    "latitude": "29.93452540916678",
    "geocoded_column": {
      "latitude": "29.93452540916678",
      "longitude": "-90.0735971156865"
    }
  },
  {
    "service_request": "2025-1242370",
    "request_type": "Trash/Recycling",
    "request_reason": "Request a Large Item Pick Up",
    "date_created": "2025-11-25T13:40:06.000",
    "date_modified": "2025-11-25T13:47:55.000",
    "request_status": "Pending",
    "responsible_agency": "Department of Sanitation",
    "final_address": "10901 Zenith St",
    "address_councildis": "E",
    "status": "Assigned to Contractor",
    "contractor": "Waste Pro",
    "rowid": "1242370",
    "final_x": "3710437.30693",
    "final_y": "565378.645602",
    "longitude": "-89.97543062966336",
    "latitude": "30.04768366542681",
    "geocoded_column": {
      "latitude": "30.04768366542681",
      "longitude": "-89.97543062966336"
    }
  },
  {
    "service_request": "2025-1242369",
    "request_type": "Trash/Recycling",
    "request_reason": "Order Recycling Cart",
    "date_created": "2025-11-25T13:38:44.000",
    "date_modified": "2025-11-25T13:38:46.000",
    "request_status": "Pending",
    "responsible_agency": "Department of Sanitation",
    "final_address": "1500 Camp St, New Orleans, Louisiana, 70130",
    "address_councildis": "B",
    "status": "Pending",
    "rowid": "1242369",
    "final_x": "3679833.75432",
    "final_y": "523875.159612",
    "longitude": "-90.0735971156865",
    "latitude": "29.93452540916678",
    "geocoded_column": {
      "latitude": "29.93452540916678",
      "longitude": "-90.0735971156865"
    }
  },
  {
    "service_request": "2025-1242368",
    "request_type": "Streetlights",
    "request_reason": "Streetlight Outage/Malfunction",
    "date_created": "2025-11-25T13:38:33.000",
    "date_modified": "2025-11-25T13:38:35.000",
    "request_status": "Pending",
    "responsible_agency": "Department of Public Works",
    "final_address": "3720 General Pershing St",
    "address_councildis": "B",
    "status": "Pending",
    "rowid": "1242368",
    "final_x": "3670465.09236",
    "final_y": "528371.200512",
    "longitude": "-90.1030214358913",
    "latitude": "29.94716795136435",
    "geocoded_column": {
      "latitude": "29.94716795136435",
      "longitude": "-90.1030214358913"
    }
  },
  {
    "service_request": "2025-1242367",
    "request_type": "Trash/Recycling",
    "request_reason": "Request a Large Item Pick Up",
    "date_created": "2025-11-25T13:34:21.000",
    "date_modified": "2025-11-25T13:34:23.000",
    "request_status": "Pending",
    "responsible_agency": "Department of Sanitation",
    "final_address": "2809 Paris Ave",
    "address_councildis": "D",
    "status": "Assigned to Contractor",
    "contractor": "IV Waste",
    "rowid": "1242367",
    "final_x": "3680026.90683",
    "final_y": "542706.698381",
    "longitude": "-90.07233308132055",
    "latitude": "29.986299900718013",
    "geocoded_column": {
      "latitude": "29.986299900718013",
      "longitude": "-90.07233308132055"
    }
  },
  {
    "service_request": "2025-1242366",
    "request_type": "Trash/Recycling",
    "request_reason": "Order Trash Cart",
    "date_created": "2025-11-25T13:33:16.000",
    "date_modified": "2025-11-25T13:33:18.000",
    "request_status": "Pending",
    "responsible_agency": "Department of Sanitation",
    "final_address": "4727 Bonita Dr",
    "address_councildis": "E",
    "status": "Assigned to Contractor",
    "contractor": "Waste Pro",
    "rowid": "1242366",
    "final_x": "3704536.22474",
    "final_y": "555190.580569",
    "longitude": "-89.99445744935826",
    "latitude": "30.019861441864627",
    "geocoded_column": {
      "latitude": "30.019861441864627",
      "longitude": "-89.99445744935826"
    }
  },
  {
    "service_request": "2025-1242365",
    "request_type": "Trash/Recycling",
    "request_reason": "Request a Large Item Pick Up",
    "date_created": "2025-11-25T13:32:35.000",
    "date_modified": "2025-11-25T13:32:38.000",
    "request_status": "Pending",
    "responsible_agency": "Department of Sanitation",
    "final_address": "1231 Feliciana St",
    "address_councildis": "C",
    "status": "Assigned to Contractor",
    "contractor": "IV Waste",
    "rowid": "1242365",
    "final_x": "3688912.4278",
    "final_y": "536659.593159",
    "longitude": "-90.04448206875051",
    "latitude": "29.96940063484659",
    "geocoded_column": {
      "latitude": "29.96940063484659",
      "longitude": "-90.04448206875051"
    }
  },
  {
    "service_request": "2025-1242364",
    "request_type": "General Services",
    "request_reason": "General Service Request",
    "date_created": "2025-11-25T13:29:23.000",
    "date_modified": "2025-11-25T13:33:10.000",
    "case_close_date": "2025-11-25T07:33:10.000",
    "request_status": "Closed",
    "responsible_agency": "Orleans Parish Communication District",
    "final_address": "EDINBURGH ST & HAMILTON ST",
    "address_councildis": "A",
    "status": "Referred to Risk Management",
    "rowid": "1242364",
    "final_x": "3664874.6",
    "final_y": "536810.48",
    "longitude": "-90.12039073492171",
    "latitude": "29.970537080291834",
    "geocoded_column": {
      "latitude": "29.970537080291834",
      "longitude": "-90.12039073492171"
    }
  },
  {
    "service_request": "2025-1242363",
    "request_type": "Drainage",
    "request_reason": "Drainage Manhole Cover Missing or Damaged",
    "date_created": "2025-11-25T13:27:12.000",
    "date_modified": "2025-11-25T13:27:14.000",
    "request_status": "Pending",
    "responsible_agency": "Sewerage & Water Board",
    "final_address": "EDINBURGH ST & HAMILTON ST",
    "address_councildis": "A",
    "status": "Pending",
    "rowid": "1242363",
    "final_x": "3664874.6",
    "final_y": "536810.48",
    "longitude": "-90.12039073492171",
    "latitude": "29.970537080291834",
    "geocoded_column": {
      "latitude": "29.970537080291834",
      "longitude": "-90.12039073492171"
    }
  },
  {
    "service_request": "2025-1242362",
    "request_type": "Trash/Recycling",
    "request_reason": "Replace Trash Cart",
    "date_created": "2025-11-25T13:25:39.000",
    "date_modified": "2025-11-25T13:25:41.000",
    "request_status": "Pending",
    "responsible_agency": "Department of Sanitation",
    "final_address": "6230 Memphis St",
    "address_councildis": "A",
    "status": "Assigned to Contractor",
    "contractor": "IV Waste",
    "rowid": "1242362",
    "final_x": "3669258.36289",
    "final_y": "548790.343955",
    "longitude": "-90.10614106352445",
    "latitude": "30.003349289723065",
    "geocoded_column": {
      "latitude": "30.003349289723065",
      "longitude": "-90.10614106352445"
    }
  },
  {
    "service_request": "2025-1242361",
    "request_type": "Streetlights",
    "request_reason": "Streetlight Knocked Down/Leaning",
    "date_created": "2025-11-25T13:21:17.000",
    "date_modified": "2025-11-25T13:30:01.000",
    "request_status": "Pending",
    "responsible_agency": "Department of Public Works",
    "final_address": "4719 Clio St",
    "address_councildis": "B",
    "status": "Pending",
    "rowid": "1242361",
    "final_x": "3669613.70126",
    "final_y": "532757.130372",
    "longitude": "-90.10556122346082",
    "latitude": "29.959252926845352",
    "geocoded_column": {
      "latitude": "29.959252926845352",
      "longitude": "-90.10556122346082"
    }
  },
  {
    "service_request": "2025-1242360",
    "request_type": "Drainage",
    "request_reason": "Catch Basin Not Draining",
    "date_created": "2025-11-25T13:19:29.000",
    "date_modified": "2025-11-25T13:19:31.000",
    "request_status": "Pending",
    "responsible_agency": "Sewerage & Water Board",
    "final_address": "1717 Religious St",
    "address_councildis": "B",
    "status": "Pending",
    "rowid": "1242360",
    "final_x": "3681602.80956",
    "final_y": "521650.837049",
    "longitude": "-90.068089792634",
    "latitude": "29.92835565972474",
    "geocoded_column": {
      "latitude": "29.92835565972474",
      "longitude": "-90.068089792634"
    }
  },
  {
    "service_request": "2025-1242359",
    "request_type": "Trash/Recycling",
    "request_reason": "Request a Large Item Pick Up",
    "date_created": "2025-11-25T13:17:21.000",
    "date_modified": "2025-11-25T13:17:23.000",
    "request_status": "Pending",
    "responsible_agency": "Department of Sanitation",
    "final_address": "2468 General Collins Ave",
    "address_councildis": "C",
    "status": "Assigned to Contractor",
    "contractor": "Richards Disposal",
    "rowid": "1242359",
    "final_x": "3698460.12496",
    "final_y": "521806.581882",
    "longitude": "-90.01486959123572",
    "latitude": "29.928261319235343",
    "geocoded_column": {
      "latitude": "29.928261319235343",
      "longitude": "-90.01486959123572"
    }
  },
  {
    "service_request": "2025-1242358",
    "request_type": "Trash/Recycling",
    "request_reason": "Repair Trash Cart",
    "date_created": "2025-11-25T13:17:11.000",
    "date_modified": "2025-11-25T13:17:13.000",
    "request_status": "Pending",
    "responsible_agency": "Department of Sanitation",
    "final_address": "401 Broadway St",
    "address_councildis": "A",
    "status": "Assigned to Contractor",
    "contractor": "IV Waste",
    "rowid": "1242358",
    "final_x": "3662115.59949",
    "final_y": "523347.954875",
    "longitude": "-90.1295506850264",
    "latitude": "29.933599488639814",
    "geocoded_column": {
      "latitude": "29.933599488639814",
      "longitude": "-90.1295506850264"
    }
  },
  {
    "service_request": "2025-1242357",
    "request_type": "Trash/Recycling",
    "request_reason": "Request a Large Item Pick Up",
    "date_created": "2025-11-25T13:16:18.000",
    "date_modified": "2025-11-25T13:16:20.000",
    "request_status": "Pending",
    "responsible_agency": "Department of Sanitation",
    "final_address": "1310 Short St",
    "address_councildis": "A",
    "status": "Assigned to Contractor",
    "contractor": "IV Waste",
    "rowid": "1242357",
    "final_x": "3662584.95021",
    "final_y": "528454.064128",
    "longitude": "-90.12789938122155",
    "latitude": "29.947626098641337",
    "geocoded_column": {
      "latitude": "29.947626098641337",
      "longitude": "-90.12789938122155"
    }
  },
  {
    "service_request": "2025-1242356",
    "request_type": "Trash/Recycling",
    "request_reason": "Request a Large Item Pick Up",
    "date_created": "2025-11-25T13:15:50.000",
    "date_modified": "2025-11-25T13:15:52.000",
    "request_status": "Pending",
    "responsible_agency": "Department of Sanitation",
    "final_address": "3320 Cherry St",
    "address_councildis": "A",
    "status": "Assigned to Contractor",
    "contractor": "IV Waste",
    "rowid": "1242356",
    "final_x": "3663961.34637",
    "final_y": "536903.721992",
    "longitude": "-90.12327179904695",
    "latitude": "29.970820015275294",
    "geocoded_column": {
      "latitude": "29.970820015275294",
      "longitude": "-90.12327179904695"
    }
  },
  {
    "service_request": "2025-1242355",
    "request_type": "Trash/Recycling",
    "request_reason": "Request a Large Item Pick Up",
    "date_created": "2025-11-25T13:12:44.000",
    "date_modified": "2025-11-25T13:12:46.000",
    "request_status": "Pending",
    "responsible_agency": "Department of Sanitation",
    "final_address": "1628 Flanders St",
    "address_councildis": "C",
    "status": "Assigned to Contractor",
    "contractor": "Richards Disposal",
    "rowid": "1242355",
    "final_x": "3696729.56656",
    "final_y": "525263.545981",
    "longitude": "-90.02020749042067",
    "latitude": "29.9378214223058",
    "geocoded_column": {
      "latitude": "29.9378214223058",
      "longitude": "-90.02020749042067"
    }
  },
  {
    "service_request": "2025-1242354",
    "request_type": "Property Maintenance",
    "request_reason": "Property Maintenance",
    "date_created": "2025-11-25T13:09:29.000",
    "date_modified": "2025-11-25T15:01:39.000",
    "case_close_date": "2025-11-25T09:01:39.000",
    "request_status": "Closed",
    "responsible_agency": "Department of Code Enforcement",
    "final_address": "1352 St Anthony St",
    "address_councildis": "C",
    "status": "Referred to Code Enforcement",
    "rowid": "1242354",
    "final_x": "3683422.77481",
    "final_y": "537013.281352",
    "longitude": "-90.06180641452848",
    "latitude": "29.970541798928068",
    "geocoded_column": {
      "latitude": "29.970541798928068",
      "longitude": "-90.06180641452848"
    }
  },
  {
    "service_request": "2025-1242353",
    "request_type": "Drainage",
    "request_reason": "Catch Basin Not Draining",
    "date_created": "2025-11-25T13:08:38.000",
    "date_modified": "2025-11-25T13:08:39.000",
    "request_status": "Pending",
    "responsible_agency": "Sewerage & Water Board",
    "final_address": "2623 N Claiborne Ave",
    "address_councildis": "D",
    "status": "Pending",
    "rowid": "1242353",
    "final_x": "3687755.07049",
    "final_y": "538325.520649",
    "longitude": "-90.04807807355643",
    "latitude": "29.974017095623452",
    "geocoded_column": {
      "latitude": "29.974017095623452",
      "longitude": "-90.04807807355643"
    }
  },
  {
    "service_request": "2025-1242352",
    "request_type": "Abandoned Vehicles",
    "request_reason": "Abandoned/Junk Vehicles",
    "date_created": "2025-11-25T13:06:24.000",
    "date_modified": "2025-11-25T13:06:26.000",
    "request_status": "Pending",
    "responsible_agency": "Department of Public Works",
    "final_address": "6911 Yorktown Dr",
    "address_councildis": "E",
    "status": "Pending",
    "rowid": "1242352",
    "final_x": "3706431.34967",
    "final_y": "560106.559581",
    "longitude": "-89.98828718359098",
    "latitude": "30.033317443318843",
    "geocoded_column": {
      "latitude": "30.033317443318843",
      "longitude": "-89.98828718359098"
    }
  },
  {
    "service_request": "2025-1242351",
    "request_type": "Parks & Parkways",
    "request_reason": "Request Tree Service (Right of Way/Public Property)",
    "date_created": "2025-11-25T13:05:33.000",
    "date_modified": "2025-11-25T13:13:11.000",
    "request_status": "Pending",
    "responsible_agency": "Department of Parks & Parkway",
    "final_address": "5001 Perlita St",
    "address_councildis": "D",
    "status": "Pending",
    "rowid": "1242351",
    "final_x": "3678824.21403",
    "final_y": "550600.930068",
    "longitude": "-90.07585828364795",
    "latitude": "30.008042585289",
    "geocoded_column": {
      "latitude": "30.008042585289",
      "longitude": "-90.07585828364795"
    }
  },
  {
    "service_request": "2025-1242350",
    "request_type": "Trash/Recycling",
    "request_reason": "Illegal Dumping",
    "date_created": "2025-11-25T13:05:21.000",
    "date_modified": "2025-11-25T13:05:23.000",
    "request_status": "Pending",
    "responsible_agency": "Department of Sanitation",
    "final_address": "10911 Lake Forest Blvd",
    "address_councildis": "E",
    "status": "Pending",
    "rowid": "1242350",
    "final_x": "3713785.40063",
    "final_y": "560368.857566",
    "longitude": "-89.96503797213117",
    "latitude": "30.033799244623992",
    "geocoded_column": {
      "latitude": "30.033799244623992",
      "longitude": "-89.96503797213117"
    }
  },
  {
    "service_request": "2025-1242349",
    "request_type": "Property Maintenance",
    "request_reason": "Property Maintenance",
    "date_created": "2025-11-25T13:02:04.000",
    "date_modified": "2025-11-25T15:29:59.000",
    "case_close_date": "2025-11-25T09:29:57.000",
    "request_status": "Closed",
    "responsible_agency": "Department of Code Enforcement",
    "final_address": "6951 Yorktown Dr",
    "address_councildis": "E",
    "status": "Referred to Code Enforcement",
    "rowid": "1242349",
    "final_x": "3706315.97771",
    "final_y": "560320.976413",
    "longitude": "-89.98864381626501",
    "latitude": "30.033910728630428",
    "geocoded_column": {
      "latitude": "30.033910728630428",
      "longitude": "-89.98864381626501"
    }
  },
  {
    "service_request": "2025-1242348",
    "request_type": "Trash/Recycling",
    "request_reason": "Request a Large Item Pick Up",
    "date_created": "2025-11-25T13:01:58.000",
    "date_modified": "2025-11-25T13:02:00.000",
    "request_status": "Pending",
    "responsible_agency": "Department of Sanitation",
    "final_address": "5810 Winchester Park Dr",
    "address_councildis": "E",
    "status": "Assigned to Contractor",
    "contractor": "Waste Pro",
    "rowid": "1242348",
    "final_x": "3715112.51333",
    "final_y": "562127.235167",
    "longitude": "-89.96077762416469",
    "latitude": "30.03859043433516",
    "geocoded_column": {
      "latitude": "30.03859043433516",
      "longitude": "-89.96077762416469"
    }
  },
  {
    "service_request": "2025-1242347",
    "request_type": "Property Maintenance",
    "request_reason": "Property Maintenance",
    "date_created": "2025-11-25T13:00:07.000",
    "date_modified": "2025-11-25T15:36:53.000",
    "case_close_date": "2025-11-25T09:36:51.000",
    "request_status": "Closed",
    "responsible_agency": "Department of Code Enforcement",
    "final_address": "6941 Yorktown Dr",
    "address_councildis": "E",
    "status": "Referred to Code Enforcement",
    "rowid": "1242347",
    "final_x": "3706341.91601",
    "final_y": "560267.764125",
    "longitude": "-89.98856382224932",
    "latitude": "30.03376357875856",
    "geocoded_column": {
      "latitude": "30.03376357875856",
      "longitude": "-89.98856382224932"
    }
  },
  {
    "service_request": "2025-1242346",
    "request_type": "Trash/Recycling",
    "request_reason": "Illegal Dumping",
    "date_created": "2025-11-25T12:58:53.000",
    "date_modified": "2025-11-25T13:01:37.000",
    "request_status": "Pending",
    "responsible_agency": "Department of Sanitation",
    "final_address": "11995 Curran Rd",
    "address_councildis": "E",
    "status": "Pending",
    "rowid": "1242346",
    "final_x": "3713408.10162",
    "final_y": "568148.028325",
    "longitude": "-89.96593690601222",
    "latitude": "30.05520120161991",
    "geocoded_column": {
      "latitude": "30.05520120161991",
      "longitude": "-89.96593690601222"
    }
  },
  {
    "service_request": "2025-1242345",
    "request_type": "Property Maintenance",
    "request_reason": "Property Maintenance",
    "date_created": "2025-11-25T12:58:20.000",
    "date_modified": "2025-11-25T15:41:56.000",
    "case_close_date": "2025-11-25T09:41:55.000",
    "request_status": "Closed",
    "responsible_agency": "Department of Code Enforcement",
    "final_address": "6900 Boston Dr",
    "address_councildis": "E",
    "status": "Referred to Code Enforcement",
    "rowid": "1242345",
    "final_x": "3706636.51639",
    "final_y": "560143.482781",
    "longitude": "-89.98763747063104",
    "latitude": "30.03341234394533",
    "geocoded_column": {
      "latitude": "30.03341234394533",
      "longitude": "-89.98763747063104"
    }
  },
  {
    "service_request": "2025-1242344",
    "request_type": "Parks & Parkways",
    "request_reason": "Request Tree Service (Right of Way/Public Property)",
    "date_created": "2025-11-25T12:55:44.000",
    "date_modified": "2025-11-25T12:55:45.000",
    "request_status": "Pending",
    "responsible_agency": "Department of Parks & Parkway",
    "final_address": "5601 Rhodes Ave",
    "address_councildis": "C",
    "status": "Pending",
    "rowid": "1242344",
    "final_x": "3704180.40593",
    "final_y": "519805.226424",
    "longitude": "-89.99688575989819",
    "latitude": "29.92257606311712",
    "geocoded_column": {
      "latitude": "29.92257606311712",
      "longitude": "-89.99688575989819"
    }
  },
  {
    "service_request": "2025-1242343",
    "request_type": "Abandoned Vehicles",
    "request_reason": "Abandoned/Junk Vehicles",
    "date_created": "2025-11-25T12:46:55.000",
    "date_modified": "2025-11-25T12:47:59.000",
    "request_status": "Pending",
    "responsible_agency": "Department of Public Works",
    "final_address": "1815 Henriette Delille St",
    "address_councildis": "C",
    "status": "Pending",
    "rowid": "1242343",
    "final_x": "3683747.25967",
    "final_y": "536256.760711",
    "longitude": "-90.0608081883752",
    "latitude": "29.968451724356484",
    "geocoded_column": {
      "latitude": "29.968451724356484",
      "longitude": "-90.0608081883752"
    }
  },
  {
    "service_request": "2025-1242342",
    "request_type": "Property Maintenance",
    "request_reason": "Property Maintenance",
    "date_created": "2025-11-25T12:44:08.000",
    "date_modified": "2025-11-25T15:47:02.000",
    "case_close_date": "2025-11-25T09:47:01.000",
    "request_status": "Closed",
    "responsible_agency": "Department of Code Enforcement",
    "final_address": "8831 Middleboro Rd",
    "address_councildis": "E",
    "status": "Referred to Code Enforcement",
    "rowid": "1242342",
    "final_x": "3705974.07377",
    "final_y": "560818.115038",
    "longitude": "-89.98970584378415",
    "latitude": "30.035288692484748",
    "geocoded_column": {
      "latitude": "30.035288692484748",
      "longitude": "-89.98970584378415"
    }
  },
  {
    "service_request": "2025-1242341",
    "request_type": "Trash/Recycling",
    "request_reason": "Request a Large Item Pick Up",
    "date_created": "2025-11-25T12:43:41.000",
    "date_modified": "2025-11-25T12:43:43.000",
    "request_status": "Pending",
    "responsible_agency": "Department of Sanitation",
    "final_address": "21 Park Timbers Dr",
    "address_councildis": "C",
    "status": "Assigned to Contractor",
    "contractor": "Richards Disposal",
    "rowid": "1242341",
    "final_x": "3699178.24855",
    "final_y": "517864.494966",
    "longitude": "-90.01274606905727",
    "latitude": "29.917399188566172",
    "geocoded_column": {
      "latitude": "29.917399188566172",
      "longitude": "-90.01274606905727"
    }
  },
  {
    "service_request": "2025-1242340",
    "request_type": "Streetlights",
    "request_reason": "Streetlight Outage/Malfunction",
    "date_created": "2025-11-25T12:37:37.000",
    "date_modified": "2025-11-25T12:37:38.000",
    "request_status": "Pending",
    "responsible_agency": "Department of Public Works",
    "final_address": "900 BLK Moss St",
    "address_councildis": "A",
    "status": "Pending",
    "rowid": "1242340",
    "final_x": "3674773.95914",
    "final_y": "539731.664747",
    "longitude": "-90.08902718746157",
    "latitude": "29.978277490277147",
    "geocoded_column": {
      "latitude": "29.978277490277147",
      "longitude": "-90.08902718746157"
    }
  },
  {
    "service_request": "2025-1242339",
    "request_type": "Trash/Recycling",
    "request_reason": "Request a Large Item Pick Up",
    "date_created": "2025-11-25T12:37:23.000",
    "date_modified": "2025-11-25T12:37:24.000",
    "request_status": "Pending",
    "responsible_agency": "Department of Sanitation",
    "final_address": "1500 Prytania St",
    "address_councildis": "B",
    "status": "Assigned to Contractor",
    "contractor": "IV Waste",
    "rowid": "1242339",
    "final_x": "3679653.66056",
    "final_y": "525186.344957",
    "longitude": "-90.07412017794726",
    "latitude": "29.9381361786935",
    "geocoded_column": {
      "latitude": "29.9381361786935",
      "longitude": "-90.07412017794726"
    }
  },
  {
    "service_request": "2025-1242338",
    "request_type": "Trash/Recycling",
    "request_reason": "Illegal Dumping",
    "date_created": "2025-11-25T12:36:49.000",
    "date_modified": "2025-11-25T12:38:41.000",
    "request_status": "Pending",
    "responsible_agency": "Department of Sanitation",
    "final_address": "4983 Louisa Dr",
    "address_councildis": "D",
    "status": "Pending",
    "rowid": "1242338",
    "final_x": "3691018.287",
    "final_y": "552183.901398",
    "longitude": "-90.03727707943821",
    "latitude": "30.01202157610894",
    "geocoded_column": {
      "latitude": "30.01202157610894",
      "longitude": "-90.03727707943821"
    }
  },
  {
    "service_request": "2025-1242337",
    "request_type": "Trash/Recycling",
    "request_reason": "Request a Large Item Pick Up",
    "date_created": "2025-11-25T12:34:59.000",
    "date_modified": "2025-11-25T12:35:00.000",
    "request_status": "Pending",
    "responsible_agency": "Department of Sanitation",
    "final_address": "3430 W St Roch Ave",
    "address_councildis": "D",
    "status": "Assigned to Contractor",
    "contractor": "IV Waste",
    "rowid": "1242337",
    "final_x": "3685527.70735",
    "final_y": "545534.025744",
    "longitude": "-90.05485856298581",
    "latitude": "29.993906443081283",
    "geocoded_column": {
      "latitude": "29.993906443081283",
      "longitude": "-90.05485856298581"
    }
  },
  {
    "service_request": "2025-1242336",
    "request_type": "Streetlights",
    "request_reason": "Streetlight Outage/Malfunction",
    "date_created": "2025-11-25T12:32:53.000",
    "date_modified": "2025-11-25T12:32:54.000",
    "request_status": "Pending",
    "responsible_agency": "Department of Public Works",
    "final_address": "5601 Rhodes Ave",
    "address_councildis": "C",
    "status": "Pending",
    "rowid": "1242336",
    "final_x": "3704180.40593",
    "final_y": "519805.226424",
    "longitude": "-89.99688575989819",
    "latitude": "29.92257606311712",
    "geocoded_column": {
      "latitude": "29.92257606311712",
      "longitude": "-89.99688575989819"
    }
  },
  {
    "service_request": "2025-1242335",
    "request_type": "Trash/Recycling",
    "request_reason": "Request a Large Item Pick Up",
    "date_created": "2025-11-25T12:30:26.000",
    "date_modified": "2025-11-25T12:30:28.000",
    "request_status": "Pending",
    "responsible_agency": "Department of Sanitation",
    "final_address": "4748 Francisco Verrett Dr",
    "address_councildis": "E",
    "status": "Assigned to Contractor",
    "contractor": "Waste Pro",
    "rowid": "1242335",
    "final_x": "3704153.09066",
    "final_y": "555297.200921",
    "longitude": "-89.99566408733848",
    "latitude": "30.02016691073006",
    "geocoded_column": {
      "latitude": "30.02016691073006",
      "longitude": "-89.99566408733848"
    }
  },
  {
    "service_request": "2025-1242334",
    "request_type": "Trash/Recycling",
    "request_reason": "Request a Large Item Pick Up",
    "date_created": "2025-11-25T12:29:10.000",
    "date_modified": "2025-11-25T12:29:14.000",
    "request_status": "Pending",
    "responsible_agency": "Department of Sanitation",
    "final_address": "5523 Elysian Fields Ave",
    "address_councildis": "D",
    "status": "Assigned to Contractor",
    "contractor": "IV Waste",
    "rowid": "1242334",
    "final_x": "3683774.55516",
    "final_y": "553319.454039",
    "longitude": "-90.06012324245323",
    "latitude": "30.015367230287595",
    "geocoded_column": {
      "latitude": "30.015367230287595",
      "longitude": "-90.06012324245323"
    }
  },
  {
    "service_request": "2025-1242333",
    "request_type": "Trash/Recycling",
    "request_reason": "Request a Large Item Pick Up",
    "date_created": "2025-11-25T12:28:58.000",
    "date_modified": "2025-11-25T12:28:59.000",
    "request_status": "Pending",
    "responsible_agency": "Department of Sanitation",
    "final_address": "1804 Deslonde St",
    "address_councildis": "E",
    "status": "Assigned to Contractor",
    "contractor": "Waste Pro",
    "rowid": "1242333",
    "final_x": "3696089.29264",
    "final_y": "537103.39924",
    "longitude": "-90.02180103164754",
    "latitude": "29.970397022852016",
    "geocoded_column": {
      "latitude": "29.970397022852016",
      "longitude": "-90.02180103164754"
    }
  },
  {
    "service_request": "2025-1242332",
    "request_type": "Safety & Permits",
    "request_reason": "Zoning Enforcement",
    "date_created": "2025-11-25T12:23:30.000",
    "date_modified": "2025-11-25T15:25:48.000",
    "case_close_date": "2025-11-25T09:25:47.000",
    "request_status": "Closed",
    "responsible_agency": "Safety and Permits",
    "final_address": "3522 Cleveland Ave",
    "address_councildis": "B",
    "status": "Resolved",
    "rowid": "1242332",
    "final_x": "3672421.34766",
    "final_y": "536745.486536",
    "longitude": "-90.09655939790119",
    "latitude": "29.970136550091482",
    "geocoded_column": {
      "latitude": "29.970136550091482",
      "longitude": "-90.09655939790119"
    }
  },
  {
    "service_request": "2025-1242331",
    "request_type": "Trash/Recycling",
    "request_reason": "Replace Trash Cart",
    "date_created": "2025-11-25T12:23:27.000",
    "date_modified": "2025-11-25T12:23:28.000",
    "request_status": "Pending",
    "responsible_agency": "Department of Sanitation",
    "final_address": "313 West Robert E Lee Blvd",
    "address_councildis": "A",
    "status": "Assigned to Contractor",
    "contractor": "IV Waste",
    "rowid": "1242331",
    "final_x": "3665392.00973",
    "final_y": "554969.62684",
    "longitude": "-90.11814849419466",
    "latitude": "30.020453454267976",
    "geocoded_column": {
      "latitude": "30.020453454267976",
      "longitude": "-90.11814849419466"
    }
  },
  {
    "service_request": "2025-1242330",
    "request_type": "Streetlights",
    "request_reason": "Streetlight Outage/Malfunction",
    "date_created": "2025-11-25T12:21:14.000",
    "date_modified": "2025-11-25T12:21:16.000",
    "request_status": "Pending",
    "responsible_agency": "Department of Public Works",
    "final_address": "1800 BLK Mirabeau Ave",
    "address_councildis": "D",
    "status": "Pending",
    "rowid": "1242330",
    "final_x": "3681372.93413",
    "final_y": "550535.518467",
    "longitude": "-90.06780839120043",
    "latitude": "30.00778557237076",
    "geocoded_column": {
      "latitude": "30.00778557237076",
      "longitude": "-90.06780839120043"
    }
  },
  {
    "service_request": "2025-1242329",
    "request_type": "Trash/Recycling",
    "request_reason": "Request a Large Item Pick Up",
    "date_created": "2025-11-25T12:17:38.000",
    "date_modified": "2025-11-25T12:17:40.000",
    "request_status": "Pending",
    "responsible_agency": "Department of Sanitation",
    "final_address": "4783 Citrus Dr",
    "address_councildis": "E",
    "status": "Assigned to Contractor",
    "contractor": "Waste Pro",
    "rowid": "1242329",
    "final_x": "3710824.87998",
    "final_y": "556092.008346",
    "longitude": "-89.97455374754624",
    "latitude": "30.02213647123841",
    "geocoded_column": {
      "latitude": "30.02213647123841",
      "longitude": "-89.97455374754624"
    }
  },
  {
    "service_request": "2025-1242328",
    "request_type": "Street and Traffic Signs",
    "request_reason": "Additional Signage Request",
    "date_created": "2025-11-25T12:16:27.000",
    "date_modified": "2025-11-25T12:16:28.000",
    "request_status": "Pending",
    "responsible_agency": "Department of Public Works",
    "final_address": "3128 Fortin St",
    "address_councildis": "A",
    "status": "Pending",
    "rowid": "1242328",
    "final_x": "3676344.04059",
    "final_y": "540919.483723",
    "longitude": "-90.08402739617037",
    "latitude": "29.981496608267335",
    "geocoded_column": {
      "latitude": "29.981496608267335",
      "longitude": "-90.08402739617037"
    }
  },
  {
    "service_request": "2025-1242327",
    "request_type": "Streetlights",
    "request_reason": "Streetlight Outage/Malfunction",
    "date_created": "2025-11-25T12:15:49.000",
    "date_modified": "2025-11-25T12:15:51.000",
    "request_status": "Pending",
    "responsible_agency": "Department of Public Works",
    "final_address": "1500 BLK Pleasure St",
    "address_councildis": "D",
    "status": "Pending",
    "rowid": "1242327",
    "final_x": "3679502.47495",
    "final_y": "544780.962391",
    "longitude": "-90.0739175473678",
    "latitude": "29.992019257973617",
    "geocoded_column": {
      "latitude": "29.992019257973617",
      "longitude": "-90.0739175473678"
    }
  },
  {
    "service_request": "2025-1242326",
    "request_type": "Trash/Recycling",
    "request_reason": "Request a Large Item Pick Up",
    "date_created": "2025-11-25T12:11:36.000",
    "date_modified": "2025-11-25T12:11:38.000",
    "request_status": "Pending",
    "responsible_agency": "Department of Sanitation",
    "final_address": "5634 Abbey Dr",
    "address_councildis": "C",
    "status": "Assigned to Contractor",
    "contractor": "Richards Disposal",
    "rowid": "1242326",
    "final_x": "3704503.25796",
    "final_y": "521285.939513",
    "longitude": "-89.99581209476429",
    "latitude": "29.926637151636374",
    "geocoded_column": {
      "latitude": "29.926637151636374",
      "longitude": "-89.99581209476429"
    }
  },
  {
    "service_request": "2025-1242325",
    "request_type": "Property Maintenance",
    "request_reason": "Property Maintenance",
    "date_created": "2025-11-25T12:10:56.000",
    "date_modified": "2025-11-25T12:10:57.000",
    "request_status": "Pending",
    "responsible_agency": "Department of Code Enforcement",
    "final_address": "2401 Mandeville St",
    "address_councildis": "D",
    "status": "Pending",
    "rowid": "1242325",
    "final_x": "3685436.71183",
    "final_y": "541190.452236",
    "longitude": "-90.05529904067492",
    "latitude": "29.9819659504569",
    "geocoded_column": {
      "latitude": "29.9819659504569",
      "longitude": "-90.05529904067492"
    }
  },
  {
    "service_request": "2025-1242324",
    "request_type": "Property Maintenance",
    "request_reason": "Property Maintenance",
    "date_created": "2025-11-25T12:10:16.000",
    "date_modified": "2025-11-25T12:10:17.000",
    "request_status": "Pending",
    "responsible_agency": "Department of Code Enforcement",
    "final_address": "826 Desire St",
    "address_councildis": "C",
    "status": "Pending",
    "rowid": "1242324",
    "final_x": "3689919.27088",
    "final_y": "534785.412806",
    "longitude": "-90.0413691242817",
    "latitude": "29.964216117527588",
    "geocoded_column": {
      "latitude": "29.964216117527588",
      "longitude": "-90.0413691242817"
    }
  },
  {
    "service_request": "2025-1242323",
    "request_type": "Streetlights",
    "request_reason": "Streetlight Outage/Malfunction",
    "date_created": "2025-11-25T12:08:30.000",
    "date_modified": "2025-11-25T12:08:32.000",
    "request_status": "Pending",
    "responsible_agency": "Department of Public Works",
    "final_address": "920 Taft Pl",
    "address_councildis": "A",
    "status": "Pending",
    "rowid": "1242323",
    "final_x": "3673913.11944",
    "final_y": "540236.999883",
    "longitude": "-90.09172874003461",
    "latitude": "29.979692665151838",
    "geocoded_column": {
      "latitude": "29.979692665151838",
      "longitude": "-90.09172874003461"
    }
  },