[
  {
    "service_request": "2024-1137478",
    "request_type": "Utility Poles",
    "request_reason": "Wires Sagging/Hanging Low",
    "date_created": "2024-10-01T23:26:57.000",
    "date_modified": "2024-10-01T23:27:06.000",
    "request_status": "Pending",
    "responsible_agency": "Utility Company Collective",
    "final_address": "904 Pacific Ave",
    "address_councildis": "C",
    "status": "Pending",
    "rowid": "1137478",
    "final_x": "3688480.36265",
    "final_y": "528245.316992",
    "longitude": "-90.04614507016852",
    "latitude": "29.94627764183598",
    "geocoded_column": {
      "latitude": "29.94627764183598",
      "longitude": "-90.04614507016852"
    }
  },
  {
    "service_request": "2024-1137477",
    "request_type": "General Services",
    "request_reason": "General Service Request",
    "date_created": "2024-10-01T22:39:14.000",
    "date_modified": "2024-10-01T22:39:14.000",
    "request_status": "Pending",
    "responsible_agency": "Orleans Parish Communication District",
    "final_address": "Central Park Place & West Park Place",
    "address_councildis": "A",
    "status": "Pending",
    "rowid": "1137477",
    "final_x": "3670070.54714",
    "final_y": "544017.186702",
    "longitude": "-90.1037370544749",
    "latitude": "29.990200816941417",
    "geocoded_column": {
      "latitude": "29.990200816941417",
      "longitude": "-90.1037370544749"
    }
  },
  {
    "service_request": "2024-1137476",
    "request_type": "Trash/Recycling",
    "request_reason": "Illegal Dumping",
    "date_created": "2024-10-01T22:18:55.000",
    "date_modified": "2024-10-01T22:18:55.000",
    "request_status": "Pending",
    "responsible_agency": "Department of Sanitation",
    "final_address": "ESPLANADE AVE & N CLAIBORNE AVE",
    "address_councildis": "D",
    "status": "Pending",
    "rowid": "1137476",
    "final_x": "3681314.4",
    "final_y": "536499.88",
    "longitude": "-90.06848280042382",
    "latitude": "29.969194285734545",
    "geocoded_column": {
      "latitude": "29.969194285734545",
      "longitude": "-90.06848280042382"
    }
  },
  {
    "service_request": "2024-1137475",
    "request_type": "Streetlights",
    "request_reason": "Streetlight Outage/Malfunction",
    "date_created": "2024-10-01T21:42:36.000",
    "date_modified": "2024-10-01T21:42:51.000",
    "request_status": "Pending",
    "responsible_agency": "Department of Public Works",
    "final_address": "3920 Dublin St",
    "address_councildis": "A",
    "status": "Pending",
    "contractor": "Legacy Professional Services",
    "rowid": "1137475",
    "final_x": "3668201.32596",
    "final_y": "535868.197063",
    "longitude": "-90.1099162873651",
    "latitude": "29.96784886654881",
    "geocoded_column": {
      "latitude": "29.96784886654881",
      "longitude": "-90.1099162873651"
    }
  },
  {
    "service_request": "2024-1137474",
    "request_type": "Traffic Safety",
    "request_reason": "Request for Traffic Calming due to Speeding",
    "date_created": "2024-10-01T21:37:57.000",
    "date_modified": "2024-10-01T21:37:57.000",
    "request_status": "Pending",
    "responsible_agency": "Department of Public Works",
    "final_address": "ST CLAUDE AVE & LOUISA ST",
    "address_councildis": "C",
    "status": "Pending",
    "rowid": "1137474",
    "final_x": "3689566.6",
    "final_y": "535861.08",
    "longitude": "-90.04244455709174",
    "latitude": "29.9671847551497",
    "geocoded_column": {
      "latitude": "29.9671847551497",
      "longitude": "-90.04244455709174"
    }
  },
  {
    "service_request": "2024-1137473",
    "request_type": "Streetlights",
    "request_reason": "Streetlight Outage/Malfunction",
    "date_created": "2024-10-01T21:22:51.000",
    "date_modified": "2024-10-01T21:22:53.000",
    "request_status": "Pending",
    "responsible_agency": "Department of Public Works",
    "final_address": "2600 BLK Lafitte Ave",
    "address_councildis": "D",
    "status": "Pending",
    "contractor": "Legacy Professional Services",
    "rowid": "1137473",
    "final_x": "3676591.74127",
    "final_y": "536284.427547",
    "longitude": "-90.0834047373837",
    "latitude": "29.968744363910645",
    "geocoded_column": {
      "latitude": "29.968744363910645",
      "longitude": "-90.0834047373837"
    }
  },
  {
    "service_request": "2024-1137472",
    "request_type": "Roads and Streets",
    "request_reason": "Pothole",
    "date_created": "2024-10-01T21:14:20.000",
    "date_modified": "2024-10-01T21:14:20.000",
    "request_status": "Pending",
    "responsible_agency": "Department of Public Works",
    "final_address": "100 BLK N Carrollton Ave",
    "address_councildis": "A",
    "status": "Pending",
    "rowid": "1137472",
    "final_x": "3671209.18871",
    "final_y": "538468.700081",
    "longitude": "-90.10032896944338",
    "latitude": "29.97491072585336",
    "geocoded_column": {
      "latitude": "29.97491072585336",
      "longitude": "-90.10032896944338"
    }
  },
  {
    "service_request": "2024-1137471",
    "request_type": "Streetlights",
    "request_reason": "Streetlight Outage/Malfunction",
    "date_created": "2024-10-01T21:13:24.000",
    "date_modified": "2024-10-01T21:13:25.000",
    "request_status": "Pending",
    "responsible_agency": "Department of Public Works",
    "final_address": "1800 BLK Lafitte Ave",
    "address_councildis": "D",
    "status": "Pending",
    "contractor": "Legacy Professional Services",
    "rowid": "1137471",
    "final_x": "3679127.91008",
    "final_y": "534668.011816",
    "longitude": "-90.0754514048334",
    "latitude": "29.964223457902218",
    "geocoded_column": {
      "latitude": "29.964223457902218",
      "longitude": "-90.0754514048334"
    }
  },
  {
    "service_request": "2024-1137470",
    "request_type": "Trash/Recycling",
    "request_reason": "Request a Large Item Pick Up",
    "date_created": "2024-10-01T20:51:45.000",
    "date_modified": "2024-10-01T20:51:46.000",
    "request_status": "Pending",
    "responsible_agency": "Department of Sanitation",
    "final_address": "4700 Cardenas Dr",
    "address_councildis": "E",
    "status": "Assigned to Contractor",
    "contractor": "Waste Pro",
    "rowid": "1137470",
    "final_x": "3713644.22271",
    "final_y": "556044.230809",
    "longitude": "-89.965647228498",
    "latitude": "30.021912872819005",
    "geocoded_column": {
      "latitude": "30.021912872819005",
      "longitude": "-89.965647228498"
    }
  },
  {
    "service_request": "2024-1137469",
    "request_type": "Healthy Homes",
    "request_reason": "Healthy Homes",
    "date_created": "2024-10-01T20:34:16.000",
    "date_modified": "2024-10-01T20:34:16.000",
    "request_status": "Pending",
    "responsible_agency": "Department of Code Enforcement",
    "final_address": "2127 Octavia St",
    "address_councildis": "A",
    "status": "Pending",
    "rowid": "1137469",
    "final_x": "3667535.1433",
    "final_y": "523604.813499",
    "longitude": "-90.11243277154153",
    "latitude": "29.934148099854657",
    "geocoded_column": {
      "latitude": "29.934148099854657",
      "longitude": "-90.11243277154153"
    }
  },
  {
    "service_request": "2024-1137468",
    "request_type": "Trash/Recycling",
    "request_reason": "Request a Large Item Pick Up",
    "date_created": "2024-10-01T20:06:11.000",
    "date_modified": "2024-10-01T20:06:13.000",
    "request_status": "Pending",
    "responsible_agency": "Department of Sanitation",
    "final_address": "7114 W Laverne St",
    "address_councildis": "D",
    "status": "Assigned to Contractor",
    "contractor": "Waste Pro",
    "rowid": "1137468",
    "final_x": "3695778.64861",
    "final_y": "556717.199002",
    "longitude": "-90.02207322699805",
    "latitude": "30.02433752466813",
    "geocoded_column": {
      "latitude": "30.02433752466813",
      "longitude": "-90.02207322699805"
    }
  },
  {
    "service_request": "2024-1137467",
    "request_type": "Abandoned Vehicles",
    "request_reason": "Vehicle Blocking Your Driveway",
    "date_created": "2024-10-01T20:06:07.000",
    "date_modified": "2024-10-01T20:06:07.000",
    "request_status": "Pending",
    "responsible_agency": "Department of Public Works",
    "final_address": "1421 Reynes St",
    "address_councildis": "E",
    "status": "Pending",
    "rowid": "1137467",
    "final_x": "3696406.79287",
    "final_y": "535528.317894",
    "longitude": "-90.02085531259299",
    "latitude": "29.966056114661907",
    "geocoded_column": {
      "latitude": "29.966056114661907",
      "longitude": "-90.02085531259299"
    }
  },
  {
    "service_request": "2024-1137466",
    "request_type": "Trash/Recycling",
    "request_reason": "Request a Large Item Pick Up",
    "date_created": "2024-10-01T20:04:56.000",
    "date_modified": "2024-10-01T20:04:57.000",
    "request_status": "Pending",
    "responsible_agency": "Department of Sanitation",
    "final_address": "7114 W Laverne St",
    "address_councildis": "D",
    "status": "Assigned to Contractor",
    "contractor": "Waste Pro",
    "rowid": "1137466",
    "final_x": "3695778.64861",
    "final_y": "556717.199002",
    "longitude": "-90.02207322699805",
    "latitude": "30.02433752466813",
    "geocoded_column": {
      "latitude": "30.02433752466813",
      "longitude": "-90.02207322699805"
    }
  },
  {
    "service_request": "2024-1137465",
    "request_type": "Streetlights",
    "request_reason": "Streetlight Outage/Malfunction",
    "date_created": "2024-10-01T20:04:16.000",
    "date_modified": "2024-10-01T20:04:17.000",
    "request_status": "Pending",
    "responsible_agency": "Department of Public Works",
    "final_address": "1322 Dublin St",
    "address_councildis": "A",
    "status": "Pending",
    "contractor": "Legacy Professional Services",
    "rowid": "1137465",
    "final_x": "3662036.14842",
    "final_y": "529038.165248",
    "longitude": "-90.129612797842",
    "latitude": "29.949248053161902",
    "geocoded_column": {
      "latitude": "29.949248053161902",
      "longitude": "-90.129612797842"
    }
  },
  {
    "service_request": "2024-1137464",
    "request_type": "Trash/Recycling",
    "request_reason": "Replace Trash Cart",
    "date_created": "2024-10-01T20:01:04.000",
    "date_modified": "2024-10-01T20:01:06.000",
    "request_status": "Pending",
    "responsible_agency": "Department of Sanitation",
    "final_address": "5964 Annunciation St",
    "address_councildis": "A",
    "status": "Assigned to Contractor",
    "contractor": "IV Waste",
    "rowid": "1137464",
    "final_x": "3664418.79079",
    "final_y": "517763.52319",
    "longitude": "-90.12246590237638",
    "latitude": "29.918177322018924",
    "geocoded_column": {
      "latitude": "29.918177322018924",
      "longitude": "-90.12246590237638"
    }
  },
  {
    "service_request": "2024-1137463",
    "request_type": "Mosquito, Termite & Rodent Control",
    "request_reason": "Mosquito Complaint",
    "date_created": "2024-10-01T19:56:35.000",
    "date_modified": "2024-10-01T19:56:35.000",
    "request_status": "Pending",
    "responsible_agency": "Mosquito, Termite & Rodent Control Board",
    "final_address": "334 Spencer Ave",
    "address_councildis": "A",
    "status": "Pending",
    "rowid": "1137463",
    "final_x": "3665150.80032",
    "final_y": "553609.402583",
    "longitude": "-90.11895619568023",
    "latitude": "30.0167203472726",
    "geocoded_column": {
      "latitude": "30.0167203472726",
      "longitude": "-90.11895619568023"
    }
  },
  {
    "service_request": "2024-1137462",
    "request_type": "Trash/Recycling",
    "request_reason": "Request a Large Item Pick Up",
    "date_created": "2024-10-01T19:48:07.000",
    "date_modified": "2024-10-01T19:48:13.000",
    "request_status": "Pending",
    "responsible_agency": "Department of Sanitation",
    "final_address": "7915 Means Ave",
    "address_councildis": "E",
    "status": "Assigned to Contractor",
    "contractor": "Waste Pro",
    "rowid": "1137462",
    "final_x": "3707639.03889",
    "final_y": "565606.397922",
    "longitude": "-89.9842661685792",
    "latitude": "30.048400777390995",
    "geocoded_column": {
      "latitude": "30.048400777390995",
      "longitude": "-89.9842661685792"
    }
  },
  {
    "service_request": "2024-1137461",
    "request_type": "Trash/Recycling",
    "request_reason": "Request a Large Item Pick Up",
    "date_created": "2024-10-01T19:41:41.000",
    "date_modified": "2024-10-01T19:41:42.000",
    "request_status": "Pending",
    "responsible_agency": "Department of Sanitation",
    "final_address": "2369 St Thomas St",
    "address_councildis": "B",
    "status": "Assigned to Contractor",
    "contractor": "IV Waste",
    "rowid": "1137461",
    "final_x": "3679160.25544",
    "final_y": "520065.857464",
    "longitude": "-90.07585531130066",
    "latitude": "29.92407141796851",
    "geocoded_column": {
      "latitude": "29.92407141796851",
      "longitude": "-90.07585531130066"
    }
  },
  {
    "service_request": "2024-1137460",
    "request_type": "Streetlights",
    "request_reason": "Streetlight Outage/Malfunction",
    "date_created": "2024-10-01T19:30:42.000",
    "date_modified": "2024-10-01T19:30:43.000",
    "request_status": "Pending",
    "responsible_agency": "Department of Public Works",
    "final_address": "7340 Trapier Ave",
    "address_councildis": "E",
    "status": "Pending",
    "contractor": "Legacy Professional Services",
    "rowid": "1137460",
    "final_x": "3706843.77086",
    "final_y": "562936.083424",
    "longitude": "-89.98687883040066",
    "latitude": "30.041084197943448",
    "geocoded_column": {
      "latitude": "30.041084197943448",
      "longitude": "-89.98687883040066"
    }
  },
  {
    "service_request": "2024-1137459",
    "request_type": "Drainage",
    "request_reason": "Catch Basin Clogged",
    "date_created": "2024-10-01T19:14:43.000",
    "date_modified": "2024-10-01T19:14:43.000",
    "request_status": "Pending",
    "responsible_agency": "Department of Public Works",
    "final_address": "2727 S Carrollton Ave",
    "address_councildis": "A",
    "status": "Pending",
    "rowid": "1137459",
    "final_x": "3665911.41626",
    "final_y": "532367.526595",
    "longitude": "-90.11726524952698",
    "latitude": "29.95829020425427",
    "geocoded_column": {
      "latitude": "29.95829020425427",
      "longitude": "-90.11726524952698"
    }
  },
  {
    "service_request": "2024-1137458",
    "request_type": "General Services",
    "request_reason": "General Service Request",
    "date_created": "2024-10-01T19:07:41.000",
    "date_modified": "2024-10-01T19:07:41.000",
    "request_status": "Pending",
    "responsible_agency": "Orleans Parish Communication District",
    "final_address": "3800 BLK Baudin St",
    "address_councildis": "B",
    "status": "Pending",
    "rowid": "1137458",
    "final_x": "3670952.07243",
    "final_y": "536430.396415",
    "longitude": "-90.10121023240525",
    "latitude": "29.969313682497",
    "geocoded_column": {
      "latitude": "29.969313682497",
      "longitude": "-90.10121023240525"
    }
  },
  {
    "service_request": "2024-1137457",
    "request_type": "Parks & Parkways",
    "request_reason": "Request Tree Service (Right of Way/Public Property)",
    "date_created": "2024-10-01T18:58:18.000",
    "date_modified": "2024-10-01T18:58:18.000",
    "request_status": "Pending",
    "responsible_agency": "Department of Parks & Parkway",
    "final_address": "3800 BLK Napoleon Ave",
    "address_councildis": "B",
    "status": "Pending",
    "rowid": "1137457",
    "final_x": "3670001.62387",
    "final_y": "528915.125684",
    "longitude": "-90.1044663662237",
    "latitude": "29.948677243060448",
    "geocoded_column": {
      "latitude": "29.948677243060448",
      "longitude": "-90.1044663662237"
    }
  },
  {
    "service_request": "2024-1137456",
    "request_type": "Trash/Recycling",
    "request_reason": "Request a Large Item Pick Up",
    "date_created": "2024-10-01T18:35:41.000",
    "date_modified": "2024-10-01T18:35:42.000",
    "request_status": "Pending",
    "responsible_agency": "Department of Sanitation",
    "final_address": "232 S Solomon St",
    "address_councildis": "A",
    "status": "Assigned to Contractor",
    "contractor": "IV Waste",
    "rowid": "1137456",
    "final_x": "3670173.91796",
    "final_y": "538120.222601",
    "longitude": "-90.1036104381259",
    "latitude": "29.973983121494967",
    "geocoded_column": {
      "latitude": "29.973983121494967",
      "longitude": "-90.1036104381259"
    }
  },
  {
    "service_request": "2024-1137455",
    "request_type": "Trash/Recycling",
    "request_reason": "Replace Trash Cart",
    "date_created": "2024-10-01T18:28:19.000",
    "date_modified": "2024-10-01T18:28:20.000",
    "request_status": "Pending",
    "responsible_agency": "Department of Sanitation",
    "final_address": "4638 Laurel St",
    "address_councildis": "B",
    "status": "Assigned to Contractor",
    "contractor": "IV Waste",
    "rowid": "1137455",
    "final_x": "3670067.18273",
    "final_y": "517908.684214",
    "longitude": "-90.10463201963346",
    "latitude": "29.918411133903717",
    "geocoded_column": {
      "latitude": "29.918411133903717",
      "longitude": "-90.10463201963346"
    }
  },
  {
    "service_request": "2024-1137454",
    "request_type": "Trash/Recycling",
    "request_reason": "Repair Recycling Cart",
    "date_created": "2024-10-01T18:26:29.000",
    "date_modified": "2024-10-01T18:26:29.000",
    "request_status": "Pending",
    "responsible_agency": "Department of Sanitation",
    "final_address": "5600 Bellaire Dr",
    "address_councildis": "A",
    "status": "Pending",
    "rowid": "1137454",
    "final_x": "3664028.31047",
    "final_y": "544998.864079",
    "longitude": "-90.1227902258527",
    "latitude": "29.993076997691002",
    "geocoded_column": {
      "latitude": "29.993076997691002",
      "longitude": "-90.1227902258527"
    }
  },
  {
    "service_request": "2024-1137453",
    "request_type": "Trash/Recycling",
    "request_reason": "Request a Large Item Pick Up",
    "date_created": "2024-10-01T18:25:36.000",
    "date_modified": "2024-10-01T18:25:37.000",
    "request_status": "Pending",
    "responsible_agency": "Department of Sanitation",
    "final_address": "5600 Bellaire Dr",
    "address_councildis": "A",
    "status": "Assigned to Contractor",
    "contractor": "IV Waste",
    "rowid": "1137453",
    "final_x": "3664028.31047",
    "final_y": "544998.864079",
    "longitude": "-90.1227902258527",
    "latitude": "29.993076997691002",
    "geocoded_column": {
      "latitude": "29.993076997691002",
      "longitude": "-90.1227902258527"
    }
  },
  {
    "service_request": "2024-1137452",
    "request_type": "General Services",
    "request_reason": "General Service Request",
    "date_created": "2024-10-01T18:16:29.000",
    "date_modified": "2024-10-01T18:16:29.000",
    "request_status": "Pending",
    "responsible_agency": "Orleans Parish Communication District",
    "final_address": "422 Red Allen Way",
    "address_councildis": "C",
    "status": "Pending",
    "rowid": "1137452",
    "final_x": "3686715.76527",
    "final_y": "528745.300096",
    "longitude": "-90.05169884882461",
    "latitude": "29.947706813145032",
    "geocoded_column": {
      "latitude": "29.947706813145032",
      "longitude": "-90.05169884882461"
    }
  },
  {
    "service_request": "2024-1137451",
    "request_type": "Trash/Recycling",
    "request_reason": "Replace Trash Cart",
    "date_created": "2024-10-01T18:11:24.000",
    "date_modified": "2024-10-01T18:11:25.000",
    "request_status": "Pending",
    "responsible_agency": "Department of Sanitation",
    "final_address": "3358 State Street Dr",
    "address_councildis": "A",
    "status": "Assigned to Contractor",
    "contractor": "IV Waste",
    "rowid": "1137451",
    "final_x": "3667761.13754",
    "final_y": "528802.664",
    "longitude": "-90.11154434232527",
    "latitude": "29.94843388967354",
    "geocoded_column": {
      "latitude": "29.94843388967354",
      "longitude": "-90.11154434232527"
    }
  },
  {
    "service_request": "2024-1137450",
    "request_type": "Trash/Recycling",
    "request_reason": "Request a Large Item Pick Up",
    "date_created": "2024-10-01T18:04:13.000",
    "date_modified": "2024-10-01T18:04:50.000",
    "request_status": "Pending",
    "responsible_agency": "Department of Sanitation",
    "final_address": "6269 Milne Blvd",
    "address_councildis": "A",
    "status": "Assigned to Contractor",
    "contractor": "IV Waste",
    "rowid": "1137450",
    "final_x": "3667283.88359",
    "final_y": "549205.741331",
    "longitude": "-90.11236478792354",
    "latitude": "30.0045494863506",
    "geocoded_column": {
      "latitude": "30.0045494863506",
      "longitude": "-90.11236478792354"
    }
  },
  {
    "service_request": "2024-1137449",
    "request_type": "Safety & Permits",
    "request_reason": "Zoning Enforcement",
    "date_created": "2024-10-01T17:56:08.000",
    "date_modified": "2024-10-01T17:56:08.000",
    "request_status": "Pending",
    "responsible_agency": "Safety and Permits",
    "final_address": "400 N Genois St",
    "address_councildis": "B",
    "status": "Pending",
    "rowid": "1137449",
    "final_x": "3673360.48027",
    "final_y": "538268.483017",
    "longitude": "-90.09354147344904",
    "latitude": "29.974296368672135",
    "geocoded_column": {
      "latitude": "29.974296368672135",
      "longitude": "-90.09354147344904"
    }
  },
  {
    "service_request": "2024-1137448",
    "request_type": "Street and Traffic Signs",
    "request_reason": "One Way Sign Missing or Damaged",
    "date_created": "2024-10-01T17:54:13.000",
    "date_modified": "2024-10-01T17:54:13.000",
    "request_status": "Pending",
    "responsible_agency": "Department of Public Works",
    "final_address": "S CLAIBORNE AVE & UPPERLINE ST",
    "address_councildis": "B",
    "status": "Pending",
    "rowid": "1137448",
    "final_x": "3669234.0",
    "final_y": "525816.68",
    "longitude": "-90.10699479167728",
    "latitude": "29.94018013797084",
    "geocoded_column": {
      "latitude": "29.94018013797084",
      "longitude": "-90.10699479167728"
    }
  },
  {
    "service_request": "2024-1137447",
    "request_type": "Trash/Recycling",
    "request_reason": "Replace Trash Cart",
    "date_created": "2024-10-01T17:51:27.000",
    "date_modified": "2024-10-01T17:51:42.000",
    "request_status": "Pending",
    "responsible_agency": "Department of Sanitation",
    "final_address": "3360 State Street Dr",
    "address_councildis": "A",
    "status": "Assigned to Contractor",
    "contractor": "IV Waste",
    "rowid": "1137447",
    "final_x": "3667766.13754",
    "final_y": "528814.330688",
    "longitude": "-90.11152816240148",
    "latitude": "29.948465822675562",
    "geocoded_column": {
      "latitude": "29.948465822675562",
      "longitude": "-90.11152816240148"
    }
  },
  {
    "service_request": "2024-1137446",
    "request_type": "Traffic Signals",
    "request_reason": "Traffic Signal Malfunctioning or Damaged",
    "date_created": "2024-10-01T17:47:40.000",
    "date_modified": "2024-10-01T17:47:40.000",
    "request_status": "Pending",
    "responsible_agency": "Department of Public Works",
    "final_address": "4710 S Carrollton Ave",
    "address_councildis": "A",
    "status": "Pending",
    "rowid": "1137446",
    "final_x": "3670984.5442",
    "final_y": "538046.669641",
    "longitude": "-90.1010527899953",
    "latitude": "29.97375692961252",
    "geocoded_column": {
      "latitude": "29.97375692961252",
      "longitude": "-90.1010527899953"
    }
  },
  {
    "service_request": "2024-1137445",
    "request_type": "Trash/Recycling",
    "request_reason": "Replace Trash Cart",
    "date_created": "2024-10-01T17:46:17.000",
    "date_modified": "2024-10-01T17:46:18.000",
    "request_status": "Pending",
    "responsible_agency": "Department of Sanitation",
    "final_address": "2427 Valence St",
    "address_councildis": "B",
    "status": "Assigned to Contractor",
    "contractor": "IV Waste",
    "rowid": "1137445",
    "final_x": "3669484.24666",
    "final_y": "523814.063931",
    "longitude": "-90.10627242917305",
    "latitude": "29.934666222671904",
    "geocoded_column": {
      "latitude": "29.934666222671904",
      "longitude": "-90.10627242917305"
    }
  },
  {
    "service_request": "2024-1137444",
    "request_type": "Parks & Parkways",
    "request_reason": "Request Tree Service (Right of Way/Public Property)",
    "date_created": "2024-10-01T17:34:19.000",
    "date_modified": "2024-10-01T17:34:19.000",
    "request_status": "Pending",
    "responsible_agency": "Department of Parks & Parkway",
    "final_address": "1700 BLK N dOrgenois St",
    "address_councildis": "D",
    "status": "Pending",
    "rowid": "1137444",
    "final_x": "3680111.87235",
    "final_y": "540536.801588",
    "longitude": "-90.07214014656086",
    "latitude": "29.98033087030641",
    "geocoded_column": {
      "latitude": "29.98033087030641",
      "longitude": "-90.07214014656086"
    }
  },
  {
    "service_request": "2024-1137443",
    "request_type": "Trash/Recycling",
    "request_reason": "Request a Large Item Pick Up",
    "date_created": "2024-10-01T17:15:02.000",
    "date_modified": "2024-10-01T17:15:03.000",
    "request_status": "Pending",
    "responsible_agency": "Department of Sanitation",
    "final_address": "2463 Mendez St",
    "address_councildis": "D",
    "status": "Assigned to Contractor",
    "contractor": "IV Waste",
    "rowid": "1137443",
    "final_x": "3685676.91958",
    "final_y": "553613.518167",
    "longitude": "-90.05410229386048",
    "latitude": "30.016117538871498",
    "geocoded_column": {
      "latitude": "30.016117538871498",
      "longitude": "-90.05410229386048"
    }
  },
  {
    "service_request": "2024-1137442",
    "request_type": "Trash/Recycling",
    "request_reason": "Request a Large Item Pick Up",
    "date_created": "2024-10-01T17:11:10.000",
    "date_modified": "2024-10-01T17:11:11.000",
    "request_status": "Pending",
    "responsible_agency": "Department of Sanitation",
    "final_address": "1425 Josephine St",
    "address_councildis": "B",
    "status": "Assigned to Contractor",
    "contractor": "IV Waste",
    "rowid": "1137442",
    "final_x": "3678435.42216",
    "final_y": "523317.577083",
    "longitude": "-90.07803090285546",
    "latitude": "29.933034437648175",
    "geocoded_column": {
      "latitude": "29.933034437648175",
      "longitude": "-90.07803090285546"
    }
  },
  {
    "service_request": "2024-1137441",
    "request_type": "Property Maintenance",
    "request_reason": "Property Maintenance",
    "date_created": "2024-10-01T17:08:47.000",
    "date_modified": "2024-10-01T17:08:47.000",
    "request_status": "Pending",
    "responsible_agency": "Department of Code Enforcement",
    "final_address": "1637 Peniston St",
    "address_councildis": "B",
    "status": "Pending",
    "rowid": "1137441",
    "final_x": "3672860.91758",
    "final_y": "521397.493561",
    "longitude": "-90.09569472562406",
    "latitude": "29.92792157385283",
    "geocoded_column": {
      "latitude": "29.92792157385283",
      "longitude": "-90.09569472562406"
    }
  },
  {
    "service_request": "2024-1137440",
    "request_type": "Roads and Streets",
    "request_reason": "Pothole",
    "date_created": "2024-10-01T16:57:46.000",
    "date_modified": "2024-10-01T16:57:46.000",
    "request_status": "Pending",
    "responsible_agency": "Department of Public Works",
    "final_address": "7100 BLK Birch St",
    "address_councildis": "A",
    "status": "Pending",
    "rowid": "1137440",
    "final_x": "3665089.40666",
    "final_y": "527581.47284",
    "longitude": "-90.12002097345568",
    "latitude": "29.94515407027903",
    "geocoded_column": {
      "latitude": "29.94515407027903",
      "longitude": "-90.12002097345568"
    }
  },
  {
    "service_request": "2024-1137439",
    "request_type": "Trash/Recycling",
    "request_reason": "Replace Trash Cart",
    "date_created": "2024-10-01T16:54:57.000",
    "date_modified": "2024-10-01T16:54:58.000",
    "request_status": "Pending",
    "responsible_agency": "Department of Sanitation",
    "final_address": "1218 Clouet St",
    "address_councildis": "C",
    "status": "Assigned to Contractor",
    "contractor": "IV Waste",
    "rowid": "1137439",
    "final_x": "3689099.03484",
    "final_y": "536515.340615",
    "longitude": "-90.0438978770965",
    "latitude": "29.968998218190936",
    "geocoded_column": {
      "latitude": "29.968998218190936",
      "longitude": "-90.0438978770965"
    }
  },
  {
    "service_request": "2024-1137438",
    "request_type": "Trash/Recycling",
    "request_reason": "Request a Large Item Pick Up",
    "date_created": "2024-10-01T16:53:01.000",
    "date_modified": "2024-10-01T19:12:34.000",
    "case_close_date": "2024-10-01T14:12:34.000",
    "request_status": "Closed",
    "responsible_agency": "Department of Sanitation",
    "final_address": "8812 Dinkins St",
    "address_councildis": "E",
    "status": "Assigned to Contractor",
    "contractor": "Waste Pro",
    "contractor_action": "Completed",
    "rowid": "1137438",
    "final_x": "3704521.52017",
    "final_y": "563264.19984",
    "longitude": "-89.99420577928596",
    "latitude": "30.042061216442303",
    "geocoded_column": {
      "latitude": "30.042061216442303",
      "longitude": "-89.99420577928596"
    }
  },
  {
    "service_request": "2024-1137437",
    "request_type": "Roads and Streets",
    "request_reason": "Pothole",
    "date_created": "2024-10-01T16:52:20.000",
    "date_modified": "2024-10-01T16:52:20.000",
    "request_status": "Pending",
    "responsible_agency": "Department of Public Works",
    "final_address": "7110 Birch St",
    "address_councildis": "A",
    "status": "Pending",
    "rowid": "1137437",
    "final_x": "3665021.67802",
    "final_y": "527576.673151",
    "longitude": "-90.12023497528963",
    "latitude": "29.945142844479758",
    "geocoded_column": {
      "latitude": "29.945142844479758",
      "longitude": "-90.12023497528963"
    }
  },
  {
    "service_request": "2024-1137436",
    "request_type": "Trash/Recycling",
    "request_reason": "Request a Large Item Pick Up",
    "date_created": "2024-10-01T16:44:47.000",
    "date_modified": "2024-10-01T16:44:48.000",
    "request_status": "Pending",
    "responsible_agency": "Department of Sanitation",
    "final_address": "5213 Sandhurst Dr",
    "address_councildis": "E",
    "status": "Assigned to Contractor",
    "contractor": "Waste Pro",
    "rowid": "1137436",
    "final_x": "3704964.23268",
    "final_y": "557092.397146",
    "longitude": "-89.99303480401484",
    "latitude": "30.02507694350194",
    "geocoded_column": {
      "latitude": "30.02507694350194",
      "longitude": "-89.99303480401484"
    }
  },
  {
    "service_request": "2024-1137435",
    "request_type": "Roads and Streets",
    "request_reason": "Sidewalk Damaged or Missing",
    "date_created": "2024-10-01T16:44:12.000",
    "date_modified": "2024-10-01T16:45:06.000",
    "request_status": "Pending",
    "responsible_agency": "Department of Public Works",
    "final_address": "915 Dauphine St",
    "address_councildis": "C",
    "rowid": "1137435",
    "final_x": "3682491.59426",
    "final_y": "533614.100165",
    "longitude": "-90.06486602642572",
    "latitude": "29.961223599720807",
    "geocoded_column": {
      "latitude": "29.961223599720807",
      "longitude": "-90.06486602642572"
    }
  },
  {
    "service_request": "2024-1137434",
    "request_type": "Trash/Recycling",
    "request_reason": "Request a Large Item Pick Up",
    "date_created": "2024-10-01T16:43:12.000",
    "date_modified": "2024-10-01T16:43:13.000",
    "request_status": "Pending",
    "responsible_agency": "Department of Sanitation",
    "final_address": "3716 Inwood Ave",
    "address_councildis": "C",
    "status": "Assigned to Contractor",
    "contractor": "Richards Disposal",
    "rowid": "1137434",
    "final_x": "3704511.4506",
    "final_y": "514822.171251",
    "longitude": "-89.99602437134435",
    "latitude": "29.908863756087023",
    "geocoded_column": {
      "latitude": "29.908863756087023",
      "longitude": "-89.99602437134435"
    }
  },
  {
    "service_request": "2024-1137433",
    "request_type": "Drainage",
    "request_reason": "Street Flooding",
    "date_created": "2024-10-01T16:41:37.000",
    "date_modified": "2024-10-01T16:41:37.000",
    "request_status": "Pending",
    "responsible_agency": "Department of Public Works",
    "final_address": "6153 Carlisle Ct",
    "address_councildis": "C",
    "status": "Pending",
    "rowid": "1137433",
    "final_x": "3706792.22238",
    "final_y": "516403.656373",
    "longitude": "-89.98876737033036",
    "latitude": "29.913138904969",
    "geocoded_column": {
      "latitude": "29.913138904969",
      "longitude": "-89.98876737033036"
    }
  },
  {
    "service_request": "2024-1137432",
    "request_type": "Abandoned Vehicles",
    "request_reason": "Abandoned/Junk Vehicles",
    "date_created": "2024-10-01T16:39:42.000",
    "date_modified": "2024-10-01T16:39:43.000",
    "request_status": "Pending",
    "responsible_agency": "Department of Public Works",
    "final_address": "1124 Lowerline St",
    "address_councildis": "A",
    "status": "Pending",
    "rowid": "1137432",
    "final_x": "3663575.63149",
    "final_y": "526734.582206",
    "longitude": "-90.1248286585582",
    "latitude": "29.942869380121145",
    "geocoded_column": {
      "latitude": "29.942869380121145",
      "longitude": "-90.1248286585582"
    }
  },
  {
    "service_request": "2024-1137431",
    "request_type": "Trash/Recycling",
    "request_reason": "Missed Trash Pick-Up",
    "date_created": "2024-10-01T16:39:03.000",
    "date_modified": "2024-10-01T16:39:04.000",
    "request_status": "Pending",
    "responsible_agency": "Department of Sanitation",
    "final_address": "7621 Poitevent Ave",
    "address_councildis": "E",
    "status": "Assigned to Contractor",
    "contractor": "Waste Pro",
    "rowid": "1137431",
    "final_x": "3706998.22731",
    "final_y": "564179.977697",
    "longitude": "-89.98634448589046",
    "latitude": "30.04449942094845",
    "geocoded_column": {
      "latitude": "30.04449942094845",
      "longitude": "-89.98634448589046"
    }
  },
  {
    "service_request": "2024-1137430",
    "request_type": "Trash/Recycling",
    "request_reason": "Request a Large Item Pick Up",
    "date_created": "2024-10-01T16:38:15.000",
    "date_modified": "2024-10-01T16:38:16.000",
    "request_status": "Pending",
    "responsible_agency": "Department of Sanitation",
    "final_address": "4801 Gallier Dr",
    "address_councildis": "D",
    "status": "Assigned to Contractor",
    "contractor": "IV Waste",
    "rowid": "1137430",
    "final_x": "3692196.28579",
    "final_y": "551513.383125",
    "longitude": "-90.03357932033585",
    "latitude": "30.01014120986062",
    "geocoded_column": {
      "latitude": "30.01014120986062",
      "longitude": "-90.03357932033585"
    }
  },
  {
    "service_request": "2024-1137429",
    "request_type": "Property Maintenance",
    "request_reason": "Property Maintenance",
    "date_created": "2024-10-01T16:32:50.000",
    "date_modified": "2024-10-01T16:32:50.000",
    "request_status": "Pending",
    "responsible_agency": "Department of Code Enforcement",
    "final_address": "917 Verret St",
    "address_councildis": "C",
    "status": "Pending",
    "rowid": "1137429",
    "final_x": "3687143.58633",
    "final_y": "528174.768",
    "longitude": "-90.05036822236157",
    "latitude": "29.94612487950329",
    "geocoded_column": {
      "latitude": "29.94612487950329",
      "longitude": "-90.05036822236157"
    }
  },
  {
    "service_request": "2024-1137428",
    "request_type": "Trash/Recycling",
    "request_reason": "Request a Large Item Pick Up",
    "date_created": "2024-10-01T16:31:39.000",
    "date_modified": "2024-10-01T16:31:40.000",
    "request_status": "Pending",
    "responsible_agency": "Department of Sanitation",
    "final_address": "5851 Waterford Blvd",
    "address_councildis": "E",
    "status": "Assigned to Contractor",
    "contractor": "Waste Pro",
    "rowid": "1137428",
    "final_x": "3713670.03135",
    "final_y": "561398.799326",
    "longitude": "-89.9653636920753",
    "latitude": "30.03663495969328",
    "geocoded_column": {
      "latitude": "30.03663495969328",
      "longitude": "-89.9653636920753"
    }
  },
  {
    "service_request": "2024-1137427",
    "request_type": "Trash/Recycling",
    "request_reason": "Replace Trash Cart",
    "date_created": "2024-10-01T16:30:07.000",
    "date_modified": "2024-10-01T16:30:09.000",
    "request_status": "Pending",
    "responsible_agency": "Department of Sanitation",
    "final_address": "2131 Peniston St",
    "address_councildis": "B",
    "status": "Assigned to Contractor",
    "contractor": "IV Waste",
    "rowid": "1137427",
    "final_x": "3672437.17255",
    "final_y": "523124.028411",
    "longitude": "-90.09697358459724",
    "latitude": "29.932681566666528",
    "geocoded_column": {
      "latitude": "29.932681566666528",
      "longitude": "-90.09697358459724"
    }
  },
  {
    "service_request": "2024-1137426",
    "request_type": "Streetlights",
    "request_reason": "Streetlight Outage/Malfunction",
    "date_created": "2024-10-01T16:29:33.000",
    "date_modified": "2024-10-01T16:29:34.000",
    "request_status": "Pending",
    "responsible_agency": "Department of Public Works",
    "final_address": "3308 Third St",
    "address_councildis": "B",
    "status": "Pending",
    "contractor": "Legacy Professional Services",
    "rowid": "1137426",
    "final_x": "3673016.36104",
    "final_y": "527991.165567",
    "longitude": "-90.09497907326349",
    "latitude": "29.94604741060152",
    "geocoded_column": {
      "latitude": "29.94604741060152",
      "longitude": "-90.09497907326349"
    }
  },
  {
    "service_request": "2024-1137425",
    "request_type": "Trash/Recycling",
    "request_reason": "Missed Trash Pick-Up",
    "date_created": "2024-10-01T16:25:40.000",
    "date_modified": "2024-10-01T16:25:41.000",
    "request_status": "Pending",
    "responsible_agency": "Department of Sanitation",
    "final_address": "4420 San Remo St",
    "address_councildis": "E",
    "status": "Assigned to Contractor",
    "contractor": "Waste Pro",
    "rowid": "1137425",
    "final_x": "3760704.5871",
    "final_y": "574055.735146",
    "longitude": "-89.81619907235789",
    "latitude": "30.069807940554252",
    "geocoded_column": {
      "latitude": "30.069807940554252",
      "longitude": "-89.81619907235789"
    }
  },
  {
    "service_request": "2024-1137424",
    "request_type": "Trash/Recycling",
    "request_reason": "Request a Large Item Pick Up",
    "date_created": "2024-10-01T16:21:04.000",
    "date_modified": "2024-10-01T16:21:05.000",
    "request_status": "Pending",
    "responsible_agency": "Department of Sanitation",
    "final_address": "131 S Broad St",
    "address_councildis": "B",
    "status": "Assigned to Contractor",
    "contractor": "IV Waste",
    "rowid": "1137424",
    "final_x": "3675095.35048",
    "final_y": "534909.88903",
    "longitude": "-90.0881776050902",
    "latitude": "29.965009646303816",
    "geocoded_column": {
      "latitude": "29.965009646303816",
      "longitude": "-90.0881776050902"
    }
  },
  {
    "service_request": "2024-1137423",
    "request_type": "Property Maintenance",
    "request_reason": "Property Maintenance",
    "date_created": "2024-10-01T16:20:18.000",
    "date_modified": "2024-10-01T16:20:18.000",
    "request_status": "Pending",
    "responsible_agency": "Department of Code Enforcement",
    "final_address": "3418 Touro St",
    "address_councildis": "D",
    "status": "Pending",
    "rowid": "1137423",
    "final_x": "3683457.00425",
    "final_y": "545253.948559",
    "longitude": "-90.06140942762765",
    "latitude": "29.99319969562575",
    "geocoded_column": {
      "latitude": "29.99319969562575",
      "longitude": "-90.06140942762765"
    }
  },
  {
    "service_request": "2024-1137422",
    "request_type": "Trash/Recycling",
    "request_reason": "Repair Recycling Cart",
    "date_created": "2024-10-01T16:18:15.000",
    "date_modified": "2024-10-01T16:18:16.000",
    "request_status": "Pending",
    "responsible_agency": "Department of Sanitation",
    "final_address": "5610 Pembrook Dr",
    "address_councildis": "C",
    "status": "Pending",
    "rowid": "1137422",
    "final_x": "3704355.1665",
    "final_y": "521043.518329",
    "longitude": "-89.99628850493797",
    "latitude": "29.925975330096",
    "geocoded_column": {
      "latitude": "29.925975330096",
      "longitude": "-89.99628850493797"
    }
  },
  {
    "service_request": "2024-1137421",
    "request_type": "Trash/Recycling",
    "request_reason": "Request a Large Item Pick Up",
    "date_created": "2024-10-01T16:16:43.000",
    "date_modified": "2024-10-01T16:16:44.000",
    "request_status": "Pending",
    "responsible_agency": "Department of Sanitation",
    "final_address": "2541 George Nick Connor Dr",
    "address_councildis": "D",
    "status": "Assigned to Contractor",
    "contractor": "IV Waste",
    "rowid": "1137421",
    "final_x": "3681211.65589",
    "final_y": "541413.101068",
    "longitude": "-90.06863601565719",
    "latitude": "29.982707057594485",
    "geocoded_column": {
      "latitude": "29.982707057594485",
      "longitude": "-90.06863601565719"
    }
  },
  {
    "service_request": "2024-1137420",
    "request_type": "Trash/Recycling",
    "request_reason": "Request a Large Item Pick Up",
    "date_created": "2024-10-01T16:06:30.000",
    "date_modified": "2024-10-01T16:06:31.000",
    "request_status": "Pending",
    "responsible_agency": "Department of Sanitation",
    "final_address": "2617 Memorial Park Dr",
    "address_councildis": "C",
    "status": "Assigned to Contractor",
    "contractor": "Richards Disposal",
    "rowid": "1137420",
    "final_x": "3692928.80029",
    "final_y": "520917.251769",
    "longitude": "-90.03236255892486",
    "latitude": "29.92598980962947",
    "geocoded_column": {
      "latitude": "29.92598980962947",
      "longitude": "-90.03236255892486"
    }
  },
  {
    "service_request": "2024-1137419",
    "request_type": "Street and Traffic Signs",
    "request_reason": "Stop Sign Missing or Damaged",
    "date_created": "2024-10-01T16:01:11.000",
    "date_modified": "2024-10-01T16:01:11.000",
    "request_status": "Pending",
    "responsible_agency": "Department of Public Works",
    "final_address": "5400 Tchoupitoulas St",
    "address_councildis": "A",
    "status": "Pending",
    "rowid": "1137419",
    "final_x": "3666268.67092",
    "final_y": "517017.459125",
    "longitude": "-90.11665181324818",
    "latitude": "29.916071996931233",
    "geocoded_column": {
      "latitude": "29.916071996931233",
      "longitude": "-90.11665181324818"
    }
  },
  {
    "service_request": "2024-1137418",
    "request_type": "Trash/Recycling",
    "request_reason": "Repair Recycling Cart",
    "date_created": "2024-10-01T16:01:10.000",
    "date_modified": "2024-10-01T16:01:11.000",
    "request_status": "Pending",
    "responsible_agency": "Department of Sanitation",
    "final_address": "4719 Lurline St",
    "address_councildis": "E",
    "status": "Pending",
    "rowid": "1137418",
    "final_x": "3712068.67096",
    "final_y": "555953.713817",
    "longitude": "-89.97062891662571",
    "latitude": "30.021715601839116",
    "geocoded_column": {
      "latitude": "30.021715601839116",
      "longitude": "-89.97062891662571"
    }
  },
  {
    "service_request": "2024-1137417",
    "request_type": "Trash/Recycling",
    "request_reason": "Order Trash Cart",
    "date_created": "2024-10-01T16:00:28.000",
    "date_modified": "2024-10-01T16:00:29.000",
    "request_status": "Pending",
    "responsible_agency": "Department of Sanitation",
    "final_address": "4719 Lurline St",
    "address_councildis": "E",
    "status": "Assigned to Contractor",
    "contractor": "Waste Pro",
    "rowid": "1137417",
    "final_x": "3712068.67096",
    "final_y": "555953.713817",
    "longitude": "-89.97062891662571",
    "latitude": "30.021715601839116",
    "geocoded_column": {
      "latitude": "30.021715601839116",
      "longitude": "-89.97062891662571"
    }
  },
  {
    "service_request": "2024-1137416",
    "request_type": "Trash/Recycling",
    "request_reason": "Request a Large Item Pick Up",
    "date_created": "2024-10-01T15:59:39.000",
    "date_modified": "2024-10-01T15:59:40.000",
    "request_status": "Pending",
    "responsible_agency": "Department of Sanitation",
    "final_address": "10211 Castlewood Dr",
    "address_councildis": "E",
    "status": "Assigned to Contractor",
    "contractor": "Waste Pro",
    "rowid": "1137416",
    "final_x": "3709125.63608",
    "final_y": "564621.561185",
    "longitude": "-89.97960447375605",
    "latitude": "30.04564466266418",
    "geocoded_column": {
      "latitude": "30.04564466266418",
      "longitude": "-89.97960447375605"
    }
  },
  {
    "service_request": "2024-1137415",
    "request_type": "Trash/Recycling",
    "request_reason": "Request a Large Item Pick Up",
    "date_created": "2024-10-01T15:58:43.000",
    "date_modified": "2024-10-01T15:58:44.000",
    "request_status": "Pending",
    "responsible_agency": "Department of Sanitation",
    "final_address": "825 Topaz St",
    "address_councildis": "D",
    "status": "Assigned to Contractor",
    "contractor": "IV Waste",
    "rowid": "1137415",
    "final_x": "3670450.44385",
    "final_y": "556609.568026",
    "longitude": "-90.10210965686089",
    "latitude": "30.02481422999425",
    "geocoded_column": {
      "latitude": "30.02481422999425",
      "longitude": "-90.10210965686089"
    }
  },
  {
    "service_request": "2024-1137414",
    "request_type": "Street and Traffic Signs",
    "request_reason": "Stop Sign Missing or Damaged",
    "date_created": "2024-10-01T15:51:55.000",
    "date_modified": "2024-10-01T15:51:56.000",
    "request_status": "Pending",
    "responsible_agency": "Department of Public Works",
    "final_address": "MONTEGUT ST & LAW ST",
    "address_councildis": "D",
    "status": "Pending",
    "rowid": "1137414",
    "final_x": "3689847.0",
    "final_y": "541787.08",
    "longitude": "-90.0413480416112",
    "latitude": "29.983470468848388",
    "geocoded_column": {
      "latitude": "29.983470468848388",
      "longitude": "-90.0413480416112"
    }
  },
  {
    "service_request": "2024-1137413",
    "request_type": "Trash/Recycling",
    "request_reason": "Request a Large Item Pick Up",
    "date_created": "2024-10-01T15:49:49.000",
    "date_modified": "2024-10-01T19:21:19.000",
    "case_close_date": "2024-10-01T14:21:19.000",
    "request_status": "Closed",
    "responsible_agency": "Department of Sanitation",
    "final_address": "4744 Cardenas Dr",
    "address_councildis": "E",
    "status": "Duplicate Request",
    "contractor": "Waste Pro",
    "contractor_action": "Duplicate",
    "rowid": "1137413",
    "final_x": "3713611.42341",
    "final_y": "556371.594778",
    "longitude": "-89.9657385190626",
    "latitude": "30.02281407098994",
    "geocoded_column": {
      "latitude": "30.02281407098994",
      "longitude": "-89.9657385190626"
    }
  },
  {
    "service_request": "2024-1137412",
    "request_type": "Trash/Recycling",
    "request_reason": "Return Trash Cart",
    "date_created": "2024-10-01T15:49:40.000",
    "date_modified": "2024-10-01T15:49:41.000",
    "request_status": "Pending",
    "responsible_agency": "Department of Sanitation",
    "final_address": "6011 Hurst St",
    "address_councildis": "A",
    "status": "Assigned to Contractor",
    "contractor": "IV Waste",
    "rowid": "1137412",
    "final_x": "3665402.81805",
    "final_y": "521896.89337",
    "longitude": "-90.11922160556291",
    "latitude": "29.929514161575888",
    "geocoded_column": {
      "latitude": "29.929514161575888",
      "longitude": "-90.11922160556291"
    }
  },
  {
    "service_request": "2024-1137411",
    "request_type": "Trash/Recycling",
    "request_reason": "Request a Large Item Pick Up",
    "date_created": "2024-10-01T15:49:06.000",
    "date_modified": "2024-10-01T15:49:07.000",
    "request_status": "Pending",
    "responsible_agency": "Department of Sanitation",
    "final_address": "1711 S White St",
    "address_councildis": "B",
    "status": "Assigned to Contractor",
    "contractor": "IV Waste",
    "rowid": "1137411",
    "final_x": "3670932.52379",
    "final_y": "529875.199297",
    "longitude": "-90.10149452430413",
    "latitude": "29.951289646156415",
    "geocoded_column": {
      "latitude": "29.951289646156415",
      "longitude": "-90.10149452430413"
    }
  },
  {
    "service_request": "2024-1137410",
    "request_type": "Trash/Recycling",
    "request_reason": "Missed Trash Pick-Up",
    "date_created": "2024-10-01T15:48:21.000",
    "date_modified": "2024-10-01T15:48:22.000",
    "request_status": "Pending",
    "responsible_agency": "Department of Sanitation",
    "final_address": "11248 Lake Forest Blvd",
    "address_councildis": "E",
    "status": "Assigned to Contractor",
    "contractor": "Waste Pro",
    "rowid": "1137410",
    "final_x": "3716237.49343",
    "final_y": "561575.301983",
    "longitude": "-89.95724337105425",
    "latitude": "30.037035740024056",
    "geocoded_column": {
      "latitude": "30.037035740024056",
      "longitude": "-89.95724337105425"
    }
  },
  {
    "service_request": "2024-1137409",
    "request_type": "Trash/Recycling",
    "request_reason": "Request a Large Item Pick Up",
    "date_created": "2024-10-01T15:45:47.000",
    "date_modified": "2024-10-01T15:45:48.000",
    "request_status": "Pending",
    "responsible_agency": "Department of Sanitation",
    "final_address": "4744 Cardenas Dr",
    "address_councildis": "E",
    "status": "Assigned to Contractor",
    "contractor": "Waste Pro",
    "rowid": "1137409",
    "final_x": "3713611.42341",
    "final_y": "556371.594778",
    "longitude": "-89.9657385190626",
    "latitude": "30.02281407098994",
    "geocoded_column": {
      "latitude": "30.02281407098994",
      "longitude": "-89.9657385190626"
    }
  },
  {
    "service_request": "2024-1137408",
    "request_type": "Trash/Recycling",
    "request_reason": "Missed Trash Pick-Up",
    "date_created": "2024-10-01T15:41:16.000",
    "date_modified": "2024-10-01T15:41:18.000",
    "request_status": "Pending",
    "responsible_agency": "Department of Sanitation",
    "final_address": "7561 Jahncke Rd",
    "address_councildis": "E",
    "status": "Assigned to Contractor",
    "contractor": "Waste Pro",
    "rowid": "1137408",
    "final_x": "3714423.08107",
    "final_y": "568015.782885",
    "longitude": "-89.96273379680284",
    "latitude": "30.054804237648845",
    "geocoded_column": {
      "latitude": "30.054804237648845",
      "longitude": "-89.96273379680284"
    }
  },
  {
    "service_request": "2024-1137407",
    "request_type": "Trash/Recycling",
    "request_reason": "Repair Trash Cart",
    "date_created": "2024-10-01T15:40:38.000",
    "date_modified": "2024-10-01T15:40:40.000",
    "request_status": "Pending",
    "responsible_agency": "Department of Sanitation",
    "final_address": "2678 Acacia St",
    "address_councildis": "D",
    "status": "Assigned to Contractor",
    "contractor": "IV Waste",
    "rowid": "1137407",
    "final_x": "3687803.97129",
    "final_y": "546359.48936",
    "longitude": "-90.04763893477917",
    "latitude": "29.996106140258647",
    "geocoded_column": {
      "latitude": "29.996106140258647",
      "longitude": "-90.04763893477917"
    }
  },
  {
    "service_request": "2024-1137406",
    "request_type": "Roads and Streets",
    "request_reason": "Street Subsidence (Sinking)",
    "date_created": "2024-10-01T15:38:52.000",
    "date_modified": "2024-10-01T15:38:52.000",
    "request_status": "Pending",
    "responsible_agency": "Department of Public Works",
    "final_address": "1036 Arabella St",
    "address_councildis": "A",
    "status": "Pending",
    "rowid": "1137406",
    "final_x": "3666000.47456",
    "final_y": "519906.65292",
    "longitude": "-90.1174015768668",
    "latitude": "29.92402420237604",
    "geocoded_column": {
      "latitude": "29.92402420237604",
      "longitude": "-90.1174015768668"
    }
  },
  {
    "service_request": "2024-1137405",
    "request_type": "Trash/Recycling",
    "request_reason": "Request a Large Item Pick Up",
    "date_created": "2024-10-01T15:34:36.000",
    "date_modified": "2024-10-01T15:34:37.000",
    "request_status": "Pending",
    "responsible_agency": "Department of Sanitation",
    "final_address": "4540 Fort Macomb Rd",
    "address_councildis": "E",
    "status": "Assigned to Contractor",
    "contractor": "Waste Pro",
    "rowid": "1137405",
    "final_x": "3762594.60477",
    "final_y": "573642.021482",
    "longitude": "-89.81024178435618",
    "latitude": "30.06860147690647",
    "geocoded_column": {
      "latitude": "30.06860147690647",
      "longitude": "-89.81024178435618"
    }
  },
  {
    "service_request": "2024-1137404",
    "request_type": "Abandoned Vehicles",
    "request_reason": "Abandoned/Junk Vehicles",
    "date_created": "2024-10-01T15:29:12.000",
    "date_modified": "2024-10-01T15:29:12.000",
    "request_status": "Pending",
    "responsible_agency": "Department of Public Works",
    "final_address": "3510 Danneel St",
    "address_councildis": "B",
    "status": "Pending",
    "rowid": "1137404",
    "final_x": "3673204.89371",
    "final_y": "522656.133626",
    "longitude": "-90.09456591631151",
    "latitude": "29.931372207563548",
    "geocoded_column": {
      "latitude": "29.931372207563548",
      "longitude": "-90.09456591631151"
    }
  },
  {
    "service_request": "2024-1137403",
    "request_type": "Mosquito, Termite & Rodent Control",
    "request_reason": "Mosquito Complaint",
    "date_created": "2024-10-01T15:26:08.000",
    "date_modified": "2024-10-01T15:26:08.000",
    "request_status": "Pending",
    "responsible_agency": "Mosquito, Termite & Rodent Control Board",
    "final_address": "1420 Delery St",
    "address_councildis": "E",
    "status": "Pending",
    "rowid": "1137403",
    "final_x": "3700886.79505",
    "final_y": "534167.823109",
    "longitude": "-90.00675741783819",
    "latitude": "29.96217338291877",
    "geocoded_column": {
      "latitude": "29.96217338291877",
      "longitude": "-90.00675741783819"
    }
  },
  {
    "service_request": "2024-1137402",
    "request_type": "Trash/Recycling",
    "request_reason": "Request a Large Item Pick Up",
    "date_created": "2024-10-01T15:24:34.000",
    "date_modified": "2024-10-01T15:24:36.000",
    "request_status": "Pending",
    "responsible_agency": "Department of Sanitation",
    "final_address": "1305 General Ogden St",
    "address_councildis": "A",
    "status": "Assigned to Contractor",
    "contractor": "IV Waste",
    "rowid": "1137402",
    "final_x": "3660179.17338",
    "final_y": "530564.323586",
    "longitude": "-90.13542574486529",
    "latitude": "29.953498009270437",
    "geocoded_column": {
      "latitude": "29.953498009270437",
      "longitude": "-90.13542574486529"
    }
  },
  {
    "service_request": "2024-1137401",
    "request_type": "Abandoned Vehicles",
    "request_reason": "Abandoned/Junk Vehicles",
    "date_created": "2024-10-01T15:24:05.000",
    "date_modified": "2024-10-01T15:24:05.000",
    "request_status": "Pending",
    "responsible_agency": "Department of Public Works",
    "final_address": "4041 Dryades St",
    "address_councildis": "B",
    "status": "Pending",
    "rowid": "1137401",
    "final_x": "3671977.65915",
    "final_y": "522114.99257",
    "longitude": "-90.0984585635806",
    "latitude": "29.92992066847313",
    "geocoded_column": {
      "latitude": "29.92992066847313",
      "longitude": "-90.0984585635806"
    }
  },
  {
    "service_request": "2024-1137400",
    "request_type": "Abandoned Vehicles",
    "request_reason": "Abandoned/Junk Vehicles",
    "date_created": "2024-10-01T15:19:26.000",
    "date_modified": "2024-10-01T15:19:26.000",
    "request_status": "Pending",
    "responsible_agency": "Department of Public Works",
    "final_address": "3431 Carondelet St",
    "address_councildis": "B",
    "status": "Pending",
    "rowid": "1137400",
    "final_x": "3673751.09588",
    "final_y": "521824.981626",
    "longitude": "-90.09287002574214",
    "latitude": "29.929070560138396",
    "geocoded_column": {
      "latitude": "29.929070560138396",
      "longitude": "-90.09287002574214"
    }
  },
  {
    "service_request": "2024-1137399",
    "request_type": "Abandoned Vehicles",
    "request_reason": "Abandoned/Junk Vehicles",
    "date_created": "2024-10-01T15:18:51.000",
    "date_modified": "2024-10-01T15:18:51.000",
    "request_status": "Pending",
    "responsible_agency": "Department of Public Works",
    "final_address": "3413 Dryades St",
    "address_councildis": "B",
    "status": "Pending",
    "rowid": "1137399",
    "final_x": "3673608.80744",
    "final_y": "522520.84377",
    "longitude": "-90.09329543032936",
    "latitude": "29.930988191019722",
    "geocoded_column": {
      "latitude": "29.930988191019722",
      "longitude": "-90.09329543032936"
    }
  },
  {
    "service_request": "2024-1137398",
    "request_type": "Abandoned Vehicles",
    "request_reason": "Abandoned/Junk Vehicles",
    "date_created": "2024-10-01T15:18:08.000",
    "date_modified": "2024-10-01T15:18:08.000",
    "request_status": "Pending",
    "responsible_agency": "Department of Public Works",
    "final_address": "3417 Dryades St",
    "address_councildis": "B",
    "status": "Pending",
    "rowid": "1137398",
    "final_x": "3673575.20596",
    "final_y": "522507.366842",
    "longitude": "-90.09340196621746",
    "latitude": "29.93095213366867",
    "geocoded_column": {
      "latitude": "29.93095213366867",
      "longitude": "-90.09340196621746"
    }
  },
  {
    "service_request": "2024-1137397",
    "request_type": "Trash/Recycling",
    "request_reason": "Order Trash Cart",
    "date_created": "2024-10-01T15:17:38.000",
    "date_modified": "2024-10-01T15:17:39.000",
    "request_status": "Pending",
    "responsible_agency": "Department of Sanitation",
    "final_address": "4862 Camelia St",
    "address_councildis": "E",
    "status": "Assigned to Contractor",
    "contractor": "Waste Pro",
    "rowid": "1137397",
    "final_x": "3701418.14929",
    "final_y": "554911.253656",
    "longitude": "-90.00431973179592",
    "latitude": "30.01919321017821",
    "geocoded_column": {
      "latitude": "30.01919321017821",
      "longitude": "-90.00431973179592"
    }
  },
  {
    "service_request": "2024-1137396",
    "request_type": "Abandoned Vehicles",
    "request_reason": "Abandoned/Junk Vehicles",
    "date_created": "2024-10-01T15:17:25.000",
    "date_modified": "2024-10-01T15:17:25.000",
    "request_status": "Pending",
    "responsible_agency": "Department of Public Works",
    "final_address": "1913 Foucher St",
    "address_councildis": "B",
    "status": "Pending",
    "rowid": "1137396",
    "final_x": "3673131.8996",
    "final_y": "522444.196794",
    "longitude": "-90.09480358194702",
    "latitude": "29.930791619414187",
    "geocoded_column": {
      "latitude": "29.930791619414187",
      "longitude": "-90.09480358194702"
    }
  },
  {
    "service_request": "2024-1137395",
    "request_type": "Abandoned Vehicles",
    "request_reason": "Abandoned/Junk Vehicles",
    "date_created": "2024-10-01T15:16:49.000",
    "date_modified": "2024-10-01T15:16:49.000",
    "request_status": "Pending",
    "responsible_agency": "Department of Public Works",
    "final_address": "2018 Amelia St",
    "address_councildis": "B",
    "status": "Pending",
    "rowid": "1137395",
    "final_x": "3672706.35982",
    "final_y": "522716.984442",
    "longitude": "-90.09613765530494",
    "latitude": "29.931554338017158",
    "geocoded_column": {
      "latitude": "29.931554338017158",
      "longitude": "-90.09613765530494"
    }
  },
  {
    "service_request": "2024-1137394",
    "request_type": "Roads and Streets",
    "request_reason": "Pothole",
    "date_created": "2024-10-01T15:14:55.000",
    "date_modified": "2024-10-01T15:14:55.000",
    "request_status": "Pending",
    "responsible_agency": "Department of Public Works",
    "final_address": "815 Constance St",
    "address_councildis": "B",
    "status": "Pending",
    "rowid": "1137394",
    "final_x": "3681381.27093",
    "final_y": "527583.852159",
    "longitude": "-90.0685824125184",
    "latitude": "29.944676206790593",
    "geocoded_column": {
      "latitude": "29.944676206790593",
      "longitude": "-90.0685824125184"
    }
  },
  {
    "service_request": "2024-1137393",
    "request_type": "Trash/Recycling",
    "request_reason": "Request a Large Item Pick Up",
    "date_created": "2024-10-01T15:13:42.000",
    "date_modified": "2024-10-01T15:13:43.000",
    "request_status": "Pending",
    "responsible_agency": "Department of Sanitation",
    "final_address": "2031 General Taylor St",
    "address_councildis": "B",
    "status": "Assigned to Contractor",
    "contractor": "IV Waste",
    "rowid": "1137393",
    "final_x": "3672309.44974",
    "final_y": "522712.588346",
    "longitude": "-90.09739080609475",
    "latitude": "29.931554028061967",
    "geocoded_column": {
      "latitude": "29.931554028061967",
      "longitude": "-90.09739080609475"
    }
  },
  {
    "service_request": "2024-1137392",
    "request_type": "Mosquito, Termite & Rodent Control",
    "request_reason": "Mosquito Complaint",
    "date_created": "2024-10-01T15:12:31.000",
    "date_modified": "2024-10-01T15:12:31.000",
    "request_status": "Pending",
    "responsible_agency": "Mosquito, Termite & Rodent Control Board",
    "final_address": "6931 Ridgefield Dr",
    "address_councildis": "E",
    "status": "Pending",
    "rowid": "1137392",
    "final_x": "3719841.85919",
    "final_y": "569103.567398",
    "longitude": "-89.94556478268501",
    "latitude": "30.05761585843907",
    "geocoded_column": {
      "latitude": "30.05761585843907",
      "longitude": "-89.94556478268501"
    }
  },
  {
    "service_request": "2024-1137391",
    "request_type": "Streetlights",
    "request_reason": "Streetlight Outage/Malfunction",
    "date_created": "2024-10-01T15:09:13.000",
    "date_modified": "2024-10-01T15:09:14.000",
    "request_status": "Pending",
    "responsible_agency": "Department of Public Works",
    "final_address": "3210 Morrice Duncan Dr",
    "address_councildis": "D",
    "status": "Pending",
    "contractor": "Legacy Professional Services",
    "rowid": "1137391",
    "final_x": "3692502.52822",
    "final_y": "544051.973774",
    "longitude": "-90.032879332936",
    "latitude": "29.989615511872145",
    "geocoded_column": {
      "latitude": "29.989615511872145",
      "longitude": "-90.032879332936"
    }
  },
  {
    "service_request": "2024-1137390",
    "request_type": "Trash/Recycling",
    "request_reason": "Request a Large Item Pick Up",
    "date_created": "2024-10-01T15:08:46.000",
    "date_modified": "2024-10-01T15:08:49.000",
    "request_status": "Pending",
    "responsible_agency": "Department of Sanitation",
    "final_address": "13035 Lemans St",
    "address_councildis": "E",
    "status": "Assigned to Contractor",
    "contractor": "Waste Pro",
    "rowid": "1137390",
    "final_x": "3723837.79935",
    "final_y": "562815.307744",
    "longitude": "-89.93317717564759",
    "latitude": "30.04019208340101",
    "geocoded_column": {
      "latitude": "30.04019208340101",
      "longitude": "-89.93317717564759"
    }
  },
  {
    "service_request": "2024-1137389",
    "request_type": "Trash/Recycling",
    "request_reason": "Repair Trash Cart",
    "date_created": "2024-10-01T15:07:36.000",
    "date_modified": "2024-10-01T15:07:38.000",
    "request_status": "Pending",
    "responsible_agency": "Department of Sanitation",
    "final_address": "206 Cambridge Ct",
    "address_councildis": "C",
    "status": "Assigned to Contractor",
    "contractor": "Richards Disposal",
    "rowid": "1137389",
    "final_x": "3706334.40913",
    "final_y": "518477.655222",
    "longitude": "-89.99013561775287",
    "latitude": "29.91885644781719",
    "geocoded_column": {
      "latitude": "29.91885644781719",
      "longitude": "-89.99013561775287"
    }
  },
  {
    "service_request": "2024-1137388",
    "request_type": "Roads and Streets",
    "request_reason": "Pothole",
    "date_created": "2024-10-01T15:04:14.000",
    "date_modified": "2024-10-01T15:23:36.000",
    "request_status": "Pending",
    "responsible_agency": "Department of Public Works",
    "final_address": "923 Eleonore St",
    "address_councildis": "A",
    "status": "Pending",
    "rowid": "1137388",
    "final_x": "3665389.19463",
    "final_y": "519601.136376",
    "longitude": "-90.11934139586084",
    "latitude": "29.923201950080696",
    "geocoded_column": {
      "latitude": "29.923201950080696",
      "longitude": "-90.11934139586084"
    }
  },
  {
    "service_request": "2024-1137387",
    "request_type": "Trash/Recycling",
    "request_reason": "Request a Large Item Pick Up",
    "date_created": "2024-10-01T15:02:39.000",
    "date_modified": "2024-10-01T15:02:40.000",
    "request_status": "Pending",
    "responsible_agency": "Department of Sanitation",
    "final_address": "519 Wilkinson St",
    "address_councildis": "C",
    "status": "Assigned to Contractor",
    "contractor": "Empire Services",
    "rowid": "1137387",
    "final_x": "3682904.00124",
    "final_y": "531965.081539",
    "longitude": "-90.06362142281108",
    "latitude": "29.956676801973536",
    "geocoded_column": {
      "latitude": "29.956676801973536",
      "longitude": "-90.06362142281108"
    }
  },
  {
    "service_request": "2024-1137386",
    "request_type": "Parks & Parkways",
    "request_reason": "Request Tree Service (Right of Way/Public Property)",
    "date_created": "2024-10-01T14:57:33.000",
    "date_modified": "2024-10-01T14:59:02.000",
    "request_status": "Pending",
    "responsible_agency": "Department of Parks & Parkway",
    "final_address": "5201 Magazine St",
    "address_councildis": "B",
    "rowid": "1137386",
    "final_x": "3668008.01434",
    "final_y": "518652.680247",
    "longitude": "-90.11110668872112",
    "latitude": "29.920517443249256",
    "geocoded_column": {
      "latitude": "29.920517443249256",
      "longitude": "-90.11110668872112"
    }
  },
  {
    "service_request": "2024-1137385",
    "request_type": "Roads and Streets",
    "request_reason": "Pothole",
    "date_created": "2024-10-01T14:56:58.000",
    "date_modified": "2024-10-01T14:56:58.000",
    "request_status": "Pending",
    "responsible_agency": "Department of Public Works",
    "final_address": "200 BLK S Solomon St",
    "address_councildis": "A",
    "status": "Pending",
    "rowid": "1137385",
    "final_x": "3670219.33374",
    "final_y": "538242.937737",
    "longitude": "-90.10346284464782",
    "latitude": "29.974319206480768",
    "geocoded_column": {
      "latitude": "29.974319206480768",
      "longitude": "-90.10346284464782"
    }
  },
  {
    "service_request": "2024-1137384",
    "request_type": "Drainage",
    "request_reason": "Catch Basin Damaged",
    "date_created": "2024-10-01T14:55:45.000",
    "date_modified": "2024-10-01T15:01:33.000",
    "request_status": "Pending",
    "responsible_agency": "Department of Public Works",
    "final_address": "5201 Magazine St",
    "address_councildis": "B",
    "rowid": "1137384",
    "final_x": "3668008.01434",
    "final_y": "518652.680247",
    "longitude": "-90.11110668872112",
    "latitude": "29.920517443249256",
    "geocoded_column": {
      "latitude": "29.920517443249256",
      "longitude": "-90.11110668872112"
    }
  },
  {
    "service_request": "2024-1137383",
    "request_type": "Parks & Parkways",
    "request_reason": "Request Tree Service (Right of Way/Public Property)",
    "date_created": "2024-10-01T14:53:50.000",
    "date_modified": "2024-10-01T14:53:51.000",
    "request_status": "Pending",
    "responsible_agency": "Department of Parks & Parkway",
    "final_address": "4002 Sullen Pl",
    "address_councildis": "C",
    "status": "Pending",
    "rowid": "1137383",
    "final_x": "3707555.95512",
    "final_y": "516159.893556",
    "longitude": "-89.98636586623113",
    "latitude": "29.912443977239803",
    "geocoded_column": {
      "latitude": "29.912443977239803",
      "longitude": "-89.98636586623113"
    }
  },
  {
    "service_request": "2024-1137382",
    "request_type": "Trash/Recycling",
    "request_reason": "Request a Large Item Pick Up",
    "date_created": "2024-10-01T14:51:41.000",
    "date_modified": "2024-10-01T14:51:42.000",
    "request_status": "Pending",
    "responsible_agency": "Department of Sanitation",
    "final_address": "3501 Constance St",
    "address_councildis": "B",
    "status": "Assigned to Contractor",
    "contractor": "IV Waste",
    "rowid": "1137382",
    "final_x": "3674522.3435",
    "final_y": "519079.388919",
    "longitude": "-90.09052935219671",
    "latitude": "29.921498083980897",
    "geocoded_column": {
      "latitude": "29.921498083980897",
      "longitude": "-90.09052935219671"
    }
  },
  {
    "service_request": "2024-1137381",
    "request_type": "Trash/Recycling",
    "request_reason": "Illegal Dumping",
    "date_created": "2024-10-01T14:51:02.000",
    "date_modified": "2024-10-01T14:51:02.000",
    "request_status": "Pending",
    "responsible_agency": "Department of Sanitation",
    "final_address": "TRICOU ST & FLORIDA AVE",
    "address_councildis": "E",
    "status": "Pending",
    "rowid": "1137381",
    "final_x": "3702447.4",
    "final_y": "538769.98",
    "longitude": "-90.0016603970043",
    "latitude": "29.974777875887675",
    "geocoded_column": {
      "latitude": "29.974777875887675",
      "longitude": "-90.0016603970043"
    }
  },
  {
    "service_request": "2024-1137380",
    "request_type": "Trash/Recycling",
    "request_reason": "Illegal Dumping",
    "date_created": "2024-10-01T14:50:40.000",
    "date_modified": "2024-10-01T14:50:40.000",
    "request_status": "Pending",
    "responsible_agency": "Department of Sanitation",
    "final_address": "CHARBONNET ST & FLORIDA AVE",
    "address_councildis": "E",
    "status": "Pending",
    "rowid": "1137380",
    "final_x": "3700244.0",
    "final_y": "539615.38",
    "longitude": "-90.00858837130646",
    "latitude": "29.977172646452466",
    "geocoded_column": {
      "latitude": "29.977172646452466",
      "longitude": "-90.00858837130646"
    }
  },
  {
    "service_request": "2024-1137379",
    "request_type": "Trash/Recycling",
    "request_reason": "Order Trash Cart",
    "date_created": "2024-10-01T14:50:24.000",
    "date_modified": "2024-10-01T14:50:26.000",
    "request_status": "Pending",
    "responsible_agency": "Department of Sanitation",
    "final_address": "3501 Constance St",
    "address_councildis": "B",
    "status": "Assigned to Contractor",
    "contractor": "IV Waste",
    "rowid": "1137379",
    "final_x": "3674522.3435",
    "final_y": "519079.388919",
    "longitude": "-90.09052935219671",
    "latitude": "29.921498083980897",
    "geocoded_column": {
      "latitude": "29.921498083980897",
      "longitude": "-90.09052935219671"
    }
  },
  {
    "service_request": "2024-1137378",
    "request_type": "Trash/Recycling",
    "request_reason": "Illegal Dumping",
    "date_created": "2024-10-01T14:50:21.000",
    "date_modified": "2024-10-01T14:50:21.000",
    "request_status": "Pending",
    "responsible_agency": "Department of Sanitation",
    "final_address": "FLORIDA AVE & LAMANCHE ST",
    "address_councildis": "E",
    "status": "Pending",
    "rowid": "1137378",
    "final_x": "3699981.4",
    "final_y": "539687.98",
    "longitude": "-90.0094150930537",
    "latitude": "29.977380615405476",
    "geocoded_column": {
      "latitude": "29.977380615405476",
      "longitude": "-90.0094150930537"
    }
  },
  {
    "service_request": "2024-1137377",
    "request_type": "Trash/Recycling",
    "request_reason": "Illegal Dumping",
    "date_created": "2024-10-01T14:50:04.000",
    "date_modified": "2024-10-01T14:50:06.000",
    "request_status": "Pending",
    "responsible_agency": "Department of Sanitation",
    "final_address": "FLORIDA AVE & LIZARDI ST",
    "address_councildis": "E",
    "status": "Pending",
    "rowid": "1137377",
    "final_x": "3698212.3",
    "final_y": "540122.58",
    "longitude": "-90.0149866736417",
    "latitude": "29.97863169330498",
    "geocoded_column": {
      "latitude": "29.97863169330498",
      "longitude": "-90.0149866736417"
    }
  },
  {
    "service_request": "2024-1137376",
    "request_type": "Trash/Recycling",
    "request_reason": "Request a Large Item Pick Up",
    "date_created": "2024-10-01T14:46:56.000",
    "date_modified": "2024-10-01T14:46:57.000",
    "request_status": "Pending",
    "responsible_agency": "Department of Sanitation",
    "final_address": "8026 Cohn St",
    "address_councildis": "A",
    "status": "Assigned to Contractor",
    "contractor": "IV Waste",
    "rowid": "1137376",
    "final_x": "3663806.7104",
    "final_y": "529962.291905",
    "longitude": "-90.12399152927509",
    "latitude": "29.951737840679538",
    "geocoded_column": {
      "latitude": "29.951737840679538",
      "longitude": "-90.12399152927509"
    }
  },
  {
    "service_request": "2024-1137375",
    "request_type": "Property Maintenance",
    "request_reason": "Property Maintenance",
    "date_created": "2024-10-01T14:45:11.000",
    "date_modified": "2024-10-01T14:46:17.000",
    "request_status": "Pending",
    "responsible_agency": "Department of Code Enforcement",
    "final_address": "1209 Elysian Fields Ave",
    "address_councildis": "C",
    "status": "Pending",
    "rowid": "1137375",
    "final_x": "3685084.9334",
    "final_y": "536763.010376",
    "longitude": "-90.05656594117087",
    "latitude": "29.96980281926348",
    "geocoded_column": {
      "latitude": "29.96980281926348",
      "longitude": "-90.05656594117087"
    }
  },
  {
    "service_request": "2024-1137374",
    "request_type": "Trash/Recycling",
    "request_reason": "Order Trash Cart",
    "date_created": "2024-10-01T14:42:32.000",
    "date_modified": "2024-10-01T14:42:33.000",
    "request_status": "Pending",
    "responsible_agency": "Department of Sanitation",
    "final_address": "5741 Wickfield Dr",
    "address_councildis": "D",
    "status": "Assigned to Contractor",
    "contractor": "IV Waste",
    "rowid": "1137374",
    "final_x": "3681064.21736",
    "final_y": "554155.395416",
    "longitude": "-90.06865749492061",
    "latitude": "30.01774829503655",
    "geocoded_column": {
      "latitude": "30.01774829503655",
      "longitude": "-90.06865749492061"
    }
  },
  {
    "service_request": "2024-1137373",
    "request_type": "Mosquito, Termite & Rodent Control",
    "request_reason": "Mosquito Complaint",
    "date_created": "2024-10-01T14:39:45.000",
    "date_modified": "2024-10-01T14:39:46.000",
    "request_status": "Pending",
    "responsible_agency": "Mosquito, Termite & Rodent Control Board",
    "final_address": "7935 Jahncke Rd",
    "address_councildis": "E",
    "status": "Pending",
    "rowid": "1137373",
    "final_x": "3713532.49343",
    "final_y": "569319.718502",
    "longitude": "-89.96549952325599",
    "latitude": "30.058418786811792",
    "geocoded_column": {
      "latitude": "30.058418786811792",
      "longitude": "-89.96549952325599"
    }
  },
  {
    "service_request": "2024-1137372",
    "request_type": "Trash/Recycling",
    "request_reason": "Request a Large Item Pick Up",
    "date_created": "2024-10-01T14:38:06.000",
    "date_modified": "2024-10-01T14:38:07.000",
    "request_status": "Pending",
    "responsible_agency": "Department of Sanitation",
    "final_address": "1638 Louisa St",
    "address_councildis": "D",
    "status": "Assigned to Contractor",
    "contractor": "IV Waste",
    "rowid": "1137372",
    "final_x": "3690060.34627",
    "final_y": "538063.192329",
    "longitude": "-90.04080686128782",
    "latitude": "29.97322448466079",
    "geocoded_column": {
      "latitude": "29.97322448466079",
      "longitude": "-90.04080686128782"
    }
  },
  {
    "service_request": "2024-1137371",
    "request_type": "Mosquito, Termite & Rodent Control",
    "request_reason": "Rodent Complaint (Rats)",
    "date_created": "2024-10-01T14:37:46.000",
    "date_modified": "2024-10-01T14:37:46.000",
    "request_status": "Pending",
    "responsible_agency": "Mosquito, Termite & Rodent Control Board",
    "final_address": "13761 Explorers Ave",
    "address_councildis": "E",
    "status": "Pending",
    "rowid": "1137371",
    "final_x": "3725961.55494",
    "final_y": "569672.449126",
    "longitude": "-89.92619940112404",
    "latitude": "30.058974827806747",
    "geocoded_column": {
      "latitude": "30.058974827806747",
      "longitude": "-89.92619940112404"
    }
  },
  {
    "service_request": "2024-1137370",
    "request_type": "Trash/Recycling",
    "request_reason": "Request a Large Item Pick Up",
    "date_created": "2024-10-01T14:36:19.000",
    "date_modified": "2024-10-01T14:36:20.000",
    "request_status": "Pending",
    "responsible_agency": "Department of Sanitation",
    "final_address": "5480 Stillwater Dr",
    "address_councildis": "E",
    "status": "Assigned to Contractor",
    "contractor": "Waste Pro",
    "rowid": "1137370",
    "final_x": "3716564.01426",
    "final_y": "560632.889182",
    "longitude": "-89.95624729761899",
    "latitude": "30.03443369860792",
    "geocoded_column": {
      "latitude": "30.03443369860792",
      "longitude": "-89.95624729761899"
    }
  },
  {
    "service_request": "2024-1137369",
    "request_type": "Mosquito, Termite & Rodent Control",
    "request_reason": "Mosquito Complaint",
    "date_created": "2024-10-01T14:36:09.000",
    "date_modified": "2024-10-01T17:26:33.000",
    "case_close_date": "2024-10-01T12:26:33.000",
    "request_status": "Closed",
    "responsible_agency": "Mosquito, Termite & Rodent Control Board",
    "final_address": "7935 Jahncke Rd",
    "address_councildis": "E",
    "status": "Duplicate Request",
    "rowid": "1137369",
    "final_x": "3713532.49343",
    "final_y": "569319.718502",
    "longitude": "-89.96549952325599",
    "latitude": "30.058418786811792",
    "geocoded_column": {
      "latitude": "30.058418786811792",
      "longitude": "-89.96549952325599"
    }
  },
  {
    "service_request": "2024-1137368",
    "request_type": "Trash/Recycling",
    "request_reason": "Repair Recycling Cart",
    "date_created": "2024-10-01T14:35:31.000",
    "date_modified": "2024-10-01T14:36:28.000",
    "request_status": "Pending",
    "responsible_agency": "Department of Sanitation",
    "final_address": "1129 Lowerline St",
    "address_councildis": "A",
    "status": "Pending",
    "rowid": "1137368",
    "final_x": "3663644.79885",
    "final_y": "526701.583166",
    "longitude": "-90.1246113786",
    "latitude": "29.942776637243345",
    "geocoded_column": {
      "latitude": "29.942776637243345",
      "longitude": "-90.1246113786"
    }
  },
  {
    "service_request": "2024-1137367",
    "request_type": "Property Maintenance",
    "request_reason": "Property Maintenance",
    "date_created": "2024-10-01T14:34:27.000",
    "date_modified": "2024-10-01T14:34:27.000",
    "request_status": "Pending",
    "responsible_agency": "Department of Code Enforcement",
    "final_address": "8501 Lake Forest Blvd",
    "address_councildis": "E",
    "status": "Pending",
    "rowid": "1137367",
    "final_x": "3705934.16228",
    "final_y": "558213.466524",
    "longitude": "-89.98992847266243",
    "latitude": "30.028128216452462",
    "geocoded_column": {
      "latitude": "30.028128216452462",
      "longitude": "-89.98992847266243"
    }
  },
  {
    "service_request": "2024-1137366",
    "request_type": "Parks & Parkways",
    "request_reason": "Request Tree Service (Right of Way/Public Property)",
    "date_created": "2024-10-01T14:34:20.000",
    "date_modified": "2024-10-01T14:34:20.000",
    "request_status": "Pending",
    "responsible_agency": "Department of Parks & Parkway",
    "final_address": "6201 Berkley Dr",
    "address_councildis": "C",
    "status": "Pending",
    "rowid": "1137366",
    "final_x": "3707025.10321",
    "final_y": "518035.768886",
    "longitude": "-89.98797185070612",
    "latitude": "29.917619132934384",
    "geocoded_column": {
      "latitude": "29.917619132934384",
      "longitude": "-89.98797185070612"
    }
  },
  {
    "service_request": "2024-1137365",
    "request_type": "Safety & Permits",
    "request_reason": "Licenses & Permits",
    "date_created": "2024-10-01T14:33:47.000",
    "date_modified": "2024-10-01T14:33:47.000",
    "request_status": "Pending",
    "responsible_agency": "Safety and Permits",
    "final_address": "8002 Cohn St",
    "address_councildis": "A",
    "status": "Pending",
    "rowid": "1137365",
    "final_x": "3663883.72839",
    "final_y": "529887.555329",
    "longitude": "-90.12375083334992",
    "latitude": "29.951530103922668",
    "geocoded_column": {
      "latitude": "29.951530103922668",
      "longitude": "-90.12375083334992"
    }
  },
  {
    "service_request": "2024-1137364",
    "request_type": "Roads and Streets",
    "request_reason": "Pothole",
    "date_created": "2024-10-01T14:33:13.000",
    "date_modified": "2024-10-01T14:33:13.000",
    "request_status": "Pending",
    "responsible_agency": "Department of Public Works",
    "final_address": "1918 Onzaga St",
    "address_councildis": "D",
    "status": "Pending",
    "rowid": "1137364",
    "final_x": "3681369.943",
    "final_y": "538761.029193",
    "longitude": "-90.06822855038578",
    "latitude": "29.975409978730752",
    "geocoded_column": {
      "latitude": "29.975409978730752",
      "longitude": "-90.06822855038578"
    }
  },
  {
    "service_request": "2024-1137363",
    "request_type": "Trash/Recycling",
    "request_reason": "Missed Trash Pick-Up",
    "date_created": "2024-10-01T14:28:57.000",
    "date_modified": "2024-10-01T14:37:29.000",
    "case_close_date": "2024-10-01T09:37:29.000",
    "request_status": "Closed",
    "responsible_agency": "Department of Sanitation",
    "final_address": "3111 Magazine St",
    "address_councildis": "B",
    "status": "Invalid Request",
    "contractor": "IV Waste",
    "contractor_action": "Invalid",
    "rowid": "1137363",
    "final_x": "3675998.31701",
    "final_y": "520175.48364",
    "longitude": "-90.08583267345365",
    "latitude": "29.924467889632847",
    "geocoded_column": {
      "latitude": "29.924467889632847",
      "longitude": "-90.08583267345365"
    }
  },
  {
    "service_request": "2024-1137362",
    "request_type": "Trash/Recycling",
    "request_reason": "Missed Trash Pick-Up",
    "date_created": "2024-10-01T14:28:04.000",
    "date_modified": "2024-10-01T14:37:12.000",
    "case_close_date": "2024-10-01T09:37:12.000",
    "request_status": "Closed",
    "responsible_agency": "Department of Sanitation",
    "final_address": "3109 Magazine St",
    "address_councildis": "B",
    "status": "Invalid Request",
    "contractor": "IV Waste",
    "contractor_action": "Invalid",
    "rowid": "1137362",
    "final_x": "3676010.25473",
    "final_y": "520183.773048",
    "longitude": "-90.08579470522008",
    "latitude": "29.924490325450577",
    "geocoded_column": {
      "latitude": "29.924490325450577",
      "longitude": "-90.08579470522008"
    }
  },
  {
    "service_request": "2024-1137361",
    "request_type": "Abandoned Vehicles",
    "request_reason": "Abandoned/Junk Vehicles",
    "date_created": "2024-10-01T14:27:49.000",
    "date_modified": "2024-10-01T14:28:59.000",
    "request_status": "Pending",
    "responsible_agency": "Department of Public Works",
    "final_address": "3520 Martin Luther King, Jr. Blvd",
    "address_councildis": "B",
    "status": "Pending",
    "rowid": "1137361",
    "final_x": "3673305.05678",
    "final_y": "529157.294656",
    "longitude": "-90.09402773880356",
    "latitude": "29.949245299325703",
    "geocoded_column": {
      "latitude": "29.949245299325703",
      "longitude": "-90.09402773880356"
    }
  },
  {
    "service_request": "2024-1137360",
    "request_type": "Property Maintenance",
    "request_reason": "Property Maintenance",
    "date_created": "2024-10-01T14:27:18.000",
    "date_modified": "2024-10-01T14:27:18.000",
    "request_status": "Pending",
    "responsible_agency": "Department of Code Enforcement",
    "final_address": "5501 Edenboro Rd",
    "address_councildis": "E",
    "status": "Pending",
    "rowid": "1137360",
    "final_x": "3708222.78052",
    "final_y": "558086.456859",
    "longitude": "-89.98270137350146",
    "latitude": "30.027705012642564",
    "geocoded_column": {
      "latitude": "30.027705012642564",
      "longitude": "-89.98270137350146"
    }
  },
  {
    "service_request": "2024-1137359",
    "request_type": "Trash/Recycling",
    "request_reason": "Request a Large Item Pick Up",
    "date_created": "2024-10-01T14:27:15.000",
    "date_modified": "2024-10-01T14:27:16.000",
    "request_status": "Pending",
    "responsible_agency": "Department of Sanitation",
    "final_address": "7401 Benson St",
    "address_councildis": "E",
    "status": "Assigned to Contractor",
    "contractor": "Waste Pro",
    "rowid": "1137359",
    "final_x": "3704816.5018",
    "final_y": "561825.826143",
    "longitude": "-89.99332669328376",
    "latitude": "30.038096774023977",
    "geocoded_column": {
      "latitude": "30.038096774023977",
      "longitude": "-89.99332669328376"
    }
  },
  {
    "service_request": "2024-1137358",
    "request_type": "Trash/Recycling",
    "request_reason": "Request a Large Item Pick Up",
    "date_created": "2024-10-01T14:21:25.000",
    "date_modified": "2024-10-01T14:21:26.000",
    "request_status": "Pending",
    "responsible_agency": "Department of Sanitation",
    "final_address": "3441 Catalina Dr",
    "address_councildis": "C",
    "status": "Assigned to Contractor",
    "contractor": "Richards Disposal",
    "rowid": "1137358",
    "final_x": "3696843.48816",
    "final_y": "524320.757116",
    "longitude": "-90.01988195112997",
    "latitude": "29.935225487955528",
    "geocoded_column": {
      "latitude": "29.935225487955528",
      "longitude": "-90.01988195112997"
    }
  },
  {
    "service_request": "2024-1137357",
    "request_type": "Trash/Recycling",
    "request_reason": "Request a Large Item Pick Up",
    "date_created": "2024-10-01T14:21:09.000",
    "date_modified": "2024-10-01T14:22:21.000",
    "request_status": "Pending",
    "responsible_agency": "Department of Sanitation",
    "final_address": "1495 Mithra St",
    "address_councildis": "D",
    "status": "Assigned to Contractor",
    "contractor": "IV Waste",
    "rowid": "1137357",
    "final_x": "3678405.52962",
    "final_y": "552248.614998",
    "longitude": "-90.07712396563544",
    "latitude": "30.01258575497228",
    "geocoded_column": {
      "latitude": "30.01258575497228",
      "longitude": "-90.07712396563544"
    }
  },
  {
    "service_request": "2024-1137356",
    "request_type": "Abandoned Vehicles",
    "request_reason": "Abandoned/Junk Vehicles",
    "date_created": "2024-10-01T14:20:08.000",
    "date_modified": "2024-10-01T14:20:08.000",
    "request_status": "Pending",
    "responsible_agency": "Department of Public Works",
    "final_address": "WALES ST & SAND ST",
    "address_councildis": "E",
    "status": "Inspected",
    "rowid": "1137356",
    "final_x": "3720029.6",
    "final_y": "574454.38",
    "longitude": "-89.9447664059159",
    "latitude": "30.07232209262992",
    "geocoded_column": {
      "latitude": "30.07232209262992",
      "longitude": "-89.9447664059159"
    }
  },
  {
    "service_request": "2024-1137355",
    "request_type": "Trash/Recycling",
    "request_reason": "Request a Large Item Pick Up",
    "date_created": "2024-10-01T14:17:39.000",
    "date_modified": "2024-10-01T14:17:40.000",
    "request_status": "Pending",
    "responsible_agency": "Department of Sanitation",
    "final_address": "1017 Broadway St",
    "address_councildis": "A",
    "status": "Assigned to Contractor",
    "contractor": "IV Waste",
    "rowid": "1137355",
    "final_x": "3663901.7609",
    "final_y": "526007.700158",
    "longitude": "-90.12382320957343",
    "latitude": "29.94086122481862",
    "geocoded_column": {
      "latitude": "29.94086122481862",
      "longitude": "-90.12382320957343"
    }
  },
  {
    "service_request": "2024-1137354",
    "request_type": "Traffic Signals",
    "request_reason": "Traffic Signal Malfunctioning or Damaged",
    "date_created": "2024-10-01T14:06:50.000",
    "date_modified": "2024-10-01T14:06:50.000",
    "request_status": "Pending",
    "responsible_agency": "Department of Public Works",
    "final_address": "100 BLK N Rampart St",
    "address_councildis": "C",
    "status": "Pending",
    "rowid": "1137354",
    "final_x": "3680136.90183",
    "final_y": "531766.477593",
    "longitude": "-90.07236592864875",
    "latitude": "29.956214729378335",
    "geocoded_column": {
      "latitude": "29.956214729378335",
      "longitude": "-90.07236592864875"
    }
  },
  {
    "service_request": "2024-1137353",
    "request_type": "Trash/Recycling",
    "request_reason": "Request a Large Item Pick Up",
    "date_created": "2024-10-01T14:06:22.000",
    "date_modified": "2024-10-01T14:06:23.000",
    "request_status": "Pending",
    "responsible_agency": "Department of Sanitation",
    "final_address": "1127 N Derbigny St",
    "address_councildis": "D",
    "status": "Assigned to Contractor",
    "contractor": "IV Waste",
    "rowid": "1137353",
    "final_x": "3680509.60968",
    "final_y": "536249.116551",
    "longitude": "-90.07103311050922",
    "latitude": "29.968529175182194",
    "geocoded_column": {
      "latitude": "29.968529175182194",
      "longitude": "-90.07103311050922"
    }
  },
  {
    "service_request": "2024-1137352",
    "request_type": "Roads and Streets",
    "request_reason": "Pothole",
    "date_created": "2024-10-01T14:05:05.000",
    "date_modified": "2024-10-01T14:06:25.000",
    "case_close_date": "2024-10-01T09:06:25.000",
    "request_status": "Closed",
    "responsible_agency": "Department of Public Works",
    "final_address": "2600 BLK George Nick Connor Dr",
    "address_councildis": "D",
    "status": "Resolved",
    "rowid": "1137352",
    "final_x": "3681136.92804",
    "final_y": "541737.464869",
    "longitude": "-90.06886073778776",
    "latitude": "29.983601212298904",
    "geocoded_column": {
      "latitude": "29.983601212298904",
      "longitude": "-90.06886073778776"
    }
  },
  {
    "service_request": "2024-1137351",
    "request_type": "Trash/Recycling",
    "request_reason": "Start Trash Service",
    "date_created": "2024-10-01T14:04:39.000",
    "date_modified": "2024-10-01T14:04:40.000",
    "request_status": "Pending",
    "responsible_agency": "Department of Sanitation",
    "final_address": "820 Bourbon St",
    "address_councildis": "C",
    "status": "Assigned to Contractor",
    "contractor": "Empire Services",
    "rowid": "1137351",
    "final_x": "3682623.60604",
    "final_y": "533116.005636",
    "longitude": "-90.06446657497561",
    "latitude": "29.959849991095883",
    "geocoded_column": {
      "latitude": "29.959849991095883",
      "longitude": "-90.06446657497561"
    }
  },
  {
    "service_request": "2024-1137350",
    "request_type": "Trash/Recycling",
    "request_reason": "Order Trash Cart",
    "date_created": "2024-10-01T14:04:14.000",
    "date_modified": "2024-10-01T14:04:15.000",
    "request_status": "Pending",
    "responsible_agency": "Department of Sanitation",
    "final_address": "3530 Audubon St",
    "address_councildis": "B",
    "status": "Assigned to Contractor",
    "contractor": "IV Waste",
    "rowid": "1137350",
    "final_x": "3669084.03009",
    "final_y": "533327.145284",
    "longitude": "-90.10721454152201",
    "latitude": "29.960835874340894",
    "geocoded_column": {
      "latitude": "29.960835874340894",
      "longitude": "-90.10721454152201"
    }
  },
  {
    "service_request": "2024-1137349",
    "request_type": "Trash/Recycling",
    "request_reason": "Missed Trash Pick-Up",
    "date_created": "2024-10-01T14:03:30.000",
    "date_modified": "2024-10-01T14:03:32.000",
    "request_status": "Pending",
    "responsible_agency": "Department of Sanitation",
    "final_address": "5323 Timber Haven Ln",
    "address_councildis": "C",
    "status": "Assigned to Contractor",
    "contractor": "Richards Disposal",
    "rowid": "1137349",
    "final_x": "3703861.90628",
    "final_y": "511327.259056",
    "longitude": "-89.99820295173951",
    "latitude": "29.89927476360019",
    "geocoded_column": {
      "latitude": "29.89927476360019",
      "longitude": "-89.99820295173951"
    }
  },
  {
    "service_request": "2024-1137348",
    "request_type": "Trash/Recycling",
    "request_reason": "Illegal Dumping",
    "date_created": "2024-10-01T14:02:32.000",
    "date_modified": "2024-10-01T14:02:33.000",
    "request_status": "Pending",
    "responsible_agency": "Department of Sanitation",
    "final_address": "N DERBIGNY ST & GOVERNOR NICHOLLS ST",
    "address_councildis": "D",
    "status": "Pending",
    "rowid": "1137348",
    "final_x": "3680583.2",
    "final_y": "536293.88",
    "longitude": "-90.07079915090233",
    "latitude": "29.968650029947504",
    "geocoded_column": {
      "latitude": "29.968650029947504",
      "longitude": "-90.07079915090233"
    }
  },
  {
    "service_request": "2024-1137347",
    "request_type": "Trash/Recycling",
    "request_reason": "Request a Large Item Pick Up",
    "date_created": "2024-10-01T14:00:14.000",
    "date_modified": "2024-10-01T14:00:54.000",
    "request_status": "Pending",
    "responsible_agency": "Department of Sanitation",
    "final_address": "5830 Florida Ave",
    "address_councildis": "E",
    "status": "Assigned to Contractor",
    "contractor": "Waste Pro",
    "rowid": "1137347",
    "final_x": "3700476.52445",
    "final_y": "539515.88737",
    "longitude": "-90.0078576230775",
    "latitude": "29.976891684002737",
    "geocoded_column": {
      "latitude": "29.976891684002737",
      "longitude": "-90.0078576230775"
    }
  },
  {
    "service_request": "2024-1137346",
    "request_type": "Abandoned Vehicles",
    "request_reason": "Abandoned/Junk Vehicles",
    "date_created": "2024-10-01T13:58:36.000",
    "date_modified": "2024-10-01T14:03:10.000",
    "request_status": "Pending",
    "responsible_agency": "Department of Public Works",
    "final_address": "1228 Race St",
    "address_councildis": "B",
    "status": "Pending",
    "rowid": "1137346",
    "final_x": "3679505.51599",
    "final_y": "523961.239292",
    "longitude": "-90.07463037110865",
    "latitude": "29.93477201843102",
    "geocoded_column": {
      "latitude": "29.93477201843102",
      "longitude": "-90.07463037110865"
    }
  },
  {
    "service_request": "2024-1137345",
    "request_type": "Streetlights",
    "request_reason": "Streetlight Outage/Malfunction",
    "date_created": "2024-10-01T13:56:47.000",
    "date_modified": "2024-10-01T13:56:49.000",
    "request_status": "Pending",
    "responsible_agency": "Department of Public Works",
    "final_address": "1301 Frenchmen St",
    "address_councildis": "C",
    "status": "Pending",
    "contractor": "Legacy Professional Services",
    "rowid": "1137345",
    "final_x": "3684559.2198",
    "final_y": "537038.46516",
    "longitude": "-90.05821651015599",
    "latitude": "29.970576320778882",
    "geocoded_column": {
      "latitude": "29.970576320778882",
      "longitude": "-90.05821651015599"
    }
  },
  {
    "service_request": "2024-1137344",
    "request_type": "Trash/Recycling",
    "request_reason": "Order Recycling Cart",
    "date_created": "2024-10-01T13:56:23.000",
    "date_modified": "2024-10-01T13:57:40.000",
    "request_status": "Pending",
    "responsible_agency": "Department of Sanitation",
    "final_address": "1215 Kentucky St",
    "address_councildis": "D",
    "status": "Pending",
    "rowid": "1137344",
    "final_x": "3693473.22345",
    "final_y": "535395.74887",
    "longitude": "-90.03012416953707",
    "latitude": "29.965783664301945",
    "geocoded_column": {
      "latitude": "29.965783664301945",
      "longitude": "-90.03012416953707"
    }
  },
  {
    "service_request": "2024-1137343",
    "request_type": "Parks & Parkways",
    "request_reason": "Request Grass Cutting Service (City Owned Property)",
    "date_created": "2024-10-01T13:54:29.000",
    "date_modified": "2024-10-01T13:54:30.000",
    "request_status": "Pending",
    "responsible_agency": "Department of Parks & Parkway",
    "final_address": "3135 Bell St",
    "address_councildis": "A",
    "status": "Pending",
    "rowid": "1137343",
    "final_x": "3675972.1563",
    "final_y": "539574.853834",
    "longitude": "-90.08524823928616",
    "latitude": "29.977810482233114",
    "geocoded_column": {
      "latitude": "29.977810482233114",
      "longitude": "-90.08524823928616"
    }
  },
  {
    "service_request": "2024-1137342",
    "request_type": "Utility Poles",
    "request_reason": "Utility Pole Leaning",
    "date_created": "2024-10-01T13:52:55.000",
    "date_modified": "2024-10-01T13:55:01.000",
    "request_status": "Pending",
    "responsible_agency": "Utility Company Collective",
    "final_address": "S ROBERTSON ST & AMELIA ST",
    "address_councildis": "B",
    "status": "Pending",
    "rowid": "1137342",
    "final_x": "3672280.1",
    "final_y": "524627.88",
    "longitude": "-90.09741824337517",
    "latitude": "29.936821330992345",
    "geocoded_column": {
      "latitude": "29.936821330992345",
      "longitude": "-90.09741824337517"
    }
  },
  {
    "service_request": "2024-1137341",
    "request_type": "Trash/Recycling",
    "request_reason": "Request a Large Item Pick Up",
    "date_created": "2024-10-01T13:52:52.000",
    "date_modified": "2024-10-01T13:52:53.000",
    "request_status": "Pending",
    "responsible_agency": "Department of Sanitation",
    "final_address": "2513 S Roman St",
    "address_councildis": "B",
    "status": "Assigned to Contractor",
    "contractor": "IV Waste",
    "rowid": "1137341",
    "final_x": "3673410.71272",
    "final_y": "527785.078015",
    "longitude": "-90.09374100765733",
    "latitude": "29.945469012838426",
    "geocoded_column": {
      "latitude": "29.945469012838426",
      "longitude": "-90.09374100765733"
    }
  },