[
  {
    "service_request": "2022-891427",
    "request_type": "Traffic Signals/Signs/Striping/Streetlights",
    "request_reason": "Traffic Sign Missing/Damaged",
    "date_created": "2022-06-14T01:37:52.000",
    "date_modified": "2022-06-14T01:37:53.000",
    "request_status": "Pending",
    "responsible_agency": "Department of Public Works",
    "final_address": "NAPOLEON AVE & ST CHARLES AVE",
    "address_councildis": "B",
    "status": "Pending",
    "rowid": "891427",
    "final_x": "3670814.1",
    "final_y": "520818.48",
    "longitude": "-90.10217570850496",
    "latitude": "29.926390102746048",
    "geocoded_column": {
      "latitude": "29.926390102746048",
      "longitude": "-90.10217570850496"
    }
  },
  {
    "service_request": "2022-891426",
    "request_type": "Roads/Drainage",
    "request_reason": "Pothole",
    "date_created": "2022-06-14T00:31:18.000",
    "date_modified": "2022-06-14T00:31:18.000",
    "request_status": "Pending",
    "responsible_agency": "Department of Public Works",
    "final_address": "2721 Baronne St",
    "address_councildis": "B",
    "status": "Pending",
    "rowid": "891426",
    "final_x": "3675597.2187",
    "final_y": "523240.372667",
    "longitude": "-90.08699357150044",
    "latitude": "29.93290734208012",
    "geocoded_column": {
      "latitude": "29.93290734208012",
      "longitude": "-90.08699357150044"
    }
  },
  {
    "service_request": "2022-891425",
    "request_type": "Trash/Recycling",
    "request_reason": "MIssed Recycling Pick-Up",
    "date_created": "2022-06-14T00:25:25.000",
    "date_modified": "2022-06-14T00:25:25.000",
    "request_status": "Pending",
    "responsible_agency": "Department of Sanitation",
    "final_address": "2721 Baronne St",
    "address_councildis": "B",
    "status": "Assigned to Contractor",
    "contractor": "Richards Disposal",
    "rowid": "891425",
    "final_x": "3675597.2187",
    "final_y": "523240.372667",
    "longitude": "-90.08699357150044",
    "latitude": "29.93290734208012",
    "geocoded_column": {
      "latitude": "29.93290734208012",
      "longitude": "-90.08699357150044"
    }
  },
  {
    "service_request": "2022-891424",
    "request_type": "Trash/Recycling",
    "request_reason": "MIssed Recycling Pick-Up",
    "date_created": "2022-06-13T23:15:03.000",
    "date_modified": "2022-06-13T23:15:04.000",
    "request_status": "Pending",
    "responsible_agency": "Department of Sanitation",
    "final_address": "97 Versailles Blvd",
    "address_councildis": "B",
    "status": "Assigned to Contractor",
    "contractor": "Richards Disposal",
    "rowid": "891424",
    "final_x": "3668141.30516",
    "final_y": "531018.050114",
    "longitude": "-90.1102693276304",
    "latitude": "29.954514326348324",
    "geocoded_column": {
      "latitude": "29.954514326348324",
      "longitude": "-90.1102693276304"
    }
  },
  {
    "service_request": "2022-891423",
    "request_type": "Mosquito, Termite & Rodent Control",
    "request_reason": "Non-Rodent Complaint (Mice, Possums, Snakes)",
    "date_created": "2022-06-13T23:02:48.000",
    "date_modified": "2022-06-13T23:02:48.000",
    "request_status": "Pending",
    "responsible_agency": "Mosquito, Termite & Rodent Control Board",
    "final_address": "2623 Banks St",
    "address_councildis": "B",
    "status": "Pending",
    "rowid": "891423",
    "final_x": "3674918.31573",
    "final_y": "534005.212741",
    "longitude": "-90.08876770176484",
    "latitude": "29.96252737980708",
    "geocoded_column": {
      "latitude": "29.96252737980708",
      "longitude": "-90.08876770176484"
    }
  },
  {
    "service_request": "2022-891422",
    "request_type": "Abandoned Vehicles",
    "request_reason": "Abandoned/Junk Vehicles",
    "date_created": "2022-06-13T22:56:37.000",
    "date_modified": "2022-06-13T22:56:37.000",
    "request_status": "Pending",
    "responsible_agency": "Department of Public Works",
    "final_address": "203 Fairfax Pl",
    "address_councildis": "C",
    "status": "Pending",
    "rowid": "891422",
    "final_x": "3706132.38078",
    "final_y": "517360.447861",
    "longitude": "-89.9908146283407",
    "latitude": "29.91579102482397",
    "geocoded_column": {
      "latitude": "29.91579102482397",
      "longitude": "-89.9908146283407"
    }
  },
  {
    "service_request": "2022-891421",
    "request_type": "Trash/Recycling",
    "request_reason": "Illegal Dumping",
    "date_created": "2022-06-13T22:37:21.000",
    "date_modified": "2022-06-13T22:37:21.000",
    "request_status": "Pending",
    "responsible_agency": "Department of Sanitation",
    "final_address": "3121 Banks St",
    "address_councildis": "B",
    "status": "Pending",
    "rowid": "891421",
    "final_x": "3673249.73",
    "final_y": "535268.061318",
    "longitude": "-90.09399374219767",
    "latitude": "29.96604951751718",
    "geocoded_column": {
      "latitude": "29.96604951751718",
      "longitude": "-90.09399374219767"
    }
  },
  {
    "service_request": "2022-891420",
    "request_type": "Traffic Signals/Signs/Striping/Streetlights",
    "request_reason": "Request for Stop Sign",
    "date_created": "2022-06-13T22:08:00.000",
    "date_modified": "2022-06-13T22:08:00.000",
    "request_status": "Pending",
    "responsible_agency": "Department of Public Works",
    "final_address": "2643 Dante St",
    "address_councildis": "A",
    "status": "Pending",
    "rowid": "891420",
    "final_x": "3665052.38298",
    "final_y": "532801.28186",
    "longitude": "-90.11996335060707",
    "latitude": "29.95950792969848",
    "geocoded_column": {
      "latitude": "29.95950792969848",
      "longitude": "-90.11996335060707"
    }
  },
  {
    "service_request": "2022-891419",
    "request_type": "Traffic Signals/Signs/Striping/Streetlights",
    "request_reason": "Street Light Outage/Malfunction",
    "date_created": "2022-06-13T22:06:27.000",
    "date_modified": "2022-06-13T22:06:27.000",
    "request_status": "Pending",
    "responsible_agency": "Department of Public Works",
    "final_address": "2643 Dante St",
    "address_councildis": "A",
    "status": "Pending",
    "contractor": "Royal Engineering",
    "rowid": "891419",
    "final_x": "3665052.38298",
    "final_y": "532801.28186",
    "longitude": "-90.11996335060707",
    "latitude": "29.95950792969848",
    "geocoded_column": {
      "latitude": "29.95950792969848",
      "longitude": "-90.11996335060707"
    }
  },
  {
    "service_request": "2022-891418",
    "request_type": "Traffic Signals/Signs/Striping/Streetlights",
    "request_reason": "Street Light Outage/Malfunction",
    "date_created": "2022-06-13T22:04:36.000",
    "date_modified": "2022-06-13T22:04:37.000",
    "request_status": "Pending",
    "responsible_agency": "Department of Public Works",
    "final_address": "844 Taft Pl",
    "address_councildis": "A",
    "status": "Pending",
    "contractor": "Royal Engineering",
    "rowid": "891418",
    "final_x": "3673847.3515",
    "final_y": "539714.952458",
    "longitude": "-90.09195432536946",
    "latitude": "29.978259172620614",
    "geocoded_column": {
      "latitude": "29.978259172620614",
      "longitude": "-90.09195432536946"
    }
  },
  {
    "service_request": "2022-891417",
    "request_type": "Traffic Signals/Signs/Striping/Streetlights",
    "request_reason": "Request for Stop Sign",
    "date_created": "2022-06-13T21:23:08.000",
    "date_modified": "2022-06-13T21:23:08.000",
    "request_status": "Pending",
    "responsible_agency": "Department of Public Works",
    "final_address": "2277 Leon C Simon Dr",
    "address_councildis": "D",
    "status": "Pending",
    "rowid": "891417",
    "final_x": "3684033.78364",
    "final_y": "557058.801818",
    "longitude": "-90.05917282523626",
    "latitude": "30.025641138244737",
    "geocoded_column": {
      "latitude": "30.025641138244737",
      "longitude": "-90.05917282523626"
    }
  },
  {
    "service_request": "2022-891416",
    "request_type": "Trash/Recycling",
    "request_reason": "Missed Trash Pick-Up",
    "date_created": "2022-06-13T21:20:31.000",
    "date_modified": "2022-06-13T21:20:32.000",
    "request_status": "Pending",
    "responsible_agency": "Department of Sanitation",
    "final_address": "2277 Leon C Simon Dr",
    "address_councildis": "D",
    "status": "Assigned to Contractor",
    "contractor": "Metro Disposal",
    "rowid": "891416",
    "final_x": "3684033.78364",
    "final_y": "557058.801818",
    "longitude": "-90.05917282523626",
    "latitude": "30.025641138244737",
    "geocoded_column": {
      "latitude": "30.025641138244737",
      "longitude": "-90.05917282523626"
    }
  },
  {
    "service_request": "2022-891415",
    "request_type": "Trash/Recycling",
    "request_reason": "Missed Trash Pick-Up",
    "date_created": "2022-06-13T20:51:16.000",
    "date_modified": "2022-06-13T20:51:17.000",
    "request_status": "Pending",
    "responsible_agency": "Department of Sanitation",
    "final_address": "6420 Peoples Ave",
    "address_councildis": "D",
    "status": "Assigned to Contractor",
    "contractor": "Metro Disposal",
    "rowid": "891415",
    "final_x": "3687629.8582",
    "final_y": "557034.751066",
    "longitude": "-90.04781061155056",
    "latitude": "30.02546456533425",
    "geocoded_column": {
      "latitude": "30.02546456533425",
      "longitude": "-90.04781061155056"
    }
  },
  {
    "service_request": "2022-891414",
    "request_type": "Trash/Recycling",
    "request_reason": "Request a Large Item Pick Up",
    "date_created": "2022-06-13T20:50:41.000",
    "date_modified": "2022-06-13T20:50:42.000",
    "request_status": "Pending",
    "responsible_agency": "Department of Sanitation",
    "final_address": "7169 Parkside Ct",
    "address_councildis": "E",
    "status": "Assigned to Contractor",
    "contractor": "Metro Disposal",
    "rowid": "891414",
    "final_x": "3704391.8794",
    "final_y": "560507.756126",
    "longitude": "-89.99471726024105",
    "latitude": "30.03448624598184",
    "geocoded_column": {
      "latitude": "30.03448624598184",
      "longitude": "-89.99471726024105"
    }
  },
  {
    "service_request": "2022-891413",
    "request_type": "Trash/Recycling",
    "request_reason": "Return Trash Cart",
    "date_created": "2022-06-13T20:28:11.000",
    "date_modified": "2022-06-13T20:28:11.000",
    "request_status": "Pending",
    "responsible_agency": "Department of Sanitation",
    "final_address": "96 Fontainebleau Dr",
    "address_councildis": "A",
    "status": "Assigned to Contractor",
    "contractor": "Richards Disposal",
    "rowid": "891413",
    "final_x": "3667130.42996",
    "final_y": "530471.520706",
    "longitude": "-90.11347965957945",
    "latitude": "29.95304117924657",
    "geocoded_column": {
      "latitude": "29.95304117924657",
      "longitude": "-90.11347965957945"
    }
  },
  {
    "service_request": "2022-891412",
    "request_type": "Property Maintenance",
    "request_reason": "Property Maintenance",
    "date_created": "2022-06-13T20:24:58.000",
    "date_modified": "2022-06-13T20:24:58.000",
    "request_status": "Pending",
    "responsible_agency": "Department of Code Enforcement",
    "final_address": "2225 Odin St",
    "address_councildis": "D",
    "status": "Pending",
    "rowid": "891412",
    "final_x": "3683890.64847",
    "final_y": "553097.592023",
    "longitude": "-90.05976423324837",
    "latitude": "30.014753643325204",
    "geocoded_column": {
      "latitude": "30.014753643325204",
      "longitude": "-90.05976423324837"
    }
  },
  {
    "service_request": "2022-891411",
    "request_type": "Property Maintenance",
    "request_reason": "Property Maintenance",
    "date_created": "2022-06-13T20:23:21.000",
    "date_modified": "2022-06-13T20:23:21.000",
    "request_status": "Pending",
    "responsible_agency": "Department of Code Enforcement",
    "final_address": "5505 Elysian Fields Ave",
    "address_councildis": "D",
    "status": "Pending",
    "rowid": "891411",
    "final_x": "3683787.74364",
    "final_y": "553099.913751",
    "longitude": "-90.0600892807409",
    "latitude": "30.014763171747543",
    "geocoded_column": {
      "latitude": "30.014763171747543",
      "longitude": "-90.0600892807409"
    }
  },
  {
    "service_request": "2022-891410",
    "request_type": "Roads/Drainage",
    "request_reason": "Street Flooding / Drainage",
    "date_created": "2022-06-13T20:22:15.000",
    "date_modified": "2022-06-13T20:22:15.000",
    "request_status": "Pending",
    "responsible_agency": "Department of Public Works",
    "final_address": "2227 Odin St",
    "address_councildis": "D",
    "status": "Pending",
    "rowid": "891410",
    "final_x": "3683940.00124",
    "final_y": "553107.349527",
    "longitude": "-90.059607959909",
    "latitude": "30.014778964512548",
    "geocoded_column": {
      "latitude": "30.014778964512548",
      "longitude": "-90.059607959909"
    }
  },
  {
    "service_request": "2022-891409",
    "request_type": "Property Maintenance",
    "request_reason": "Property Maintenance",
    "date_created": "2022-06-13T20:19:46.000",
    "date_modified": "2022-06-13T20:19:46.000",
    "request_status": "Pending",
    "responsible_agency": "Department of Code Enforcement",
    "final_address": "MOSS ST & PEDESTRIAN BRIDGE & HARDING DR",
    "address_councildis": "A",
    "status": "Pending",
    "rowid": "891409",
    "final_x": "3674758.1",
    "final_y": "540593.38",
    "longitude": "-90.0890477220495",
    "latitude": "29.980647385265797",
    "geocoded_column": {
      "latitude": "29.980647385265797",
      "longitude": "-90.0890477220495"
    }
  },
  {
    "service_request": "2022-891408",
    "request_type": "Trash/Recycling",
    "request_reason": "Missed Trash Pick-Up",
    "date_created": "2022-06-13T19:56:52.000",
    "date_modified": "2022-06-13T19:56:53.000",
    "request_status": "Pending",
    "responsible_agency": "Department of Sanitation",
    "final_address": "620 S Lopez St",
    "address_councildis": "B",
    "status": "Assigned to Contractor",
    "contractor": "Richards Disposal",
    "rowid": "891408",
    "final_x": "3672536.98491",
    "final_y": "534414.609157",
    "longitude": "-90.09627367450074",
    "latitude": "29.963723988239543",
    "geocoded_column": {
      "latitude": "29.963723988239543",
      "longitude": "-90.09627367450074"
    }
  },
  {
    "service_request": "2022-891407",
    "request_type": "Parks & Parkways",
    "request_reason": "Request Grass Cutting Service (City Owned Property)",
    "date_created": "2022-06-13T19:56:36.000",
    "date_modified": "2022-06-13T19:56:36.000",
    "request_status": "Pending",
    "responsible_agency": "Department of Parks & Parkway",
    "final_address": "6402 Peoples Ave",
    "address_councildis": "D",
    "status": "Pending",
    "rowid": "891407",
    "final_x": "3687639.96771",
    "final_y": "556895.594202",
    "longitude": "-90.04778360032876",
    "latitude": "30.025081624007303",
    "geocoded_column": {
      "latitude": "30.025081624007303",
      "longitude": "-90.04778360032876"
    }
  },
  {
    "service_request": "2022-891406",
    "request_type": "Trash/Recycling",
    "request_reason": "Illegal Dumping",
    "date_created": "2022-06-13T19:51:15.000",
    "date_modified": "2022-06-13T19:51:15.000",
    "request_status": "Pending",
    "responsible_agency": "Department of Sanitation",
    "final_address": "1632 Esplanade Ave",
    "address_councildis": "D",
    "status": "Pending",
    "rowid": "891406",
    "final_x": "3680971.94235",
    "final_y": "536725.975431",
    "longitude": "-90.06955643106406",
    "latitude": "29.969826360351938",
    "geocoded_column": {
      "latitude": "29.969826360351938",
      "longitude": "-90.06955643106406"
    }
  },
  {
    "service_request": "2022-891405",
    "request_type": "Abandoned Vehicles",
    "request_reason": "Abandoned/Junk Vehicles",
    "date_created": "2022-06-13T19:45:11.000",
    "date_modified": "2022-06-13T19:45:11.000",
    "request_status": "Pending",
    "responsible_agency": "Department of Public Works",
    "final_address": "2547 Esplanade Ave",
    "address_councildis": "D",
    "status": "Pending",
    "rowid": "891405",
    "final_x": "3678352.03323",
    "final_y": "538899.433354",
    "longitude": "-90.07775513734985",
    "latitude": "29.97588181663879",
    "geocoded_column": {
      "latitude": "29.97588181663879",
      "longitude": "-90.07775513734985"
    }
  },
  {
    "service_request": "2022-891404",
    "request_type": "Traffic Signals/Signs/Striping/Streetlights",
    "request_reason": "Request for Stop Sign",
    "date_created": "2022-06-13T19:44:44.000",
    "date_modified": "2022-06-13T19:44:44.000",
    "request_status": "Pending",
    "responsible_agency": "Department of Public Works",
    "final_address": "4628 Banks St",
    "address_councildis": "A",
    "status": "Pending",
    "rowid": "891404",
    "final_x": "3668441.34593",
    "final_y": "538755.718089",
    "longitude": "-90.10906086375333",
    "latitude": "29.975781534189885",
    "geocoded_column": {
      "latitude": "29.975781534189885",
      "longitude": "-90.10906086375333"
    }
  },
  {
    "service_request": "2022-891403",
    "request_type": "Trash/Recycling",
    "request_reason": "Illegal Dumping",
    "date_created": "2022-06-13T19:41:06.000",
    "date_modified": "2022-06-13T19:41:06.000",
    "request_status": "Pending",
    "responsible_agency": "Department of Sanitation",
    "final_address": "3001 Conti St",
    "address_councildis": "B",
    "status": "Pending",
    "rowid": "891403",
    "final_x": "3675011.24097",
    "final_y": "536879.988424",
    "longitude": "-90.08837562201467",
    "latitude": "29.970429265782542",
    "geocoded_column": {
      "latitude": "29.970429265782542",
      "longitude": "-90.08837562201467"
    }
  },
  {
    "service_request": "2022-891401",
    "request_type": "Trash/Recycling",
    "request_reason": "Replace Trash Cart",
    "date_created": "2022-06-13T19:22:02.000",
    "date_modified": "2022-06-13T19:22:03.000",
    "request_status": "Pending",
    "responsible_agency": "Department of Sanitation",
    "final_address": "2011 Lawrence St",
    "address_councildis": "C",
    "status": "Assigned to Contractor",
    "contractor": "Richards Disposal",
    "rowid": "891401",
    "final_x": "3691546.51465",
    "final_y": "525465.904509",
    "longitude": "-90.0365635118176",
    "latitude": "29.938540144704167",
    "geocoded_column": {
      "latitude": "29.938540144704167",
      "longitude": "-90.0365635118176"
    }
  },
  {
    "service_request": "2022-891400",
    "request_type": "Roads/Drainage",
    "request_reason": "Pothole",
    "date_created": "2022-06-13T19:10:26.000",
    "date_modified": "2022-06-13T19:10:26.000",
    "request_status": "Pending",
    "responsible_agency": "Department of Public Works",
    "final_address": "1122 Toledano St",
    "address_councildis": "B",
    "status": "Pending",
    "rowid": "891400",
    "final_x": "3675276.40289",
    "final_y": "519954.859512",
    "longitude": "-90.08811908080055",
    "latitude": "29.923882836088683",
    "geocoded_column": {
      "latitude": "29.923882836088683",
      "longitude": "-90.08811908080055"
    }
  },
  {
    "service_request": "2022-891399",
    "request_type": "Trash/Recycling",
    "request_reason": "Illegal Dumping",
    "date_created": "2022-06-13T19:08:51.000",
    "date_modified": "2022-06-13T19:08:51.000",
    "request_status": "Pending",
    "responsible_agency": "Department of Sanitation",
    "final_address": "713 S Solomon St",
    "address_councildis": "A",
    "status": "Pending",
    "rowid": "891399",
    "final_x": "3669065.12346",
    "final_y": "536774.157384",
    "longitude": "-90.10715776355593",
    "latitude": "29.970314566919317",
    "geocoded_column": {
      "latitude": "29.970314566919317",
      "longitude": "-90.10715776355593"
    }
  },
  {
    "service_request": "2022-891398",
    "request_type": "Trash/Recycling",
    "request_reason": "Missed Trash Pick-Up",
    "date_created": "2022-06-13T19:05:33.000",
    "date_modified": "2022-06-13T19:05:34.000",
    "request_status": "Pending",
    "responsible_agency": "Department of Sanitation",
    "final_address": "713 S Solomon St",
    "address_councildis": "A",
    "status": "Assigned to Contractor",
    "contractor": "Richards Disposal",
    "rowid": "891398",
    "final_x": "3669065.12346",
    "final_y": "536774.157384",
    "longitude": "-90.10715776355593",
    "latitude": "29.970314566919317",
    "geocoded_column": {
      "latitude": "29.970314566919317",
      "longitude": "-90.10715776355593"
    }
  },
  {
    "service_request": "2022-891396",
    "request_type": "Trash/Recycling",
    "request_reason": "Order Recycling Cart",
    "date_created": "2022-06-13T18:46:16.000",
    "date_modified": "2022-06-13T18:46:16.000",
    "request_status": "Pending",
    "responsible_agency": "Department of Sanitation",
    "final_address": "1445 Madrid St",
    "address_councildis": "D",
    "status": "Pending",
    "rowid": "891396",
    "final_x": "3677829.61422",
    "final_y": "554661.757784",
    "longitude": "-90.07886007055095",
    "latitude": "30.019238375508085",
    "geocoded_column": {
      "latitude": "30.019238375508085",
      "longitude": "-90.07886007055095"
    }
  },
  {
    "service_request": "2022-891395",
    "request_type": "Roads/Drainage",
    "request_reason": "Man hole cover issue",
    "date_created": "2022-06-13T18:45:57.000",
    "date_modified": "2022-06-13T18:45:58.000",
    "request_status": "Pending",
    "responsible_agency": "Department of Public Works",
    "final_address": "HOLIDAY DR & MACARTHUR BLVD",
    "address_councildis": "C",
    "status": "Pending",
    "rowid": "891395",
    "final_x": "3698736.7",
    "final_y": "520398.98",
    "longitude": "-90.01404767124727",
    "latitude": "29.924382143358752",
    "geocoded_column": {
      "latitude": "29.924382143358752",
      "longitude": "-90.01404767124727"
    }
  },
  {
    "service_request": "2022-891394",
    "request_type": "Parks & Parkways",
    "request_reason": "Request Tree Service (Right of Way/Public Property)",
    "date_created": "2022-06-13T18:42:36.000",
    "date_modified": "2022-06-13T18:42:36.000",
    "request_status": "Pending",
    "responsible_agency": "Department of Parks & Parkway",
    "final_address": "1445 Madrid St",
    "address_councildis": "D",
    "status": "Pending",
    "rowid": "891394",
    "final_x": "3677829.61422",
    "final_y": "554661.757784",
    "longitude": "-90.07886007055095",
    "latitude": "30.019238375508085",
    "geocoded_column": {
      "latitude": "30.019238375508085",
      "longitude": "-90.07886007055095"
    }
  },
  {
    "service_request": "2022-891393",
    "request_type": "Parks & Parkways",
    "request_reason": "Request Tree Service (Right of Way/Public Property)",
    "date_created": "2022-06-13T18:39:51.000",
    "date_modified": "2022-06-13T18:39:51.000",
    "request_status": "Pending",
    "responsible_agency": "Department of Parks & Parkway",
    "final_address": "4616 St Roch Ave",
    "address_councildis": "D",
    "status": "Pending",
    "rowid": "891393",
    "final_x": "3685266.58754",
    "final_y": "549667.277524",
    "longitude": "-90.05553780218605",
    "latitude": "30.0052794059847",
    "geocoded_column": {
      "latitude": "30.0052794059847",
      "longitude": "-90.05553780218605"
    }
  },
  {
    "service_request": "2022-891392",
    "request_type": "Parks & Parkways",
    "request_reason": "Request Tree Service (Right of Way/Public Property)",
    "date_created": "2022-06-13T18:39:51.000",
    "date_modified": "2022-06-13T18:39:51.000",
    "request_status": "Pending",
    "responsible_agency": "Department of Parks & Parkway",
    "final_address": "4616 St Roch Ave",
    "address_councildis": "D",
    "status": "Pending",
    "rowid": "891392",
    "final_x": "3685266.58754",
    "final_y": "549667.277524",
    "longitude": "-90.05553780218605",
    "latitude": "30.0052794059847",
    "geocoded_column": {
      "latitude": "30.0052794059847",
      "longitude": "-90.05553780218605"
    }
  },
  {
    "service_request": "2022-891391",
    "request_type": "Trash/Recycling",
    "request_reason": "Request a Large Item Pick Up",
    "date_created": "2022-06-13T18:38:32.000",
    "date_modified": "2022-06-13T18:38:33.000",
    "request_status": "Pending",
    "responsible_agency": "Department of Sanitation",
    "final_address": "5863 Louisville St",
    "address_councildis": "A",
    "status": "Assigned to Contractor",
    "contractor": "Metro Disposal",
    "rowid": "891391",
    "final_x": "3667716.88897",
    "final_y": "546466.432785",
    "longitude": "-90.1110891463145",
    "latitude": "29.997004641659313",
    "geocoded_column": {
      "latitude": "29.997004641659313",
      "longitude": "-90.1110891463145"
    }
  },
  {
    "service_request": "2022-891390",
    "request_type": "Abandoned Vehicles",
    "request_reason": "Abandoned/Junk Vehicles",
    "date_created": "2022-06-13T18:36:23.000",
    "date_modified": "2022-06-13T18:36:23.000",
    "request_status": "Pending",
    "responsible_agency": "Department of Public Works",
    "final_address": "6073 Wildair Dr",
    "address_councildis": "D",
    "status": "Pending",
    "rowid": "891390",
    "final_x": "3681503.57212",
    "final_y": "555222.619481",
    "longitude": "-90.06723204662306",
    "latitude": "30.02066943059048",
    "geocoded_column": {
      "latitude": "30.02066943059048",
      "longitude": "-90.06723204662306"
    }
  },
  {
    "service_request": "2022-891389",
    "request_type": "Trash/Recycling",
    "request_reason": "Missed Trash Pick-Up",
    "date_created": "2022-06-13T18:20:58.000",
    "date_modified": "2022-06-13T18:20:59.000",
    "request_status": "Pending",
    "responsible_agency": "Department of Sanitation",
    "final_address": "2473 Jay St",
    "address_councildis": "D",
    "status": "Assigned to Contractor",
    "contractor": "Metro Disposal",
    "rowid": "891389",
    "final_x": "3685266.25986",
    "final_y": "557528.277595",
    "longitude": "-90.05526183224387",
    "latitude": "30.026894280973874",
    "geocoded_column": {
      "latitude": "30.026894280973874",
      "longitude": "-90.05526183224387"
    }
  },
  {
    "service_request": "2022-891388",
    "request_type": "Roads/Drainage",
    "request_reason": "Catch Basin - Broken/Damage",
    "date_created": "2022-06-13T18:13:30.000",
    "date_modified": "2022-06-13T18:13:30.000",
    "request_status": "Pending",
    "responsible_agency": "Department of Public Works",
    "final_address": "4800 Viola St",
    "address_councildis": "E",
    "status": "Pending",
    "rowid": "891388",
    "final_x": "3703841.91575",
    "final_y": "555578.400025",
    "longitude": "-89.99663693033595",
    "latitude": "30.020950084891773",
    "geocoded_column": {
      "latitude": "30.020950084891773",
      "longitude": "-89.99663693033595"
    }
  },
  {
    "service_request": "2022-891387",
    "request_type": "Abandoned Vehicles",
    "request_reason": "Abandoned/Junk Vehicles",
    "date_created": "2022-06-13T18:12:47.000",
    "date_modified": "2022-06-13T18:12:47.000",
    "request_status": "Pending",
    "responsible_agency": "Department of Public Works",
    "final_address": "513 S Alexander St",
    "address_councildis": "A",
    "status": "Pending",
    "rowid": "891387",
    "final_x": "3668909.06574",
    "final_y": "537809.883208",
    "longitude": "-90.10761562276417",
    "latitude": "29.973167056900298",
    "geocoded_column": {
      "latitude": "29.973167056900298",
      "longitude": "-90.10761562276417"
    }
  },
  {
    "service_request": "2022-891386",
    "request_type": "Roads/Drainage",
    "request_reason": "Catch Basin - Clogged",
    "date_created": "2022-06-13T17:43:37.000",
    "date_modified": "2022-06-13T17:43:37.000",
    "request_status": "Pending",
    "responsible_agency": "Department of Public Works",
    "final_address": "4866 Camelia St",
    "address_councildis": "E",
    "status": "Pending",
    "rowid": "891386",
    "final_x": "3701403.01565",
    "final_y": "554948.692056",
    "longitude": "-90.00436617659649",
    "latitude": "30.019296634096033",
    "geocoded_column": {
      "latitude": "30.019296634096033",
      "longitude": "-90.00436617659649"
    }
  },
  {
    "service_request": "2022-891385",
    "request_type": "Trash/Recycling",
    "request_reason": "Repair Trash Cart",
    "date_created": "2022-06-13T17:40:18.000",
    "date_modified": "2022-06-13T17:40:18.000",
    "request_status": "Pending",
    "responsible_agency": "Department of Sanitation",
    "final_address": "2521 Dreux Ave",
    "address_councildis": "D",
    "status": "Assigned to Contractor",
    "contractor": "Metro Disposal",
    "rowid": "891385",
    "final_x": "3686227.9485",
    "final_y": "552269.17135",
    "longitude": "-90.05240877195156",
    "latitude": "30.012404151942697",
    "geocoded_column": {
      "latitude": "30.012404151942697",
      "longitude": "-90.05240877195156"
    }
  },
  {
    "service_request": "2022-891384",
    "request_type": "Trash/Recycling",
    "request_reason": "Request a Large Item Pick Up",
    "date_created": "2022-06-13T17:38:05.000",
    "date_modified": "2022-06-13T17:38:06.000",
    "request_status": "Pending",
    "responsible_agency": "Department of Sanitation",
    "final_address": "2709 Lapeyrouse St",
    "address_councildis": "D",
    "status": "Assigned to Contractor",
    "contractor": "Metro Disposal",
    "rowid": "891384",
    "final_x": "3678749.9188",
    "final_y": "540472.545035",
    "longitude": "-90.07644400272135",
    "latitude": "29.980195335778333",
    "geocoded_column": {
      "latitude": "29.980195335778333",
      "longitude": "-90.07644400272135"
    }
  },
  {
    "service_request": "2022-891383",
    "request_type": "Trash/Recycling",
    "request_reason": "Missed Trash Pick-Up",
    "date_created": "2022-06-13T17:37:55.000",
    "date_modified": "2022-06-13T17:37:56.000",
    "request_status": "Pending",
    "responsible_agency": "Department of Sanitation",
    "final_address": "2521 Dreux Ave",
    "address_councildis": "D",
    "status": "Assigned to Contractor",
    "contractor": "Metro Disposal",
    "rowid": "891383",
    "final_x": "3686227.9485",
    "final_y": "552269.17135",
    "longitude": "-90.05240877195156",
    "latitude": "30.012404151942697",
    "geocoded_column": {
      "latitude": "30.012404151942697",
      "longitude": "-90.05240877195156"
    }
  },
  {
    "service_request": "2022-891382",
    "request_type": "Abandoned Vehicles",
    "request_reason": "Abandoned/Junk Vehicles",
    "date_created": "2022-06-13T17:36:26.000",
    "date_modified": "2022-06-13T17:36:27.000",
    "request_status": "Pending",
    "responsible_agency": "Department of Public Works",
    "final_address": "2805 Milan St",
    "address_councildis": "B",
    "status": "Pending",
    "rowid": "891382",
    "final_x": "3671214.58478",
    "final_y": "525228.304509",
    "longitude": "-90.10076174481156",
    "latitude": "29.938503862216383",
    "geocoded_column": {
      "latitude": "29.938503862216383",
      "longitude": "-90.10076174481156"
    }
  },
  {
    "service_request": "2022-891381",
    "request_type": "Trash/Recycling",
    "request_reason": "Request a Large Item Pick Up",
    "date_created": "2022-06-13T17:32:34.000",
    "date_modified": "2022-06-13T17:32:35.000",
    "request_status": "Pending",
    "responsible_agency": "Department of Sanitation",
    "final_address": "2429 Clover St",
    "address_councildis": "D",
    "status": "Assigned to Contractor",
    "contractor": "Metro Disposal",
    "rowid": "891381",
    "final_x": "3686326.56879",
    "final_y": "546626.689809",
    "longitude": "-90.05229649232734",
    "latitude": "29.996886344221835",
    "geocoded_column": {
      "latitude": "29.996886344221835",
      "longitude": "-90.05229649232734"
    }
  },
  {
    "service_request": "2022-891378",
    "request_type": "Trash/Recycling",
    "request_reason": "Request a Large Item Pick Up",
    "date_created": "2022-06-13T17:24:24.000",
    "date_modified": "2022-06-13T17:24:25.000",
    "request_status": "Pending",
    "responsible_agency": "Department of Sanitation",
    "final_address": "4427 Chestnut St",
    "address_councildis": "B",
    "status": "Assigned to Contractor",
    "contractor": "Richards Disposal",
    "rowid": "891378",
    "final_x": "3670703.92673",
    "final_y": "519532.753591",
    "longitude": "-90.10256709043344",
    "latitude": "29.922858019452768",
    "geocoded_column": {
      "latitude": "29.922858019452768",
      "longitude": "-90.10256709043344"
    }
  },
  {
    "service_request": "2022-891377",
    "request_type": "Abandoned Vehicles",
    "request_reason": "Abandoned/Junk Vehicles",
    "date_created": "2022-06-13T17:22:44.000",
    "date_modified": "2022-06-13T17:22:44.000",
    "request_status": "Pending",
    "responsible_agency": "Department of Public Works",
    "final_address": "818 Opelousas Ave",
    "address_councildis": "C",
    "status": "Pending",
    "rowid": "891377",
    "final_x": "3688001.69814",
    "final_y": "529190.373312",
    "longitude": "-90.04762289562579",
    "latitude": "29.94889100049254",
    "geocoded_column": {
      "latitude": "29.94889100049254",
      "longitude": "-90.04762289562579"
    }
  },
  {
    "service_request": "2022-891376",
    "request_type": "Abandoned Vehicles",
    "request_reason": "Abandoned/Junk Vehicles",
    "date_created": "2022-06-13T17:20:56.000",
    "date_modified": "2022-06-13T17:20:56.000",
    "request_status": "Pending",
    "responsible_agency": "Department of Public Works",
    "final_address": "818 Opelousas Ave",
    "address_councildis": "C",
    "status": "Pending",
    "rowid": "891376",
    "final_x": "3688001.69814",
    "final_y": "529190.373312",
    "longitude": "-90.04762289562579",
    "latitude": "29.94889100049254",
    "geocoded_column": {
      "latitude": "29.94889100049254",
      "longitude": "-90.04762289562579"
    }
  },
  {
    "service_request": "2022-891375",
    "request_type": "Trash/Recycling",
    "request_reason": "Replace Trash Cart",
    "date_created": "2022-06-13T17:20:26.000",
    "date_modified": "2022-06-13T17:20:27.000",
    "request_status": "Pending",
    "responsible_agency": "Department of Sanitation",
    "final_address": "837 Sumner St",
    "address_councildis": "C",
    "status": "Assigned to Contractor",
    "contractor": "Richards Disposal",
    "rowid": "891375",
    "final_x": "3691098.01859",
    "final_y": "528277.698368",
    "longitude": "-90.03787909302869",
    "latitude": "29.946285564329482",
    "geocoded_column": {
      "latitude": "29.946285564329482",
      "longitude": "-90.03787909302869"
    }
  },
  {
    "service_request": "2022-891374",
    "request_type": "Traffic Signals/Signs/Striping/Streetlights",
    "request_reason": "Street Light Outage/Malfunction",
    "date_created": "2022-06-13T17:16:14.000",
    "date_modified": "2022-06-13T17:16:15.000",
    "request_status": "Pending",
    "responsible_agency": "Department of Public Works",
    "final_address": "4642 Galahad Dr",
    "address_councildis": "E",
    "status": "Pending",
    "contractor": "Royal Engineering",
    "rowid": "891374",
    "final_x": "3707211.62238",
    "final_y": "554738.460376",
    "longitude": "-89.98602092628053",
    "latitude": "30.018532058665432",
    "geocoded_column": {
      "latitude": "30.018532058665432",
      "longitude": "-89.98602092628053"
    }
  },
  {
    "service_request": "2022-891373",
    "request_type": "Trash/Recycling",
    "request_reason": "Missed Trash Pick-Up",
    "date_created": "2022-06-13T17:14:31.000",
    "date_modified": "2022-06-13T17:14:31.000",
    "request_status": "Pending",
    "responsible_agency": "Department of Sanitation",
    "final_address": "409 S Solomon St",
    "address_councildis": "A",
    "status": "Assigned to Contractor",
    "contractor": "Richards Disposal",
    "rowid": "891373",
    "final_x": "3669755.44372",
    "final_y": "537694.44884",
    "longitude": "-90.10494649328027",
    "latitude": "29.972824729208778",
    "geocoded_column": {
      "latitude": "29.972824729208778",
      "longitude": "-90.10494649328027"
    }
  },
  {
    "service_request": "2022-891372",
    "request_type": "Trash/Recycling",
    "request_reason": "Missed Trash Pick-Up",
    "date_created": "2022-06-13T17:04:41.000",
    "date_modified": "2022-06-13T17:04:41.000",
    "request_status": "Pending",
    "responsible_agency": "Department of Sanitation",
    "final_address": "4334 Mithra St",
    "address_councildis": "D",
    "status": "Assigned to Contractor",
    "contractor": "Metro Disposal",
    "rowid": "891372",
    "final_x": "3690031.96144",
    "final_y": "553150.487831",
    "longitude": "-90.04035883515036",
    "latitude": "30.01470997014009",
    "geocoded_column": {
      "latitude": "30.01470997014009",
      "longitude": "-90.04035883515036"
    }
  },
  {
    "service_request": "2022-891371",
    "request_type": "Trash/Recycling",
    "request_reason": "Request a Large Item Pick Up",
    "date_created": "2022-06-13T17:00:03.000",
    "date_modified": "2022-06-13T17:00:04.000",
    "request_status": "Pending",
    "responsible_agency": "Department of Sanitation",
    "final_address": "3617 Livingston St",
    "address_councildis": "A",
    "status": "Assigned to Contractor",
    "contractor": "Richards Disposal",
    "rowid": "891371",
    "final_x": "3664218.90445",
    "final_y": "538088.970633",
    "longitude": "-90.12241883736526",
    "latitude": "29.97407157466418",
    "geocoded_column": {
      "latitude": "29.97407157466418",
      "longitude": "-90.12241883736526"
    }
  },
  {
    "service_request": "2022-891370",
    "request_type": "Roads/Drainage",
    "request_reason": "Service Cut",
    "date_created": "2022-06-13T16:56:51.000",
    "date_modified": "2022-06-13T16:58:02.000",
    "request_status": "Pending",
    "responsible_agency": "Department of Public Works",
    "final_address": "39 Marywood Ct",
    "address_councildis": "E",
    "rowid": "891370",
    "final_x": "3712353.90686",
    "final_y": "567109.880356",
    "longitude": "-89.96930802954726",
    "latitude": "30.052381266745144",
    "geocoded_column": {
      "latitude": "30.052381266745144",
      "longitude": "-89.96930802954726"
    }
  },
  {
    "service_request": "2022-891369",
    "request_type": "Abandoned Vehicles",
    "request_reason": "Abandoned/Junk Vehicles",
    "date_created": "2022-06-13T16:53:57.000",
    "date_modified": "2022-06-13T16:53:57.000",
    "request_status": "Pending",
    "responsible_agency": "Department of Public Works",
    "final_address": "2116 Foucher St",
    "address_councildis": "B",
    "status": "Pending",
    "rowid": "891369",
    "final_x": "3672792.82683",
    "final_y": "523088.170171",
    "longitude": "-90.09585203351774",
    "latitude": "29.932572411430282",
    "geocoded_column": {
      "latitude": "29.932572411430282",
      "longitude": "-90.09585203351774"
    }
  },
  {
    "service_request": "2022-891368",
    "request_type": "Roads/Drainage",
    "request_reason": "Pothole",
    "date_created": "2022-06-13T16:49:39.000",
    "date_modified": "2022-06-13T16:49:40.000",
    "request_status": "Pending",
    "responsible_agency": "Department of Public Works",
    "final_address": "BIENVILLE ST & N ST PATRICK ST",
    "address_councildis": "A",
    "status": "Pending",
    "rowid": "891368",
    "final_x": "3669584.85",
    "final_y": "540456.42",
    "longitude": "-90.10539178354978",
    "latitude": "29.980424245177193",
    "geocoded_column": {
      "latitude": "29.980424245177193",
      "longitude": "-90.10539178354978"
    }
  },
  {
    "service_request": "2022-891367",
    "request_type": "Mosquito, Termite & Rodent Control",
    "request_reason": "Mosquito Complaint",
    "date_created": "2022-06-13T16:49:06.000",
    "date_modified": "2022-06-13T16:49:06.000",
    "request_status": "Pending",
    "responsible_agency": "Mosquito, Termite & Rodent Control Board",
    "final_address": "41 Chatham Dr",
    "address_councildis": "D",
    "status": "Pending",
    "rowid": "891367",
    "final_x": "3679915.0948",
    "final_y": "551651.246229",
    "longitude": "-90.07237534465723",
    "latitude": "30.01089761423194",
    "geocoded_column": {
      "latitude": "30.01089761423194",
      "longitude": "-90.07237534465723"
    }
  },
  {
    "service_request": "2022-891366",
    "request_type": "Property Maintenance",
    "request_reason": "Property Maintenance",
    "date_created": "2022-06-13T16:46:05.000",
    "date_modified": "2022-06-13T16:46:05.000",
    "request_status": "Pending",
    "responsible_agency": "Department of Code Enforcement",
    "final_address": "1828 Wagner St",
    "address_councildis": "C",
    "status": "Pending",
    "rowid": "891366",
    "final_x": "3690368.18454",
    "final_y": "524078.428156",
    "longitude": "-90.04033303896034",
    "latitude": "29.93476167107427",
    "geocoded_column": {
      "latitude": "29.93476167107427",
      "longitude": "-90.04033303896034"
    }
  },
  {
    "service_request": "2022-891365",
    "request_type": "Abandoned Vehicles",
    "request_reason": "Abandoned/Junk Vehicles",
    "date_created": "2022-06-13T16:44:22.000",
    "date_modified": "2022-06-13T16:44:22.000",
    "request_status": "Pending",
    "responsible_agency": "Department of Public Works",
    "final_address": "2126 Marais St",
    "address_councildis": "C",
    "status": "Pending",
    "rowid": "891365",
    "final_x": "3684778.44789",
    "final_y": "536615.262535",
    "longitude": "-90.05753904436688",
    "latitude": "29.969405950681146",
    "geocoded_column": {
      "latitude": "29.969405950681146",
      "longitude": "-90.05753904436688"
    }
  },
  {
    "service_request": "2022-891364",
    "request_type": "Trash/Recycling",
    "request_reason": "Replace Trash Cart",
    "date_created": "2022-06-13T16:40:14.000",
    "date_modified": "2022-06-13T16:40:14.000",
    "request_status": "Pending",
    "responsible_agency": "Department of Sanitation",
    "final_address": "3425 Magnolia St",
    "address_councildis": "B",
    "status": "Assigned to Contractor",
    "contractor": "Richards Disposal",
    "rowid": "891364",
    "final_x": "3672380.23335",
    "final_y": "525075.675197",
    "longitude": "-90.09708686428978",
    "latitude": "29.93804965220199",
    "geocoded_column": {
      "latitude": "29.93804965220199",
      "longitude": "-90.09708686428978"
    }
  },
  {
    "service_request": "2022-891363",
    "request_type": "Roads/Drainage",
    "request_reason": "Catch Basin - Broken/Damage",
    "date_created": "2022-06-13T16:32:05.000",
    "date_modified": "2022-06-13T16:32:05.000",
    "request_status": "Pending",
    "responsible_agency": "Department of Public Works",
    "final_address": "1019 Bellecastle St",
    "address_councildis": "B",
    "status": "Pending",
    "rowid": "891363",
    "final_x": "3667811.23322",
    "final_y": "519165.976951",
    "longitude": "-90.11171056305847",
    "latitude": "29.921934617488482",
    "geocoded_column": {
      "latitude": "29.921934617488482",
      "longitude": "-90.11171056305847"
    }
  },
  {
    "service_request": "2022-891362",
    "request_type": "Trash/Recycling",
    "request_reason": "Request a Large Item Pick Up",
    "date_created": "2022-06-13T16:29:21.000",
    "date_modified": "2022-06-13T16:29:21.000",
    "request_status": "Pending",
    "responsible_agency": "Department of Sanitation",
    "final_address": "5879 Vicksburg St",
    "address_councildis": "A",
    "status": "Assigned to Contractor",
    "contractor": "Metro Disposal",
    "rowid": "891362",
    "final_x": "3668893.88449",
    "final_y": "546524.714065",
    "longitude": "-90.10736909051576",
    "latitude": "29.997130321341125",
    "geocoded_column": {
      "latitude": "29.997130321341125",
      "longitude": "-90.10736909051576"
    }
  },
  {
    "service_request": "2022-891361",
    "request_type": "Trash/Recycling",
    "request_reason": "Repair Trash Cart",
    "date_created": "2022-06-13T16:26:58.000",
    "date_modified": "2022-06-13T16:26:58.000",
    "request_status": "Pending",
    "responsible_agency": "Department of Sanitation",
    "final_address": "3908 Hamilton St",
    "address_councildis": "A",
    "status": "Assigned to Contractor",
    "contractor": "Richards Disposal",
    "rowid": "891361",
    "final_x": "3665852.91533",
    "final_y": "537935.073289",
    "longitude": "-90.11726339664511",
    "latitude": "29.9736008257379",
    "geocoded_column": {
      "latitude": "29.9736008257379",
      "longitude": "-90.11726339664511"
    }
  },
  {
    "service_request": "2022-891360",
    "request_type": "Parks & Parkways",
    "request_reason": "Request Grass Cutting Service (City Owned Property)",
    "date_created": "2022-06-13T16:22:58.000",
    "date_modified": "2022-06-13T16:22:58.000",
    "request_status": "Pending",
    "responsible_agency": "Department of Parks & Parkway",
    "final_address": "3901 Lennox Blvd",
    "address_councildis": "C",
    "status": "Pending",
    "rowid": "891360",
    "final_x": "3700462.86903",
    "final_y": "516755.943669",
    "longitude": "-90.008731724283",
    "latitude": "29.914310278009882",
    "geocoded_column": {
      "latitude": "29.914310278009882",
      "longitude": "-90.008731724283"
    }
  },
  {
    "service_request": "2022-891359",
    "request_type": "Trash/Recycling",
    "request_reason": "Request a Large Item Pick Up",
    "date_created": "2022-06-13T16:20:10.000",
    "date_modified": "2022-06-13T16:20:11.000",
    "request_status": "Pending",
    "responsible_agency": "Department of Sanitation",
    "final_address": "2630 Mercedes Blvd",
    "address_councildis": "C",
    "status": "Assigned to Contractor",
    "contractor": "Richards Disposal",
    "rowid": "891359",
    "final_x": "3698089.51959",
    "final_y": "521467.746041",
    "longitude": "-90.0160518000853",
    "latitude": "29.92734135729821",
    "geocoded_column": {
      "latitude": "29.92734135729821",
      "longitude": "-90.0160518000853"
    }
  },
  {
    "service_request": "2022-891358",
    "request_type": "Trash/Recycling",
    "request_reason": "Repair Trash Cart",
    "date_created": "2022-06-13T16:18:48.000",
    "date_modified": "2022-06-13T16:18:49.000",
    "request_status": "Pending",
    "responsible_agency": "Department of Sanitation",
    "final_address": "2118 First St",
    "address_councildis": "B",
    "status": "Assigned to Contractor",
    "contractor": "Richards Disposal",
    "rowid": "891358",
    "final_x": "3675847.27195",
    "final_y": "524822.325564",
    "longitude": "-90.08614981317204",
    "latitude": "29.93724971460351",
    "geocoded_column": {
      "latitude": "29.93724971460351",
      "longitude": "-90.08614981317204"
    }
  },
  {
    "service_request": "2022-891357",
    "request_type": "Trash/Recycling",
    "request_reason": "Order Trash Cart",
    "date_created": "2022-06-13T16:18:37.000",
    "date_modified": "2022-06-13T16:18:38.000",
    "request_status": "Pending",
    "responsible_agency": "Department of Sanitation",
    "final_address": "2634 Governor Nicholls St, New Orleans, Louisiana, 70119",
    "address_councildis": "D",
    "status": "Assigned to Contractor",
    "contractor": "Richards Disposal",
    "rowid": "891357",
    "final_x": "3677950.43541",
    "final_y": "538193.987209",
    "longitude": "-90.07904788686874",
    "latitude": "29.97395417621627",
    "geocoded_column": {
      "latitude": "29.97395417621627",
      "longitude": "-90.07904788686874"
    }
  },
  {
    "service_request": "2022-891356",
    "request_type": "Traffic Signals/Signs/Striping/Streetlights",
    "request_reason": "Street Light Outage/Malfunction",
    "date_created": "2022-06-13T16:17:13.000",
    "date_modified": "2022-06-13T16:17:14.000",
    "request_status": "Pending",
    "responsible_agency": "Department of Public Works",
    "final_address": "5111 Beaucaire St",
    "address_councildis": "E",
    "status": "Pending",
    "contractor": "Royal Engineering",
    "rowid": "891356",
    "final_x": "3724606.2743",
    "final_y": "562144.458079",
    "longitude": "-89.93077453344874",
    "latitude": "30.038321681100268",
    "geocoded_column": {
      "latitude": "30.038321681100268",
      "longitude": "-89.93077453344874"
    }
  },
  {
    "service_request": "2022-891355",
    "request_type": "Trash/Recycling",
    "request_reason": "Replace Trash Cart",
    "date_created": "2022-06-13T16:14:27.000",
    "date_modified": "2022-06-13T16:14:29.000",
    "request_status": "Pending",
    "responsible_agency": "Department of Sanitation",
    "final_address": "2911 Pine St",
    "address_councildis": "B",
    "status": "Assigned to Contractor",
    "contractor": "Richards Disposal",
    "rowid": "891355",
    "final_x": "3667385.13217",
    "final_y": "531856.615107",
    "longitude": "-90.11262882593489",
    "latitude": "29.956842277261075",
    "geocoded_column": {
      "latitude": "29.956842277261075",
      "longitude": "-90.11262882593489"
    }
  },
  {
    "service_request": "2022-891354",
    "request_type": "Trash/Recycling",
    "request_reason": "Request a Large Item Pick Up",
    "date_created": "2022-06-13T16:14:10.000",
    "date_modified": "2022-06-13T16:14:11.000",
    "request_status": "Pending",
    "responsible_agency": "Department of Sanitation",
    "final_address": "22 Seaward Ct",
    "address_councildis": "C",
    "status": "Assigned to Contractor",
    "contractor": "Richards Disposal",
    "rowid": "891354",
    "final_x": "3704610.85002",
    "final_y": "522748.867194",
    "longitude": "-89.99541853706019",
    "latitude": "29.93065623846787",
    "geocoded_column": {
      "latitude": "29.93065623846787",
      "longitude": "-89.99541853706019"
    }
  },
  {
    "service_request": "2022-891353",
    "request_type": "Roads/Drainage",
    "request_reason": "Pothole",
    "date_created": "2022-06-13T16:14:01.000",
    "date_modified": "2022-06-13T16:14:01.000",
    "request_status": "Pending",
    "responsible_agency": "Department of Public Works",
    "final_address": "1126 Toledano St",
    "address_councildis": "B",
    "status": "Pending",
    "rowid": "891353",
    "final_x": "3675269.11201",
    "final_y": "519990.102584",
    "longitude": "-90.08814088655272",
    "latitude": "29.923979961040057",
    "geocoded_column": {
      "latitude": "29.923979961040057",
      "longitude": "-90.08814088655272"
    }
  },
  {
    "service_request": "2022-891352",
    "request_type": "Trash/Recycling",
    "request_reason": "Replace Trash Cart",
    "date_created": "2022-06-13T16:13:53.000",
    "date_modified": "2022-06-13T16:13:54.000",
    "request_status": "Pending",
    "responsible_agency": "Department of Sanitation",
    "final_address": "2909 Pine St",
    "address_councildis": "B",
    "status": "Assigned to Contractor",
    "contractor": "Richards Disposal",
    "rowid": "891352",
    "final_x": "3667371.49082",
    "final_y": "531836.510979",
    "longitude": "-90.1126725774168",
    "latitude": "29.956787397093944",
    "geocoded_column": {
      "latitude": "29.956787397093944",
      "longitude": "-90.1126725774168"
    }
  },
  {
    "service_request": "2022-891351",
    "request_type": "Trash/Recycling",
    "request_reason": "Replace Trash Cart",
    "date_created": "2022-06-13T16:13:10.000",
    "date_modified": "2022-06-13T16:13:11.000",
    "request_status": "Pending",
    "responsible_agency": "Department of Sanitation",
    "final_address": "2401 Joseph St",
    "address_councildis": "A",
    "status": "Assigned to Contractor",
    "contractor": "Richards Disposal",
    "rowid": "891351",
    "final_x": "3667516.85389",
    "final_y": "524849.595836",
    "longitude": "-90.1124486396867",
    "latitude": "29.93757138849858",
    "geocoded_column": {
      "latitude": "29.93757138849858",
      "longitude": "-90.1124486396867"
    }
  },
  {
    "service_request": "2022-891350",
    "request_type": "Traffic Signals/Signs/Striping/Streetlights",
    "request_reason": "Street Light Outage/Malfunction",
    "date_created": "2022-06-13T16:12:37.000",
    "date_modified": "2022-06-13T16:12:38.000",
    "request_status": "Pending",
    "responsible_agency": "Department of Public Works",
    "final_address": "5316 Wilton Dr",
    "address_councildis": "D",
    "status": "Pending",
    "contractor": "Royal Engineering",
    "rowid": "891350",
    "final_x": "3681836.11292",
    "final_y": "552573.022614",
    "longitude": "-90.06627389324409",
    "latitude": "30.013373897558964",
    "geocoded_column": {
      "latitude": "30.013373897558964",
      "longitude": "-90.06627389324409"
    }
  },
  {
    "service_request": "2022-891349",
    "request_type": "Abandoned Vehicles",
    "request_reason": "Abandoned/Junk Vehicles",
    "date_created": "2022-06-13T16:10:44.000",
    "date_modified": "2022-06-13T16:10:44.000",
    "request_status": "Pending",
    "responsible_agency": "Department of Public Works",
    "final_address": "210 Ringold St",
    "address_councildis": "A",
    "status": "Pending",
    "rowid": "891349",
    "final_x": "3667046.65556",
    "final_y": "548391.196562",
    "longitude": "-90.11314164256206",
    "latitude": "30.002316718984286",
    "geocoded_column": {
      "latitude": "30.002316718984286",
      "longitude": "-90.11314164256206"
    }
  },
  {
    "service_request": "2022-891348",
    "request_type": "Property Maintenance",
    "request_reason": "Property Maintenance",
    "date_created": "2022-06-13T16:05:30.000",
    "date_modified": "2022-06-13T16:05:31.000",
    "request_status": "Pending",
    "responsible_agency": "Department of Code Enforcement",
    "final_address": "COPERNICUS ST & GENERAL COLLINS AVE",
    "address_councildis": "C",
    "status": "Pending",
    "rowid": "891348",
    "final_x": "3698456.1",
    "final_y": "523011.38",
    "longitude": "-90.01483853359483",
    "latitude": "29.931574226911646",
    "geocoded_column": {
      "latitude": "29.931574226911646",
      "longitude": "-90.01483853359483"
    }
  },
  {
    "service_request": "2022-891347",
    "request_type": "Trash/Recycling",
    "request_reason": "Request a Large Item Pick Up",
    "date_created": "2022-06-13T16:00:57.000",
    "date_modified": "2022-06-13T16:00:58.000",
    "request_status": "Pending",
    "responsible_agency": "Department of Sanitation",
    "final_address": "2520 Joseph St",
    "address_councildis": "A",
    "status": "Assigned to Contractor",
    "contractor": "Richards Disposal",
    "rowid": "891347",
    "final_x": "3667429.82445",
    "final_y": "525331.159421",
    "longitude": "-90.11270720332563",
    "latitude": "29.938898083224938",
    "geocoded_column": {
      "latitude": "29.938898083224938",
      "longitude": "-90.11270720332563"
    }
  },
  {
    "service_request": "2022-891346",
    "request_type": "Roads/Drainage",
    "request_reason": "Catch Basin - Broken/Damage",
    "date_created": "2022-06-13T15:56:07.000",
    "date_modified": "2022-06-13T15:56:07.000",
    "request_status": "Pending",
    "responsible_agency": "Department of Public Works",
    "final_address": "7119 Coliseum St",
    "address_councildis": "A",
    "status": "Pending",
    "rowid": "891346",
    "final_x": "3661448.02829",
    "final_y": "522184.16153",
    "longitude": "-90.13169671261538",
    "latitude": "29.930418689710873",
    "geocoded_column": {
      "latitude": "29.930418689710873",
      "longitude": "-90.13169671261538"
    }
  },
  {
    "service_request": "2022-891345",
    "request_type": "Trash/Recycling",
    "request_reason": "Request a Large Item Pick Up",
    "date_created": "2022-06-13T15:49:58.000",
    "date_modified": "2022-06-13T16:05:55.000",
    "request_status": "Pending",
    "responsible_agency": "Department of Sanitation",
    "final_address": "1729 Port St",
    "address_councildis": "D",
    "status": "Wrong Agency",
    "contractor": "Metro Disposal",
    "rowid": "891345",
    "final_x": "3688077.0822",
    "final_y": "538870.140233",
    "longitude": "-90.0470417819246",
    "latitude": "29.975504672252345",
    "geocoded_column": {
      "latitude": "29.975504672252345",
      "longitude": "-90.0470417819246"
    }
  },
  {
    "service_request": "2022-891344",
    "request_type": "Trash/Recycling",
    "request_reason": "Illegal Dumping",
    "date_created": "2022-06-13T15:48:12.000",
    "date_modified": "2022-06-13T15:49:06.000",
    "request_status": "Pending",
    "responsible_agency": "Department of Sanitation",
    "final_address": "1ST ST & MAGNOLIA ST",
    "address_councildis": "B",
    "status": "Pending",
    "rowid": "891344",
    "final_x": "3674775.3",
    "final_y": "526502.88",
    "longitude": "-90.08947650564659",
    "latitude": "29.94190272802202",
    "geocoded_column": {
      "latitude": "29.94190272802202",
      "longitude": "-90.08947650564659"
    }
  },
  {
    "service_request": "2022-891343",
    "request_type": "Trash/Recycling",
    "request_reason": "Illegal Dumping",
    "date_created": "2022-06-13T15:48:00.000",
    "date_modified": "2022-06-13T15:48:13.000",
    "request_status": "Pending",
    "responsible_agency": "Department of Code Enforcement",
    "final_address": "1729 Port St",
    "address_councildis": "D",
    "status": "Pending",
    "rowid": "891343",
    "final_x": "3688077.0822",
    "final_y": "538870.140233",
    "longitude": "-90.0470417819246",
    "latitude": "29.975504672252345",
    "geocoded_column": {
      "latitude": "29.975504672252345",
      "longitude": "-90.0470417819246"
    }
  },
  {
    "service_request": "2022-891342",
    "request_type": "Trash/Recycling",
    "request_reason": "Request a Large Item Pick Up",
    "date_created": "2022-06-13T15:46:05.000",
    "date_modified": "2022-06-13T15:46:05.000",
    "request_status": "Pending",
    "responsible_agency": "Department of Sanitation",
    "final_address": "1726 Robert St",
    "address_councildis": "B",
    "status": "Assigned to Contractor",
    "contractor": "Richards Disposal",
    "rowid": "891342",
    "final_x": "3668669.27002",
    "final_y": "522015.249914",
    "longitude": "-90.10890598609285",
    "latitude": "29.92974403190267",
    "geocoded_column": {
      "latitude": "29.92974403190267",
      "longitude": "-90.10890598609285"
    }
  },
  {
    "service_request": "2022-891340",
    "request_type": "Trash/Recycling",
    "request_reason": "Request a Large Item Pick Up",
    "date_created": "2022-06-13T15:44:06.000",
    "date_modified": "2022-06-13T15:44:07.000",
    "request_status": "Pending",
    "responsible_agency": "Department of Sanitation",
    "final_address": "3620 Mimosa Ct, New Orleans, Louisiana, 70131",
    "address_councildis": "C",
    "status": "Assigned to Contractor",
    "contractor": "Richards Disposal",
    "rowid": "891340",
    "final_x": "3703041.76234",
    "final_y": "513333.92581",
    "longitude": "-90.00071754358822",
    "latitude": "29.904818669576123",
    "geocoded_column": {
      "latitude": "29.904818669576123",
      "longitude": "-90.00071754358822"
    }
  },
  {
    "service_request": "2022-891339",
    "request_type": "Mosquito, Termite & Rodent Control",
    "request_reason": "Mosquito Complaint",
    "date_created": "2022-06-13T15:41:31.000",
    "date_modified": "2022-06-13T15:41:31.000",
    "request_status": "Pending",
    "responsible_agency": "Mosquito, Termite & Rodent Control Board",
    "final_address": "6115 Louisville St",
    "address_councildis": "A",
    "status": "Pending",
    "rowid": "891339",
    "final_x": "3667874.22074",
    "final_y": "548147.638162",
    "longitude": "-90.11053546537472",
    "latitude": "30.001622760180297",
    "geocoded_column": {
      "latitude": "30.001622760180297",
      "longitude": "-90.11053546537472"
    }
  },
  {
    "service_request": "2022-891338",
    "request_type": "Property Maintenance",
    "request_reason": "Property Maintenance",
    "date_created": "2022-06-13T15:41:23.000",
    "date_modified": "2022-06-13T15:41:23.000",
    "request_status": "Pending",
    "responsible_agency": "Department of Code Enforcement",
    "final_address": "7924 Sheephead St",
    "address_councildis": "E",
    "status": "Pending",
    "rowid": "891338",
    "final_x": "3699248.31562",
    "final_y": "561241.520286",
    "longitude": "-90.01094478640638",
    "latitude": "30.036668032342355",
    "geocoded_column": {
      "latitude": "30.036668032342355",
      "longitude": "-90.01094478640638"
    }
  },
  {
    "service_request": "2022-891337",
    "request_type": "Trash/Recycling",
    "request_reason": "Repair Trash Cart",
    "date_created": "2022-06-13T15:41:14.000",
    "date_modified": "2022-06-13T15:41:14.000",
    "request_status": "Pending",
    "responsible_agency": "Department of Sanitation",
    "final_address": "2160 Timoleon St",
    "address_councildis": "D",
    "status": "Assigned to Contractor",
    "contractor": "Metro Disposal",
    "rowid": "891337",
    "final_x": "3683596.30869",
    "final_y": "550992.303957",
    "longitude": "-90.06076807661363",
    "latitude": "30.008973859178568",
    "geocoded_column": {
      "latitude": "30.008973859178568",
      "longitude": "-90.06076807661363"
    }
  },
  {
    "service_request": "2022-891336",
    "request_type": "Trash/Recycling",
    "request_reason": "MIssed Recycling Pick-Up",
    "date_created": "2022-06-13T15:38:01.000",
    "date_modified": "2022-06-13T15:38:02.000",
    "request_status": "Pending",
    "responsible_agency": "Department of Sanitation",
    "final_address": "4223 Eden St",
    "address_councildis": "B",
    "status": "Assigned to Contractor",
    "contractor": "Richards Disposal",
    "rowid": "891336",
    "final_x": "3670355.29543",
    "final_y": "530424.39181",
    "longitude": "-90.10329851663387",
    "latitude": "29.952816795574023",
    "geocoded_column": {
      "latitude": "29.952816795574023",
      "longitude": "-90.10329851663387"
    }
  },
  {
    "service_request": "2022-891335",
    "request_type": "Trash/Recycling",
    "request_reason": "Request a Large Item Pick Up",
    "date_created": "2022-06-13T15:27:51.000",
    "date_modified": "2022-06-13T15:27:52.000",
    "request_status": "Pending",
    "responsible_agency": "Department of Sanitation",
    "final_address": "1536 St Mary St",
    "address_councildis": "B",
    "status": "Assigned to Contractor",
    "contractor": "Richards Disposal",
    "rowid": "891335",
    "final_x": "3678476.76475",
    "final_y": "524095.140732",
    "longitude": "-90.07787349169797",
    "latitude": "29.93517123676265",
    "geocoded_column": {
      "latitude": "29.93517123676265",
      "longitude": "-90.07787349169797"
    }
  },
  {
    "service_request": "2022-891334",
    "request_type": "Traffic Signals/Signs/Striping/Streetlights",
    "request_reason": "Traffic Signal Malfunctioning/Damaged",
    "date_created": "2022-06-13T15:26:39.000",
    "date_modified": "2022-06-13T15:26:40.000",
    "request_status": "Pending",
    "responsible_agency": "Department of Public Works",
    "final_address": "NASHVILLE AVE & S CLAIBORNE AVE",
    "address_councildis": "A",
    "status": "Pending",
    "rowid": "891334",
    "final_x": "3667687.8",
    "final_y": "526816.48",
    "longitude": "-90.1118427528031",
    "latitude": "29.94297467722136",
    "geocoded_column": {
      "latitude": "29.94297467722136",
      "longitude": "-90.1118427528031"
    }
  },
  {
    "service_request": "2022-891333",
    "request_type": "Traffic Signals/Signs/Striping/Streetlights",
    "request_reason": "Traffic Signal Malfunctioning/Damaged",
    "date_created": "2022-06-13T15:21:13.000",
    "date_modified": "2022-06-13T15:26:34.000",
    "request_status": "Pending",
    "responsible_agency": "Department of Public Works",
    "final_address": "New Orleans,LA",
    "address_councildis": "B",
    "rowid": "891333",
    "final_x": "3670865.7",
    "final_y": "520323.88",
    "longitude": "-90.10202959904824",
    "latitude": "29.92502858607668",
    "geocoded_column": {
      "latitude": "29.92502858607668",
      "longitude": "-90.10202959904824"
    }
  },
  {
    "service_request": "2022-891332",
    "request_type": "Traffic Signals/Signs/Striping/Streetlights",
    "request_reason": "Traffic Signal Malfunctioning/Damaged",
    "date_created": "2022-06-13T15:16:30.000",
    "date_modified": "2022-06-13T15:16:30.000",
    "request_status": "Pending",
    "responsible_agency": "Department of Public Works",
    "final_address": "Nashville Ave & S Claiborne Ave, New Orleans, Louisiana, 70125",
    "address_councildis": "A",
    "status": "Pending",
    "rowid": "891332",
    "final_x": "3667687.8",
    "final_y": "526816.48",
    "longitude": "-90.1118427528031",
    "latitude": "29.94297467722136",
    "geocoded_column": {
      "latitude": "29.94297467722136",
      "longitude": "-90.1118427528031"
    }
  },
  {
    "service_request": "2022-891331",
    "request_type": "Traffic Signals/Signs/Striping/Streetlights",
    "request_reason": "Street Light Outage/Malfunction",
    "date_created": "2022-06-13T15:16:29.000",
    "date_modified": "2022-06-13T15:16:30.000",
    "request_status": "Pending",
    "responsible_agency": "Department of Public Works",
    "final_address": "3609 Elaine Pl",
    "address_councildis": "A",
    "status": "Pending",
    "contractor": "Royal Engineering",
    "rowid": "891331",
    "final_x": "3674266.12846",
    "final_y": "539443.546698",
    "longitude": "-90.0906409713863",
    "latitude": "29.97750041789848",
    "geocoded_column": {
      "latitude": "29.97750041789848",
      "longitude": "-90.0906409713863"
    }
  },
  {
    "service_request": "2022-891330",
    "request_type": "Property Maintenance",
    "request_reason": "Property Maintenance",
    "date_created": "2022-06-13T15:13:25.000",
    "date_modified": "2022-06-13T15:13:26.000",
    "request_status": "Pending",
    "responsible_agency": "Department of Code Enforcement",
    "final_address": "5145 Lakeview Ct",
    "address_councildis": "E",
    "status": "Pending",
    "rowid": "891330",
    "final_x": "3698942.67031",
    "final_y": "556309.38569",
    "longitude": "-90.01209040902269",
    "latitude": "30.02311625585094",
    "geocoded_column": {
      "latitude": "30.02311625585094",
      "longitude": "-90.01209040902269"
    }
  },
  {
    "service_request": "2022-891329",
    "request_type": "Trash/Recycling",
    "request_reason": "Replace Trash Cart",
    "date_created": "2022-06-13T15:13:24.000",
    "date_modified": "2022-06-13T15:13:24.000",
    "request_status": "Pending",
    "responsible_agency": "Department of Sanitation",
    "final_address": "1338 Tennessee St",
    "address_councildis": "E",
    "status": "Assigned to Contractor",
    "contractor": "Metro Disposal",
    "rowid": "891329",
    "final_x": "3695882.31389",
    "final_y": "535382.460678",
    "longitude": "-90.02251686439067",
    "latitude": "29.96567156735583",
    "geocoded_column": {
      "latitude": "29.96567156735583",
      "longitude": "-90.02251686439067"
    }
  },
  {
    "service_request": "2022-891328",
    "request_type": "Traffic Signals/Signs/Striping/Streetlights",
    "request_reason": "Traffic Signal Malfunctioning/Damaged",
    "date_created": "2022-06-13T15:10:51.000",
    "date_modified": "2022-06-13T15:10:51.000",
    "request_status": "Pending",
    "responsible_agency": "Department of Public Works",
    "final_address": "ST CHARLES AVE & NAPOLEON AVE",
    "address_councildis": "B",
    "status": "Pending",
    "rowid": "891328",
    "final_x": "3670890.3",
    "final_y": "520828.28",
    "longitude": "-90.10193483344243",
    "latitude": "29.92641479813305",
    "geocoded_column": {
      "latitude": "29.92641479813305",
      "longitude": "-90.10193483344243"
    }
  },
  {
    "service_request": "2022-891327",
    "request_type": "Property Maintenance",
    "request_reason": "Property Maintenance",
    "date_created": "2022-06-13T15:03:03.000",
    "date_modified": "2022-06-13T15:03:03.000",
    "request_status": "Pending",
    "responsible_agency": "Department of Code Enforcement",
    "final_address": "4427 Allen St",
    "address_councildis": "D",
    "status": "Pending",
    "rowid": "891327",
    "final_x": "3681787.27285",
    "final_y": "548867.449939",
    "longitude": "-90.06655763507614",
    "latitude": "30.003186394309083",
    "geocoded_column": {
      "latitude": "30.003186394309083",
      "longitude": "-90.06655763507614"
    }
  },
  {
    "service_request": "2022-891326",
    "request_type": "Trash/Recycling",
    "request_reason": "Request a Large Item Pick Up",
    "date_created": "2022-06-13T15:01:53.000",
    "date_modified": "2022-06-13T15:01:54.000",
    "request_status": "Pending",
    "responsible_agency": "Department of Sanitation",
    "final_address": "233 Cypress Grove Ct",
    "address_councildis": "C",
    "status": "Assigned to Contractor",
    "contractor": "Richards Disposal",
    "rowid": "891326",
    "final_x": "3704584.84407",
    "final_y": "512038.282865",
    "longitude": "-89.99589528698674",
    "latitude": "29.901206655907696",
    "geocoded_column": {
      "latitude": "29.901206655907696",
      "longitude": "-89.99589528698674"
    }
  },
  {
    "service_request": "2022-891324",
    "request_type": "Property Maintenance",
    "request_reason": "Property Maintenance",
    "date_created": "2022-06-13T14:58:25.000",
    "date_modified": "2022-06-13T15:15:05.000",
    "case_close_date": "2022-06-13T10:15:05.000",
    "request_status": "Closed",
    "responsible_agency": "Department of Code Enforcement",
    "final_address": "6716 Brunswick Ct",
    "address_councildis": "C",
    "status": "Referred to Code Enforcement",
    "rowid": "891324",
    "final_x": "3708685.03928",
    "final_y": "516953.609333",
    "longitude": "-89.98277266770663",
    "latitude": "29.914589876201774",
    "geocoded_column": {
      "latitude": "29.914589876201774",
      "longitude": "-89.98277266770663"
    }
  },
  {
    "service_request": "2022-891323",
    "request_type": "Traffic Signals/Signs/Striping/Streetlights",
    "request_reason": "Street Light Outage/Malfunction",
    "date_created": "2022-06-13T14:57:07.000",
    "date_modified": "2022-06-13T14:57:08.000",
    "request_status": "Pending",
    "responsible_agency": "Department of Public Works",
    "final_address": "1909 General Ogden St",
    "address_councildis": "A",
    "status": "Pending",
    "contractor": "Royal Engineering",
    "rowid": "891323",
    "final_x": "3661641.78362",
    "final_y": "532127.560259",
    "longitude": "-90.1307556122708",
    "latitude": "29.957754279879378",
    "geocoded_column": {
      "latitude": "29.957754279879378",
      "longitude": "-90.1307556122708"
    }
  },
  {
    "service_request": "2022-891322",
    "request_type": "Roads/Drainage",
    "request_reason": "Pothole",
    "date_created": "2022-06-13T14:54:37.000",
    "date_modified": "2022-06-13T14:54:37.000",
    "request_status": "Pending",
    "responsible_agency": "Department of Public Works",
    "final_address": "1909 General Ogden St",
    "address_councildis": "A",
    "status": "Pending",
    "rowid": "891322",
    "final_x": "3661641.78362",
    "final_y": "532127.560259",
    "longitude": "-90.1307556122708",
    "latitude": "29.957754279879378",
    "geocoded_column": {
      "latitude": "29.957754279879378",
      "longitude": "-90.1307556122708"
    }
  },
  {
    "service_request": "2022-891321",
    "request_type": "Property Maintenance",
    "request_reason": "Property Maintenance",
    "date_created": "2022-06-13T14:53:15.000",
    "date_modified": "2022-06-13T14:53:15.000",
    "request_status": "Pending",
    "responsible_agency": "Department of Code Enforcement",
    "final_address": "3002 Laurel St",
    "address_councildis": "B",
    "status": "Pending",
    "rowid": "891321",
    "final_x": "3676763.34478",
    "final_y": "519721.428024",
    "longitude": "-90.08343337493233",
    "latitude": "29.923196459281233",
    "geocoded_column": {
      "latitude": "29.923196459281233",
      "longitude": "-90.08343337493233"
    }
  },
  {
    "service_request": "2022-891320",
    "request_type": "Traffic Signals/Signs/Striping/Streetlights",
    "request_reason": "Traffic Signal Malfunctioning/Damaged",
    "date_created": "2022-06-13T14:48:42.000",
    "date_modified": "2022-06-13T14:48:42.000",
    "request_status": "Pending",
    "responsible_agency": "Department of Public Works",
    "final_address": "2701 Napoleon Ave",
    "address_councildis": "B",
    "status": "Pending",
    "rowid": "891320",
    "final_x": "3670546.51975",
    "final_y": "524833.215036",
    "longitude": "-90.10288429437807",
    "latitude": "29.93743723708239",
    "geocoded_column": {
      "latitude": "29.93743723708239",
      "longitude": "-90.10288429437807"
    }
  },
  {
    "service_request": "2022-891319",
    "request_type": "Property Maintenance",
    "request_reason": "Property Maintenance",
    "date_created": "2022-06-13T14:48:17.000",
    "date_modified": "2022-06-13T14:48:17.000",
    "request_status": "Pending",
    "responsible_agency": "Department of Code Enforcement",
    "final_address": "2723 Frenchmen St",
    "address_councildis": "D",
    "status": "Pending",
    "rowid": "891319",
    "final_x": "3684145.38626",
    "final_y": "542337.242893",
    "longitude": "-90.05933738527828",
    "latitude": "29.98515876076725",
    "geocoded_column": {
      "latitude": "29.98515876076725",
      "longitude": "-90.05933738527828"
    }
  },
  {
    "service_request": "2022-891318",
    "request_type": "Trash/Recycling",
    "request_reason": "Illegal Dumping",
    "date_created": "2022-06-13T14:47:49.000",
    "date_modified": "2022-06-13T14:47:49.000",
    "request_status": "Pending",
    "responsible_agency": "Department of Code Enforcement",
    "final_address": "MILNE BLVD & RINGOLD ST",
    "address_councildis": "A",
    "status": "Pending",
    "rowid": "891318",
    "final_x": "3667145.0",
    "final_y": "548464.08",
    "longitude": "-90.11282850684151",
    "latitude": "30.002514243250904",
    "geocoded_column": {
      "latitude": "30.002514243250904",
      "longitude": "-90.11282850684151"
    }
  },
  {
    "service_request": "2022-891317",
    "request_type": "Trash/Recycling",
    "request_reason": "Request a Large Item Pick Up",
    "date_created": "2022-06-13T14:42:41.000",
    "date_modified": "2022-06-13T14:42:41.000",
    "request_status": "Pending",
    "responsible_agency": "Department of Sanitation",
    "final_address": "4914 Baccich St",
    "address_councildis": "D",
    "status": "Assigned to Contractor",
    "contractor": "Metro Disposal",
    "rowid": "891317",
    "final_x": "3687645.87254",
    "final_y": "551166.735125",
    "longitude": "-90.0479680073554",
    "latitude": "30.009329196376985",
    "geocoded_column": {
      "latitude": "30.009329196376985",
      "longitude": "-90.0479680073554"
    }
  },
  {
    "service_request": "2022-891316",
    "request_type": "Property Maintenance",
    "request_reason": "Property Maintenance",
    "date_created": "2022-06-13T14:41:06.000",
    "date_modified": "2022-06-13T14:41:06.000",
    "request_status": "Pending",
    "responsible_agency": "Department of Code Enforcement",
    "final_address": "2144 Florida Ave",
    "address_councildis": "D",
    "status": "Pending",
    "rowid": "891316",
    "final_x": "3684183.35573",
    "final_y": "542440.728205",
    "longitude": "-90.05921382130225",
    "latitude": "29.98544214798094",
    "geocoded_column": {
      "latitude": "29.98544214798094",
      "longitude": "-90.05921382130225"
    }
  },
  {
    "service_request": "2022-891315",
    "request_type": "Roads/Drainage",
    "request_reason": "Pothole",
    "date_created": "2022-06-13T14:41:03.000",
    "date_modified": "2022-06-13T14:41:03.000",
    "request_status": "Pending",
    "responsible_agency": "Department of Public Works",
    "final_address": "2219 Burdette St",
    "address_councildis": "A",
    "status": "Pending",
    "rowid": "891315",
    "final_x": "3665349.0224",
    "final_y": "530294.324929",
    "longitude": "-90.11911051698317",
    "latitude": "29.952605974912668",
    "geocoded_column": {
      "latitude": "29.952605974912668",
      "longitude": "-90.11911051698317"
    }
  },
  {
    "service_request": "2022-891314",
    "request_type": "Trash/Recycling",
    "request_reason": "Request a Large Item Pick Up",
    "date_created": "2022-06-13T14:35:43.000",
    "date_modified": "2022-06-13T14:35:44.000",
    "request_status": "Pending",
    "responsible_agency": "Department of Sanitation",
    "final_address": "2215 Pressburg St",
    "address_councildis": "D",
    "status": "Assigned to Contractor",
    "contractor": "Metro Disposal",
    "rowid": "891314",
    "final_x": "3683740.90037",
    "final_y": "554738.187608",
    "longitude": "-90.0601797699379",
    "latitude": "30.019269256174024",
    "geocoded_column": {
      "latitude": "30.019269256174024",
      "longitude": "-90.0601797699379"
    }
  },
  {
    "service_request": "2022-891313",
    "request_type": "Trash/Recycling",
    "request_reason": "Repair Trash Cart",
    "date_created": "2022-06-13T14:34:05.000",
    "date_modified": "2022-06-13T14:34:06.000",
    "request_status": "Pending",
    "responsible_agency": "Department of Sanitation",
    "final_address": "8935 Belfast St",
    "address_councildis": "A",
    "status": "Assigned to Contractor",
    "contractor": "Richards Disposal",
    "rowid": "891313",
    "final_x": "3663317.18547",
    "final_y": "534483.453701",
    "longitude": "-90.12538672730874",
    "latitude": "29.964183762680072",
    "geocoded_column": {
      "latitude": "29.964183762680072",
      "longitude": "-90.12538672730874"
    }
  },
  {
    "service_request": "2022-891310",
    "request_type": "Trash/Recycling",
    "request_reason": "Request a Large Item Pick Up",
    "date_created": "2022-06-13T14:23:59.000",
    "date_modified": "2022-06-13T14:24:01.000",
    "request_status": "Pending",
    "responsible_agency": "Department of Sanitation",
    "final_address": "1761 N Broad St",
    "address_councildis": "D",
    "status": "Assigned to Contractor",
    "contractor": "Metro Disposal",
    "rowid": "891310",
    "final_x": "3679824.98255",
    "final_y": "541218.122956",
    "longitude": "-90.07302259777086",
    "latitude": "29.982212946570183",
    "geocoded_column": {
      "latitude": "29.982212946570183",
      "longitude": "-90.07302259777086"
    }
  },
  {
    "service_request": "2022-891309",
    "request_type": "Trash/Recycling",
    "request_reason": "Replace Trash Cart",
    "date_created": "2022-06-13T14:22:50.000",
    "date_modified": "2022-06-13T14:22:51.000",
    "request_status": "Pending",
    "responsible_agency": "Department of Sanitation",
    "final_address": "3208 Thalia St",
    "address_councildis": "B",
    "status": "Assigned to Contractor",
    "contractor": "Richards Disposal",
    "rowid": "891309",
    "final_x": "3674505.88795",
    "final_y": "528822.1088",
    "longitude": "-90.09024765998348",
    "latitude": "29.948287882271966",
    "geocoded_column": {
      "latitude": "29.948287882271966",
      "longitude": "-90.09024765998348"
    }
  },
  {
    "service_request": "2022-891307",
    "request_type": "Safety & Permits",
    "request_reason": "Licenses & Permits",
    "date_created": "2022-06-13T14:22:14.000",
    "date_modified": "2022-06-13T14:27:45.000",
    "request_status": "Pending",
    "responsible_agency": "Safety and Permits",
    "final_address": "New Orleans,LA",
    "rowid": "891307",
    "longitude": "0.0",
    "latitude": "0.0",
    "geocoded_column": {
      "latitude": "0.0",
      "longitude": "0.0"
    }
  },
  {
    "service_request": "2022-891306",
    "request_type": "Traffic Signals/Signs/Striping/Streetlights",
    "request_reason": "Street Name Sign Damaged or Missing",
    "date_created": "2022-06-13T14:22:09.000",
    "date_modified": "2022-06-13T14:22:09.000",
    "request_status": "Pending",
    "responsible_agency": "Department of Public Works",
    "final_address": "LIGUSTRUM DR & MORRISON RD",
    "address_councildis": "E",
    "status": "Pending",
    "rowid": "891306",
    "final_x": "3701894.7",
    "final_y": "560073.08",
    "longitude": "-90.00262459661992",
    "latitude": "30.033371034260057",
    "geocoded_column": {
      "latitude": "30.033371034260057",
      "longitude": "-90.00262459661992"
    }
  },
  {
    "service_request": "2022-891305",
    "request_type": "Roads/Drainage",
    "request_reason": "Pothole",
    "date_created": "2022-06-13T14:22:00.000",
    "date_modified": "2022-06-13T14:22:00.000",
    "request_status": "Pending",
    "responsible_agency": "Department of Public Works",
    "final_address": "1700 BLK Dumaine St",
    "address_councildis": "C",
    "status": "Pending",
    "rowid": "891305",
    "final_x": "3680215.86197",
    "final_y": "535178.520966",
    "longitude": "-90.07199799871199",
    "latitude": "29.965594298715292",
    "geocoded_column": {
      "latitude": "29.965594298715292",
      "longitude": "-90.07199799871199"
    }
  },
  {
    "service_request": "2022-891304",
    "request_type": "Trash/Recycling",
    "request_reason": "Replace Trash Cart",
    "date_created": "2022-06-13T14:20:01.000",
    "date_modified": "2022-06-13T14:20:02.000",
    "request_status": "Pending",
    "responsible_agency": "Department of Sanitation",
    "final_address": "2307 Almonaster Ave",
    "address_councildis": "D",
    "status": "Assigned to Contractor",
    "contractor": "Metro Disposal",
    "rowid": "891304",
    "final_x": "3688334.61558",
    "final_y": "541048.699788",
    "longitude": "-90.04615113144004",
    "latitude": "29.981486988289664",
    "geocoded_column": {
      "latitude": "29.981486988289664",
      "longitude": "-90.04615113144004"
    }
  },
  {
    "service_request": "2022-891303",
    "request_type": "Trash/Recycling",
    "request_reason": "Order Recycling Cart",
    "date_created": "2022-06-13T14:17:27.000",
    "date_modified": "2022-06-13T14:17:27.000",
    "request_status": "Pending",
    "responsible_agency": "Department of Sanitation",
    "final_address": "227 Belleville St",
    "address_councildis": "C",
    "status": "Pending",
    "rowid": "891303",
    "final_x": "3687874.41398",
    "final_y": "531206.680258",
    "longitude": "-90.0479533691786",
    "latitude": "29.954439079500357",
    "geocoded_column": {
      "latitude": "29.954439079500357",
      "longitude": "-90.0479533691786"
    }
  },
  {
    "service_request": "2022-891302",
    "request_type": "Trash/Recycling",
    "request_reason": "Request a Large Item Pick Up",
    "date_created": "2022-06-13T14:17:20.000",
    "date_modified": "2022-06-13T14:17:21.000",
    "request_status": "Pending",
    "responsible_agency": "Department of Sanitation",
    "final_address": "5229 Music St",
    "address_councildis": "D",
    "status": "Assigned to Contractor",
    "contractor": "Metro Disposal",
    "rowid": "891302",
    "final_x": "3685565.44726",
    "final_y": "552419.216278",
    "longitude": "-90.0544966110404",
    "latitude": "30.01283706790408",
    "geocoded_column": {
      "latitude": "30.01283706790408",
      "longitude": "-90.0544966110404"
    }
  },
  {
    "service_request": "2022-891301",
    "request_type": "Property Maintenance",
    "request_reason": "Property Maintenance",
    "date_created": "2022-06-13T14:13:43.000",
    "date_modified": "2022-06-13T14:31:49.000",
    "case_close_date": "2022-06-13T09:31:49.000",
    "request_status": "Closed",
    "responsible_agency": "Department of Code Enforcement",
    "final_address": "2401 Mazant St",
    "address_councildis": "D",
    "status": "Referred to Code Enforcement",
    "rowid": "891301",
    "final_x": "3693367.33981",
    "final_y": "540150.941643",
    "longitude": "-90.03028777544714",
    "latitude": "29.978862063694496",
    "geocoded_column": {
      "latitude": "29.978862063694496",
      "longitude": "-90.03028777544714"
    }
  },
  {
    "service_request": "2022-891300",
    "request_type": "Property Maintenance",
    "request_reason": "Property Maintenance",
    "date_created": "2022-06-13T14:12:44.000",
    "date_modified": "2022-06-13T14:38:18.000",
    "case_close_date": "2022-06-13T09:38:18.000",
    "request_status": "Closed",
    "responsible_agency": "Department of Code Enforcement",
    "final_address": "1401 Henry Clay Ave",
    "address_councildis": "A",
    "status": "Referred to Code Enforcement",
    "rowid": "891300",
    "final_x": "3664609.97485",
    "final_y": "521479.125625",
    "longitude": "-90.12173842311657",
    "latitude": "29.928388507765806",
    "geocoded_column": {
      "latitude": "29.928388507765806",
      "longitude": "-90.12173842311657"
    }
  },
  {
    "service_request": "2022-891299",
    "request_type": "Property Maintenance",
    "request_reason": "Property Maintenance",
    "date_created": "2022-06-13T14:12:12.000",
    "date_modified": "2022-06-13T14:58:29.000",
    "case_close_date": "2022-06-13T09:58:29.000",
    "request_status": "Closed",
    "responsible_agency": "Department of Code Enforcement",
    "final_address": "1281 Milton St",
    "address_councildis": "D",
    "status": "Referred to Code Enforcement",
    "rowid": "891299",
    "final_x": "3677288.31195",
    "final_y": "546094.095184",
    "longitude": "-90.08086630150639",
    "latitude": "29.99569664283166",
    "geocoded_column": {
      "latitude": "29.99569664283166",
      "longitude": "-90.08086630150639"
    }
  },
  {
    "service_request": "2022-891298",
    "request_type": "Roads/Drainage",
    "request_reason": "Catch Basin - Clogged",
    "date_created": "2022-06-13T14:11:10.000",
    "date_modified": "2022-06-13T14:11:10.000",
    "case_close_date": "2022-05-24T19:00:00.000",
    "request_status": "Pending",
    "responsible_agency": "Department of Public Works",
    "final_address": "3320 De Soto St",
    "address_councildis": "A",
    "status": "Pending",
    "rowid": "891298",
    "final_x": "3675485.45109",
    "final_y": "540116.982667",
    "longitude": "-90.0867667970577",
    "latitude": "29.979315718384054",
    "geocoded_column": {
      "latitude": "29.979315718384054",
      "longitude": "-90.0867667970577"
    }
  },
  {
    "service_request": "2022-891297",
    "request_type": "Roads/Drainage",
    "request_reason": "Catch Basin - Clogged",
    "date_created": "2022-06-13T14:10:58.000",
    "date_modified": "2022-06-13T14:10:58.000",
    "case_close_date": "2022-05-24T19:00:00.000",
    "request_status": "Pending",
    "responsible_agency": "Department of Public Works",
    "final_address": "3320 De Soto St",
    "address_councildis": "A",
    "status": "Pending",
    "rowid": "891297",
    "final_x": "3675485.45109",
    "final_y": "540116.982667",
    "longitude": "-90.0867667970577",
    "latitude": "29.979315718384054",
    "geocoded_column": {
      "latitude": "29.979315718384054",
      "longitude": "-90.0867667970577"
    }
  },
  {
    "service_request": "2022-891296",
    "request_type": "Roads/Drainage",
    "request_reason": "Catch Basin - Broken/Damage",
    "date_created": "2022-06-13T14:10:55.000",
    "date_modified": "2022-06-13T14:10:55.000",
    "request_status": "Pending",
    "responsible_agency": "Department of Public Works",
    "final_address": "2020 Gravier St",
    "address_councildis": "B",
    "status": "Pending",
    "rowid": "891296",
    "final_x": "3676565.71009",
    "final_y": "531898.081987",
    "longitude": "-90.08363802414613",
    "latitude": "29.956684175963765",
    "geocoded_column": {
      "latitude": "29.956684175963765",
      "longitude": "-90.08363802414613"
    }
  },
  {
    "service_request": "2022-891295",
    "request_type": "Safety & Permits",
    "request_reason": "Licenses & Permits",
    "date_created": "2022-06-13T14:10:16.000",
    "date_modified": "2022-06-13T14:10:17.000",
    "request_status": "Pending",
    "responsible_agency": "Safety and Permits",
    "final_address": "1281 Milton St",
    "address_councildis": "D",
    "status": "Pending",
    "rowid": "891295",
    "final_x": "3677288.31195",
    "final_y": "546094.095184",
    "longitude": "-90.08086630150639",
    "latitude": "29.99569664283166",
    "geocoded_column": {
      "latitude": "29.99569664283166",
      "longitude": "-90.08086630150639"
    }
  },
  {
    "service_request": "2022-891294",
    "request_type": "Property Maintenance",
    "request_reason": "Property Maintenance",
    "date_created": "2022-06-13T14:07:38.000",
    "date_modified": "2022-06-13T14:11:47.000",
    "request_status": "Pending",
    "responsible_agency": "Department of Code Enforcement",
    "final_address": "New Orleans,LA",
    "rowid": "891294",
    "longitude": "0.0",
    "latitude": "0.0",
    "geocoded_column": {
      "latitude": "0.0",
      "longitude": "0.0"
    }
  },
  {
    "service_request": "2022-891293",
    "request_type": "Property Maintenance",
    "request_reason": "Property Maintenance",
    "date_created": "2022-06-13T14:05:08.000",
    "date_modified": "2022-06-13T14:05:09.000",
    "request_status": "Pending",
    "responsible_agency": "Department of Code Enforcement",
    "final_address": "7071 Boston Dr",
    "address_councildis": "E",
    "status": "Pending",
    "rowid": "891293",
    "final_x": "3709068.76145",
    "final_y": "563587.519073",
    "longitude": "-89.97982282779508",
    "latitude": "30.042803308224034",
    "geocoded_column": {
      "latitude": "30.042803308224034",
      "longitude": "-89.97982282779508"
    }
  },
  {
    "service_request": "2022-891292",
    "request_type": "Trash/Recycling",
    "request_reason": "Order Trash Cart",
    "date_created": "2022-06-13T14:05:07.000",
    "date_modified": "2022-06-13T14:05:08.000",
    "request_status": "Pending",
    "responsible_agency": "Department of Sanitation",
    "final_address": "New Orleans,LA",
    "status": "Assigned to Contractor",
    "rowid": "891292",
    "longitude": "0.0",
    "latitude": "0.0",
    "geocoded_column": {
      "latitude": "0.0",
      "longitude": "0.0"
    }
  },
  {
    "service_request": "2022-891290",
    "request_type": "Parks & Parkways",
    "request_reason": "Request Tree Service (Right of Way/Public Property)",
    "date_created": "2022-06-13T13:59:46.000",
    "date_modified": "2022-06-13T13:59:46.000",
    "request_status": "Pending",
    "responsible_agency": "Department of Parks & Parkway",
    "final_address": "6037 Louisville St",
    "address_councildis": "A",
    "status": "Pending",
    "rowid": "891290",
    "final_x": "3667867.60045",
    "final_y": "547622.770002",
    "longitude": "-90.11057407380397",
    "latitude": "30.00017974867018",
    "geocoded_column": {
      "latitude": "30.00017974867018",
      "longitude": "-90.11057407380397"
    }
  },
  {
    "service_request": "2022-891289",
    "request_type": "Abandoned Vehicles",
    "request_reason": "Abandoned/Junk Vehicles",
    "date_created": "2022-06-13T13:57:57.000",
    "date_modified": "2022-06-13T13:57:58.000",
    "request_status": "Pending",
    "responsible_agency": "Department of Public Works",
    "final_address": "6024 Providence Pl",
    "address_councildis": "D",
    "status": "Pending",
    "rowid": "891289",
    "final_x": "3688072.82249",
    "final_y": "555700.144345",
    "longitude": "-90.04645827451571",
    "latitude": "30.021781222151716",
    "geocoded_column": {
      "latitude": "30.021781222151716",
      "longitude": "-90.04645827451571"
    }
  },
  {
    "service_request": "2022-891288",
    "request_type": "Trash/Recycling",
    "request_reason": "Illegal Dumping",
    "date_created": "2022-06-13T13:56:24.000",
    "date_modified": "2022-06-13T13:56:24.000",
    "request_status": "Pending",
    "responsible_agency": "Department of Sanitation",
    "final_address": "DUMAINE ST & N DERBIGNY ST",
    "address_councildis": "D",
    "status": "Pending",
    "rowid": "891288",
    "final_x": "3679918.5",
    "final_y": "535412.68",
    "longitude": "-90.07292892157433",
    "latitude": "29.96624715325466",
    "geocoded_column": {
      "latitude": "29.96624715325466",
      "longitude": "-90.07292892157433"
    }
  },
  {
    "service_request": "2022-891287",
    "request_type": "Trash/Recycling",
    "request_reason": "Replace Trash Cart",
    "date_created": "2022-06-13T13:54:54.000",
    "date_modified": "2022-06-13T13:54:55.000",
    "request_status": "Pending",
    "responsible_agency": "Department of Sanitation",
    "final_address": "4416 Stephen Girard Ave",
    "address_councildis": "D",
    "status": "Assigned to Contractor",
    "contractor": "Metro Disposal",
    "rowid": "891287",
    "final_x": "3690661.63254",
    "final_y": "550095.063316",
    "longitude": "-90.03847847794367",
    "latitude": "30.006289128883022",
    "geocoded_column": {
      "latitude": "30.006289128883022",
      "longitude": "-90.03847847794367"
    }
  },
  {
    "service_request": "2022-891285",
    "request_type": "Property Maintenance",
    "request_reason": "Property Maintenance",
    "date_created": "2022-06-13T13:53:33.000",
    "date_modified": "2022-06-13T13:53:33.000",
    "request_status": "Pending",
    "responsible_agency": "Department of Code Enforcement",
    "final_address": "8610 Belfast St",
    "address_councildis": "A",
    "status": "Pending",
    "rowid": "891285",
    "final_x": "3664178.62445",
    "final_y": "533599.274053",
    "longitude": "-90.12269586488321",
    "latitude": "29.961727559818147",
    "geocoded_column": {
      "latitude": "29.961727559818147",
      "longitude": "-90.12269586488321"
    }
  },
  {
    "service_request": "2022-891284",
    "request_type": "Abandoned Vehicles",
    "request_reason": "Abandoned/Junk Vehicles",
    "date_created": "2022-06-13T13:48:04.000",
    "date_modified": "2022-06-13T13:48:04.000",
    "request_status": "Pending",
    "responsible_agency": "Department of Public Works",
    "final_address": "7061 W Renaissance Ct",
    "address_councildis": "E",
    "status": "Pending",
    "rowid": "891284",
    "final_x": "3716899.56229",
    "final_y": "567320.623908",
    "longitude": "-89.95493269697825",
    "latitude": "30.052811153860855",
    "geocoded_column": {
      "latitude": "30.052811153860855",
      "longitude": "-89.95493269697825"
    }
  },
  {
    "service_request": "2022-891283",
    "request_type": "Trash/Recycling",
    "request_reason": "Replace Trash Cart",
    "date_created": "2022-06-13T13:42:06.000",
    "date_modified": "2022-06-13T13:42:07.000",
    "request_status": "Pending",
    "responsible_agency": "Department of Sanitation",
    "final_address": "521 S Galvez St",
    "address_councildis": "B",
    "status": "Assigned to Contractor",
    "contractor": "Richards Disposal",
    "rowid": "891283",
    "final_x": "3675673.25985",
    "final_y": "532284.954563",
    "longitude": "-90.08644280366859",
    "latitude": "29.957774679339988",
    "geocoded_column": {
      "latitude": "29.957774679339988",
      "longitude": "-90.08644280366859"
    }
  },
  {
    "service_request": "2022-891282",
    "request_type": "Trash/Recycling",
    "request_reason": "Request a Large Item Pick Up",
    "date_created": "2022-06-13T13:41:58.000",
    "date_modified": "2022-06-13T13:41:59.000",
    "request_status": "Pending",
    "responsible_agency": "Department of Sanitation",
    "final_address": "2813 Palmyra St",
    "address_councildis": "B",
    "status": "Assigned to Contractor",
    "contractor": "Richards Disposal",
    "rowid": "891282",
    "final_x": "3674348.49627",
    "final_y": "534938.776774",
    "longitude": "-90.09053514058736",
    "latitude": "29.965111372633785",
    "geocoded_column": {
      "latitude": "29.965111372633785",
      "longitude": "-90.09053514058736"
    }
  },
  {
    "service_request": "2022-891281",
    "request_type": "Trash/Recycling",
    "request_reason": "Request a Large Item Pick Up",
    "date_created": "2022-06-13T13:41:33.000",
    "date_modified": "2022-06-13T13:41:33.000",
    "request_status": "Pending",
    "responsible_agency": "Department of Sanitation",
    "final_address": "1407 Valmont St",
    "address_councildis": "B",
    "status": "Assigned to Contractor",
    "contractor": "Richards Disposal",
    "rowid": "891281",
    "final_x": "3667762.67693",
    "final_y": "520259.282296",
    "longitude": "-90.11182704529004",
    "latitude": "29.924942285125287",
    "geocoded_column": {
      "latitude": "29.924942285125287",
      "longitude": "-90.11182704529004"
    }
  },
  {
    "service_request": "2022-891280",
    "request_type": "EMS",
    "request_reason": "EMS Complaint",
    "date_created": "2022-06-13T13:39:39.000",
    "date_modified": "2022-06-13T13:39:39.000",
    "request_status": "Pending",
    "responsible_agency": "Emergency Medical Services",
    "final_address": "ST CLAUDE AVE & FRANCE ST",
    "address_councildis": "C",
    "status": "Pending",
    "rowid": "891280",
    "final_x": "3692381.6",
    "final_y": "535161.58",
    "longitude": "-90.03357985299213",
    "latitude": "29.9651738754611",
    "geocoded_column": {
      "latitude": "29.9651738754611",
      "longitude": "-90.03357985299213"
    }
  },
  {
    "service_request": "2022-891279",
    "request_type": "Tax and Revenue",
    "request_reason": "Sales Tax Question",
    "date_created": "2022-06-13T13:37:57.000",
    "date_modified": "2022-06-13T13:44:19.000",
    "request_status": "Pending",
    "responsible_agency": "Bureau of Revenue",
    "final_address": "New Orleans,LA",
    "rowid": "891279",
    "longitude": "0.0",
    "latitude": "0.0",
    "geocoded_column": {
      "latitude": "0.0",
      "longitude": "0.0"
    }
  },
  {
    "service_request": "2022-891278",
    "request_type": "Property Maintenance",
    "request_reason": "Property Maintenance",
    "date_created": "2022-06-13T13:33:30.000",
    "date_modified": "2022-06-13T13:57:09.000",
    "case_close_date": "2022-06-13T08:57:09.000",
    "request_status": "Closed",
    "responsible_agency": "Department of Code Enforcement",
    "final_address": "3400 Mansfield Ave",
    "address_councildis": "C",
    "status": "Referred to Code Enforcement",
    "rowid": "891278",
    "final_x": "3709142.75371",
    "final_y": "518308.082102",
    "longitude": "-89.98127753043126",
    "latitude": "29.91829936189579",
    "geocoded_column": {
      "latitude": "29.91829936189579",
      "longitude": "-89.98127753043126"
    }
  },