[
  {
    "service_request": "2024-1122755",
    "request_type": "Trash/Recycling",
    "request_reason": "Request a Large Item Pick Up",
    "date_created": "2024-08-17T23:49:57.000",
    "date_modified": "2024-08-17T23:49:58.000",
    "request_status": "Pending",
    "responsible_agency": "Department of Sanitation",
    "final_address": "609 N Rendon St",
    "address_councildis": "A",
    "status": "Assigned to Contractor",
    "contractor": "IV Waste",
    "rowid": "1122755",
    "final_x": "3674703.61537",
    "final_y": "537958.365577",
    "longitude": "-90.08931016503591",
    "latitude": "29.973403623222808",
    "geocoded_column": {
      "latitude": "29.973403623222808",
      "longitude": "-90.08931016503591"
    }
  },
  {
    "service_request": "2024-1122754",
    "request_type": "Trash/Recycling",
    "request_reason": "Request a Large Item Pick Up",
    "date_created": "2024-08-17T23:46:48.000",
    "date_modified": "2024-08-17T23:46:49.000",
    "request_status": "Pending",
    "responsible_agency": "Department of Sanitation",
    "final_address": "609 N Rendon St",
    "address_councildis": "A",
    "status": "Assigned to Contractor",
    "contractor": "IV Waste",
    "rowid": "1122754",
    "final_x": "3674703.61537",
    "final_y": "537958.365577",
    "longitude": "-90.08931016503591",
    "latitude": "29.973403623222808",
    "geocoded_column": {
      "latitude": "29.973403623222808",
      "longitude": "-90.08931016503591"
    }
  },
  {
    "service_request": "2024-1122753",
    "request_type": "Traffic Signals/Signs/Striping/Streetlights",
    "request_reason": "Street Light Outage/Malfunction",
    "date_created": "2024-08-17T23:27:22.000",
    "date_modified": "2024-08-17T23:27:23.000",
    "request_status": "Pending",
    "responsible_agency": "Department of Public Works",
    "final_address": "1363 Annette St",
    "address_councildis": "C",
    "status": "Assigned to Contractor",
    "contractor": "Legacy Professional Services",
    "rowid": "1122753",
    "final_x": "3683103.75714",
    "final_y": "537060.162824",
    "longitude": "-90.06281226648358",
    "latitude": "29.970680436954257",
    "geocoded_column": {
      "latitude": "29.970680436954257",
      "longitude": "-90.06281226648358"
    }
  },
  {
    "service_request": "2024-1122752",
    "request_type": "Property Maintenance",
    "request_reason": "Property Maintenance",
    "date_created": "2024-08-17T23:19:45.000",
    "date_modified": "2024-08-17T23:22:43.000",
    "request_status": "Pending",
    "responsible_agency": "Department of Code Enforcement",
    "final_address": "5430 Urquhart St",
    "address_councildis": "E",
    "status": "Pending",
    "rowid": "1122752",
    "final_x": "3697658.47101",
    "final_y": "534594.934853",
    "longitude": "-90.01693643142406",
    "latitude": "29.963450162653462",
    "geocoded_column": {
      "latitude": "29.963450162653462",
      "longitude": "-90.01693643142406"
    }
  },
  {
    "service_request": "2024-1122750",
    "request_type": "Trash/Recycling",
    "request_reason": "Order Recycling Cart",
    "date_created": "2024-08-17T22:26:21.000",
    "date_modified": "2024-08-17T22:26:21.000",
    "request_status": "Pending",
    "responsible_agency": "Department of Sanitation",
    "final_address": "725 Lyons St",
    "address_councildis": "B",
    "status": "Pending",
    "rowid": "1122750",
    "final_x": "3669338.3803",
    "final_y": "518077.554166",
    "longitude": "-90.10692676207451",
    "latitude": "29.91889694176254",
    "geocoded_column": {
      "latitude": "29.91889694176254",
      "longitude": "-90.10692676207451"
    }
  },
  {
    "service_request": "2024-1122749",
    "request_type": "Trash/Recycling",
    "request_reason": "Request a Large Item Pick Up",
    "date_created": "2024-08-17T20:32:07.000",
    "date_modified": "2024-08-17T20:32:08.000",
    "request_status": "Pending",
    "responsible_agency": "Department of Sanitation",
    "final_address": "2419 Mazant St",
    "address_councildis": "D",
    "status": "Assigned to Contractor",
    "contractor": "IV Waste",
    "rowid": "1122749",
    "final_x": "3693407.7768",
    "final_y": "540284.235595",
    "longitude": "-90.03015527265391",
    "latitude": "29.97922730979968",
    "geocoded_column": {
      "latitude": "29.97922730979968",
      "longitude": "-90.03015527265391"
    }
  },
  {
    "service_request": "2024-1122748",
    "request_type": "Traffic Signals/Signs/Striping/Streetlights",
    "request_reason": "Traffic Signal Malfunctioning/Damaged",
    "date_created": "2024-08-17T20:22:26.000",
    "date_modified": "2024-08-17T20:22:26.000",
    "request_status": "Pending",
    "responsible_agency": "Department of Public Works",
    "final_address": "N ROBERTSON ST & FRANKLIN AVE",
    "address_councildis": "C",
    "status": "Pending",
    "rowid": "1122748",
    "final_x": "3687426.6",
    "final_y": "537948.38",
    "longitude": "-90.04912880423812",
    "latitude": "29.972990217873093",
    "geocoded_column": {
      "latitude": "29.972990217873093",
      "longitude": "-90.04912880423812"
    }
  },
  {
    "service_request": "2024-1122747",
    "request_type": "Trash/Recycling",
    "request_reason": "Order Recycling Cart",
    "date_created": "2024-08-17T19:51:34.000",
    "date_modified": "2024-08-17T19:51:34.000",
    "request_status": "Pending",
    "responsible_agency": "Department of Sanitation",
    "final_address": "2814 Ursulines Ave",
    "address_councildis": "A",
    "status": "Pending",
    "rowid": "1122747",
    "final_x": "3677025.36226",
    "final_y": "538518.605193",
    "longitude": "-90.08195828065145",
    "latitude": "29.974874575660554",
    "geocoded_column": {
      "latitude": "29.974874575660554",
      "longitude": "-90.08195828065145"
    }
  },
  {
    "service_request": "2024-1122746",
    "request_type": "Abandoned Vehicles",
    "request_reason": "Abandoned/Junk Vehicles",
    "date_created": "2024-08-17T19:15:29.000",
    "date_modified": "2024-08-17T19:15:29.000",
    "request_status": "Pending",
    "responsible_agency": "Department of Public Works",
    "final_address": "3238 Vincennes Pl",
    "address_councildis": "A",
    "status": "Pending",
    "rowid": "1122746",
    "final_x": "3667812.63156",
    "final_y": "528161.547264",
    "longitude": "-90.1114033406732",
    "latitude": "29.946669517024052",
    "geocoded_column": {
      "latitude": "29.946669517024052",
      "longitude": "-90.1114033406732"
    }
  },
  {
    "service_request": "2024-1122745",
    "request_type": "Trash/Recycling",
    "request_reason": "Order Recycling Cart",
    "date_created": "2024-08-17T19:05:19.000",
    "date_modified": "2024-08-17T19:05:19.000",
    "request_status": "Pending",
    "responsible_agency": "Department of Sanitation",
    "final_address": "8810 Belfast St",
    "address_councildis": "A",
    "status": "Pending",
    "rowid": "1122745",
    "final_x": "3663648.69811",
    "final_y": "534081.682053",
    "longitude": "-90.1243532205509",
    "latitude": "29.963069408556144",
    "geocoded_column": {
      "latitude": "29.963069408556144",
      "longitude": "-90.1243532205509"
    }
  },
  {
    "service_request": "2024-1122744",
    "request_type": "Property Maintenance",
    "request_reason": "Property Maintenance",
    "date_created": "2024-08-17T18:56:53.000",
    "date_modified": "2024-08-17T18:56:53.000",
    "request_status": "Pending",
    "responsible_agency": "Department of Code Enforcement",
    "final_address": "1438 N Prieur St",
    "address_councildis": "D",
    "status": "Pending",
    "rowid": "1122744",
    "final_x": "3680669.24751",
    "final_y": "537488.344968",
    "longitude": "-90.07048583433115",
    "latitude": "29.971931790286245",
    "geocoded_column": {
      "latitude": "29.971931790286245",
      "longitude": "-90.07048583433115"
    }
  },
  {
    "service_request": "2024-1122743",
    "request_type": "Property Maintenance",
    "request_reason": "Property Maintenance",
    "date_created": "2024-08-17T18:53:39.000",
    "date_modified": "2024-08-17T18:53:39.000",
    "request_status": "Pending",
    "responsible_agency": "Department of Code Enforcement",
    "final_address": "1481 N Prieur St",
    "address_councildis": "D",
    "status": "Pending",
    "rowid": "1122743",
    "final_x": "3680786.72527",
    "final_y": "537836.658889",
    "longitude": "-90.07010269366204",
    "latitude": "29.97288597275933",
    "geocoded_column": {
      "latitude": "29.97288597275933",
      "longitude": "-90.07010269366204"
    }
  },
  {
    "service_request": "2024-1122742",
    "request_type": "Trash/Recycling",
    "request_reason": "Missed Trash Pick-Up",
    "date_created": "2024-08-17T18:37:56.000",
    "date_modified": "2024-08-17T18:37:57.000",
    "request_status": "Pending",
    "responsible_agency": "Department of Sanitation",
    "final_address": "600 BLK Second St",
    "address_councildis": "B",
    "status": "Assigned to Contractor",
    "contractor": "IV Waste",
    "rowid": "1122742",
    "final_x": "3678736.01421",
    "final_y": "519955.756792",
    "longitude": "-90.0771983008645",
    "latitude": "29.92378147187872",
    "geocoded_column": {
      "latitude": "29.92378147187872",
      "longitude": "-90.0771983008645"
    }
  },
  {
    "service_request": "2024-1122741",
    "request_type": "Trash/Recycling",
    "request_reason": "Request a Large Item Pick Up",
    "date_created": "2024-08-17T18:36:05.000",
    "date_modified": "2024-08-17T18:36:06.000",
    "request_status": "Pending",
    "responsible_agency": "Department of Sanitation",
    "final_address": "12611 Carmel Pl",
    "address_councildis": "E",
    "status": "Assigned to Contractor",
    "contractor": "Waste Pro",
    "rowid": "1122741",
    "final_x": "3716535.16127",
    "final_y": "567095.146532",
    "longitude": "-89.95609301959388",
    "latitude": "30.052203231879126",
    "geocoded_column": {
      "latitude": "30.052203231879126",
      "longitude": "-89.95609301959388"
    }
  },
  {
    "service_request": "2024-1122740",
    "request_type": "Trash/Recycling",
    "request_reason": "Order Trash Cart",
    "date_created": "2024-08-17T18:11:41.000",
    "date_modified": "2024-08-17T18:11:41.000",
    "request_status": "Pending",
    "responsible_agency": "Department of Sanitation",
    "final_address": "5889 Bellaire Dr",
    "address_councildis": "A",
    "status": "Assigned to Contractor",
    "contractor": "IV Waste",
    "rowid": "1122740",
    "final_x": "3664281.67648",
    "final_y": "547028.822161",
    "longitude": "-90.12192208983757",
    "latitude": "29.998651327433983",
    "geocoded_column": {
      "latitude": "29.998651327433983",
      "longitude": "-90.12192208983757"
    }
  },
  {
    "service_request": "2024-1122739",
    "request_type": "Traffic Signals/Signs/Striping/Streetlights",
    "request_reason": "Street Light Outage/Malfunction",
    "date_created": "2024-08-17T17:03:11.000",
    "date_modified": "2024-08-17T17:03:12.000",
    "request_status": "Pending",
    "responsible_agency": "Department of Public Works",
    "final_address": "1900 Pine St",
    "address_councildis": "A",
    "status": "Assigned to Contractor",
    "contractor": "Legacy Professional Services",
    "rowid": "1122739",
    "final_x": "3665317.22004",
    "final_y": "528813.586816",
    "longitude": "-90.11926047414643",
    "latitude": "29.948535351377163",
    "geocoded_column": {
      "latitude": "29.948535351377163",
      "longitude": "-90.11926047414643"
    }
  },
  {
    "service_request": "2024-1122738",
    "request_type": "Traffic Signals/Signs/Striping/Streetlights",
    "request_reason": "Street Light Outage/Malfunction",
    "date_created": "2024-08-17T17:01:08.000",
    "date_modified": "2024-08-17T17:01:09.000",
    "request_status": "Pending",
    "responsible_agency": "Department of Public Works",
    "final_address": "1900 Pine St",
    "address_councildis": "A",
    "status": "Assigned to Contractor",
    "contractor": "Legacy Professional Services",
    "rowid": "1122738",
    "final_x": "3665317.22004",
    "final_y": "528813.586816",
    "longitude": "-90.11926047414643",
    "latitude": "29.948535351377163",
    "geocoded_column": {
      "latitude": "29.948535351377163",
      "longitude": "-90.11926047414643"
    }
  },
  {
    "service_request": "2024-1122737",
    "request_type": "Trash/Recycling",
    "request_reason": "Replace Trash Cart",
    "date_created": "2024-08-17T16:57:38.000",
    "date_modified": "2024-08-17T16:57:39.000",
    "request_status": "Pending",
    "responsible_agency": "Department of Sanitation",
    "final_address": "4615 Baronne St",
    "address_councildis": "B",
    "status": "Assigned to Contractor",
    "contractor": "IV Waste",
    "rowid": "1122737",
    "final_x": "3669887.1129",
    "final_y": "521547.430009",
    "longitude": "-90.10507728865312",
    "latitude": "29.928421837144764",
    "geocoded_column": {
      "latitude": "29.928421837144764",
      "longitude": "-90.10507728865312"
    }
  },
  {
    "service_request": "2024-1122736",
    "request_type": "Trash/Recycling",
    "request_reason": "Request a Large Item Pick Up",
    "date_created": "2024-08-17T16:46:04.000",
    "date_modified": "2024-08-17T16:46:05.000",
    "request_status": "Pending",
    "responsible_agency": "Department of Sanitation",
    "final_address": "2253 Urquhart St",
    "address_councildis": "C",
    "status": "Assigned to Contractor",
    "contractor": "IV Waste",
    "rowid": "1122736",
    "final_x": "3685515.33372",
    "final_y": "537117.531016",
    "longitude": "-90.05519421091519",
    "latitude": "29.970764433782037",
    "geocoded_column": {
      "latitude": "29.970764433782037",
      "longitude": "-90.05519421091519"
    }
  },
  {
    "service_request": "2024-1122735",
    "request_type": "Roads/Drainage",
    "request_reason": "Catch Basin - Clogged",
    "date_created": "2024-08-17T16:37:35.000",
    "date_modified": "2024-08-17T16:37:35.000",
    "request_status": "Pending",
    "responsible_agency": "Department of Public Works",
    "final_address": "200 BLK N Diamond St",
    "address_councildis": "B",
    "status": "Pending",
    "rowid": "1122735",
    "final_x": "3682365.08766",
    "final_y": "526771.66967",
    "longitude": "-90.06550458630316",
    "latitude": "29.942413081604556",
    "geocoded_column": {
      "latitude": "29.942413081604556",
      "longitude": "-90.06550458630316"
    }
  },
  {
    "service_request": "2024-1122734",
    "request_type": "Property Maintenance",
    "request_reason": "Property Maintenance",
    "date_created": "2024-08-17T16:28:35.000",
    "date_modified": "2024-08-17T16:28:35.000",
    "request_status": "Pending",
    "responsible_agency": "Department of Code Enforcement",
    "final_address": "1214 Alabo St",
    "address_councildis": "E",
    "status": "Pending",
    "rowid": "1122734",
    "final_x": "3698988.35997",
    "final_y": "534024.558021",
    "longitude": "-90.01275757055932",
    "latitude": "29.961839752520383",
    "geocoded_column": {
      "latitude": "29.961839752520383",
      "longitude": "-90.01275757055932"
    }
  },
  {
    "service_request": "2024-1122733",
    "request_type": "Property Maintenance",
    "request_reason": "Property Maintenance",
    "date_created": "2024-08-17T16:25:14.000",
    "date_modified": "2024-08-17T16:25:14.000",
    "request_status": "Pending",
    "responsible_agency": "Department of Code Enforcement",
    "final_address": "1220 Alabo St",
    "address_councildis": "E",
    "status": "Pending",
    "rowid": "1122733",
    "final_x": "3699000.36048",
    "final_y": "534065.356869",
    "longitude": "-90.0127181902206",
    "latitude": "29.961951554509593",
    "geocoded_column": {
      "latitude": "29.961951554509593",
      "longitude": "-90.0127181902206"
    }
  },
  {
    "service_request": "2024-1122732",
    "request_type": "Abandoned Vehicles",
    "request_reason": "Abandoned/Junk Vehicles",
    "date_created": "2024-08-17T16:22:22.000",
    "date_modified": "2024-08-17T16:22:22.000",
    "request_status": "Pending",
    "responsible_agency": "Department of Public Works",
    "final_address": "15037 Emory Rd",
    "address_councildis": "E",
    "status": "Pending",
    "rowid": "1122732",
    "final_x": "3721186.44799",
    "final_y": "574193.695786",
    "longitude": "-89.94111927723921",
    "latitude": "30.071566724079744",
    "geocoded_column": {
      "latitude": "30.071566724079744",
      "longitude": "-89.94111927723921"
    }
  },
  {
    "service_request": "2024-1122731",
    "request_type": "Property Maintenance",
    "request_reason": "Property Maintenance",
    "date_created": "2024-08-17T16:19:35.000",
    "date_modified": "2024-08-17T16:19:35.000",
    "request_status": "Pending",
    "responsible_agency": "Department of Code Enforcement",
    "final_address": "1317 Alabo St",
    "address_councildis": "E",
    "status": "Pending",
    "rowid": "1122731",
    "final_x": "3699191.91255",
    "final_y": "534382.006853",
    "longitude": "-90.01210177252062",
    "latitude": "29.96281615717409",
    "geocoded_column": {
      "latitude": "29.96281615717409",
      "longitude": "-90.01210177252062"
    }
  },
  {
    "service_request": "2024-1122730",
    "request_type": "Property Maintenance",
    "request_reason": "Property Maintenance",
    "date_created": "2024-08-17T16:15:31.000",
    "date_modified": "2024-08-17T16:15:31.000",
    "request_status": "Pending",
    "responsible_agency": "Department of Code Enforcement",
    "final_address": "5700 Vicksburg St",
    "address_councildis": "A",
    "status": "Pending",
    "rowid": "1122730",
    "final_x": "3668658.16654",
    "final_y": "545461.582416",
    "longitude": "-90.10814962534776",
    "latitude": "29.994214008166267",
    "geocoded_column": {
      "latitude": "29.994214008166267",
      "longitude": "-90.10814962534776"
    }
  },
  {
    "service_request": "2024-1122729",
    "request_type": "Property Maintenance",
    "request_reason": "Property Maintenance",
    "date_created": "2024-08-17T16:15:12.000",
    "date_modified": "2024-08-17T16:15:12.000",
    "request_status": "Pending",
    "responsible_agency": "Department of Code Enforcement",
    "final_address": "2861 Bristol Pl",
    "address_councildis": "C",
    "status": "Pending",
    "rowid": "1122729",
    "final_x": "3702681.0826",
    "final_y": "520368.55564",
    "longitude": "-90.00159782042311",
    "latitude": "29.924173023053534",
    "geocoded_column": {
      "latitude": "29.924173023053534",
      "longitude": "-90.00159782042311"
    }
  },
  {
    "service_request": "2024-1122728",
    "request_type": "Roads/Drainage",
    "request_reason": "Street Flooding / Drainage",
    "date_created": "2024-08-17T16:14:56.000",
    "date_modified": "2024-08-17T16:14:56.000",
    "request_status": "Pending",
    "responsible_agency": "Department of Public Works",
    "final_address": "1 Poydras St",
    "address_councildis": "C",
    "status": "Pending",
    "rowid": "1122728",
    "final_x": "3683143.79439",
    "final_y": "528949.426688",
    "longitude": "-90.0629698073786",
    "latitude": "29.948377465954838",
    "geocoded_column": {
      "latitude": "29.948377465954838",
      "longitude": "-90.0629698073786"
    }
  },
  {
    "service_request": "2024-1122727",
    "request_type": "Property Maintenance",
    "request_reason": "Property Maintenance",
    "date_created": "2024-08-17T16:08:30.000",
    "date_modified": "2024-08-17T16:08:30.000",
    "request_status": "Pending",
    "responsible_agency": "Department of Code Enforcement",
    "final_address": "1240 Alabo St",
    "address_councildis": "E",
    "status": "Pending",
    "rowid": "1122727",
    "final_x": "3699036.38506",
    "final_y": "534204.142917",
    "longitude": "-90.01259937933489",
    "latitude": "29.962332024955156",
    "geocoded_column": {
      "latitude": "29.962332024955156",
      "longitude": "-90.01259937933489"
    }
  },
  {
    "service_request": "2024-1122726",
    "request_type": "Trash/Recycling",
    "request_reason": "Return Recycling Cart",
    "date_created": "2024-08-17T15:56:56.000",
    "date_modified": "2024-08-17T15:56:56.000",
    "request_status": "Pending",
    "responsible_agency": "Department of Sanitation",
    "final_address": "3601 Canal St",
    "address_councildis": "B",
    "status": "Pending",
    "rowid": "1122726",
    "final_x": "3672619.87419",
    "final_y": "537298.879816",
    "longitude": "-90.09591355584773",
    "latitude": "29.971652301208948",
    "geocoded_column": {
      "latitude": "29.971652301208948",
      "longitude": "-90.09591355584773"
    }
  },
  {
    "service_request": "2024-1122725",
    "request_type": "Trash/Recycling",
    "request_reason": "Order Recycling Cart",
    "date_created": "2024-08-17T15:32:54.000",
    "date_modified": "2024-08-17T15:32:54.000",
    "request_status": "Pending",
    "responsible_agency": "Department of Sanitation",
    "final_address": "938 Adams St",
    "address_councildis": "A",
    "status": "Pending",
    "rowid": "1122725",
    "final_x": "3662521.78599",
    "final_y": "526852.841086",
    "longitude": "-90.12815199154387",
    "latitude": "29.94322507427557",
    "geocoded_column": {
      "latitude": "29.94322507427557",
      "longitude": "-90.12815199154387"
    }
  },
  {
    "service_request": "2024-1122724",
    "request_type": "Trash/Recycling",
    "request_reason": "Request a Large Item Pick Up",
    "date_created": "2024-08-17T15:10:17.000",
    "date_modified": "2024-08-17T15:10:18.000",
    "request_status": "Pending",
    "responsible_agency": "Department of Sanitation",
    "final_address": "13 S Park Pl",
    "address_councildis": "A",
    "status": "Assigned to Contractor",
    "contractor": "IV Waste",
    "rowid": "1122724",
    "final_x": "3670275.00455",
    "final_y": "543934.284942",
    "longitude": "-90.10309403681026",
    "latitude": "29.989966831200114",
    "geocoded_column": {
      "latitude": "29.989966831200114",
      "longitude": "-90.10309403681026"
    }
  },
  {
    "service_request": "2024-1122723",
    "request_type": "Trash/Recycling",
    "request_reason": "Illegal Dumping",
    "date_created": "2024-08-17T15:09:14.000",
    "date_modified": "2024-08-17T15:09:14.000",
    "request_status": "Pending",
    "responsible_agency": "Department of Sanitation",
    "final_address": "2739 Lavender St",
    "address_councildis": "D",
    "status": "Pending",
    "rowid": "1122723",
    "final_x": "3688156.36719",
    "final_y": "547058.383057",
    "longitude": "-90.04650095140167",
    "latitude": "29.99801696838077",
    "geocoded_column": {
      "latitude": "29.99801696838077",
      "longitude": "-90.04650095140167"
    }
  },
  {
    "service_request": "2024-1122722",
    "request_type": "Trash/Recycling",
    "request_reason": "Request a Large Item Pick Up",
    "date_created": "2024-08-17T14:56:04.000",
    "date_modified": "2024-08-17T14:56:05.000",
    "request_status": "Pending",
    "responsible_agency": "Department of Sanitation",
    "final_address": "5219 S Derbigny St",
    "address_councildis": "B",
    "status": "Assigned to Contractor",
    "contractor": "IV Waste",
    "rowid": "1122722",
    "final_x": "3668697.93658",
    "final_y": "526313.512894",
    "longitude": "-90.1086704676613",
    "latitude": "29.94156203255295",
    "geocoded_column": {
      "latitude": "29.94156203255295",
      "longitude": "-90.1086704676613"
    }
  },
  {
    "service_request": "2024-1122721",
    "request_type": "Parks & Parkways",
    "request_reason": "Request Tree Service (Right of Way/Public Property)",
    "date_created": "2024-08-17T14:46:17.000",
    "date_modified": "2024-08-17T14:46:17.000",
    "request_status": "Pending",
    "responsible_agency": "Department of Parks & Parkway",
    "final_address": "4201 Burgundy St",
    "address_councildis": "C",
    "status": "Pending",
    "rowid": "1122721",
    "final_x": "3692245.59344",
    "final_y": "534446.643141",
    "longitude": "-90.03403495364326",
    "latitude": "29.96321229178392",
    "geocoded_column": {
      "latitude": "29.96321229178392",
      "longitude": "-90.03403495364326"
    }
  },
  {
    "service_request": "2024-1122720",
    "request_type": "Trash/Recycling",
    "request_reason": "Request a Large Item Pick Up",
    "date_created": "2024-08-17T14:38:37.000",
    "date_modified": "2024-08-17T14:38:38.000",
    "request_status": "Pending",
    "responsible_agency": "Department of Sanitation",
    "final_address": "3107 Nashville Ave",
    "address_councildis": "A",
    "status": "Assigned to Contractor",
    "contractor": "IV Waste",
    "rowid": "1122720",
    "final_x": "3667846.45466",
    "final_y": "527217.235839",
    "longitude": "-90.11132834577623",
    "latitude": "29.944071974752568",
    "geocoded_column": {
      "latitude": "29.944071974752568",
      "longitude": "-90.11132834577623"
    }
  },
  {
    "service_request": "2024-1122719",
    "request_type": "Trash/Recycling",
    "request_reason": "Request a Large Item Pick Up",
    "date_created": "2024-08-17T14:32:58.000",
    "date_modified": "2024-08-17T14:32:58.000",
    "request_status": "Pending",
    "responsible_agency": "Department of Sanitation",
    "final_address": "1124 Jackson Ave",
    "address_councildis": "B",
    "status": "Assigned to Contractor",
    "contractor": "IV Waste",
    "rowid": "1122719",
    "final_x": "3678674.23976",
    "final_y": "522220.253882",
    "longitude": "-90.07731494512066",
    "latitude": "29.93000996235017",
    "geocoded_column": {
      "latitude": "29.93000996235017",
      "longitude": "-90.07731494512066"
    }
  },
  {
    "service_request": "2024-1122718",
    "request_type": "Trash/Recycling",
    "request_reason": "Request a Large Item Pick Up",
    "date_created": "2024-08-17T14:31:41.000",
    "date_modified": "2024-08-17T14:31:42.000",
    "request_status": "Pending",
    "responsible_agency": "Department of Sanitation",
    "final_address": "1124 Jackson Ave",
    "address_councildis": "B",
    "status": "Assigned to Contractor",
    "contractor": "IV Waste",
    "rowid": "1122718",
    "final_x": "3678674.23976",
    "final_y": "522220.253882",
    "longitude": "-90.07731494512066",
    "latitude": "29.93000996235017",
    "geocoded_column": {
      "latitude": "29.93000996235017",
      "longitude": "-90.07731494512066"
    }
  },
  {
    "service_request": "2024-1122717",
    "request_type": "Trash/Recycling",
    "request_reason": "Request a Large Item Pick Up",
    "date_created": "2024-08-17T14:09:09.000",
    "date_modified": "2024-08-17T14:09:10.000",
    "request_status": "Pending",
    "responsible_agency": "Department of Sanitation",
    "final_address": "617 N St Patrick St",
    "address_councildis": "A",
    "status": "Assigned to Contractor",
    "contractor": "IV Waste",
    "rowid": "1122717",
    "final_x": "3670235.52916",
    "final_y": "541431.360972",
    "longitude": "-90.10330359888322",
    "latitude": "29.983085811812998",
    "geocoded_column": {
      "latitude": "29.983085811812998",
      "longitude": "-90.10330359888322"
    }
  },
  {
    "service_request": "2024-1122716",
    "request_type": "Abandoned Vehicles",
    "request_reason": "Abandoned/Junk Vehicles",
    "date_created": "2024-08-17T14:08:55.000",
    "date_modified": "2024-08-17T14:08:55.000",
    "request_status": "Pending",
    "responsible_agency": "Department of Public Works",
    "final_address": "4756 Mandeville St",
    "address_councildis": "D",
    "status": "Pending",
    "rowid": "1122716",
    "final_x": "3684605.25148",
    "final_y": "550516.585172",
    "longitude": "-90.05759722900386",
    "latitude": "30.007634956198665",
    "geocoded_column": {
      "latitude": "30.007634956198665",
      "longitude": "-90.05759722900386"
    }
  },
  {
    "service_request": "2024-1122715",
    "request_type": "Abandoned Vehicles",
    "request_reason": "Abandoned/Junk Vehicles",
    "date_created": "2024-08-17T14:07:30.000",
    "date_modified": "2024-08-17T14:07:30.000",
    "request_status": "Pending",
    "responsible_agency": "Department of Public Works",
    "final_address": "4230 Pauger St",
    "address_councildis": "D",
    "status": "Pending",
    "rowid": "1122715",
    "final_x": "3682845.16117",
    "final_y": "548191.590482",
    "longitude": "-90.06323927801535",
    "latitude": "30.001295822845382",
    "geocoded_column": {
      "latitude": "30.001295822845382",
      "longitude": "-90.06323927801535"
    }
  },
  {
    "service_request": "2024-1122714",
    "request_type": "Property Maintenance",
    "request_reason": "Property Maintenance",
    "date_created": "2024-08-17T13:55:20.000",
    "date_modified": "2024-08-17T13:55:20.000",
    "request_status": "Pending",
    "responsible_agency": "Department of Code Enforcement",
    "final_address": "2417 St Thomas St",
    "address_councildis": "B",
    "status": "Pending",
    "rowid": "1122714",
    "final_x": "3678913.44418",
    "final_y": "519909.584056",
    "longitude": "-90.07663981736158",
    "latitude": "29.92364916231856",
    "geocoded_column": {
      "latitude": "29.92364916231856",
      "longitude": "-90.07663981736158"
    }
  },
  {
    "service_request": "2024-1122713",
    "request_type": "Property Maintenance",
    "request_reason": "Property Maintenance",
    "date_created": "2024-08-17T13:54:41.000",
    "date_modified": "2024-08-17T13:54:41.000",
    "request_status": "Pending",
    "responsible_agency": "Department of Code Enforcement",
    "final_address": "2411 St Thomas St",
    "address_councildis": "B",
    "status": "Pending",
    "rowid": "1122713",
    "final_x": "3678960.77006",
    "final_y": "519940.990968",
    "longitude": "-90.0764893394936",
    "latitude": "29.9237340938269",
    "geocoded_column": {
      "latitude": "29.9237340938269",
      "longitude": "-90.0764893394936"
    }
  },
  {
    "service_request": "2024-1122712",
    "request_type": "Property Maintenance",
    "request_reason": "Property Maintenance",
    "date_created": "2024-08-17T13:53:59.000",
    "date_modified": "2024-08-17T13:53:59.000",
    "request_status": "Pending",
    "responsible_agency": "Department of Code Enforcement",
    "final_address": "540 First St",
    "address_councildis": "B",
    "status": "Pending",
    "rowid": "1122712",
    "final_x": "3679072.66165",
    "final_y": "519915.376312",
    "longitude": "-90.07613702568153",
    "latitude": "29.92366028667495",
    "geocoded_column": {
      "latitude": "29.92366028667495",
      "longitude": "-90.07613702568153"
    }
  },
  {
    "service_request": "2024-1122711",
    "request_type": "Traffic Signals/Signs/Striping/Streetlights",
    "request_reason": "Street Light Outage/Malfunction",
    "date_created": "2024-08-17T13:40:11.000",
    "date_modified": "2024-08-17T13:40:12.000",
    "request_status": "Pending",
    "responsible_agency": "Department of Public Works",
    "final_address": "4127 Orleans Ave",
    "address_councildis": "A",
    "status": "Assigned to Contractor",
    "contractor": "Legacy Professional Services",
    "rowid": "1122711",
    "final_x": "3672476.12916",
    "final_y": "540436.942859",
    "longitude": "-90.09626052968329",
    "latitude": "29.980285176381592",
    "geocoded_column": {
      "latitude": "29.980285176381592",
      "longitude": "-90.09626052968329"
    }
  },
  {
    "service_request": "2024-1122710",
    "request_type": "Trash/Recycling",
    "request_reason": "Request a Large Item Pick Up",
    "date_created": "2024-08-17T13:34:39.000",
    "date_modified": "2024-08-17T13:34:40.000",
    "request_status": "Pending",
    "responsible_agency": "Department of Sanitation",
    "final_address": "3953 Peach Tree Ct",
    "address_councildis": "C",
    "status": "Assigned to Contractor",
    "contractor": "Richards Disposal",
    "rowid": "1122710",
    "final_x": "3704207.11972",
    "final_y": "512837.160433",
    "longitude": "-89.99705794465588",
    "latitude": "29.90341541555236",
    "geocoded_column": {
      "latitude": "29.90341541555236",
      "longitude": "-89.99705794465588"
    }
  },
  {
    "service_request": "2024-1122709",
    "request_type": "Roads/Drainage",
    "request_reason": "Street Flooding / Drainage",
    "date_created": "2024-08-17T13:28:36.000",
    "date_modified": "2024-08-17T13:28:36.000",
    "request_status": "Pending",
    "responsible_agency": "Department of Public Works",
    "final_address": "411 22Nd St",
    "address_councildis": "A",
    "status": "Pending",
    "rowid": "1122709",
    "final_x": "3664712.55456",
    "final_y": "549403.308115",
    "longitude": "-90.12048154051475",
    "latitude": "30.005167814307633",
    "geocoded_column": {
      "latitude": "30.005167814307633",
      "longitude": "-90.12048154051475"
    }
  },
  {
    "service_request": "2024-1122708",
    "request_type": "Property Maintenance",
    "request_reason": "Property Maintenance",
    "date_created": "2024-08-17T13:28:30.000",
    "date_modified": "2024-08-17T13:28:30.000",
    "request_status": "Pending",
    "responsible_agency": "Department of Code Enforcement",
    "final_address": "1513 N Derbigny St",
    "address_councildis": "D",
    "status": "Pending",
    "rowid": "1122708",
    "final_x": "3681487.71957",
    "final_y": "537534.273992",
    "longitude": "-90.06789936846046",
    "latitude": "29.972033250578146",
    "geocoded_column": {
      "latitude": "29.972033250578146",
      "longitude": "-90.06789936846046"
    }
  },
  {
    "service_request": "2024-1122707",
    "request_type": "Trash/Recycling",
    "request_reason": "Illegal Dumping",
    "date_created": "2024-08-17T13:26:36.000",
    "date_modified": "2024-08-17T13:26:36.000",
    "request_status": "Pending",
    "responsible_agency": "Department of Sanitation",
    "final_address": "2331 Jourdan Ave",
    "address_councildis": "E",
    "status": "Pending",
    "rowid": "1122707",
    "final_x": "3696412.27715",
    "final_y": "539223.997834",
    "longitude": "-90.02070429698455",
    "latitude": "29.976217739095144",
    "geocoded_column": {
      "latitude": "29.976217739095144",
      "longitude": "-90.02070429698455"
    }
  },
  {
    "service_request": "2024-1122706",
    "request_type": "Trash/Recycling",
    "request_reason": "Illegal Dumping",
    "date_created": "2024-08-17T13:25:24.000",
    "date_modified": "2024-08-17T13:25:24.000",
    "request_status": "Pending",
    "responsible_agency": "Department of Sanitation",
    "final_address": "2345 Jourdan Ave",
    "address_councildis": "E",
    "status": "Pending",
    "rowid": "1122706",
    "final_x": "3696437.17296",
    "final_y": "539311.577226",
    "longitude": "-90.02062250024429",
    "latitude": "29.97645776668165",
    "geocoded_column": {
      "latitude": "29.97645776668165",
      "longitude": "-90.02062250024429"
    }
  },
  {
    "service_request": "2024-1122705",
    "request_type": "Trash/Recycling",
    "request_reason": "Illegal Dumping",
    "date_created": "2024-08-17T13:23:39.000",
    "date_modified": "2024-08-17T13:23:39.000",
    "request_status": "Pending",
    "responsible_agency": "Department of Sanitation",
    "final_address": "2525 Jourdan Ave",
    "address_councildis": "E",
    "status": "Pending",
    "rowid": "1122705",
    "final_x": "3696610.34551",
    "final_y": "539916.98305",
    "longitude": "-90.02005365719457",
    "latitude": "29.978116958217857",
    "geocoded_column": {
      "latitude": "29.978116958217857",
      "longitude": "-90.02005365719457"
    }
  },
  {
    "service_request": "2024-1122704",
    "request_type": "Abandoned Vehicles",
    "request_reason": "Abandoned/Junk Vehicles",
    "date_created": "2024-08-17T13:18:15.000",
    "date_modified": "2024-08-17T13:18:15.000",
    "request_status": "Pending",
    "responsible_agency": "Department of Public Works",
    "final_address": "3300 BLK Toulouse St",
    "address_councildis": "A",
    "status": "Pending",
    "rowid": "1122704",
    "final_x": "3674326.16739",
    "final_y": "538162.32471",
    "longitude": "-90.09049523876234",
    "latitude": "29.973975703865744",
    "geocoded_column": {
      "latitude": "29.973975703865744",
      "longitude": "-90.09049523876234"
    }
  },
  {
    "service_request": "2024-1122703",
    "request_type": "Roads/Drainage",
    "request_reason": "Pothole",
    "date_created": "2024-08-17T13:16:14.000",
    "date_modified": "2024-08-17T13:16:14.000",
    "request_status": "Pending",
    "responsible_agency": "Department of Public Works",
    "final_address": "6215 Clara St",
    "address_councildis": "A",
    "status": "Pending",
    "rowid": "1122703",
    "final_x": "3666201.29594",
    "final_y": "525689.257981",
    "longitude": "-90.1165738185679",
    "latitude": "29.939918667594014",
    "geocoded_column": {
      "latitude": "29.939918667594014",
      "longitude": "-90.1165738185679"
    }
  },
  {
    "service_request": "2024-1122702",
    "request_type": "Trash/Recycling",
    "request_reason": "Request a Large Item Pick Up",
    "date_created": "2024-08-17T12:46:09.000",
    "date_modified": "2024-08-17T12:46:10.000",
    "request_status": "Pending",
    "responsible_agency": "Department of Sanitation",
    "final_address": "2320 Aubry St",
    "address_councildis": "D",
    "status": "Assigned to Contractor",
    "contractor": "IV Waste",
    "rowid": "1122702",
    "final_x": "3680691.17307",
    "final_y": "540278.838027",
    "longitude": "-90.07031944973672",
    "latitude": "29.97960401525594",
    "geocoded_column": {
      "latitude": "29.97960401525594",
      "longitude": "-90.07031944973672"
    }
  },
  {
    "service_request": "2024-1122700",
    "request_type": "Trash/Recycling",
    "request_reason": "Replace Trash Cart",
    "date_created": "2024-08-17T12:36:47.000",
    "date_modified": "2024-08-17T12:36:48.000",
    "request_status": "Pending",
    "responsible_agency": "Department of Sanitation",
    "final_address": "1000 Broadway St",
    "address_councildis": "A",
    "status": "Assigned to Contractor",
    "contractor": "IV Waste",
    "rowid": "1122700",
    "final_x": "3663748.49779",
    "final_y": "525959.537853",
    "longitude": "-90.12430869496454",
    "latitude": "29.940733241356003",
    "geocoded_column": {
      "latitude": "29.940733241356003",
      "longitude": "-90.12430869496454"
    }
  },
  {
    "service_request": "2024-1122699",
    "request_type": "Trash/Recycling",
    "request_reason": "Replace Trash Cart",
    "date_created": "2024-08-17T12:14:57.000",
    "date_modified": "2024-08-17T12:14:57.000",
    "request_status": "Pending",
    "responsible_agency": "Department of Sanitation",
    "final_address": "4014 DHemecourt St",
    "address_councildis": "A",
    "status": "Assigned to Contractor",
    "contractor": "IV Waste",
    "rowid": "1122699",
    "final_x": "3670086.13358",
    "final_y": "536579.900871",
    "longitude": "-90.10393987583316",
    "latitude": "29.969750344545606",
    "geocoded_column": {
      "latitude": "29.969750344545606",
      "longitude": "-90.10393987583316"
    }
  },
  {
    "service_request": "2024-1122698",
    "request_type": "Trash/Recycling",
    "request_reason": "Replace Trash Cart",
    "date_created": "2024-08-17T12:12:12.000",
    "date_modified": "2024-08-17T12:12:13.000",
    "request_status": "Pending",
    "responsible_agency": "Department of Sanitation",
    "final_address": "4014 DHemecourt St",
    "address_councildis": "A",
    "status": "Assigned to Contractor",
    "contractor": "IV Waste",
    "rowid": "1122698",
    "final_x": "3670086.13358",
    "final_y": "536579.900871",
    "longitude": "-90.10393987583316",
    "latitude": "29.969750344545606",
    "geocoded_column": {
      "latitude": "29.969750344545606",
      "longitude": "-90.10393987583316"
    }
  },
  {
    "service_request": "2024-1122697",
    "request_type": "Roads/Drainage",
    "request_reason": "Catch Basin - Clogged",
    "date_created": "2024-08-17T12:07:20.000",
    "date_modified": "2024-08-17T12:07:20.000",
    "request_status": "Pending",
    "responsible_agency": "Department of Public Works",
    "final_address": "111 Chartres St",
    "address_councildis": "C",
    "status": "Pending",
    "rowid": "1122697",
    "final_x": "3681572.7684",
    "final_y": "530624.779074",
    "longitude": "-90.0678717642002",
    "latitude": "29.95303191881378",
    "geocoded_column": {
      "latitude": "29.95303191881378",
      "longitude": "-90.0678717642002"
    }
  },
  {
    "service_request": "2024-1122696",
    "request_type": "Roads/Drainage",
    "request_reason": "Catch Basin - Clogged",
    "date_created": "2024-08-17T12:05:22.000",
    "date_modified": "2024-08-17T12:05:22.000",
    "request_status": "Pending",
    "responsible_agency": "Department of Public Works",
    "final_address": "100 BLK Chartres St",
    "address_councildis": "C",
    "status": "Pending",
    "rowid": "1122696",
    "final_x": "3681615.32112",
    "final_y": "530643.96934",
    "longitude": "-90.06773673217515",
    "latitude": "29.953083393280075",
    "geocoded_column": {
      "latitude": "29.953083393280075",
      "longitude": "-90.06773673217515"
    }
  },
  {
    "service_request": "2024-1122695",
    "request_type": "Roads/Drainage",
    "request_reason": "Street Subsidence (Sinking)",
    "date_created": "2024-08-17T12:02:22.000",
    "date_modified": "2024-08-17T12:02:22.000",
    "request_status": "Pending",
    "responsible_agency": "Department of Public Works",
    "final_address": "EDEN ST & S LOPEZ ST",
    "address_councildis": "B",
    "status": "Pending",
    "rowid": "1122695",
    "final_x": "3669979.5",
    "final_y": "530619.98",
    "longitude": "-90.10447849146023",
    "latitude": "29.95336568584347",
    "geocoded_column": {
      "latitude": "29.95336568584347",
      "longitude": "-90.10447849146023"
    }
  },
  {
    "service_request": "2024-1122694",
    "request_type": "Traffic Signals/Signs/Striping/Streetlights",
    "request_reason": "Street Name Sign Damaged or Missing",
    "date_created": "2024-08-17T12:00:00.000",
    "date_modified": "2024-08-17T12:00:00.000",
    "request_status": "Pending",
    "responsible_agency": "Department of Public Works",
    "final_address": "1700 BLK Napoleon Ave",
    "address_councildis": "B",
    "status": "Pending",
    "rowid": "1122694",
    "final_x": "3670832.48868",
    "final_y": "521423.880496",
    "longitude": "-90.10209712538426",
    "latitude": "29.92805421722528",
    "geocoded_column": {
      "latitude": "29.92805421722528",
      "longitude": "-90.10209712538426"
    }
  },
  {
    "service_request": "2024-1122693",
    "request_type": "Roads/Drainage",
    "request_reason": "Damaged Sidewalk",
    "date_created": "2024-08-17T11:49:11.000",
    "date_modified": "2024-08-17T11:49:11.000",
    "request_status": "Pending",
    "responsible_agency": "Department of Public Works",
    "final_address": "1928 Burgundy St",
    "address_councildis": "C",
    "status": "Pending",
    "rowid": "1122693",
    "final_x": "3684196.68527",
    "final_y": "535490.535174",
    "longitude": "-90.05941578455345",
    "latitude": "29.966331137632043",
    "geocoded_column": {
      "latitude": "29.966331137632043",
      "longitude": "-90.05941578455345"
    }
  },
  {
    "service_request": "2024-1122692",
    "request_type": "Trash/Recycling",
    "request_reason": "Request a Large Item Pick Up",
    "date_created": "2024-08-17T11:46:39.000",
    "date_modified": "2024-08-17T11:46:39.000",
    "request_status": "Pending",
    "responsible_agency": "Department of Sanitation",
    "final_address": "5856 Louis Xiv St",
    "address_councildis": "A",
    "status": "Assigned to Contractor",
    "contractor": "IV Waste",
    "rowid": "1122692",
    "final_x": "3667937.85204",
    "final_y": "546502.048913",
    "longitude": "-90.11038993102223",
    "latitude": "29.997096091055447",
    "geocoded_column": {
      "latitude": "29.997096091055447",
      "longitude": "-90.11038993102223"
    }
  },
  {
    "service_request": "2024-1122691",
    "request_type": "Trash/Recycling",
    "request_reason": "Replace Recycling Cart",
    "date_created": "2024-08-17T11:41:55.000",
    "date_modified": "2024-08-17T11:41:55.000",
    "request_status": "Pending",
    "responsible_agency": "Department of Sanitation",
    "final_address": "1329 Octavia St",
    "address_councildis": "A",
    "status": "Pending",
    "rowid": "1122691",
    "final_x": "3666937.53204",
    "final_y": "520863.094393",
    "longitude": "-90.1144114917047",
    "latitude": "29.926626738813706",
    "geocoded_column": {
      "latitude": "29.926626738813706",
      "longitude": "-90.1144114917047"
    }
  },
  {
    "service_request": "2024-1122690",
    "request_type": "Trash/Recycling",
    "request_reason": "Replace Trash Cart",
    "date_created": "2024-08-17T11:41:40.000",
    "date_modified": "2024-08-17T11:41:41.000",
    "request_status": "Pending",
    "responsible_agency": "Department of Sanitation",
    "final_address": "725 Herald St",
    "address_councildis": "C",
    "status": "Assigned to Contractor",
    "contractor": "Richards Disposal",
    "rowid": "1122690",
    "final_x": "3702215.65265",
    "final_y": "519753.081272",
    "longitude": "-90.0030895639284",
    "latitude": "29.92249554667411",
    "geocoded_column": {
      "latitude": "29.92249554667411",
      "longitude": "-90.0030895639284"
    }
  },
  {
    "service_request": "2024-1122689",
    "request_type": "Property Maintenance",
    "request_reason": "Property Maintenance",
    "date_created": "2024-08-17T11:32:58.000",
    "date_modified": "2024-08-17T11:32:58.000",
    "request_status": "Pending",
    "responsible_agency": "Department of Code Enforcement",
    "final_address": "1718 Pauger St",
    "address_councildis": "C",
    "status": "Pending",
    "rowid": "1122689",
    "final_x": "3683840.951",
    "final_y": "535982.824903",
    "longitude": "-90.0605219165457",
    "latitude": "29.967695634300693",
    "geocoded_column": {
      "latitude": "29.967695634300693",
      "longitude": "-90.0605219165457"
    }
  },
  {
    "service_request": "2024-1122688",
    "request_type": "Trash/Recycling",
    "request_reason": "Request a Large Item Pick Up",
    "date_created": "2024-08-17T11:29:48.000",
    "date_modified": "2024-08-17T11:29:49.000",
    "request_status": "Pending",
    "responsible_agency": "Department of Sanitation",
    "final_address": "5309 Dauphine St",
    "address_councildis": "E",
    "status": "Assigned to Contractor",
    "contractor": "Waste Pro",
    "rowid": "1122688",
    "final_x": "3696565.22755",
    "final_y": "532948.17914",
    "longitude": "-90.02044834105651",
    "latitude": "29.958956657194236",
    "geocoded_column": {
      "latitude": "29.958956657194236",
      "longitude": "-90.02044834105651"
    }
  },
  {
    "service_request": "2024-1122687",
    "request_type": "Trash/Recycling",
    "request_reason": "Request a Large Item Pick Up",
    "date_created": "2024-08-17T11:29:35.000",
    "date_modified": "2024-08-17T11:29:36.000",
    "request_status": "Pending",
    "responsible_agency": "Department of Sanitation",
    "final_address": "6074 Eastover Dr",
    "address_councildis": "E",
    "status": "Assigned to Contractor",
    "contractor": "Waste Pro",
    "rowid": "1122687",
    "final_x": "3718266.70322",
    "final_y": "565555.705762",
    "longitude": "-89.95067891102478",
    "latitude": "30.047913063717903",
    "geocoded_column": {
      "latitude": "30.047913063717903",
      "longitude": "-89.95067891102478"
    }
  },
  {
    "service_request": "2024-1122686",
    "request_type": "Healthy Homes",
    "request_reason": "Healthy Homes",
    "date_created": "2024-08-17T11:22:37.000",
    "date_modified": "2024-08-17T11:22:37.000",
    "request_status": "Pending",
    "responsible_agency": "Department of Code Enforcement",
    "final_address": "4732 Laurel St",
    "address_councildis": "B",
    "status": "Pending",
    "rowid": "1122686",
    "final_x": "3669742.61217",
    "final_y": "517866.29279",
    "longitude": "-90.10565795240986",
    "latitude": "29.918304136912237",
    "geocoded_column": {
      "latitude": "29.918304136912237",
      "longitude": "-90.10565795240986"
    }
  },
  {
    "service_request": "2024-1122685",
    "request_type": "Roads/Drainage",
    "request_reason": "Pothole",
    "date_created": "2024-08-17T11:22:21.000",
    "date_modified": "2024-08-17T11:22:21.000",
    "request_status": "Pending",
    "responsible_agency": "Department of Public Works",
    "final_address": "7833 Belfast St",
    "address_councildis": "A",
    "status": "Pending",
    "rowid": "1122685",
    "final_x": "3666249.8178",
    "final_y": "531820.286467",
    "longitude": "-90.11621502059326",
    "latitude": "29.956775593498833",
    "geocoded_column": {
      "latitude": "29.956775593498833",
      "longitude": "-90.11621502059326"
    }
  },
  {
    "service_request": "2024-1122684",
    "request_type": "Roads/Drainage",
    "request_reason": "Street Flooding / Drainage",
    "date_created": "2024-08-17T11:20:11.000",
    "date_modified": "2024-08-17T11:20:11.000",
    "request_status": "Pending",
    "responsible_agency": "Department of Public Works",
    "final_address": "7833 Belfast St",
    "address_councildis": "A",
    "status": "Pending",
    "rowid": "1122684",
    "final_x": "3666249.8178",
    "final_y": "531820.286467",
    "longitude": "-90.11621502059326",
    "latitude": "29.956775593498833",
    "geocoded_column": {
      "latitude": "29.956775593498833",
      "longitude": "-90.11621502059326"
    }
  },
  {
    "service_request": "2024-1122682",
    "request_type": "Traffic Signals/Signs/Striping/Streetlights",
    "request_reason": "Striping/Road Surface Markings",
    "date_created": "2024-08-17T11:02:56.000",
    "date_modified": "2024-08-17T11:02:56.000",
    "request_status": "Pending",
    "responsible_agency": "Department of Public Works",
    "final_address": "8931 Dwyer Rd",
    "address_councildis": "E",
    "status": "Pending",
    "rowid": "1122682",
    "final_x": "3708037.12024",
    "final_y": "557096.71433",
    "longitude": "-89.98332488869127",
    "latitude": "30.024989624039723",
    "geocoded_column": {
      "latitude": "30.024989624039723",
      "longitude": "-89.98332488869127"
    }
  },
  {
    "service_request": "2024-1122681",
    "request_type": "Traffic Signals/Signs/Striping/Streetlights",
    "request_reason": "Street Light Outage/Malfunction",
    "date_created": "2024-08-17T11:00:01.000",
    "date_modified": "2024-08-17T11:00:02.000",
    "request_status": "Pending",
    "responsible_agency": "Department of Public Works",
    "final_address": "4133 General Pershing St",
    "address_councildis": "B",
    "status": "Assigned to Contractor",
    "contractor": "Legacy Professional Services",
    "rowid": "1122681",
    "final_x": "3670028.04846",
    "final_y": "529492.805889",
    "longitude": "-90.10436336924452",
    "latitude": "29.95026489527118",
    "geocoded_column": {
      "latitude": "29.95026489527118",
      "longitude": "-90.10436336924452"
    }
  },
  {
    "service_request": "2024-1122680",
    "request_type": "Trash/Recycling",
    "request_reason": "Return Trash Cart",
    "date_created": "2024-08-17T10:51:15.000",
    "date_modified": "2024-08-17T10:51:16.000",
    "request_status": "Pending",
    "responsible_agency": "Department of Sanitation",
    "final_address": "1547 Calhoun St",
    "address_councildis": "A",
    "status": "Assigned to Contractor",
    "contractor": "IV Waste",
    "rowid": "1122680",
    "final_x": "3664731.74061",
    "final_y": "522633.92921",
    "longitude": "-90.12131547334509",
    "latitude": "29.93156031202522",
    "geocoded_column": {
      "latitude": "29.93156031202522",
      "longitude": "-90.12131547334509"
    }
  },
  {
    "service_request": "2024-1122679",
    "request_type": "Abandoned Vehicles",
    "request_reason": "Abandoned/Junk Vehicles",
    "date_created": "2024-08-17T10:51:07.000",
    "date_modified": "2024-08-17T10:51:07.000",
    "request_status": "Pending",
    "responsible_agency": "Department of Public Works",
    "final_address": "5157 Wildair Dr",
    "address_councildis": "D",
    "status": "Pending",
    "rowid": "1122679",
    "final_x": "3681696.76584",
    "final_y": "551429.277333",
    "longitude": "-90.06675410019191",
    "latitude": "30.010233248401953",
    "geocoded_column": {
      "latitude": "30.010233248401953",
      "longitude": "-90.06675410019191"
    }
  },
  {
    "service_request": "2024-1122678",
    "request_type": "Roads/Drainage",
    "request_reason": "Catch Basin - Broken/Damage",
    "date_created": "2024-08-17T10:45:05.000",
    "date_modified": "2024-08-17T10:45:05.000",
    "request_status": "Closed",
    "responsible_agency": "Department of Public Works",
    "final_address": "11310 S Parkwood Ct",
    "address_councildis": "E",
    "status": "Referred to External Agency",
    "rowid": "1122678",
    "final_x": "3716974.71839",
    "final_y": "559105.358172",
    "longitude": "-89.95500749685112",
    "latitude": "30.03022002425119",
    "geocoded_column": {
      "latitude": "30.03022002425119",
      "longitude": "-89.95500749685112"
    }
  },
  {
    "service_request": "2024-1122677",
    "request_type": "Trash/Recycling",
    "request_reason": "MIssed Recycling Pick-Up",
    "date_created": "2024-08-17T10:41:18.000",
    "date_modified": "2024-08-17T10:41:19.000",
    "request_status": "Pending",
    "responsible_agency": "Department of Sanitation",
    "final_address": "BULLARD AVE & N OAKRIDGE CT",
    "address_councildis": "E",
    "status": "Assigned to Contractor",
    "contractor": "Waste Pro",
    "rowid": "1122677",
    "final_x": "3713021.1",
    "final_y": "567601.88",
    "longitude": "-89.96718070852187",
    "latitude": "30.053712209757233",
    "geocoded_column": {
      "latitude": "30.053712209757233",
      "longitude": "-89.96718070852187"
    }
  },
  {
    "service_request": "2024-1122676",
    "request_type": "Mosquito, Termite & Rodent Control",
    "request_reason": "Rodent Complaint (Rats)",
    "date_created": "2024-08-17T10:36:28.000",
    "date_modified": "2024-08-17T10:36:28.000",
    "request_status": "Pending",
    "responsible_agency": "Mosquito, Termite & Rodent Control Board",
    "final_address": "2085 N Dorgenois St",
    "address_councildis": "D",
    "status": "Pending",
    "rowid": "1122676",
    "final_x": "3683290.01461",
    "final_y": "541390.47438",
    "longitude": "-90.06207231832293",
    "latitude": "29.982581602971038",
    "geocoded_column": {
      "latitude": "29.982581602971038",
      "longitude": "-90.06207231832293"
    }
  },
  {
    "service_request": "2024-1122675",
    "request_type": "Abandoned Vehicles",
    "request_reason": "Abandoned/Junk Vehicles",
    "date_created": "2024-08-17T10:34:53.000",
    "date_modified": "2024-08-17T10:34:53.000",
    "request_status": "Pending",
    "responsible_agency": "Department of Public Works",
    "final_address": "2628 Hamilton St",
    "address_councildis": "A",
    "status": "Pending",
    "rowid": "1122675",
    "final_x": "3662885.27239",
    "final_y": "534683.635782",
    "longitude": "-90.12674402188459",
    "latitude": "29.964746710669303",
    "geocoded_column": {
      "latitude": "29.964746710669303",
      "longitude": "-90.12674402188459"
    }
  },
  {
    "service_request": "2024-1122674",
    "request_type": "Trash/Recycling",
    "request_reason": "Request a Large Item Pick Up",
    "date_created": "2024-08-17T10:33:18.000",
    "date_modified": "2024-08-17T10:33:20.000",
    "request_status": "Pending",
    "responsible_agency": "Department of Sanitation",
    "final_address": "3011 Bell St",
    "address_councildis": "A",
    "status": "Assigned to Contractor",
    "contractor": "IV Waste",
    "rowid": "1122674",
    "final_x": "3676534.69032",
    "final_y": "539339.384714",
    "longitude": "-90.08347967272707",
    "latitude": "29.977146163114117",
    "geocoded_column": {
      "latitude": "29.977146163114117",
      "longitude": "-90.08347967272707"
    }
  },
  {
    "service_request": "2024-1122672",
    "request_type": "Trash/Recycling",
    "request_reason": "Request a Large Item Pick Up",
    "date_created": "2024-08-17T10:17:29.000",
    "date_modified": "2024-08-17T10:17:30.000",
    "request_status": "Pending",
    "responsible_agency": "Department of Sanitation",
    "final_address": "1516 Dublin St",
    "address_councildis": "A",
    "status": "Assigned to Contractor",
    "contractor": "IV Waste",
    "rowid": "1122672",
    "final_x": "3662477.62311",
    "final_y": "529522.417473",
    "longitude": "-90.12820277893546",
    "latitude": "29.9505668314714",
    "geocoded_column": {
      "latitude": "29.9505668314714",
      "longitude": "-90.12820277893546"
    }
  },
  {
    "service_request": "2024-1122670",
    "request_type": "Trash/Recycling",
    "request_reason": "Replace Recycling Cart",
    "date_created": "2024-08-17T09:52:02.000",
    "date_modified": "2024-08-17T09:52:02.000",
    "request_status": "Pending",
    "responsible_agency": "Department of Sanitation",
    "final_address": "3026 Annunciation St, New Orleans, Louisiana, 70115",
    "address_councildis": "B",
    "status": "Pending",
    "rowid": "1122670",
    "final_x": "3676811.96411",
    "final_y": "519315.615351",
    "longitude": "-90.08329387701248",
    "latitude": "29.922079147154975",
    "geocoded_column": {
      "latitude": "29.922079147154975",
      "longitude": "-90.08329387701248"
    }
  },
  {
    "service_request": "2024-1122669",
    "request_type": "Abandoned Vehicles",
    "request_reason": "Abandoned/Junk Vehicles",
    "date_created": "2024-08-17T09:47:10.000",
    "date_modified": "2024-08-17T09:47:10.000",
    "request_status": "Pending",
    "responsible_agency": "Department of Public Works",
    "final_address": "3601 Desaix Blvd",
    "address_councildis": "D",
    "status": "Pending",
    "rowid": "1122669",
    "final_x": "3675658.18875",
    "final_y": "543757.709902",
    "longitude": "-90.08609605891097",
    "latitude": "29.98932129161253",
    "geocoded_column": {
      "latitude": "29.98932129161253",
      "longitude": "-90.08609605891097"
    }
  },
  {
    "service_request": "2024-1122668",
    "request_type": "Property Maintenance",
    "request_reason": "Property Maintenance",
    "date_created": "2024-08-17T09:37:17.000",
    "date_modified": "2024-08-17T09:37:17.000",
    "request_status": "Pending",
    "responsible_agency": "Department of Code Enforcement",
    "final_address": "1505 Lesseps St",
    "address_councildis": "D",
    "status": "Pending",
    "rowid": "1122668",
    "final_x": "3693121.76701",
    "final_y": "536627.579975",
    "longitude": "-90.03118984491418",
    "latitude": "29.96918175063902",
    "geocoded_column": {
      "latitude": "29.96918175063902",
      "longitude": "-90.03118984491418"
    }
  },
  {
    "service_request": "2024-1122667",
    "request_type": "Property Maintenance",
    "request_reason": "Property Maintenance",
    "date_created": "2024-08-17T09:36:18.000",
    "date_modified": "2024-08-17T09:36:18.000",
    "request_status": "Pending",
    "responsible_agency": "Department of Code Enforcement",
    "final_address": "1512 Lesseps St",
    "address_councildis": "D",
    "status": "Pending",
    "rowid": "1122667",
    "final_x": "3693064.09827",
    "final_y": "536680.614663",
    "longitude": "-90.03137006315181",
    "latitude": "29.96932937911045",
    "geocoded_column": {
      "latitude": "29.96932937911045",
      "longitude": "-90.03137006315181"
    }
  },
  {
    "service_request": "2024-1122666",
    "request_type": "Property Maintenance",
    "request_reason": "Property Maintenance",
    "date_created": "2024-08-17T09:35:14.000",
    "date_modified": "2024-08-17T09:35:14.000",
    "request_status": "Pending",
    "responsible_agency": "Department of Code Enforcement",
    "final_address": "1506 Lesseps St",
    "address_councildis": "D",
    "status": "Pending",
    "rowid": "1122666",
    "final_x": "3693053.30832",
    "final_y": "536648.643719",
    "longitude": "-90.03140528571029",
    "latitude": "29.969241807446203",
    "geocoded_column": {
      "latitude": "29.969241807446203",
      "longitude": "-90.03140528571029"
    }
  },
  {
    "service_request": "2024-1122665",
    "request_type": "Roads/Drainage",
    "request_reason": "Street Subsidence (Sinking)",
    "date_created": "2024-08-17T09:24:20.000",
    "date_modified": "2024-08-17T09:24:20.000",
    "request_status": "Pending",
    "responsible_agency": "Department of Public Works",
    "final_address": "221 S Johnson St",
    "address_councildis": "B",
    "status": "Pending",
    "rowid": "1122665",
    "final_x": "3676885.54786",
    "final_y": "533225.3673",
    "longitude": "-90.08258233020007",
    "latitude": "29.960324168644195",
    "geocoded_column": {
      "latitude": "29.960324168644195",
      "longitude": "-90.08258233020007"
    }
  },
  {
    "service_request": "2024-1122664",
    "request_type": "Abandoned Vehicles",
    "request_reason": "Abandoned/Junk Vehicles",
    "date_created": "2024-08-17T09:22:16.000",
    "date_modified": "2024-08-17T09:22:16.000",
    "request_status": "Pending",
    "responsible_agency": "Department of Public Works",
    "final_address": "900 BLK Fulton St",
    "address_councildis": "B",
    "status": "Pending",
    "rowid": "1122664",
    "final_x": "3682454.52711",
    "final_y": "526834.970068",
    "longitude": "-90.06521999422411",
    "latitude": "29.942584415085154",
    "geocoded_column": {
      "latitude": "29.942584415085154",
      "longitude": "-90.06521999422411"
    }
  },
  {
    "service_request": "2024-1122663",
    "request_type": "Property Maintenance",
    "request_reason": "Property Maintenance",
    "date_created": "2024-08-17T09:15:23.000",
    "date_modified": "2024-08-17T09:15:23.000",
    "request_status": "Pending",
    "responsible_agency": "Department of Code Enforcement",
    "final_address": "8500 BLK Spruce St",
    "address_councildis": "A",
    "status": "Pending",
    "rowid": "1122663",
    "final_x": "3662666.36361",
    "final_y": "531531.886855",
    "longitude": "-90.12754006236777",
    "latitude": "29.95608676386163",
    "geocoded_column": {
      "latitude": "29.95608676386163",
      "longitude": "-90.12754006236777"
    }
  },
  {
    "service_request": "2024-1122661",
    "request_type": "Property Maintenance",
    "request_reason": "Property Maintenance",
    "date_created": "2024-08-17T08:58:46.000",
    "date_modified": "2024-08-17T08:58:46.000",
    "request_status": "Pending",
    "responsible_agency": "Department of Code Enforcement",
    "final_address": "8500 BLK Spruce St",
    "address_councildis": "A",
    "status": "Pending",
    "rowid": "1122661",
    "final_x": "3662666.36361",
    "final_y": "531531.886855",
    "longitude": "-90.12754006236777",
    "latitude": "29.95608676386163",
    "geocoded_column": {
      "latitude": "29.95608676386163",
      "longitude": "-90.12754006236777"
    }
  },
  {
    "service_request": "2024-1122660",
    "request_type": "Trash/Recycling",
    "request_reason": "Order Recycling Cart",
    "date_created": "2024-08-17T08:49:57.000",
    "date_modified": "2024-08-17T08:49:57.000",
    "request_status": "Pending",
    "responsible_agency": "Department of Sanitation",
    "final_address": "5938 General Diaz St",
    "address_councildis": "A",
    "status": "Pending",
    "rowid": "1122660",
    "final_x": "3669376.04474",
    "final_y": "546829.206161",
    "longitude": "-90.1058356578864",
    "latitude": "29.997953375688404",
    "geocoded_column": {
      "latitude": "29.997953375688404",
      "longitude": "-90.1058356578864"
    }
  },
  {
    "service_request": "2024-1122659",
    "request_type": "Trash/Recycling",
    "request_reason": "Order Trash Cart",
    "date_created": "2024-08-17T08:49:13.000",
    "date_modified": "2024-08-17T08:49:14.000",
    "request_status": "Pending",
    "responsible_agency": "Department of Sanitation",
    "final_address": "5938 General Diaz St",
    "address_councildis": "A",
    "status": "Assigned to Contractor",
    "contractor": "IV Waste",
    "rowid": "1122659",
    "final_x": "3669376.04474",
    "final_y": "546829.206161",
    "longitude": "-90.1058356578864",
    "latitude": "29.997953375688404",
    "geocoded_column": {
      "latitude": "29.997953375688404",
      "longitude": "-90.1058356578864"
    }
  },
  {
    "service_request": "2024-1122658",
    "request_type": "Abandoned Vehicles",
    "request_reason": "Abandoned/Junk Vehicles",
    "date_created": "2024-08-17T08:48:08.000",
    "date_modified": "2024-08-17T08:48:08.000",
    "request_status": "Pending",
    "responsible_agency": "Department of Public Works",
    "final_address": "1035 Valence St",
    "address_councildis": "B",
    "status": "Pending",
    "rowid": "1122658",
    "final_x": "3669932.99617",
    "final_y": "519349.235255",
    "longitude": "-90.10500683238266",
    "latitude": "29.922376149001458",
    "geocoded_column": {
      "latitude": "29.922376149001458",
      "longitude": "-90.10500683238266"
    }
  },
  {
    "service_request": "2024-1122657",
    "request_type": "Trash/Recycling",
    "request_reason": "Request a Large Item Pick Up",
    "date_created": "2024-08-17T08:47:56.000",
    "date_modified": "2024-08-17T08:47:57.000",
    "request_status": "Pending",
    "responsible_agency": "Department of Sanitation",
    "final_address": "619 Delaronde St",
    "address_councildis": "C",
    "status": "Assigned to Contractor",
    "contractor": "Richards Disposal",
    "rowid": "1122657",
    "final_x": "3687380.27702",
    "final_y": "531160.215362",
    "longitude": "-90.0495152991906",
    "latitude": "29.9543265494668",
    "geocoded_column": {
      "latitude": "29.9543265494668",
      "longitude": "-90.0495152991906"
    }
  },
  {
    "service_request": "2024-1122656",
    "request_type": "Trash/Recycling",
    "request_reason": "Order Trash Cart",
    "date_created": "2024-08-17T08:18:04.000",
    "date_modified": "2024-08-17T08:18:05.000",
    "request_status": "Pending",
    "responsible_agency": "Department of Sanitation",
    "final_address": "2833 Broadway St",
    "address_councildis": "B",
    "status": "Assigned to Contractor",
    "contractor": "IV Waste",
    "rowid": "1122656",
    "final_x": "3667491.62714",
    "final_y": "531488.440387",
    "longitude": "-90.11230493612187",
    "latitude": "29.95582679749605",
    "geocoded_column": {
      "latitude": "29.95582679749605",
      "longitude": "-90.11230493612187"
    }
  },
  {
    "service_request": "2024-1122655",
    "request_type": "Abandoned Vehicles",
    "request_reason": "Vehicle Blocking Your Driveway",
    "date_created": "2024-08-17T08:12:46.000",
    "date_modified": "2024-08-17T08:12:46.000",
    "request_status": "Pending",
    "responsible_agency": "Department of Public Works",
    "final_address": "7445 Beau St",
    "address_councildis": "E",
    "status": "Pending",
    "rowid": "1122655",
    "final_x": "3695505.04957",
    "final_y": "558175.840923",
    "longitude": "-90.02288503468131",
    "latitude": "30.02835684142123",
    "geocoded_column": {
      "latitude": "30.02835684142123",
      "longitude": "-90.02288503468131"
    }
  },
  {
    "service_request": "2024-1122654",
    "request_type": "Property Maintenance",
    "request_reason": "Property Maintenance",
    "date_created": "2024-08-17T08:06:17.000",
    "date_modified": "2024-08-17T08:06:17.000",
    "request_status": "Pending",
    "responsible_agency": "Department of Code Enforcement",
    "final_address": "5801 Read Blvd",
    "address_councildis": "E",
    "status": "Pending",
    "rowid": "1122654",
    "final_x": "3711130.32971",
    "final_y": "560962.831134",
    "longitude": "-89.97340595179783",
    "latitude": "30.035519345897097",
    "geocoded_column": {
      "latitude": "30.035519345897097",
      "longitude": "-89.97340595179783"
    }
  },
  {
    "service_request": "2024-1122653",
    "request_type": "Property Maintenance",
    "request_reason": "Property Maintenance",
    "date_created": "2024-08-17T07:49:14.000",
    "date_modified": "2024-08-17T07:49:14.000",
    "request_status": "Pending",
    "responsible_agency": "Department of Code Enforcement",
    "final_address": "451 Girod St",
    "address_councildis": "B",
    "status": "Pending",
    "rowid": "1122653",
    "final_x": "3681490.07023",
    "final_y": "528351.315712",
    "longitude": "-90.06821214745557",
    "latitude": "29.946783171653692",
    "geocoded_column": {
      "latitude": "29.946783171653692",
      "longitude": "-90.06821214745557"
    }
  },
  {
    "service_request": "2024-1122652",
    "request_type": "Trash/Recycling",
    "request_reason": "Request a Large Item Pick Up",
    "date_created": "2024-08-17T07:43:07.000",
    "date_modified": "2024-08-17T07:43:08.000",
    "request_status": "Pending",
    "responsible_agency": "Department of Sanitation",
    "final_address": "3820 Coliseum St",
    "address_councildis": "B",
    "status": "Assigned to Contractor",
    "contractor": "IV Waste",
    "rowid": "1122652",
    "final_x": "3672963.97352",
    "final_y": "519944.631928",
    "longitude": "-90.09541895020499",
    "latitude": "29.923923609682497",
    "geocoded_column": {
      "latitude": "29.923923609682497",
      "longitude": "-90.09541895020499"
    }
  },
  {
    "service_request": "2024-1122651",
    "request_type": "Abandoned Vehicles",
    "request_reason": "Abandoned/Junk Vehicles",
    "date_created": "2024-08-17T07:24:19.000",
    "date_modified": "2024-08-17T07:24:19.000",
    "request_status": "Pending",
    "responsible_agency": "Department of Public Works",
    "final_address": "3132 Laurel St",
    "address_councildis": "B",
    "status": "Pending",
    "rowid": "1122651",
    "final_x": "3676313.03016",
    "final_y": "519430.193975",
    "longitude": "-90.08486486406078",
    "latitude": "29.922409158624724",
    "geocoded_column": {
      "latitude": "29.922409158624724",
      "longitude": "-90.08486486406078"
    }
  },
  {
    "service_request": "2024-1122650",
    "request_type": "Utility Poles",
    "request_reason": "Utility Pole Leaning",
    "date_created": "2024-08-17T06:50:23.000",
    "date_modified": "2024-08-17T06:50:28.000",
    "request_status": "Pending",
    "responsible_agency": "Utility Company Collective",
    "final_address": "8228 Nelson St",
    "address_councildis": "A",
    "status": "Pending",
    "rowid": "1122650",
    "final_x": "3664642.29312",
    "final_y": "532227.221315",
    "longitude": "-90.12127749944614",
    "latitude": "29.957941384916627",
    "geocoded_column": {
      "latitude": "29.957941384916627",
      "longitude": "-90.12127749944614"
    }
  },
  {
    "service_request": "2024-1122647",
    "request_type": "Traffic Signals/Signs/Striping/Streetlights",
    "request_reason": "Street Light Outage/Malfunction",
    "date_created": "2024-08-17T02:59:36.000",
    "date_modified": "2024-08-17T02:59:37.000",
    "request_status": "Pending",
    "responsible_agency": "Department of Public Works",
    "final_address": "7001 Lawrence Rd",
    "address_councildis": "E",
    "status": "Assigned to Contractor",
    "contractor": "Legacy Professional Services",
    "rowid": "1122647",
    "final_x": "3704372.84279",
    "final_y": "559124.69238",
    "longitude": "-89.99482847374347",
    "latitude": "30.03068397272477",
    "geocoded_column": {
      "latitude": "30.03068397272477",
      "longitude": "-89.99482847374347"
    }
  },
  {
    "service_request": "2024-1122646",
    "request_type": "Traffic Signals/Signs/Striping/Streetlights",
    "request_reason": "Street Light Outage/Malfunction",
    "date_created": "2024-08-17T02:38:50.000",
    "date_modified": "2024-08-17T02:38:51.000",
    "request_status": "Pending",
    "responsible_agency": "Department of Public Works",
    "final_address": "7001 Lawrence Rd",
    "address_councildis": "E",
    "status": "Assigned to Contractor",
    "contractor": "Legacy Professional Services",
    "rowid": "1122646",
    "final_x": "3704372.84279",
    "final_y": "559124.69238",
    "longitude": "-89.99482847374347",
    "latitude": "30.03068397272477",
    "geocoded_column": {
      "latitude": "30.03068397272477",
      "longitude": "-89.99482847374347"
    }
  },
  {
    "service_request": "2024-1122645",
    "request_type": "Healthy Homes",
    "request_reason": "Healthy Homes",
    "date_created": "2024-08-17T02:32:21.000",
    "date_modified": "2024-08-17T02:32:21.000",
    "request_status": "Pending",
    "responsible_agency": "Department of Code Enforcement",
    "final_address": "3101 Rue Parc Fontaine Apt 1402",
    "address_councildis": "C",
    "status": "Pending",
    "rowid": "1122645",
    "final_x": "3699878.59812",
    "final_y": "519751.608888",
    "longitude": "-90.01046670746402",
    "latitude": "29.922565894261304",
    "geocoded_column": {
      "latitude": "29.922565894261304",
      "longitude": "-90.01046670746402"
    }
  },
  {
    "service_request": "2024-1122644",
    "request_type": "Traffic Signals/Signs/Striping/Streetlights",
    "request_reason": "Street Light Outage/Malfunction",
    "date_created": "2024-08-17T01:04:05.000",
    "date_modified": "2024-08-17T01:04:07.000",
    "request_status": "Pending",
    "responsible_agency": "Department of Public Works",
    "final_address": "3002 St Philip St",
    "address_councildis": "A",
    "status": "Assigned to Contractor",
    "contractor": "Legacy Professional Services",
    "rowid": "1122644",
    "final_x": "3676362.67329",
    "final_y": "538601.575369",
    "longitude": "-90.08404836502447",
    "latitude": "29.975122598515206",
    "geocoded_column": {
      "latitude": "29.975122598515206",
      "longitude": "-90.08404836502447"
    }
  },
  {
    "service_request": "2024-1122643",
    "request_type": "Trash/Recycling",
    "request_reason": "Order Recycling Cart",
    "date_created": "2024-08-17T00:09:16.000",
    "date_modified": "2024-08-17T00:09:16.000",
    "request_status": "Pending",
    "responsible_agency": "Department of Sanitation",
    "final_address": "1432 Melpomene St",
    "address_councildis": "B",
    "status": "Pending",
    "rowid": "1122643",
    "final_x": "3679746.93979",
    "final_y": "525137.478333",
    "longitude": "-90.07382738280693",
    "latitude": "29.937998992680267",
    "geocoded_column": {
      "latitude": "29.937998992680267",
      "longitude": "-90.07382738280693"
    }
  },
  {
    "service_request": "2024-1122642",
    "request_type": "Trash/Recycling",
    "request_reason": "Order Trash Cart",
    "date_created": "2024-08-17T00:08:18.000",
    "date_modified": "2024-08-17T00:08:19.000",
    "request_status": "Pending",
    "responsible_agency": "Department of Sanitation",
    "final_address": "1432 Melpomene St",
    "address_councildis": "B",
    "status": "Assigned to Contractor",
    "contractor": "IV Waste",
    "rowid": "1122642",
    "final_x": "3679746.93979",
    "final_y": "525137.478333",
    "longitude": "-90.07382738280693",
    "latitude": "29.937998992680267",
    "geocoded_column": {
      "latitude": "29.937998992680267",
      "longitude": "-90.07382738280693"
    }
  },
  {
    "service_request": "2024-1122641",
    "request_type": "Trash/Recycling",
    "request_reason": "Missed Trash Pick-Up",
    "date_created": "2024-08-16T22:22:27.000",
    "date_modified": "2024-08-17T09:20:00.000",
    "case_close_date": "2024-08-17T04:20:00.000",
    "request_status": "Closed",
    "responsible_agency": "Department of Sanitation",
    "final_address": "2027 Magazine St",
    "address_councildis": "B",
    "status": "Invalid Request",
    "contractor": "Richards Disposal",
    "rowid": "1122641",
    "final_x": "3679310.35515",
    "final_y": "522479.747002",
    "longitude": "-90.0752978408151",
    "latitude": "29.930704295081117",
    "geocoded_column": {
      "latitude": "29.930704295081117",
      "longitude": "-90.0752978408151"
    }
  },
  {
    "service_request": "2024-1122640",
    "request_type": "Trash/Recycling",
    "request_reason": "Order Recycling Cart",
    "date_created": "2024-08-16T22:19:22.000",
    "date_modified": "2024-08-16T22:19:22.000",
    "request_status": "Pending",
    "responsible_agency": "Department of Sanitation",
    "final_address": "8131 Belfast St",
    "address_councildis": "A",
    "status": "Pending",
    "rowid": "1122640",
    "final_x": "3665454.08288",
    "final_y": "532552.131076",
    "longitude": "-90.11870321072531",
    "latitude": "29.958811144126223",
    "geocoded_column": {
      "latitude": "29.958811144126223",
      "longitude": "-90.11870321072531"
    }
  },
  {
    "service_request": "2024-1122638",
    "request_type": "Trash/Recycling",
    "request_reason": "Missed Trash Pick-Up",
    "date_created": "2024-08-16T22:11:13.000",
    "date_modified": "2024-08-17T07:50:58.000",
    "case_close_date": "2024-08-17T02:50:58.000",
    "request_status": "Closed",
    "responsible_agency": "Department of Sanitation",
    "final_address": "2027 Magazine St",
    "address_councildis": "B",
    "status": "Duplicate Request",
    "contractor": "IV Waste",
    "contractor_action": "Duplicate",
    "rowid": "1122638",
    "final_x": "3679310.35515",
    "final_y": "522479.747002",
    "longitude": "-90.0752978408151",
    "latitude": "29.930704295081117",
    "geocoded_column": {
      "latitude": "29.930704295081117",
      "longitude": "-90.0752978408151"
    }
  },
  {
    "service_request": "2024-1122637",
    "request_type": "Trash/Recycling",
    "request_reason": "Missed Trash Pick-Up",
    "date_created": "2024-08-16T21:53:51.000",
    "date_modified": "2024-08-17T07:51:41.000",
    "case_close_date": "2024-08-17T02:51:41.000",
    "request_status": "Closed",
    "responsible_agency": "Department of Sanitation",
    "final_address": "2027 Magazine St",
    "address_councildis": "B",
    "status": "Duplicate Request",
    "contractor": "IV Waste",
    "contractor_action": "Duplicate",
    "rowid": "1122637",
    "final_x": "3679310.35515",
    "final_y": "522479.747002",
    "longitude": "-90.0752978408151",
    "latitude": "29.930704295081117",
    "geocoded_column": {
      "latitude": "29.930704295081117",
      "longitude": "-90.0752978408151"
    }
  },
  {
    "service_request": "2024-1122636",
    "request_type": "Trash/Recycling",
    "request_reason": "Missed Trash Pick-Up",
    "date_created": "2024-08-16T21:39:41.000",
    "date_modified": "2024-08-17T08:48:52.000",
    "case_close_date": "2024-08-17T03:48:52.000",
    "request_status": "Closed",
    "responsible_agency": "Department of Sanitation",
    "final_address": "7330 S Claiborne Ave",
    "address_councildis": "A",
    "status": "Assigned to Contractor",
    "contractor": "IV Waste",
    "contractor_action": "Invalid Request",
    "rowid": "1122636",
    "final_x": "3666048.00474",
    "final_y": "530244.128577",
    "longitude": "-90.11690512033951",
    "latitude": "29.952447566063064",
    "geocoded_column": {
      "latitude": "29.952447566063064",
      "longitude": "-90.11690512033951"
    }
  },
  {
    "service_request": "2024-1122635",
    "request_type": "Abandoned Vehicles",
    "request_reason": "Abandoned/Junk Vehicles",
    "date_created": "2024-08-16T21:30:07.000",
    "date_modified": "2024-08-16T21:30:07.000",
    "request_status": "Pending",
    "responsible_agency": "Department of Public Works",
    "final_address": "4100 BLK Bienville Ave",
    "address_councildis": "A",
    "status": "Pending",
    "rowid": "1122635",
    "final_x": "3671202.79207",
    "final_y": "539228.179533",
    "longitude": "-90.10032336064336",
    "latitude": "29.976999226458492",
    "geocoded_column": {
      "latitude": "29.976999226458492",
      "longitude": "-90.10032336064336"
    }
  },
  {
    "service_request": "2024-1122634",
    "request_type": "Roads/Drainage",
    "request_reason": "Street Subsidence (Sinking)",
    "date_created": "2024-08-16T21:29:10.000",
    "date_modified": "2024-08-16T21:29:10.000",
    "request_status": "Pending",
    "responsible_agency": "Department of Public Works",
    "final_address": "210 N Galvez St",
    "address_councildis": "B",
    "status": "Pending",
    "rowid": "1122634",
    "final_x": "3677367.17429",
    "final_y": "534264.962501",
    "longitude": "-90.08102557439308",
    "latitude": "29.963168239618692",
    "geocoded_column": {
      "latitude": "29.963168239618692",
      "longitude": "-90.08102557439308"
    }
  },
  {
    "service_request": "2024-1122633",
    "request_type": "Abandoned Vehicles",
    "request_reason": "Abandoned/Junk Vehicles",
    "date_created": "2024-08-16T21:28:52.000",
    "date_modified": "2024-08-16T21:28:52.000",
    "request_status": "Pending",
    "responsible_agency": "Department of Public Works",
    "final_address": "4100 BLK Bienville Ave",
    "address_councildis": "A",
    "status": "Pending",
    "rowid": "1122633",
    "final_x": "3671202.79207",
    "final_y": "539228.179533",
    "longitude": "-90.10032336064336",
    "latitude": "29.976999226458492",
    "geocoded_column": {
      "latitude": "29.976999226458492",
      "longitude": "-90.10032336064336"
    }
  },
  {
    "service_request": "2024-1122632",
    "request_type": "Traffic Signals/Signs/Striping/Streetlights",
    "request_reason": "Request for Stop Sign",
    "date_created": "2024-08-16T21:22:31.000",
    "date_modified": "2024-08-16T21:22:31.000",
    "request_status": "Pending",
    "responsible_agency": "Department of Public Works",
    "final_address": "439 Dauphine St",
    "address_councildis": "C",
    "status": "Pending",
    "rowid": "1122632",
    "final_x": "3681487.5133",
    "final_y": "532292.099011",
    "longitude": "-90.06808282922539",
    "latitude": "29.957619072088168",
    "geocoded_column": {
      "latitude": "29.957619072088168",
      "longitude": "-90.06808282922539"
    }
  },
  {
    "service_request": "2024-1122631",
    "request_type": "Trash/Recycling",
    "request_reason": "Repair Trash Cart",
    "date_created": "2024-08-16T20:57:22.000",
    "date_modified": "2024-08-16T20:57:23.000",
    "request_status": "Pending",
    "responsible_agency": "Department of Sanitation",
    "final_address": "522 Burgundy St",
    "address_councildis": "C",
    "status": "Assigned to Contractor",
    "contractor": "Empire Services",
    "rowid": "1122631",
    "final_x": "3681395.27394",
    "final_y": "532641.538948",
    "longitude": "-90.06836191241045",
    "latitude": "29.95858271336377",
    "geocoded_column": {
      "latitude": "29.95858271336377",
      "longitude": "-90.06836191241045"
    }
  },
  {
    "service_request": "2024-1122630",
    "request_type": "Abandoned Vehicles",
    "request_reason": "Vehicle Blocking Your Driveway",
    "date_created": "2024-08-16T20:46:30.000",
    "date_modified": "2024-08-16T20:46:30.000",
    "request_status": "Pending",
    "responsible_agency": "Department of Public Works",
    "final_address": "2741 Orleans Ave, New Orleans, Louisiana, 70119",
    "address_councildis": "A",
    "status": "Pending",
    "rowid": "1122630",
    "final_x": "3676523.06945",
    "final_y": "537348.57588",
    "longitude": "-90.08358495326227",
    "latitude": "29.97167246889072",
    "geocoded_column": {
      "latitude": "29.97167246889072",
      "longitude": "-90.08358495326227"
    }
  },
  {
    "service_request": "2024-1122629",
    "request_type": "Trash/Recycling",
    "request_reason": "Request a Large Item Pick Up",
    "date_created": "2024-08-16T20:36:18.000",
    "date_modified": "2024-08-16T20:36:19.000",
    "request_status": "Pending",
    "responsible_agency": "Department of Sanitation",
    "final_address": "7231 Ridgefield Dr",
    "address_councildis": "E",
    "status": "Assigned to Contractor",
    "contractor": "Waste Pro",
    "rowid": "1122629",
    "final_x": "3718839.14834",
    "final_y": "570456.635559",
    "longitude": "-89.94868250354513",
    "latitude": "30.061369586278303",
    "geocoded_column": {
      "latitude": "30.061369586278303",
      "longitude": "-89.94868250354513"
    }
  },
  {
    "service_request": "2024-1122628",
    "request_type": "Roads/Drainage",
    "request_reason": "Street Flooding / Drainage",
    "date_created": "2024-08-16T20:12:06.000",
    "date_modified": "2024-08-16T20:12:06.000",
    "request_status": "Pending",
    "responsible_agency": "Department of Public Works",
    "final_address": "3000 BLK Monroe St",
    "address_councildis": "A",
    "status": "Pending",
    "rowid": "1122628",
    "final_x": "3664846.50656",
    "final_y": "534702.970736",
    "longitude": "-90.12054990379282",
    "latitude": "29.96474294329171",
    "geocoded_column": {
      "latitude": "29.96474294329171",
      "longitude": "-90.12054990379282"
    }
  },
  {
    "service_request": "2024-1122627",
    "request_type": "Trash/Recycling",
    "request_reason": "Order Recycling Cart",
    "date_created": "2024-08-16T19:01:11.000",
    "date_modified": "2024-08-16T19:01:11.000",
    "request_status": "Pending",
    "responsible_agency": "Department of Sanitation",
    "final_address": "714 Alvar St",
    "address_councildis": "C",
    "status": "Pending",
    "rowid": "1122627",
    "final_x": "3691117.52809",
    "final_y": "534021.902853",
    "longitude": "-90.0376124074633",
    "latitude": "29.962079528462144",
    "geocoded_column": {
      "latitude": "29.962079528462144",
      "longitude": "-90.0376124074633"
    }
  },
  {
    "service_request": "2024-1122625",
    "request_type": "Trash/Recycling",
    "request_reason": "Replace Recycling Cart",
    "date_created": "2024-08-16T18:32:54.000",
    "date_modified": "2024-08-16T18:32:54.000",
    "request_status": "Pending",
    "responsible_agency": "Department of Sanitation",
    "final_address": "4728 Raymond Joseph Dr",
    "address_councildis": "E",
    "status": "Pending",
    "rowid": "1122625",
    "final_x": "3703639.5562",
    "final_y": "555270.523161",
    "longitude": "-89.99728766623153",
    "latitude": "30.020110031372155",
    "geocoded_column": {
      "latitude": "30.020110031372155",
      "longitude": "-89.99728766623153"
    }
  },
  {
    "service_request": "2024-1122624",
    "request_type": "Trash/Recycling",
    "request_reason": "MIssed Recycling Pick-Up",
    "date_created": "2024-08-16T18:31:05.000",
    "date_modified": "2024-08-16T18:31:06.000",
    "request_status": "Pending",
    "responsible_agency": "Department of Sanitation",
    "final_address": "4728 Raymond Joseph Dr",
    "address_councildis": "E",
    "status": "Assigned to Contractor",
    "contractor": "Waste Pro",
    "rowid": "1122624",
    "final_x": "3703639.5562",
    "final_y": "555270.523161",
    "longitude": "-89.99728766623153",
    "latitude": "30.020110031372155",
    "geocoded_column": {
      "latitude": "30.020110031372155",
      "longitude": "-89.99728766623153"
    }
  },
  {
    "service_request": "2024-1122623",
    "request_type": "Trash/Recycling",
    "request_reason": "Replace Trash Cart",
    "date_created": "2024-08-16T18:16:49.000",
    "date_modified": "2024-08-16T18:16:50.000",
    "request_status": "Pending",
    "responsible_agency": "Department of Sanitation",
    "final_address": "3640 Clematis St",
    "address_councildis": "D",
    "status": "Assigned to Contractor",
    "contractor": "IV Waste",
    "rowid": "1122623",
    "final_x": "3686164.35382",
    "final_y": "546346.65352",
    "longitude": "-90.05281880615448",
    "latitude": "29.996121330689036",
    "geocoded_column": {
      "latitude": "29.996121330689036",
      "longitude": "-90.05281880615448"
    }
  },
  {
    "service_request": "2024-1122622",
    "request_type": "Property Maintenance",
    "request_reason": "Property Maintenance",
    "date_created": "2024-08-16T17:09:30.000",
    "date_modified": "2024-08-16T17:09:30.000",
    "request_status": "Pending",
    "responsible_agency": "Department of Code Enforcement",
    "final_address": "6912 Foch Rd",
    "address_councildis": "D",
    "status": "Pending",
    "rowid": "1122622",
    "final_x": "3696550.90307",
    "final_y": "556376.64809",
    "longitude": "-90.01964539234154",
    "latitude": "30.023376816877857",
    "geocoded_column": {
      "latitude": "30.023376816877857",
      "longitude": "-90.01964539234154"
    }
  },
  {
    "service_request": "2024-1122621",
    "request_type": "Traffic Signals/Signs/Striping/Streetlights",
    "request_reason": "Street Light Outage/Malfunction",
    "date_created": "2024-08-16T17:02:12.000",
    "date_modified": "2024-08-16T17:02:12.000",
    "request_status": "Pending",
    "responsible_agency": "Department of Public Works",
    "final_address": "2327 Bristol Pl",
    "address_councildis": "C",
    "status": "Assigned to Contractor",
    "contractor": "Legacy Professional Services",
    "rowid": "1122621",
    "final_x": "3702601.76612",
    "final_y": "522378.52057",
    "longitude": "-90.00177446192671",
    "latitude": "29.929702264495475",
    "geocoded_column": {
      "latitude": "29.929702264495475",
      "longitude": "-90.00177446192671"
    }
  },
  {
    "service_request": "2024-1122620",
    "request_type": "Trash/Recycling",
    "request_reason": "Return Trash Cart",
    "date_created": "2024-08-16T16:54:26.000",
    "date_modified": "2024-08-16T16:54:26.000",
    "request_status": "Pending",
    "responsible_agency": "Department of Sanitation",
    "final_address": "920 Louisiana Ave",
    "address_councildis": "B",
    "status": "Assigned to Contractor",
    "contractor": "IV Waste",
    "rowid": "1122620",
    "final_x": "3675089.26792",
    "final_y": "519052.529399",
    "longitude": "-90.08874073736297",
    "latitude": "29.921407309027554",
    "geocoded_column": {
      "latitude": "29.921407309027554",
      "longitude": "-90.08874073736297"
    }
  },
  {
    "service_request": "2024-1122619",
    "request_type": "Abandoned Vehicles",
    "request_reason": "Abandoned/Junk Vehicles",
    "date_created": "2024-08-16T16:52:39.000",
    "date_modified": "2024-08-16T16:52:39.000",
    "request_status": "Pending",
    "responsible_agency": "Department of Public Works",
    "final_address": "720 Henry Clay Ave",
    "address_councildis": "A",
    "status": "Pending",
    "rowid": "1122619",
    "final_x": "3663630.45805",
    "final_y": "519460.588343",
    "longitude": "-90.1248977607248",
    "latitude": "29.922866605658186",
    "geocoded_column": {
      "latitude": "29.922866605658186",
      "longitude": "-90.1248977607248"
    }
  },
  {
    "service_request": "2024-1122618",
    "request_type": "Abandoned Vehicles",
    "request_reason": "Abandoned/Junk Vehicles",
    "date_created": "2024-08-16T16:51:41.000",
    "date_modified": "2024-08-16T16:51:41.000",
    "request_status": "Pending",
    "responsible_agency": "Department of Public Works",
    "final_address": "720 Henry Clay Ave",
    "address_councildis": "A",
    "status": "Pending",
    "rowid": "1122618",
    "final_x": "3663630.45805",
    "final_y": "519460.588343",
    "longitude": "-90.1248977607248",
    "latitude": "29.922866605658186",
    "geocoded_column": {
      "latitude": "29.922866605658186",
      "longitude": "-90.1248977607248"
    }
  },
  {
    "service_request": "2024-1122617",
    "request_type": "Property Maintenance",
    "request_reason": "Property Maintenance",
    "date_created": "2024-08-16T16:49:27.000",
    "date_modified": "2024-08-16T16:49:28.000",
    "request_status": "Pending",
    "responsible_agency": "Department of Code Enforcement",
    "final_address": "4515 Lonely Oak Dr",
    "address_councildis": "E",
    "status": "Pending",
    "rowid": "1122617",
    "final_x": "3702479.28893",
    "final_y": "553407.791255",
    "longitude": "-90.00102215400052",
    "latitude": "30.015025378998065",
    "geocoded_column": {
      "latitude": "30.015025378998065",
      "longitude": "-90.00102215400052"
    }
  },
  {
    "service_request": "2024-1122616",
    "request_type": "Trash/Recycling",
    "request_reason": "Request a Large Item Pick Up",
    "date_created": "2024-08-16T16:43:18.000",
    "date_modified": "2024-08-16T16:43:19.000",
    "request_status": "Pending",
    "responsible_agency": "Department of Sanitation",
    "final_address": "7095 Edgefield Dr",
    "address_councildis": "E",
    "status": "Assigned to Contractor",
    "contractor": "Waste Pro",
    "rowid": "1122616",
    "final_x": "3718586.25023",
    "final_y": "569528.63703",
    "longitude": "-89.94951732889695",
    "latitude": "30.05882637719464",
    "geocoded_column": {
      "latitude": "30.05882637719464",
      "longitude": "-89.94951732889695"
    }
  },
  {
    "service_request": "2024-1122615",
    "request_type": "Trash/Recycling",
    "request_reason": "Repair Trash Cart",
    "date_created": "2024-08-16T16:36:48.000",
    "date_modified": "2024-08-16T16:36:48.000",
    "request_status": "Pending",
    "responsible_agency": "Department of Sanitation",
    "final_address": "13610 N Lemans St",
    "address_councildis": "E",
    "status": "Assigned to Contractor",
    "contractor": "Waste Pro",
    "rowid": "1122615",
    "final_x": "3725917.40883",
    "final_y": "563163.437408",
    "longitude": "-89.92659153134662",
    "latitude": "30.04107925941976",
    "geocoded_column": {
      "latitude": "30.04107925941976",
      "longitude": "-89.92659153134662"
    }
  },
  {
    "service_request": "2024-1122614",
    "request_type": "Healthy Homes",
    "request_reason": "Healthy Homes",
    "date_created": "2024-08-16T16:33:01.000",
    "date_modified": "2024-08-16T16:36:11.000",
    "request_status": "Pending",
    "responsible_agency": "Department of Code Enforcement",
    "final_address": "13610 N Lemans St",
    "address_councildis": "E",
    "status": "Pending",
    "rowid": "1122614",
    "final_x": "3725917.40883",
    "final_y": "563163.437408",
    "longitude": "-89.92659153134662",
    "latitude": "30.04107925941976",
    "geocoded_column": {
      "latitude": "30.04107925941976",
      "longitude": "-89.92659153134662"
    }
  },
  {
    "service_request": "2024-1122613",
    "request_type": "Property Maintenance",
    "request_reason": "Property Maintenance",
    "date_created": "2024-08-16T16:32:03.000",
    "date_modified": "2024-08-16T16:32:04.000",
    "request_status": "Pending",
    "responsible_agency": "Department of Code Enforcement",
    "final_address": "3110 Music St",
    "address_councildis": "D",
    "status": "Pending",
    "rowid": "1122613",
    "final_x": "3686137.01967",
    "final_y": "544298.519759",
    "longitude": "-90.05297744681712",
    "latitude": "29.990490536142943",
    "geocoded_column": {
      "latitude": "29.990490536142943",
      "longitude": "-90.05297744681712"
    }
  },
  {
    "service_request": "2024-1122612",
    "request_type": "Trash/Recycling",
    "request_reason": "Illegal Dumping",
    "date_created": "2024-08-16T16:27:54.000",
    "date_modified": "2024-08-16T16:27:55.000",
    "request_status": "Pending",
    "responsible_agency": "Department of Sanitation",
    "final_address": "CAMBRONNE ST & S CLAIBORNE AVE",
    "address_councildis": "A",
    "status": "Pending",
    "rowid": "1122612",
    "final_x": "3664082.9",
    "final_y": "532298.48",
    "longitude": "-90.12304153598313",
    "latitude": "29.958153581526453",
    "geocoded_column": {
      "latitude": "29.958153581526453",
      "longitude": "-90.12304153598313"
    }
  },
  {
    "service_request": "2024-1122611",
    "request_type": "Trash/Recycling",
    "request_reason": "Order Recycling Cart",
    "date_created": "2024-08-16T16:27:14.000",
    "date_modified": "2024-08-16T16:27:15.000",
    "request_status": "Pending",
    "responsible_agency": "Department of Sanitation",
    "final_address": "14900 Curran Rd",
    "address_councildis": "E",
    "status": "Pending",
    "rowid": "1122611",
    "final_x": "3720594.05746",
    "final_y": "574060.945066",
    "longitude": "-89.94299707878325",
    "latitude": "30.07122149314436",
    "geocoded_column": {
      "latitude": "30.07122149314436",
      "longitude": "-89.94299707878325"
    }
  },
  {
    "service_request": "2024-1122610",
    "request_type": "Trash/Recycling",
    "request_reason": "Request a Large Item Pick Up",
    "date_created": "2024-08-16T16:26:57.000",
    "date_modified": "2024-08-16T16:26:58.000",
    "request_status": "Pending",
    "responsible_agency": "Department of Sanitation",
    "final_address": "2343 Tricou St",
    "address_councildis": "E",
    "status": "Assigned to Contractor",
    "contractor": "Waste Pro",
    "rowid": "1122610",
    "final_x": "3702026.61597",
    "final_y": "537632.2402",
    "longitude": "-90.00303104593442",
    "latitude": "29.971662944966116",
    "geocoded_column": {
      "latitude": "29.971662944966116",
      "longitude": "-90.00303104593442"
    }
  },
  {
    "service_request": "2024-1122609",
    "request_type": "Trash/Recycling",
    "request_reason": "Order Trash Cart",
    "date_created": "2024-08-16T16:26:52.000",
    "date_modified": "2024-08-16T16:26:53.000",
    "request_status": "Pending",
    "responsible_agency": "Department of Sanitation",
    "final_address": "14900 Curran Rd",
    "address_councildis": "E",
    "status": "Assigned to Contractor",
    "contractor": "Waste Pro",
    "rowid": "1122609",
    "final_x": "3720594.05746",
    "final_y": "574060.945066",
    "longitude": "-89.94299707878325",
    "latitude": "30.07122149314436",
    "geocoded_column": {
      "latitude": "30.07122149314436",
      "longitude": "-89.94299707878325"
    }
  },
  {
    "service_request": "2024-1122608",
    "request_type": "Trash/Recycling",
    "request_reason": "Illegal Dumping",
    "date_created": "2024-08-16T16:26:49.000",
    "date_modified": "2024-08-16T16:26:50.000",
    "request_status": "Pending",
    "responsible_agency": "Department of Sanitation",
    "final_address": "2118 Terpsichore St",
    "address_councildis": "B",
    "status": "Pending",
    "rowid": "1122608",
    "final_x": "3676964.05531",
    "final_y": "526545.106302",
    "longitude": "-90.08256468586049",
    "latitude": "29.941953323249283",
    "geocoded_column": {
      "latitude": "29.941953323249283",
      "longitude": "-90.08256468586049"
    }
  },
  {
    "service_request": "2024-1122607",
    "request_type": "Trash/Recycling",
    "request_reason": "Missed Trash Pick-Up",
    "date_created": "2024-08-16T16:24:48.000",
    "date_modified": "2024-08-16T16:24:49.000",
    "request_status": "Pending",
    "responsible_agency": "Department of Sanitation",
    "final_address": "2343 Tricou St",
    "address_councildis": "E",
    "status": "Assigned to Contractor",
    "contractor": "Waste Pro",
    "rowid": "1122607",
    "final_x": "3702026.61597",
    "final_y": "537632.2402",
    "longitude": "-90.00303104593442",
    "latitude": "29.971662944966116",
    "geocoded_column": {
      "latitude": "29.971662944966116",
      "longitude": "-90.00303104593442"
    }
  },