[
  {
    "service_request": "2024-1068129",
    "request_type": "Trash/Recycling",
    "request_reason": "Missed Trash Pick-Up",
    "date_created": "2024-02-15T23:31:30.000",
    "date_modified": "2024-02-15T23:31:31.000",
    "request_status": "Pending",
    "responsible_agency": "Department of Sanitation",
    "final_address": "950 Felicity St",
    "address_councildis": "B",
    "status": "Assigned to Contractor",
    "contractor": "Richards Disposal",
    "rowid": "1068129",
    "final_x": "3680205.53794",
    "final_y": "522775.031418",
    "longitude": "-90.07246162129708",
    "latitude": "29.931489175026222",
    "geocoded_column": {
      "latitude": "29.931489175026222",
      "longitude": "-90.07246162129708"
    }
  },
  {
    "service_request": "2024-1068128",
    "request_type": "Abandoned Vehicles",
    "request_reason": "Abandoned/Junk Vehicles",
    "date_created": "2024-02-15T23:13:14.000",
    "date_modified": "2024-02-15T23:13:14.000",
    "request_status": "Pending",
    "responsible_agency": "Department of Public Works",
    "final_address": "1212 Columbus St",
    "address_councildis": "C",
    "status": "Pending",
    "rowid": "1068128",
    "final_x": "3682892.59407",
    "final_y": "536073.404167",
    "longitude": "-90.06351367897842",
    "latitude": "29.96797362805826",
    "geocoded_column": {
      "latitude": "29.96797362805826",
      "longitude": "-90.06351367897842"
    }
  },
  {
    "service_request": "2024-1068127",
    "request_type": "Trash/Recycling",
    "request_reason": "Missed Trash Pick-Up",
    "date_created": "2024-02-15T22:57:32.000",
    "date_modified": "2024-02-15T22:57:32.000",
    "request_status": "Pending",
    "responsible_agency": "Department of Sanitation",
    "final_address": "1422 Bourbon St",
    "address_councildis": "C",
    "status": "Assigned to Contractor",
    "contractor": "IV Waste",
    "rowid": "1068127",
    "final_x": "3683879.91881",
    "final_y": "534851.440966",
    "longitude": "-90.06043854653018",
    "latitude": "29.96458352876481",
    "geocoded_column": {
      "latitude": "29.96458352876481",
      "longitude": "-90.06043854653018"
    }
  },
  {
    "service_request": "2024-1068126",
    "request_type": "Trash/Recycling",
    "request_reason": "Missed Trash Pick-Up",
    "date_created": "2024-02-15T22:32:44.000",
    "date_modified": "2024-02-15T22:32:44.000",
    "request_status": "Pending",
    "responsible_agency": "Department of Sanitation",
    "final_address": "221 Roselyn Park Pl",
    "address_councildis": "C",
    "status": "Assigned to Contractor",
    "contractor": "Richards Disposal",
    "rowid": "1068126",
    "final_x": "3702582.90212",
    "final_y": "523430.505403",
    "longitude": "-90.00179542063151",
    "latitude": "29.932595459347006",
    "geocoded_column": {
      "latitude": "29.932595459347006",
      "longitude": "-90.00179542063151"
    }
  },
  {
    "service_request": "2024-1068125",
    "request_type": "Roads/Drainage",
    "request_reason": "Pothole",
    "date_created": "2024-02-15T22:14:02.000",
    "date_modified": "2024-02-15T22:14:02.000",
    "request_status": "Pending",
    "responsible_agency": "Department of Public Works",
    "final_address": "6060 Chestnut St",
    "address_councildis": "A",
    "status": "Pending",
    "rowid": "1068125",
    "final_x": "3664493.20845",
    "final_y": "519950.4654",
    "longitude": "-90.12215803894134",
    "latitude": "29.924188567075998",
    "geocoded_column": {
      "latitude": "29.924188567075998",
      "longitude": "-90.12215803894134"
    }
  },
  {
    "service_request": "2024-1068124",
    "request_type": "Trash/Recycling",
    "request_reason": "Dead Animal Pick Up",
    "date_created": "2024-02-15T21:51:00.000",
    "date_modified": "2024-02-15T21:51:01.000",
    "request_status": "Pending",
    "responsible_agency": "Department of Sanitation",
    "final_address": "1111 Kentucky St",
    "address_councildis": "D",
    "status": "Assigned to Contractor",
    "contractor": "IV Waste",
    "rowid": "1068124",
    "final_x": "3693388.51229",
    "final_y": "535086.367942",
    "longitude": "-90.03040279285946",
    "latitude": "29.964935624853343",
    "geocoded_column": {
      "latitude": "29.964935624853343",
      "longitude": "-90.03040279285946"
    }
  },
  {
    "service_request": "2024-1068123",
    "request_type": "Trash/Recycling",
    "request_reason": "Missed Trash Pick-Up",
    "date_created": "2024-02-15T21:50:50.000",
    "date_modified": "2024-02-15T21:50:51.000",
    "request_status": "Pending",
    "responsible_agency": "Department of Sanitation",
    "final_address": "4733 Patterson St",
    "address_councildis": "C",
    "status": "Assigned to Contractor",
    "contractor": "Richards Disposal",
    "rowid": "1068123",
    "final_x": "3701585.47261",
    "final_y": "524809.38758",
    "longitude": "-90.00489373244972",
    "latitude": "29.93641873785952",
    "geocoded_column": {
      "latitude": "29.93641873785952",
      "longitude": "-90.00489373244972"
    }
  },
  {
    "service_request": "2024-1068121",
    "request_type": "Trash/Recycling",
    "request_reason": "Request a Large Item Pick Up",
    "date_created": "2024-02-15T21:06:14.000",
    "date_modified": "2024-02-15T21:06:15.000",
    "request_status": "Pending",
    "responsible_agency": "Department of Sanitation",
    "final_address": "3207 Bienville Ave",
    "address_councildis": "B",
    "status": "Assigned to Contractor",
    "contractor": "Richards Disposal",
    "rowid": "1068121",
    "final_x": "3674325.24129",
    "final_y": "536979.187336",
    "longitude": "-90.09053869145548",
    "latitude": "29.970722505628906",
    "geocoded_column": {
      "latitude": "29.970722505628906",
      "longitude": "-90.09053869145548"
    }
  },
  {
    "service_request": "2024-1068120",
    "request_type": "Roads/Drainage",
    "request_reason": "Pothole",
    "date_created": "2024-02-15T20:56:29.000",
    "date_modified": "2024-02-15T20:56:29.000",
    "request_status": "Pending",
    "responsible_agency": "Department of Public Works",
    "final_address": "6070 Chestnut St",
    "address_councildis": "A",
    "status": "Pending",
    "rowid": "1068120",
    "final_x": "3664412.78983",
    "final_y": "519991.592952",
    "longitude": "-90.12241052146828",
    "latitude": "29.92430399204139",
    "geocoded_column": {
      "latitude": "29.92430399204139",
      "longitude": "-90.12241052146828"
    }
  },
  {
    "service_request": "2024-1068119",
    "request_type": "Trash/Recycling",
    "request_reason": "MIssed Recycling Pick-Up",
    "date_created": "2024-02-15T20:53:42.000",
    "date_modified": "2024-02-15T20:53:43.000",
    "request_status": "Pending",
    "responsible_agency": "Department of Sanitation",
    "final_address": "6125 Constance St",
    "address_councildis": "A",
    "status": "Assigned to Contractor",
    "contractor": "Richards Disposal",
    "rowid": "1068119",
    "final_x": "3663877.94093",
    "final_y": "519203.851639",
    "longitude": "-90.1241251031427",
    "latitude": "29.922153480900363",
    "geocoded_column": {
      "latitude": "29.922153480900363",
      "longitude": "-90.1241251031427"
    }
  },
  {
    "service_request": "2024-1068118",
    "request_type": "Roads/Drainage",
    "request_reason": "Pothole",
    "date_created": "2024-02-15T20:49:53.000",
    "date_modified": "2024-02-15T20:49:53.000",
    "request_status": "Pending",
    "responsible_agency": "Department of Public Works",
    "final_address": "6030 Chestnut St",
    "address_councildis": "A",
    "status": "Pending",
    "rowid": "1068118",
    "final_x": "3664661.37773",
    "final_y": "519852.51884",
    "longitude": "-90.1216304547064",
    "latitude": "29.923914355909606",
    "geocoded_column": {
      "latitude": "29.923914355909606",
      "longitude": "-90.1216304547064"
    }
  },
  {
    "service_request": "2024-1068117",
    "request_type": "Health Related Request",
    "request_reason": "Noise Ordinance Complaint",
    "date_created": "2024-02-15T20:41:40.000",
    "date_modified": "2024-02-15T20:41:40.000",
    "request_status": "Pending",
    "responsible_agency": "Health Department",
    "final_address": "3651 Rue Denise, New Orleans, Louisiana, 70131",
    "address_councildis": "C",
    "status": "Pending",
    "rowid": "1068117",
    "final_x": "3704201.08542",
    "final_y": "517054.713141",
    "longitude": "-89.99692174591713",
    "latitude": "29.915012437581023",
    "geocoded_column": {
      "latitude": "29.915012437581023",
      "longitude": "-89.99692174591713"
    }
  },
  {
    "service_request": "2024-1068116",
    "request_type": "Trash/Recycling",
    "request_reason": "Missed Trash Pick-Up",
    "date_created": "2024-02-15T20:39:42.000",
    "date_modified": "2024-02-15T20:39:43.000",
    "request_status": "Pending",
    "responsible_agency": "Department of Sanitation",
    "final_address": "4917 N Claiborne Ave, New Orleans, Louisiana, 70117",
    "address_councildis": "E",
    "status": "Assigned to Contractor",
    "contractor": "Waste Pro",
    "rowid": "1068116",
    "final_x": "3696055.05878",
    "final_y": "536280.002119",
    "longitude": "-90.02193890627353",
    "latitude": "29.96813405197663",
    "geocoded_column": {
      "latitude": "29.96813405197663",
      "longitude": "-90.02193890627353"
    }
  },
  {
    "service_request": "2024-1068115",
    "request_type": "Trash/Recycling",
    "request_reason": "Missed Trash Pick-Up",
    "date_created": "2024-02-15T20:33:54.000",
    "date_modified": "2024-02-15T20:33:55.000",
    "request_status": "Pending",
    "responsible_agency": "Department of Sanitation",
    "final_address": "4917 N Claiborne Ave",
    "address_councildis": "E",
    "status": "Assigned to Contractor",
    "contractor": "Waste Pro",
    "rowid": "1068115",
    "final_x": "3696055.05878",
    "final_y": "536280.002119",
    "longitude": "-90.02193890627353",
    "latitude": "29.96813405197663",
    "geocoded_column": {
      "latitude": "29.96813405197663",
      "longitude": "-90.02193890627353"
    }
  },
  {
    "service_request": "2024-1068114",
    "request_type": "Health Related Request",
    "request_reason": "Noise Ordinance Complaint",
    "date_created": "2024-02-15T20:18:41.000",
    "date_modified": "2024-02-15T20:18:41.000",
    "request_status": "Pending",
    "responsible_agency": "Health Department",
    "final_address": "3651 Rue Denise, New Orleans, Louisiana, 70131",
    "address_councildis": "C",
    "status": "Pending",
    "rowid": "1068114",
    "final_x": "3704201.08542",
    "final_y": "517054.713141",
    "longitude": "-89.99692174591713",
    "latitude": "29.915012437581023",
    "geocoded_column": {
      "latitude": "29.915012437581023",
      "longitude": "-89.99692174591713"
    }
  },
  {
    "service_request": "2024-1068113",
    "request_type": "Trash/Recycling",
    "request_reason": "Missed Trash Pick-Up",
    "date_created": "2024-02-15T20:18:26.000",
    "date_modified": "2024-02-15T20:18:27.000",
    "request_status": "Pending",
    "responsible_agency": "Department of Sanitation",
    "final_address": "5101 Freret St",
    "address_councildis": "B",
    "status": "Assigned to Contractor",
    "contractor": "Richards Disposal",
    "rowid": "1068113",
    "final_x": "3668479.77153",
    "final_y": "523965.790204",
    "longitude": "-90.10943843192605",
    "latitude": "29.93511296060617",
    "geocoded_column": {
      "latitude": "29.93511296060617",
      "longitude": "-90.10943843192605"
    }
  },
  {
    "service_request": "2024-1068112",
    "request_type": "Property Maintenance",
    "request_reason": "Property Maintenance",
    "date_created": "2024-02-15T20:10:05.000",
    "date_modified": "2024-02-15T20:10:05.000",
    "request_status": "Pending",
    "responsible_agency": "Department of Code Enforcement",
    "final_address": "2510 Memorial Park Dr",
    "address_councildis": "C",
    "status": "Pending",
    "rowid": "1068112",
    "final_x": "3692803.69392",
    "final_y": "521244.148665",
    "longitude": "-90.03274576859815",
    "latitude": "29.92689257078609",
    "geocoded_column": {
      "latitude": "29.92689257078609",
      "longitude": "-90.03274576859815"
    }
  },
  {
    "service_request": "2024-1068111",
    "request_type": "Property Maintenance",
    "request_reason": "Property Maintenance",
    "date_created": "2024-02-15T20:03:35.000",
    "date_modified": "2024-02-15T20:03:35.000",
    "request_status": "Pending",
    "responsible_agency": "Department of Code Enforcement",
    "final_address": "2613 Memorial Park Dr",
    "address_councildis": "C",
    "status": "Pending",
    "rowid": "1068111",
    "final_x": "3692878.67491",
    "final_y": "520962.421049",
    "longitude": "-90.03251917067065",
    "latitude": "29.92611557467757",
    "geocoded_column": {
      "latitude": "29.92611557467757",
      "longitude": "-90.03251917067065"
    }
  },
  {
    "service_request": "2024-1068110",
    "request_type": "Property Maintenance",
    "request_reason": "Property Maintenance",
    "date_created": "2024-02-15T20:01:35.000",
    "date_modified": "2024-02-15T20:01:35.000",
    "request_status": "Pending",
    "responsible_agency": "Department of Code Enforcement",
    "final_address": "2509 Memorial Park Dr",
    "address_councildis": "C",
    "status": "Pending",
    "rowid": "1068110",
    "final_x": "3692667.34697",
    "final_y": "521156.961721",
    "longitude": "-90.03317930093436",
    "latitude": "29.92665709085535",
    "geocoded_column": {
      "latitude": "29.92665709085535",
      "longitude": "-90.03317930093436"
    }
  },
  {
    "service_request": "2024-1068109",
    "request_type": "Trash/Recycling",
    "request_reason": "Request a Large Item Pick Up",
    "date_created": "2024-02-15T19:59:12.000",
    "date_modified": "2024-02-15T19:59:13.000",
    "request_status": "Pending",
    "responsible_agency": "Department of Sanitation",
    "final_address": "4811 Press Dr",
    "address_councildis": "D",
    "status": "Assigned to Contractor",
    "contractor": "IV Waste",
    "rowid": "1068109",
    "final_x": "3689661.08412",
    "final_y": "551165.465109",
    "longitude": "-90.04160132603725",
    "latitude": "30.009263392123643",
    "geocoded_column": {
      "latitude": "30.009263392123643",
      "longitude": "-90.04160132603725"
    }
  },
  {
    "service_request": "2024-1068108",
    "request_type": "Traffic Signals/Signs/Striping/Streetlights",
    "request_reason": "Street Light Outage/Malfunction",
    "date_created": "2024-02-15T19:52:45.000",
    "date_modified": "2024-02-15T19:52:45.000",
    "request_status": "Pending",
    "responsible_agency": "Department of Public Works",
    "final_address": "308 12Th St",
    "address_councildis": "A",
    "status": "Assigned to Contractor",
    "contractor": "Legacy Professional Services",
    "rowid": "1068108",
    "final_x": "3665026.38816",
    "final_y": "547776.907154",
    "longitude": "-90.11954449779694",
    "latitude": "30.000686634559212",
    "geocoded_column": {
      "latitude": "30.000686634559212",
      "longitude": "-90.11954449779694"
    }
  },
  {
    "service_request": "2024-1068107",
    "request_type": "Trash/Recycling",
    "request_reason": "Missed Trash Pick-Up",
    "date_created": "2024-02-15T19:34:53.000",
    "date_modified": "2024-02-15T19:34:54.000",
    "request_status": "Pending",
    "responsible_agency": "Department of Sanitation",
    "final_address": "633 Harmony St",
    "address_councildis": "B",
    "status": "Assigned to Contractor",
    "contractor": "Richards Disposal",
    "rowid": "1068107",
    "final_x": "3676545.82497",
    "final_y": "518607.671415",
    "longitude": "-90.08415833008416",
    "latitude": "29.92014051024334",
    "geocoded_column": {
      "latitude": "29.92014051024334",
      "longitude": "-90.08415833008416"
    }
  },
  {
    "service_request": "2024-1068106",
    "request_type": "Trash/Recycling",
    "request_reason": "Illegal Dumping",
    "date_created": "2024-02-15T19:20:27.000",
    "date_modified": "2024-02-15T19:20:27.000",
    "request_status": "Pending",
    "responsible_agency": "Department of Sanitation",
    "final_address": "3105 N Derbigny St",
    "address_councildis": "D",
    "status": "Pending",
    "rowid": "1068106",
    "final_x": "3689685.01001",
    "final_y": "538257.657097",
    "longitude": "-90.04198532332792",
    "latitude": "29.973770830407883",
    "geocoded_column": {
      "latitude": "29.973770830407883",
      "longitude": "-90.04198532332792"
    }
  },
  {
    "service_request": "2024-1068105",
    "request_type": "Trash/Recycling",
    "request_reason": "Repair Trash Cart",
    "date_created": "2024-02-15T19:19:38.000",
    "date_modified": "2024-02-15T19:19:39.000",
    "request_status": "Pending",
    "responsible_agency": "Department of Sanitation",
    "final_address": "4330 State Street Dr",
    "address_councildis": "B",
    "status": "Assigned to Contractor",
    "contractor": "Richards Disposal",
    "rowid": "1068105",
    "final_x": "3668571.20244",
    "final_y": "531513.849091",
    "longitude": "-90.10889514659189",
    "latitude": "29.95586498635862",
    "geocoded_column": {
      "latitude": "29.95586498635862",
      "longitude": "-90.10889514659189"
    }
  },
  {
    "service_request": "2024-1068104",
    "request_type": "Traffic Signals/Signs/Striping/Streetlights",
    "request_reason": "Street Light Outage/Malfunction",
    "date_created": "2024-02-15T19:18:14.000",
    "date_modified": "2024-02-15T19:18:14.000",
    "request_status": "Pending",
    "responsible_agency": "Department of Public Works",
    "final_address": "700 BLK Metairie Rd",
    "address_councildis": "A",
    "status": "Assigned to Contractor",
    "contractor": "Legacy Professional Services",
    "rowid": "1068104",
    "final_x": "3664091.04711",
    "final_y": "540070.436379",
    "longitude": "-90.12275652695057",
    "latitude": "29.979523659960137",
    "geocoded_column": {
      "latitude": "29.979523659960137",
      "longitude": "-90.12275652695057"
    }
  },
  {
    "service_request": "2024-1068103",
    "request_type": "Traffic Signals/Signs/Striping/Streetlights",
    "request_reason": "Street Light Outage/Malfunction",
    "date_created": "2024-02-15T19:15:40.000",
    "date_modified": "2024-02-15T19:15:41.000",
    "request_status": "Pending",
    "responsible_agency": "Department of Public Works",
    "final_address": "700 BLK Metairie Rd",
    "address_councildis": "A",
    "status": "Assigned to Contractor",
    "contractor": "Legacy Professional Services",
    "rowid": "1068103",
    "final_x": "3664091.04711",
    "final_y": "540070.436379",
    "longitude": "-90.12275652695057",
    "latitude": "29.979523659960137",
    "geocoded_column": {
      "latitude": "29.979523659960137",
      "longitude": "-90.12275652695057"
    }
  },
  {
    "service_request": "2024-1068102",
    "request_type": "Trash/Recycling",
    "request_reason": "Missed Trash Pick-Up",
    "date_created": "2024-02-15T19:15:31.000",
    "date_modified": "2024-02-15T19:15:32.000",
    "request_status": "Pending",
    "responsible_agency": "Department of Sanitation",
    "final_address": "1817 Short St",
    "address_councildis": "A",
    "status": "Assigned to Contractor",
    "contractor": "Richards Disposal",
    "rowid": "1068102",
    "final_x": "3663843.43117",
    "final_y": "529707.157505",
    "longitude": "-90.12388408528567",
    "latitude": "29.951035237797623",
    "geocoded_column": {
      "latitude": "29.951035237797623",
      "longitude": "-90.12388408528567"
    }
  },
  {
    "service_request": "2024-1068101",
    "request_type": "Traffic Signals/Signs/Striping/Streetlights",
    "request_reason": "Street Light Outage/Malfunction",
    "date_created": "2024-02-15T19:14:54.000",
    "date_modified": "2024-02-15T19:14:55.000",
    "request_status": "Pending",
    "responsible_agency": "Department of Public Works",
    "final_address": "348 Bellaire Dr",
    "address_councildis": "A",
    "status": "Assigned to Contractor",
    "contractor": "Legacy Professional Services",
    "rowid": "1068101",
    "final_x": "3663890.25223",
    "final_y": "541892.049228",
    "longitude": "-90.12332996484668",
    "latitude": "29.984538316390292",
    "geocoded_column": {
      "latitude": "29.984538316390292",
      "longitude": "-90.12332996484668"
    }
  },
  {
    "service_request": "2024-1068100",
    "request_type": "Property Maintenance",
    "request_reason": "Property Maintenance",
    "date_created": "2024-02-15T19:09:42.000",
    "date_modified": "2024-02-15T19:09:42.000",
    "request_status": "Pending",
    "responsible_agency": "Department of Code Enforcement",
    "final_address": "2837 Milan St",
    "address_councildis": "B",
    "status": "Pending",
    "rowid": "1068100",
    "final_x": "3671183.03867",
    "final_y": "525465.503805",
    "longitude": "-90.10085328448618",
    "latitude": "29.93915701639153",
    "geocoded_column": {
      "latitude": "29.93915701639153",
      "longitude": "-90.10085328448618"
    }
  },
  {
    "service_request": "2024-1068099",
    "request_type": "Trash/Recycling",
    "request_reason": "Request a Large Item Pick Up",
    "date_created": "2024-02-15T19:04:45.000",
    "date_modified": "2024-02-15T19:04:45.000",
    "request_status": "Pending",
    "responsible_agency": "Department of Sanitation",
    "final_address": "2320 St Louis St",
    "address_councildis": "B",
    "status": "Assigned to Contractor",
    "contractor": "Richards Disposal",
    "rowid": "1068099",
    "final_x": "3677455.13243",
    "final_y": "535321.49543",
    "longitude": "-90.08071133946595",
    "latitude": "29.966070703184332",
    "geocoded_column": {
      "latitude": "29.966070703184332",
      "longitude": "-90.08071133946595"
    }
  },
  {
    "service_request": "2024-1068097",
    "request_type": "Trash/Recycling",
    "request_reason": "MIssed Recycling Pick-Up",
    "date_created": "2024-02-15T18:48:53.000",
    "date_modified": "2024-02-15T18:48:54.000",
    "request_status": "Pending",
    "responsible_agency": "Department of Sanitation",
    "final_address": "6023 Patton St",
    "address_councildis": "A",
    "status": "Assigned to Contractor",
    "contractor": "Richards Disposal",
    "rowid": "1068097",
    "final_x": "3664296.46381",
    "final_y": "518663.854007",
    "longitude": "-90.12282200169096",
    "latitude": "29.920656505028848",
    "geocoded_column": {
      "latitude": "29.920656505028848",
      "longitude": "-90.12282200169096"
    }
  },
  {
    "service_request": "2024-1068096",
    "request_type": "Trash/Recycling",
    "request_reason": "Missed Trash Pick-Up",
    "date_created": "2024-02-15T18:48:25.000",
    "date_modified": "2024-02-15T18:48:26.000",
    "request_status": "Pending",
    "responsible_agency": "Department of Sanitation",
    "final_address": "825 Second St",
    "address_councildis": "B",
    "status": "Assigned to Contractor",
    "contractor": "Richards Disposal",
    "rowid": "1068096",
    "final_x": "3678346.1691",
    "final_y": "520602.955704",
    "longitude": "-90.0784065259112",
    "latitude": "29.92557280405251",
    "geocoded_column": {
      "latitude": "29.92557280405251",
      "longitude": "-90.0784065259112"
    }
  },
  {
    "service_request": "2024-1068095",
    "request_type": "Trash/Recycling",
    "request_reason": "Missed Trash Pick-Up",
    "date_created": "2024-02-15T18:37:04.000",
    "date_modified": "2024-02-15T18:37:05.000",
    "request_status": "Pending",
    "responsible_agency": "Department of Sanitation",
    "final_address": "8401 Aberdeen Rd",
    "address_councildis": "E",
    "status": "Assigned to Contractor",
    "contractor": "Waste Pro",
    "rowid": "1068095",
    "final_x": "3703597.24842",
    "final_y": "561810.249055",
    "longitude": "-89.99718039037433",
    "latitude": "30.038093092520523",
    "geocoded_column": {
      "latitude": "30.038093092520523",
      "longitude": "-89.99718039037433"
    }
  },
  {
    "service_request": "2024-1068094",
    "request_type": "Trash/Recycling",
    "request_reason": "Missed Trash Pick-Up",
    "date_created": "2024-02-15T18:27:30.000",
    "date_modified": "2024-02-15T18:27:31.000",
    "request_status": "Pending",
    "responsible_agency": "Department of Sanitation",
    "final_address": "1425 Melpomene St",
    "address_councildis": "B",
    "status": "Assigned to Contractor",
    "contractor": "Richards Disposal",
    "rowid": "1068094",
    "final_x": "3679839.30837",
    "final_y": "525183.062205",
    "longitude": "-90.07353418502781",
    "latitude": "29.93812154113303",
    "geocoded_column": {
      "latitude": "29.93812154113303",
      "longitude": "-90.07353418502781"
    }
  },
  {
    "service_request": "2024-1068093",
    "request_type": "Abandoned Vehicles",
    "request_reason": "Abandoned/Junk Vehicles",
    "date_created": "2024-02-15T18:18:27.000",
    "date_modified": "2024-02-15T18:18:27.000",
    "request_status": "Pending",
    "responsible_agency": "Department of Public Works",
    "final_address": "7700 BLK Cohn St",
    "address_councildis": "A",
    "status": "Pending",
    "rowid": "1068093",
    "final_x": "3664579.20689",
    "final_y": "529313.906055",
    "longitude": "-90.121573995516",
    "latitude": "29.94993254844717",
    "geocoded_column": {
      "latitude": "29.94993254844717",
      "longitude": "-90.121573995516"
    }
  },
  {
    "service_request": "2024-1068092",
    "request_type": "Abandoned Vehicles",
    "request_reason": "Abandoned/Junk Vehicles",
    "date_created": "2024-02-15T18:03:09.000",
    "date_modified": "2024-02-15T18:03:09.000",
    "request_status": "Pending",
    "responsible_agency": "Department of Public Works",
    "final_address": "8709 Cohn St",
    "address_councildis": "A",
    "status": "Pending",
    "rowid": "1068092",
    "final_x": "3661992.30746",
    "final_y": "531719.083011",
    "longitude": "-90.12966230305919",
    "latitude": "29.956620979575447",
    "geocoded_column": {
      "latitude": "29.956620979575447",
      "longitude": "-90.12966230305919"
    }
  },
  {
    "service_request": "2024-1068091",
    "request_type": "Traffic Signals/Signs/Striping/Streetlights",
    "request_reason": "Street Light Outage/Malfunction",
    "date_created": "2024-02-15T17:59:54.000",
    "date_modified": "2024-02-15T17:59:55.000",
    "request_status": "Pending",
    "responsible_agency": "Department of Public Works",
    "final_address": "6049 Marshal Foch St",
    "address_councildis": "A",
    "status": "Assigned to Contractor",
    "contractor": "Legacy Professional Services",
    "rowid": "1068091",
    "final_x": "3669944.83623",
    "final_y": "547527.688594",
    "longitude": "-90.10401517729524",
    "latitude": "29.999857193445152",
    "geocoded_column": {
      "latitude": "29.999857193445152",
      "longitude": "-90.10401517729524"
    }
  },
  {
    "service_request": "2024-1068090",
    "request_type": "Trash/Recycling",
    "request_reason": "MIssed Recycling Pick-Up",
    "date_created": "2024-02-15T17:42:54.000",
    "date_modified": "2024-02-15T17:42:55.000",
    "request_status": "Pending",
    "responsible_agency": "Department of Sanitation",
    "final_address": "3609 Nashville Ave",
    "address_councildis": "A",
    "status": "Assigned to Contractor",
    "contractor": "Richards Disposal",
    "rowid": "1068090",
    "final_x": "3668340.89306",
    "final_y": "528826.355776",
    "longitude": "-90.10971300793435",
    "latitude": "29.948482023631545",
    "geocoded_column": {
      "latitude": "29.948482023631545",
      "longitude": "-90.10971300793435"
    }
  },
  {
    "service_request": "2024-1068089",
    "request_type": "Mosquito, Termite & Rodent Control",
    "request_reason": "Mosquito Complaint",
    "date_created": "2024-02-15T17:36:57.000",
    "date_modified": "2024-02-15T17:36:57.000",
    "request_status": "Pending",
    "responsible_agency": "Mosquito, Termite & Rodent Control Board",
    "final_address": "7440 Scottsdale Dr",
    "address_councildis": "E",
    "status": "Pending",
    "rowid": "1068089",
    "final_x": "3704133.7082",
    "final_y": "561721.347871",
    "longitude": "-89.9954883338582",
    "latitude": "30.03783143775478",
    "geocoded_column": {
      "latitude": "30.03783143775478",
      "longitude": "-89.9954883338582"
    }
  },
  {
    "service_request": "2024-1068088",
    "request_type": "Trash/Recycling",
    "request_reason": "Replace Trash Cart",
    "date_created": "2024-02-15T17:34:03.000",
    "date_modified": "2024-02-15T17:34:04.000",
    "request_status": "Pending",
    "responsible_agency": "Department of Sanitation",
    "final_address": "9019 Peach St, New Orleans, Louisiana, 70118",
    "address_councildis": "A",
    "status": "Assigned to Contractor",
    "contractor": "Richards Disposal",
    "rowid": "1068088",
    "final_x": "3666187.83706",
    "final_y": "538022.580169",
    "longitude": "-90.11620270282445",
    "latitude": "29.973831662566017",
    "geocoded_column": {
      "latitude": "29.973831662566017",
      "longitude": "-90.11620270282445"
    }
  },
  {
    "service_request": "2024-1068087",
    "request_type": "Safety & Permits",
    "request_reason": "Licenses & Permits",
    "date_created": "2024-02-15T17:22:59.000",
    "date_modified": "2024-02-15T17:22:59.000",
    "request_status": "Pending",
    "responsible_agency": "Safety and Permits",
    "final_address": "4933 S Johnson St",
    "address_councildis": "B",
    "status": "Pending",
    "rowid": "1068087",
    "final_x": "3668960.73351",
    "final_y": "527073.815038",
    "longitude": "-90.10781508944703",
    "latitude": "29.94364489145257",
    "geocoded_column": {
      "latitude": "29.94364489145257",
      "longitude": "-90.10781508944703"
    }
  },
  {
    "service_request": "2024-1068086",
    "request_type": "Trash/Recycling",
    "request_reason": "Missed Trash Pick-Up",
    "date_created": "2024-02-15T17:22:47.000",
    "date_modified": "2024-02-15T17:22:48.000",
    "request_status": "Pending",
    "responsible_agency": "Department of Sanitation",
    "final_address": "2356 N Robertson St",
    "address_councildis": "C",
    "status": "Assigned to Contractor",
    "contractor": "IV Waste",
    "rowid": "1068086",
    "final_x": "3686154.94038",
    "final_y": "537841.769737",
    "longitude": "-90.05314870463762",
    "latitude": "29.972736204191648",
    "geocoded_column": {
      "latitude": "29.972736204191648",
      "longitude": "-90.05314870463762"
    }
  },
  {
    "service_request": "2024-1068085",
    "request_type": "Abandoned Vehicles",
    "request_reason": "Abandoned/Junk Vehicles",
    "date_created": "2024-02-15T17:16:25.000",
    "date_modified": "2024-02-15T17:16:25.000",
    "request_status": "Pending",
    "responsible_agency": "Department of Public Works",
    "final_address": "2701 Magazine St",
    "address_councildis": "B",
    "status": "Pending",
    "rowid": "1068085",
    "final_x": "3677260.51387",
    "final_y": "521024.913913",
    "longitude": "-90.0818190602655",
    "latitude": "29.926765701433922",
    "geocoded_column": {
      "latitude": "29.926765701433922",
      "longitude": "-90.0818190602655"
    }
  },
  {
    "service_request": "2024-1068084",
    "request_type": "Trash/Recycling",
    "request_reason": "Missed Trash Pick-Up",
    "date_created": "2024-02-15T17:15:40.000",
    "date_modified": "2024-02-15T17:15:41.000",
    "request_status": "Pending",
    "responsible_agency": "Department of Sanitation",
    "final_address": "601 Philip St",
    "address_councildis": "B",
    "status": "Assigned to Contractor",
    "contractor": "Richards Disposal",
    "rowid": "1068084",
    "final_x": "3679659.76994",
    "final_y": "520440.728888",
    "longitude": "-90.0742655184243",
    "latitude": "29.9250871094847",
    "geocoded_column": {
      "latitude": "29.9250871094847",
      "longitude": "-90.0742655184243"
    }
  },
  {
    "service_request": "2024-1068083",
    "request_type": "Abandoned Vehicles",
    "request_reason": "Abandoned/Junk Vehicles",
    "date_created": "2024-02-15T17:13:00.000",
    "date_modified": "2024-02-15T17:13:00.000",
    "request_status": "Pending",
    "responsible_agency": "Department of Public Works",
    "final_address": "2701 Magazine St",
    "address_councildis": "B",
    "status": "Pending",
    "rowid": "1068083",
    "final_x": "3677260.51387",
    "final_y": "521024.913913",
    "longitude": "-90.0818190602655",
    "latitude": "29.926765701433922",
    "geocoded_column": {
      "latitude": "29.926765701433922",
      "longitude": "-90.0818190602655"
    }
  },
  {
    "service_request": "2024-1068082",
    "request_type": "Roads/Drainage",
    "request_reason": "Catch Basin - Broken/Damage",
    "date_created": "2024-02-15T17:10:20.000",
    "date_modified": "2024-02-15T17:10:20.000",
    "request_status": "Pending",
    "responsible_agency": "Department of Public Works",
    "final_address": "501 Tchoupitoulas St",
    "address_councildis": "B",
    "status": "Pending",
    "rowid": "1068082",
    "final_x": "3681811.71298",
    "final_y": "528981.979328",
    "longitude": "-90.06717460171518",
    "latitude": "29.948507515789377",
    "geocoded_column": {
      "latitude": "29.948507515789377",
      "longitude": "-90.06717460171518"
    }
  },
  {
    "service_request": "2024-1068081",
    "request_type": "Trash/Recycling",
    "request_reason": "Missed Trash Pick-Up",
    "date_created": "2024-02-15T17:10:14.000",
    "date_modified": "2024-02-15T17:10:15.000",
    "request_status": "Pending",
    "responsible_agency": "Department of Sanitation",
    "final_address": "1036 Valmont St, New Orleans, Louisiana, 70115",
    "address_councildis": "B",
    "status": "Assigned to Contractor",
    "contractor": "Richards Disposal",
    "rowid": "1068081",
    "final_x": "3667517.9017",
    "final_y": "519355.008759",
    "longitude": "-90.11263013341757",
    "latitude": "29.92246299121133",
    "geocoded_column": {
      "latitude": "29.92246299121133",
      "longitude": "-90.11263013341757"
    }
  },
  {
    "service_request": "2024-1068080",
    "request_type": "Trash/Recycling",
    "request_reason": "MIssed Recycling Pick-Up",
    "date_created": "2024-02-15T17:09:52.000",
    "date_modified": "2024-02-15T17:09:53.000",
    "request_status": "Pending",
    "responsible_agency": "Department of Sanitation",
    "final_address": "4430 Lancelot Dr, New Orleans, Louisiana, 70127",
    "address_councildis": "E",
    "status": "Assigned to Contractor",
    "contractor": "Waste Pro",
    "rowid": "1068080",
    "final_x": "3707544.13688",
    "final_y": "553760.070743",
    "longitude": "-89.98500668723098",
    "latitude": "30.01583111096896",
    "geocoded_column": {
      "latitude": "30.01583111096896",
      "longitude": "-89.98500668723098"
    }
  },
  {
    "service_request": "2024-1068079",
    "request_type": "Trash/Recycling",
    "request_reason": "Missed Trash Pick-Up",
    "date_created": "2024-02-15T16:58:14.000",
    "date_modified": "2024-02-15T16:58:15.000",
    "request_status": "Pending",
    "responsible_agency": "Department of Sanitation",
    "final_address": "1818 Fern St",
    "address_councildis": "A",
    "status": "Assigned to Contractor",
    "contractor": "Richards Disposal",
    "rowid": "1068079",
    "final_x": "3664028.43367",
    "final_y": "529554.891521",
    "longitude": "-90.12330501461527",
    "latitude": "29.950611184879936",
    "geocoded_column": {
      "latitude": "29.950611184879936",
      "longitude": "-90.12330501461527"
    }
  },
  {
    "service_request": "2024-1068078",
    "request_type": "Roads/Drainage",
    "request_reason": "Catch Basin - Clogged",
    "date_created": "2024-02-15T16:57:40.000",
    "date_modified": "2024-02-15T16:57:40.000",
    "request_status": "Pending",
    "responsible_agency": "Department of Public Works",
    "final_address": "CARONDELET ST & TOLEDANO ST",
    "address_councildis": "B",
    "status": "Pending",
    "rowid": "1068078",
    "final_x": "3674445.5",
    "final_y": "522075.58",
    "longitude": "-90.0906693455266",
    "latitude": "29.929738935721314",
    "geocoded_column": {
      "latitude": "29.929738935721314",
      "longitude": "-90.0906693455266"
    }
  },
  {
    "service_request": "2024-1068077",
    "request_type": "Trash/Recycling",
    "request_reason": "Missed Trash Pick-Up",
    "date_created": "2024-02-15T16:45:36.000",
    "date_modified": "2024-02-15T16:45:37.000",
    "request_status": "Pending",
    "responsible_agency": "Department of Sanitation",
    "final_address": "4645 Charlene Dr",
    "address_councildis": "E",
    "status": "Assigned to Contractor",
    "contractor": "Waste Pro",
    "rowid": "1068077",
    "final_x": "3708041.48459",
    "final_y": "554865.30396",
    "longitude": "-89.98339416608734",
    "latitude": "30.01885397298483",
    "geocoded_column": {
      "latitude": "30.01885397298483",
      "longitude": "-89.98339416608734"
    }
  },
  {
    "service_request": "2024-1068076",
    "request_type": "Trash/Recycling",
    "request_reason": "Replace Trash Cart",
    "date_created": "2024-02-15T16:44:26.000",
    "date_modified": "2024-02-15T16:44:26.000",
    "request_status": "Pending",
    "responsible_agency": "Department of Sanitation",
    "final_address": "1721 Robert C. Blakes, Sr. Dr Apt 4",
    "address_councildis": "B",
    "status": "Assigned to Contractor",
    "contractor": "Richards Disposal",
    "rowid": "1068076",
    "final_x": "3678310.11822",
    "final_y": "525154.533373",
    "longitude": "-90.07836296412584",
    "latitude": "29.938089237168093",
    "geocoded_column": {
      "latitude": "29.938089237168093",
      "longitude": "-90.07836296412584"
    }
  },
  {
    "service_request": "2024-1068075",
    "request_type": "Trash/Recycling",
    "request_reason": "Replace Trash Cart",
    "date_created": "2024-02-15T16:44:03.000",
    "date_modified": "2024-02-15T16:44:04.000",
    "request_status": "Pending",
    "responsible_agency": "Department of Sanitation",
    "final_address": "1721 Robert C. Blakes, Sr. Dr Apt 3",
    "address_councildis": "B",
    "status": "Assigned to Contractor",
    "contractor": "Richards Disposal",
    "rowid": "1068075",
    "final_x": "3678321.11938",
    "final_y": "525145.923773",
    "longitude": "-90.07832853018114",
    "latitude": "29.93806523229844",
    "geocoded_column": {
      "latitude": "29.93806523229844",
      "longitude": "-90.07832853018114"
    }
  },
  {
    "service_request": "2024-1068074",
    "request_type": "Trash/Recycling",
    "request_reason": "Replace Trash Cart",
    "date_created": "2024-02-15T16:43:44.000",
    "date_modified": "2024-02-15T16:43:45.000",
    "request_status": "Pending",
    "responsible_agency": "Department of Sanitation",
    "final_address": "1721 Robert C. Blakes, Sr. Dr Apt 2",
    "address_councildis": "B",
    "status": "Assigned to Contractor",
    "contractor": "Richards Disposal",
    "rowid": "1068074",
    "final_x": "3678330.20731",
    "final_y": "525140.662333",
    "longitude": "-90.07830002071205",
    "latitude": "29.938050491376075",
    "geocoded_column": {
      "latitude": "29.938050491376075",
      "longitude": "-90.07830002071205"
    }
  },
  {
    "service_request": "2024-1068073",
    "request_type": "Trash/Recycling",
    "request_reason": "Missed Trash Pick-Up",
    "date_created": "2024-02-15T16:43:40.000",
    "date_modified": "2024-02-15T16:43:40.000",
    "request_status": "Pending",
    "responsible_agency": "Department of Sanitation",
    "final_address": "926 Charbonnet St",
    "address_councildis": "E",
    "status": "Assigned to Contractor",
    "contractor": "Waste Pro",
    "rowid": "1068073",
    "final_x": "3698424.26788",
    "final_y": "533039.192324",
    "longitude": "-90.01457468483525",
    "latitude": "29.959148210945834",
    "geocoded_column": {
      "latitude": "29.959148210945834",
      "longitude": "-90.01457468483525"
    }
  },
  {
    "service_request": "2024-1068072",
    "request_type": "Trash/Recycling",
    "request_reason": "Replace Trash Cart",
    "date_created": "2024-02-15T16:43:19.000",
    "date_modified": "2024-02-15T16:43:19.000",
    "request_status": "Pending",
    "responsible_agency": "Department of Sanitation",
    "final_address": "1721 Robert C. Blakes, Sr. Dr Apt 1",
    "address_councildis": "B",
    "status": "Assigned to Contractor",
    "contractor": "Richards Disposal",
    "rowid": "1068072",
    "final_x": "3678341.20853",
    "final_y": "525134.444285",
    "longitude": "-90.07826550390567",
    "latitude": "29.93803306246709",
    "geocoded_column": {
      "latitude": "29.93803306246709",
      "longitude": "-90.07826550390567"
    }
  },
  {
    "service_request": "2024-1068071",
    "request_type": "Roads/Drainage",
    "request_reason": "Pothole",
    "date_created": "2024-02-15T16:43:03.000",
    "date_modified": "2024-02-15T16:43:03.000",
    "request_status": "Pending",
    "responsible_agency": "Department of Public Works",
    "final_address": "1816 N Gayoso St",
    "address_councildis": "D",
    "status": "Pending",
    "rowid": "1068071",
    "final_x": "3679268.2125",
    "final_y": "542095.151884",
    "longitude": "-90.07475072147152",
    "latitude": "29.984641297589334",
    "geocoded_column": {
      "latitude": "29.984641297589334",
      "longitude": "-90.07475072147152"
    }
  },
  {
    "service_request": "2024-1068070",
    "request_type": "Trash/Recycling",
    "request_reason": "Illegal Dumping",
    "date_created": "2024-02-15T16:42:39.000",
    "date_modified": "2024-02-15T16:42:39.000",
    "request_status": "Pending",
    "responsible_agency": "Department of Sanitation",
    "final_address": "1816 N Gayoso St",
    "address_councildis": "D",
    "status": "Pending",
    "rowid": "1068070",
    "final_x": "3679268.2125",
    "final_y": "542095.151884",
    "longitude": "-90.07475072147152",
    "latitude": "29.984641297589334",
    "geocoded_column": {
      "latitude": "29.984641297589334",
      "longitude": "-90.07475072147152"
    }
  },
  {
    "service_request": "2024-1068069",
    "request_type": "Trash/Recycling",
    "request_reason": "Missed Trash Pick-Up",
    "date_created": "2024-02-15T16:40:12.000",
    "date_modified": "2024-02-15T16:40:13.000",
    "request_status": "Pending",
    "responsible_agency": "Department of Sanitation",
    "final_address": "1804 Lowerline St",
    "address_councildis": "A",
    "status": "Assigned to Contractor",
    "contractor": "Richards Disposal",
    "rowid": "1068069",
    "final_x": "3664850.53012",
    "final_y": "528684.049728",
    "longitude": "-90.12073834468384",
    "latitude": "29.94819275451334",
    "geocoded_column": {
      "latitude": "29.94819275451334",
      "longitude": "-90.12073834468384"
    }
  },
  {
    "service_request": "2024-1068068",
    "request_type": "Trash/Recycling",
    "request_reason": "Repair Recycling Cart",
    "date_created": "2024-02-15T16:38:09.000",
    "date_modified": "2024-02-15T16:38:09.000",
    "request_status": "Pending",
    "responsible_agency": "Department of Sanitation",
    "final_address": "5800 Chamberlain Dr",
    "address_councildis": "D",
    "status": "Pending",
    "rowid": "1068068",
    "final_x": "3679262.75643",
    "final_y": "553863.492439",
    "longitude": "-90.07435954400779",
    "latitude": "30.017000215435747",
    "geocoded_column": {
      "latitude": "30.017000215435747",
      "longitude": "-90.07435954400779"
    }
  },
  {
    "service_request": "2024-1068067",
    "request_type": "Trash/Recycling",
    "request_reason": "Missed Trash Pick-Up",
    "date_created": "2024-02-15T16:35:34.000",
    "date_modified": "2024-02-15T16:35:35.000",
    "request_status": "Pending",
    "responsible_agency": "Department of Sanitation",
    "final_address": "4420 Longfellow Dr",
    "address_councildis": "E",
    "status": "Assigned to Contractor",
    "contractor": "Waste Pro",
    "rowid": "1068067",
    "final_x": "3709719.63326",
    "final_y": "554190.373784",
    "longitude": "-89.9781170834316",
    "latitude": "30.01694370897143",
    "geocoded_column": {
      "latitude": "30.01694370897143",
      "longitude": "-89.9781170834316"
    }
  },
  {
    "service_request": "2024-1068066",
    "request_type": "Trash/Recycling",
    "request_reason": "Missed Trash Pick-Up",
    "date_created": "2024-02-15T16:27:53.000",
    "date_modified": "2024-02-15T16:27:53.000",
    "request_status": "Pending",
    "responsible_agency": "Department of Sanitation",
    "final_address": "2216 Camp St",
    "address_councildis": "B",
    "status": "Assigned to Contractor",
    "contractor": "Richards Disposal",
    "rowid": "1068066",
    "final_x": "3678502.41262",
    "final_y": "522245.417978",
    "longitude": "-90.07785650454653",
    "latitude": "29.93008433324849",
    "geocoded_column": {
      "latitude": "29.93008433324849",
      "longitude": "-90.07785650454653"
    }
  },
  {
    "service_request": "2024-1068065",
    "request_type": "Roads/Drainage",
    "request_reason": "Pothole",
    "date_created": "2024-02-15T16:24:57.000",
    "date_modified": "2024-02-15T16:24:57.000",
    "request_status": "Pending",
    "responsible_agency": "Department of Public Works",
    "final_address": "600 BLK Constance St",
    "address_councildis": "B",
    "status": "Pending",
    "rowid": "1068065",
    "final_x": "3681569.24247",
    "final_y": "528493.193457",
    "longitude": "-90.067957225121",
    "latitude": "29.947170883965494",
    "geocoded_column": {
      "latitude": "29.947170883965494",
      "longitude": "-90.067957225121"
    }
  },
  {
    "service_request": "2024-1068064",
    "request_type": "Graffiti Removal",
    "request_reason": "Graffiti Removal",
    "date_created": "2024-02-15T16:22:39.000",
    "date_modified": "2024-02-15T16:22:39.000",
    "request_status": "Pending",
    "responsible_agency": "Department of Code Enforcement",
    "final_address": "1013 N Claiborne Ave",
    "address_councildis": "D",
    "status": "Pending",
    "rowid": "1068064",
    "final_x": "3680438.54709",
    "final_y": "535671.07303",
    "longitude": "-90.07127763619857",
    "latitude": "29.966941906121388",
    "geocoded_column": {
      "latitude": "29.966941906121388",
      "longitude": "-90.07127763619857"
    }
  },
  {
    "service_request": "2024-1068062",
    "request_type": "Trash/Recycling",
    "request_reason": "Illegal Dumping",
    "date_created": "2024-02-15T16:20:44.000",
    "date_modified": "2024-02-15T16:20:45.000",
    "request_status": "Pending",
    "responsible_agency": "Department of Code Enforcement",
    "final_address": "1700 BLK N Derbigny St",
    "address_councildis": "D",
    "status": "Pending",
    "rowid": "1068062",
    "final_x": "3683153.90695",
    "final_y": "538377.118243",
    "longitude": "-90.06260776350904",
    "latitude": "29.974300078149167",
    "geocoded_column": {
      "latitude": "29.974300078149167",
      "longitude": "-90.06260776350904"
    }
  },
  {
    "service_request": "2024-1068061",
    "request_type": "Trash/Recycling",
    "request_reason": "Request a Large Item Pick Up",
    "date_created": "2024-02-15T16:19:54.000",
    "date_modified": "2024-02-15T16:19:55.000",
    "request_status": "Pending",
    "responsible_agency": "Department of Sanitation",
    "final_address": "1334 Harrison Ave",
    "address_councildis": "D",
    "status": "Assigned to Contractor",
    "contractor": "IV Waste",
    "rowid": "1068061",
    "final_x": "3677564.20699",
    "final_y": "547528.803474",
    "longitude": "-90.07994519781218",
    "latitude": "29.999633289637494",
    "geocoded_column": {
      "latitude": "29.999633289637494",
      "longitude": "-90.07994519781218"
    }
  },
  {
    "service_request": "2024-1068060",
    "request_type": "Roads/Drainage",
    "request_reason": "Street Flooding / Drainage",
    "date_created": "2024-02-15T16:16:31.000",
    "date_modified": "2024-02-15T16:16:31.000",
    "request_status": "Pending",
    "responsible_agency": "Department of Public Works",
    "final_address": "1353 Rapides Dr",
    "address_councildis": "D",
    "status": "Pending",
    "rowid": "1068060",
    "final_x": "3677441.31118",
    "final_y": "552773.981846",
    "longitude": "-90.0801522110027",
    "latitude": "30.014059356069634",
    "geocoded_column": {
      "latitude": "30.014059356069634",
      "longitude": "-90.0801522110027"
    }
  },
  {
    "service_request": "2024-1068059",
    "request_type": "Roads/Drainage",
    "request_reason": "Catch Basin - Clogged",
    "date_created": "2024-02-15T16:13:48.000",
    "date_modified": "2024-02-15T16:13:48.000",
    "request_status": "Pending",
    "responsible_agency": "Department of Public Works",
    "final_address": "1353 Rapides Dr",
    "address_councildis": "D",
    "status": "Pending",
    "rowid": "1068059",
    "final_x": "3677441.31118",
    "final_y": "552773.981846",
    "longitude": "-90.0801522110027",
    "latitude": "30.014059356069634",
    "geocoded_column": {
      "latitude": "30.014059356069634",
      "longitude": "-90.0801522110027"
    }
  },
  {
    "service_request": "2024-1068058",
    "request_type": "Trash/Recycling",
    "request_reason": "Request a Large Item Pick Up",
    "date_created": "2024-02-15T16:12:54.000",
    "date_modified": "2024-02-15T16:12:55.000",
    "request_status": "Pending",
    "responsible_agency": "Department of Sanitation",
    "final_address": "8 Grand Canyon Dr",
    "address_councildis": "C",
    "status": "Assigned to Contractor",
    "contractor": "Richards Disposal",
    "rowid": "1068058",
    "final_x": "3699469.12106",
    "final_y": "517562.31999",
    "longitude": "-90.0118389547415",
    "latitude": "29.916559089228862",
    "geocoded_column": {
      "latitude": "29.916559089228862",
      "longitude": "-90.0118389547415"
    }
  },
  {
    "service_request": "2024-1068057",
    "request_type": "Roads/Drainage",
    "request_reason": "Street Flooding / Drainage",
    "date_created": "2024-02-15T16:11:48.000",
    "date_modified": "2024-02-15T16:11:48.000",
    "request_status": "Pending",
    "responsible_agency": "Department of Public Works",
    "final_address": "6200 BLK Carlisle Ct",
    "address_councildis": "C",
    "status": "Pending",
    "rowid": "1068057",
    "final_x": "3707044.39263",
    "final_y": "516472.615136",
    "longitude": "-89.98796889670066",
    "latitude": "29.913320378919536",
    "geocoded_column": {
      "latitude": "29.913320378919536",
      "longitude": "-89.98796889670066"
    }
  },
  {
    "service_request": "2024-1068056",
    "request_type": "Traffic Signals/Signs/Striping/Streetlights",
    "request_reason": "Street Light Outage/Malfunction",
    "date_created": "2024-02-15T16:10:54.000",
    "date_modified": "2024-02-15T16:10:55.000",
    "request_status": "Pending",
    "responsible_agency": "Department of Public Works",
    "final_address": "1353 Rapides Dr",
    "address_councildis": "D",
    "status": "Assigned to Contractor",
    "contractor": "Legacy Professional Services",
    "rowid": "1068056",
    "final_x": "3677441.31118",
    "final_y": "552773.981846",
    "longitude": "-90.0801522110027",
    "latitude": "30.014059356069634",
    "geocoded_column": {
      "latitude": "30.014059356069634",
      "longitude": "-90.0801522110027"
    }
  },
  {
    "service_request": "2024-1068055",
    "request_type": "Trash/Recycling",
    "request_reason": "Dead Animal Pick Up",
    "date_created": "2024-02-15T16:09:11.000",
    "date_modified": "2024-02-15T16:09:12.000",
    "request_status": "Pending",
    "responsible_agency": "Department of Sanitation",
    "final_address": "519 Aurora Oaks Dr",
    "address_councildis": "C",
    "status": "Assigned to Contractor",
    "contractor": "Richards Disposal",
    "rowid": "1068055",
    "final_x": "3701263.35505",
    "final_y": "521404.135609",
    "longitude": "-90.00603519183228",
    "latitude": "29.92706574177776",
    "geocoded_column": {
      "latitude": "29.92706574177776",
      "longitude": "-90.00603519183228"
    }
  },
  {
    "service_request": "2024-1068054",
    "request_type": "Trash/Recycling",
    "request_reason": "Missed Trash Pick-Up",
    "date_created": "2024-02-15T16:05:17.000",
    "date_modified": "2024-02-15T16:05:17.000",
    "request_status": "Pending",
    "responsible_agency": "Department of Sanitation",
    "final_address": "6840 Norwood Ct",
    "address_councildis": "E",
    "status": "Assigned to Contractor",
    "contractor": "Waste Pro",
    "rowid": "1068054",
    "final_x": "3701030.64349",
    "final_y": "557139.967579",
    "longitude": "-90.00546250221569",
    "latitude": "30.02533367175284",
    "geocoded_column": {
      "latitude": "30.02533367175284",
      "longitude": "-90.00546250221569"
    }
  },
  {
    "service_request": "2024-1068053",
    "request_type": "Trash/Recycling",
    "request_reason": "Return Trash Cart",
    "date_created": "2024-02-15T16:01:03.000",
    "date_modified": "2024-02-15T16:01:04.000",
    "request_status": "Pending",
    "responsible_agency": "Department of Sanitation",
    "final_address": "241 10Th St",
    "address_councildis": "A",
    "status": "Assigned to Contractor",
    "contractor": "IV Waste",
    "rowid": "1068053",
    "final_x": "3665231.83559",
    "final_y": "547577.891858",
    "longitude": "-90.11890213558247",
    "latitude": "30.00013342524247",
    "geocoded_column": {
      "latitude": "30.00013342524247",
      "longitude": "-90.11890213558247"
    }
  },
  {
    "service_request": "2024-1068052",
    "request_type": "Trash/Recycling",
    "request_reason": "MIssed Recycling Pick-Up",
    "date_created": "2024-02-15T15:50:31.000",
    "date_modified": "2024-02-15T15:50:32.000",
    "request_status": "Pending",
    "responsible_agency": "Department of Sanitation",
    "final_address": "2519 Loyola Ave",
    "address_councildis": "B",
    "status": "Assigned to Contractor",
    "contractor": "Richards Disposal",
    "rowid": "1068052",
    "final_x": "3675325.86101",
    "final_y": "524742.52422",
    "longitude": "-90.08779868069543",
    "latitude": "29.937045881826396",
    "geocoded_column": {
      "latitude": "29.937045881826396",
      "longitude": "-90.08779868069543"
    }
  },
  {
    "service_request": "2024-1068051",
    "request_type": "Trash/Recycling",
    "request_reason": "Request a Large Item Pick Up",
    "date_created": "2024-02-15T15:50:27.000",
    "date_modified": "2024-02-15T15:50:28.000",
    "request_status": "Pending",
    "responsible_agency": "Department of Sanitation",
    "final_address": "16 Castle Pines Dr",
    "address_councildis": "C",
    "status": "Assigned to Contractor",
    "contractor": "Richards Disposal",
    "rowid": "1068051",
    "final_x": "3719611.21413",
    "final_y": "511447.962096",
    "longitude": "-89.94849634177555",
    "latitude": "29.899092668283693",
    "geocoded_column": {
      "latitude": "29.899092668283693",
      "longitude": "-89.94849634177555"
    }
  },
  {
    "service_request": "2024-1068050",
    "request_type": "Trash/Recycling",
    "request_reason": "Order Recycling Cart",
    "date_created": "2024-02-15T15:46:57.000",
    "date_modified": "2024-02-15T15:46:57.000",
    "request_status": "Pending",
    "responsible_agency": "Department of Sanitation",
    "final_address": "6 Trianon Plz",
    "address_councildis": "B",
    "status": "Pending",
    "rowid": "1068050",
    "final_x": "3667246.56903",
    "final_y": "531058.23245",
    "longitude": "-90.11309321323617",
    "latitude": "29.954651044620817",
    "geocoded_column": {
      "latitude": "29.954651044620817",
      "longitude": "-90.11309321323617"
    }
  },
  {
    "service_request": "2024-1068049",
    "request_type": "Roads/Drainage",
    "request_reason": "WaterMain Break",
    "date_created": "2024-02-15T15:46:33.000",
    "date_modified": "2024-02-15T15:46:33.000",
    "request_status": "Pending",
    "responsible_agency": "Department of Public Works",
    "final_address": "2411 Bristol Pl",
    "address_councildis": "C",
    "status": "Pending",
    "rowid": "1068049",
    "final_x": "3702591.41098",
    "final_y": "522194.444474",
    "longitude": "-90.00181390362789",
    "latitude": "29.929196450072986",
    "geocoded_column": {
      "latitude": "29.929196450072986",
      "longitude": "-90.00181390362789"
    }
  },
  {
    "service_request": "2024-1068048",
    "request_type": "Traffic Signals/Signs/Striping/Streetlights",
    "request_reason": "Street Light Outage/Malfunction",
    "date_created": "2024-02-15T15:46:02.000",
    "date_modified": "2024-02-15T15:46:03.000",
    "request_status": "Pending",
    "responsible_agency": "Department of Public Works",
    "final_address": "1 Bluebird St",
    "address_councildis": "D",
    "status": "Assigned to Contractor",
    "contractor": "Legacy Professional Services",
    "rowid": "1068048",
    "final_x": "3672900.58561",
    "final_y": "554589.540504",
    "longitude": "-90.09443661236578",
    "latitude": "30.019187262360933",
    "geocoded_column": {
      "latitude": "30.019187262360933",
      "longitude": "-90.09443661236578"
    }
  },
  {
    "service_request": "2024-1068047",
    "request_type": "Roads/Drainage",
    "request_reason": "WaterMain Break",
    "date_created": "2024-02-15T15:44:31.000",
    "date_modified": "2024-02-15T15:44:31.000",
    "request_status": "Pending",
    "responsible_agency": "Department of Public Works",
    "final_address": "2411 Bristol Pl",
    "address_councildis": "C",
    "status": "Pending",
    "rowid": "1068047",
    "final_x": "3702591.41098",
    "final_y": "522194.444474",
    "longitude": "-90.00181390362789",
    "latitude": "29.929196450072986",
    "geocoded_column": {
      "latitude": "29.929196450072986",
      "longitude": "-90.00181390362789"
    }
  },
  {
    "service_request": "2024-1068046",
    "request_type": "Property Maintenance",
    "request_reason": "Property Maintenance",
    "date_created": "2024-02-15T15:43:03.000",
    "date_modified": "2024-02-15T15:43:03.000",
    "request_status": "Pending",
    "responsible_agency": "Department of Code Enforcement",
    "final_address": "2043 Lafreniere St",
    "address_councildis": "D",
    "status": "Pending",
    "rowid": "1068046",
    "final_x": "3683277.13",
    "final_y": "545537.430544",
    "longitude": "-90.06196768400629",
    "latitude": "29.99398465913264",
    "geocoded_column": {
      "latitude": "29.99398465913264",
      "longitude": "-90.06196768400629"
    }
  },
  {
    "service_request": "2024-1068045",
    "request_type": "Trash/Recycling",
    "request_reason": "Replace Recycling Cart",
    "date_created": "2024-02-15T15:41:19.000",
    "date_modified": "2024-02-15T15:41:20.000",
    "request_status": "Pending",
    "responsible_agency": "Department of Sanitation",
    "final_address": "3401 Octavia St",
    "address_councildis": "A",
    "status": "Pending",
    "rowid": "1068045",
    "final_x": "3668521.57415",
    "final_y": "528054.159359",
    "longitude": "-90.10916856848783",
    "latitude": "29.946353428097954",
    "geocoded_column": {
      "latitude": "29.946353428097954",
      "longitude": "-90.10916856848783"
    }
  },
  {
    "service_request": "2024-1068044",
    "request_type": "Trash/Recycling",
    "request_reason": "Replace Recycling Cart",
    "date_created": "2024-02-15T15:40:28.000",
    "date_modified": "2024-02-15T15:43:56.000",
    "case_close_date": "2024-02-15T09:43:56.000",
    "request_status": "Closed",
    "responsible_agency": "Department of Sanitation",
    "final_address": "3401 Octavia St",
    "address_councildis": "A",
    "status": "Duplicate Request",
    "rowid": "1068044",
    "final_x": "3668521.57415",
    "final_y": "528054.159359",
    "longitude": "-90.10916856848783",
    "latitude": "29.946353428097954",
    "geocoded_column": {
      "latitude": "29.946353428097954",
      "longitude": "-90.10916856848783"
    }
  },
  {
    "service_request": "2024-1068043",
    "request_type": "Trash/Recycling",
    "request_reason": "Replace Trash Cart",
    "date_created": "2024-02-15T15:40:11.000",
    "date_modified": "2024-02-15T15:40:11.000",
    "request_status": "Pending",
    "responsible_agency": "Department of Sanitation",
    "final_address": "3401 Octavia St",
    "address_councildis": "A",
    "status": "Assigned to Contractor",
    "contractor": "Richards Disposal",
    "rowid": "1068043",
    "final_x": "3668521.57415",
    "final_y": "528054.159359",
    "longitude": "-90.10916856848783",
    "latitude": "29.946353428097954",
    "geocoded_column": {
      "latitude": "29.946353428097954",
      "longitude": "-90.10916856848783"
    }
  },
  {
    "service_request": "2024-1068042",
    "request_type": "Trash/Recycling",
    "request_reason": "Replace Trash Cart",
    "date_created": "2024-02-15T15:40:01.000",
    "date_modified": "2024-02-15T15:40:02.000",
    "request_status": "Pending",
    "responsible_agency": "Department of Sanitation",
    "final_address": "3143 Marais St",
    "address_councildis": "C",
    "status": "Assigned to Contractor",
    "contractor": "IV Waste",
    "rowid": "1068042",
    "final_x": "3689434.74927",
    "final_y": "536299.718727",
    "longitude": "-90.04284534077743",
    "latitude": "29.9683949415929",
    "geocoded_column": {
      "latitude": "29.9683949415929",
      "longitude": "-90.04284534077743"
    }
  },
  {
    "service_request": "2024-1068041",
    "request_type": "Traffic Signals/Signs/Striping/Streetlights",
    "request_reason": "Street Light Outage/Malfunction",
    "date_created": "2024-02-15T15:32:56.000",
    "date_modified": "2024-02-15T15:32:56.000",
    "request_status": "Pending",
    "responsible_agency": "Department of Public Works",
    "final_address": "1992 Hendee St",
    "address_councildis": "C",
    "status": "Assigned to Contractor",
    "contractor": "Legacy Professional Services",
    "rowid": "1068041",
    "final_x": "3690645.9862",
    "final_y": "523443.052987",
    "longitude": "-90.03947867639467",
    "latitude": "29.933005982010858",
    "geocoded_column": {
      "latitude": "29.933005982010858",
      "longitude": "-90.03947867639467"
    }
  },
  {
    "service_request": "2024-1068040",
    "request_type": "Traffic Signals/Signs/Striping/Streetlights",
    "request_reason": "Street Light Outage/Malfunction",
    "date_created": "2024-02-15T15:31:17.000",
    "date_modified": "2024-02-15T15:31:18.000",
    "request_status": "Pending",
    "responsible_agency": "Department of Public Works",
    "final_address": "1972 Hendee St",
    "address_councildis": "C",
    "status": "Assigned to Contractor",
    "contractor": "Legacy Professional Services",
    "rowid": "1068040",
    "final_x": "3690652.4031",
    "final_y": "523558.398459",
    "longitude": "-90.0394543069497",
    "latitude": "29.933322943780126",
    "geocoded_column": {
      "latitude": "29.933322943780126",
      "longitude": "-90.0394543069497"
    }
  },
  {
    "service_request": "2024-1068039",
    "request_type": "Trash/Recycling",
    "request_reason": "Illegal Dumping",
    "date_created": "2024-02-15T15:31:05.000",
    "date_modified": "2024-02-15T15:31:05.000",
    "request_status": "Pending",
    "responsible_agency": "Department of Sanitation",
    "final_address": "2013 Dumaine St",
    "address_councildis": "D",
    "status": "Pending",
    "rowid": "1068039",
    "final_x": "3679275.46517",
    "final_y": "535941.554887",
    "longitude": "-90.0749412704264",
    "latitude": "29.967720811895013",
    "geocoded_column": {
      "latitude": "29.967720811895013",
      "longitude": "-90.0749412704264"
    }
  },
  {
    "service_request": "2024-1068038",
    "request_type": "Traffic Signals/Signs/Striping/Streetlights",
    "request_reason": "Traffic Sign Missing/Damaged",
    "date_created": "2024-02-15T15:30:50.000",
    "date_modified": "2024-02-15T15:30:50.000",
    "request_status": "Pending",
    "responsible_agency": "Department of Public Works",
    "final_address": "4300 Duplessis St",
    "address_councildis": "D",
    "status": "Pending",
    "rowid": "1068038",
    "final_x": "3678224.70075",
    "final_y": "548042.609682",
    "longitude": "-90.07784088831436",
    "latitude": "30.001026192258312",
    "geocoded_column": {
      "latitude": "30.001026192258312",
      "longitude": "-90.07784088831436"
    }
  },
  {
    "service_request": "2024-1068037",
    "request_type": "Traffic Signals/Signs/Striping/Streetlights",
    "request_reason": "Street Light Outage/Malfunction",
    "date_created": "2024-02-15T15:29:27.000",
    "date_modified": "2024-02-15T15:29:28.000",
    "request_status": "Pending",
    "responsible_agency": "Department of Public Works",
    "final_address": "1964 Hendee St",
    "address_councildis": "C",
    "status": "Assigned to Contractor",
    "contractor": "Legacy Professional Services",
    "rowid": "1068037",
    "final_x": "3690650.06633",
    "final_y": "523596.367547",
    "longitude": "-90.03946033044735",
    "latitude": "29.933427418472206",
    "geocoded_column": {
      "latitude": "29.933427418472206",
      "longitude": "-90.03946033044735"
    }
  },
  {
    "service_request": "2024-1068036",
    "request_type": "Trash/Recycling",
    "request_reason": "Illegal Dumping",
    "date_created": "2024-02-15T15:29:19.000",
    "date_modified": "2024-02-15T15:29:19.000",
    "request_status": "Pending",
    "responsible_agency": "Department of Sanitation",
    "final_address": "2017 Dumaine St",
    "address_councildis": "D",
    "status": "Pending",
    "rowid": "1068036",
    "final_x": "3679256.59829",
    "final_y": "535963.853447",
    "longitude": "-90.07500007920878",
    "latitude": "29.96778269502809",
    "geocoded_column": {
      "latitude": "29.96778269502809",
      "longitude": "-90.07500007920878"
    }
  },
  {
    "service_request": "2024-1068035",
    "request_type": "Traffic Signals/Signs/Striping/Streetlights",
    "request_reason": "Street Light Outage/Malfunction",
    "date_created": "2024-02-15T15:28:20.000",
    "date_modified": "2024-02-15T15:28:20.000",
    "request_status": "Pending",
    "responsible_agency": "Department of Public Works",
    "final_address": "1956 Hendee St",
    "address_councildis": "C",
    "status": "Assigned to Contractor",
    "contractor": "Legacy Professional Services",
    "rowid": "1068035",
    "final_x": "3690651.23555",
    "final_y": "523636.674235",
    "longitude": "-90.03945520244768",
    "latitude": "29.933538211913582",
    "geocoded_column": {
      "latitude": "29.933538211913582",
      "longitude": "-90.03945520244768"
    }
  },
  {
    "service_request": "2024-1068034",
    "request_type": "Traffic Signals/Signs/Striping/Streetlights",
    "request_reason": "Street Light Outage/Malfunction",
    "date_created": "2024-02-15T15:26:56.000",
    "date_modified": "2024-02-15T15:26:57.000",
    "request_status": "Pending",
    "responsible_agency": "Department of Public Works",
    "final_address": "1940 Hendee St",
    "address_councildis": "C",
    "status": "Assigned to Contractor",
    "contractor": "Legacy Professional Services",
    "rowid": "1068034",
    "final_x": "3690662.33462",
    "final_y": "523712.028411",
    "longitude": "-90.0394174771064",
    "latitude": "29.933745065757147",
    "geocoded_column": {
      "latitude": "29.933745065757147",
      "longitude": "-90.0394174771064"
    }
  },
  {
    "service_request": "2024-1068033",
    "request_type": "Traffic Signals/Signs/Striping/Streetlights",
    "request_reason": "Street Light Outage/Malfunction",
    "date_created": "2024-02-15T15:25:42.000",
    "date_modified": "2024-02-15T15:25:42.000",
    "request_status": "Pending",
    "responsible_agency": "Department of Public Works",
    "final_address": "1928 Hendee St",
    "address_councildis": "C",
    "status": "Assigned to Contractor",
    "contractor": "Legacy Professional Services",
    "rowid": "1068033",
    "final_x": "3690659.58774",
    "final_y": "523781.188539",
    "longitude": "-90.03942368335505",
    "latitude": "29.9339353179731",
    "geocoded_column": {
      "latitude": "29.9339353179731",
      "longitude": "-90.03942368335505"
    }
  },
  {
    "service_request": "2024-1068032",
    "request_type": "Traffic Signals/Signs/Striping/Streetlights",
    "request_reason": "Traffic Signal Malfunctioning/Damaged",
    "date_created": "2024-02-15T15:25:16.000",
    "date_modified": "2024-02-15T15:25:16.000",
    "request_status": "Pending",
    "responsible_agency": "Department of Public Works",
    "final_address": "POYDRAS ST & TCHOUPITOULAS ST",
    "address_councildis": "B",
    "status": "Pending",
    "rowid": "1068032",
    "final_x": "3681889.0",
    "final_y": "529116.48",
    "longitude": "-90.06692588082657",
    "latitude": "29.948874998826515",
    "geocoded_column": {
      "latitude": "29.948874998826515",
      "longitude": "-90.06692588082657"
    }
  },
  {
    "service_request": "2024-1068031",
    "request_type": "Traffic Signals/Signs/Striping/Streetlights",
    "request_reason": "Street Light Outage/Malfunction",
    "date_created": "2024-02-15T15:24:15.000",
    "date_modified": "2024-02-15T15:24:15.000",
    "request_status": "Pending",
    "responsible_agency": "Department of Public Works",
    "final_address": "1908 Hendee St",
    "address_councildis": "C",
    "status": "Assigned to Contractor",
    "contractor": "Legacy Professional Services",
    "rowid": "1068031",
    "final_x": "3690659.82928",
    "final_y": "523882.12198",
    "longitude": "-90.03941932263189",
    "latitude": "29.934212843238424",
    "geocoded_column": {
      "latitude": "29.934212843238424",
      "longitude": "-90.03941932263189"
    }
  },
  {
    "service_request": "2024-1068030",
    "request_type": "Trash/Recycling",
    "request_reason": "Repair Trash Cart",
    "date_created": "2024-02-15T15:23:29.000",
    "date_modified": "2024-02-15T15:23:29.000",
    "request_status": "Pending",
    "responsible_agency": "Department of Sanitation",
    "final_address": "124 S Solomon St",
    "address_councildis": "A",
    "status": "Assigned to Contractor",
    "contractor": "Richards Disposal",
    "rowid": "1068030",
    "final_x": "3670488.55239",
    "final_y": "538443.536393",
    "longitude": "-90.10260578177494",
    "latitude": "29.97486283688435",
    "geocoded_column": {
      "latitude": "29.97486283688435",
      "longitude": "-90.10260578177494"
    }
  },
  {
    "service_request": "2024-1068029",
    "request_type": "Trash/Recycling",
    "request_reason": "Request a Large Item Pick Up",
    "date_created": "2024-02-15T15:11:44.000",
    "date_modified": "2024-02-15T15:11:45.000",
    "request_status": "Pending",
    "responsible_agency": "Department of Sanitation",
    "final_address": "7736 Nelson St",
    "address_councildis": "A",
    "status": "Assigned to Contractor",
    "contractor": "Richards Disposal",
    "rowid": "1068029",
    "final_x": "3665957.28685",
    "final_y": "531021.161986",
    "longitude": "-90.11716552607089",
    "latitude": "29.954586802751987",
    "geocoded_column": {
      "latitude": "29.954586802751987",
      "longitude": "-90.11716552607089"
    }
  },
  {
    "service_request": "2024-1068028",
    "request_type": "Trash/Recycling",
    "request_reason": "Missed Trash Pick-Up",
    "date_created": "2024-02-15T15:11:14.000",
    "date_modified": "2024-02-15T15:11:15.000",
    "request_status": "Pending",
    "responsible_agency": "Department of Sanitation",
    "final_address": "1619 Tupelo St",
    "address_councildis": "E",
    "status": "Assigned to Contractor",
    "contractor": "Waste Pro",
    "rowid": "1068028",
    "final_x": "3700299.56439",
    "final_y": "535212.66375",
    "longitude": "-90.00857364631355",
    "latitude": "29.965065000896796",
    "geocoded_column": {
      "latitude": "29.965065000896796",
      "longitude": "-90.00857364631355"
    }
  },
  {
    "service_request": "2024-1068027",
    "request_type": "Roads/Drainage",
    "request_reason": "Road Shoulder Repair",
    "date_created": "2024-02-15T15:08:17.000",
    "date_modified": "2024-02-15T15:08:18.000",
    "request_status": "Pending",
    "responsible_agency": "Department of Public Works",
    "final_address": "616 Port St",
    "address_councildis": "C",
    "status": "Pending",
    "rowid": "1068027",
    "final_x": "3686955.64841",
    "final_y": "534682.130246",
    "longitude": "-90.0507316233579",
    "latitude": "29.96402367496215",
    "geocoded_column": {
      "latitude": "29.96402367496215",
      "longitude": "-90.0507316233579"
    }
  },
  {
    "service_request": "2024-1068026",
    "request_type": "Trash/Recycling",
    "request_reason": "Missed Trash Pick-Up",
    "date_created": "2024-02-15T15:06:47.000",
    "date_modified": "2024-02-15T15:06:47.000",
    "request_status": "Pending",
    "responsible_agency": "Department of Sanitation",
    "final_address": "7232 Bunker Hill Rd",
    "address_councildis": "E",
    "status": "Assigned to Contractor",
    "contractor": "Waste Pro",
    "rowid": "1068026",
    "final_x": "3705490.58347",
    "final_y": "561152.946462",
    "longitude": "-89.99122134748191",
    "latitude": "30.036224927261273",
    "geocoded_column": {
      "latitude": "30.036224927261273",
      "longitude": "-89.99122134748191"
    }
  },
  {
    "service_request": "2024-1068025",
    "request_type": "Trash/Recycling",
    "request_reason": "Missed Trash Pick-Up",
    "date_created": "2024-02-15T15:03:41.000",
    "date_modified": "2024-02-15T15:03:41.000",
    "request_status": "Pending",
    "responsible_agency": "Department of Sanitation",
    "final_address": "38 Tennyson Pl",
    "address_councildis": "C",
    "status": "Assigned to Contractor",
    "contractor": "Richards Disposal",
    "rowid": "1068025",
    "final_x": "3705244.54667",
    "final_y": "517533.957558",
    "longitude": "-89.99361054773802",
    "latitude": "29.916296689566348",
    "geocoded_column": {
      "latitude": "29.916296689566348",
      "longitude": "-89.99361054773802"
    }
  },
  {
    "service_request": "2024-1068024",
    "request_type": "Roads/Drainage",
    "request_reason": "Pothole",
    "date_created": "2024-02-15T15:03:35.000",
    "date_modified": "2024-02-15T15:03:35.000",
    "request_status": "Pending",
    "responsible_agency": "Department of Public Works",
    "final_address": "312 Royal St",
    "address_councildis": "C",
    "status": "Pending",
    "rowid": "1068024",
    "final_x": "3681755.15112",
    "final_y": "531375.624066",
    "longitude": "-90.0672696840041",
    "latitude": "29.955090948489833",
    "geocoded_column": {
      "latitude": "29.955090948489833",
      "longitude": "-90.0672696840041"
    }
  },
  {
    "service_request": "2024-1068023",
    "request_type": "Abandoned Vehicles",
    "request_reason": "Abandoned/Junk Vehicles",
    "date_created": "2024-02-15T15:03:22.000",
    "date_modified": "2024-02-15T15:03:22.000",
    "request_status": "Pending",
    "responsible_agency": "Department of Public Works",
    "final_address": "3115 Constance St",
    "address_councildis": "B",
    "status": "Pending",
    "rowid": "1068023",
    "final_x": "3676180.29089",
    "final_y": "519855.825464",
    "longitude": "-90.08526923426591",
    "latitude": "29.923583484026533",
    "geocoded_column": {
      "latitude": "29.923583484026533",
      "longitude": "-90.08526923426591"
    }
  },
  {
    "service_request": "2024-1068022",
    "request_type": "Trash/Recycling",
    "request_reason": "MIssed Recycling Pick-Up",
    "date_created": "2024-02-15T15:02:13.000",
    "date_modified": "2024-02-15T15:02:14.000",
    "request_status": "Pending",
    "responsible_agency": "Department of Sanitation",
    "final_address": "2032 Jefferson Ave",
    "address_councildis": "A",
    "status": "Assigned to Contractor",
    "contractor": "Richards Disposal",
    "rowid": "1068022",
    "final_x": "3667652.09274",
    "final_y": "523277.828155",
    "longitude": "-90.1120745672925",
    "latitude": "29.933245567747143",
    "geocoded_column": {
      "latitude": "29.933245567747143",
      "longitude": "-90.1120745672925"
    }
  },
  {
    "service_request": "2024-1068021",
    "request_type": "Roads/Drainage",
    "request_reason": "Street Subsidence (Sinking)",
    "date_created": "2024-02-15T14:58:07.000",
    "date_modified": "2024-02-15T14:58:07.000",
    "request_status": "Pending",
    "responsible_agency": "Department of Public Works",
    "final_address": "1602 Broadway St",
    "address_councildis": "A",
    "status": "Pending",
    "rowid": "1068021",
    "final_x": "3664922.91143",
    "final_y": "527735.954879",
    "longitude": "-90.1205414907135",
    "latitude": "29.94558369279137",
    "geocoded_column": {
      "latitude": "29.94558369279137",
      "longitude": "-90.1205414907135"
    }
  },
  {
    "service_request": "2024-1068020",
    "request_type": "Trash/Recycling",
    "request_reason": "Request a Large Item Pick Up",
    "date_created": "2024-02-15T14:53:19.000",
    "date_modified": "2024-02-15T14:53:19.000",
    "request_status": "Pending",
    "responsible_agency": "Department of Sanitation",
    "final_address": "4523 Montegut Dr",
    "address_councildis": "D",
    "status": "Assigned to Contractor",
    "contractor": "IV Waste",
    "rowid": "1068020",
    "final_x": "3690206.40579",
    "final_y": "550194.491412",
    "longitude": "-90.03991310148501",
    "latitude": "30.006576656712383",
    "geocoded_column": {
      "latitude": "30.006576656712383",
      "longitude": "-90.03991310148501"
    }
  },
  {
    "service_request": "2024-1068019",
    "request_type": "Abandoned Vehicles",
    "request_reason": "Abandoned/Junk Vehicles",
    "date_created": "2024-02-15T14:51:33.000",
    "date_modified": "2024-02-15T14:52:56.000",
    "request_status": "Pending",
    "responsible_agency": "Department of Public Works",
    "final_address": "700 BLK Robert St",
    "address_councildis": "B",
    "status": "Pending",
    "rowid": "1068019",
    "final_x": "3668623.67715",
    "final_y": "518029.481773",
    "longitude": "-90.10918433814149",
    "latitude": "29.9187857722922",
    "geocoded_column": {
      "latitude": "29.9187857722922",
      "longitude": "-90.10918433814149"
    }
  },
  {
    "service_request": "2024-1068018",
    "request_type": "Trash/Recycling",
    "request_reason": "Request a Large Item Pick Up",
    "date_created": "2024-02-15T14:50:10.000",
    "date_modified": "2024-02-15T14:50:11.000",
    "request_status": "Pending",
    "responsible_agency": "Department of Sanitation",
    "final_address": "2642 Touro St",
    "address_councildis": "D",
    "status": "Assigned to Contractor",
    "contractor": "IV Waste",
    "rowid": "1068018",
    "final_x": "3683721.76143",
    "final_y": "542196.150349",
    "longitude": "-90.06068038555604",
    "latitude": "29.984783750202634",
    "geocoded_column": {
      "latitude": "29.984783750202634",
      "longitude": "-90.06068038555604"
    }
  },
  {
    "service_request": "2024-1068017",
    "request_type": "Trash/Recycling",
    "request_reason": "Repair Trash Cart",
    "date_created": "2024-02-15T14:48:20.000",
    "date_modified": "2024-02-15T14:48:20.000",
    "request_status": "Pending",
    "responsible_agency": "Department of Sanitation",
    "final_address": "2604 New Orleans St",
    "address_councildis": "D",
    "status": "Assigned to Contractor",
    "contractor": "IV Waste",
    "rowid": "1068017",
    "final_x": "3681928.46063",
    "final_y": "541682.933644",
    "longitude": "-90.06636256532681",
    "latitude": "29.98342722908629",
    "geocoded_column": {
      "latitude": "29.98342722908629",
      "longitude": "-90.06636256532681"
    }
  },
  {
    "service_request": "2024-1068015",
    "request_type": "Trash/Recycling",
    "request_reason": "Missed Trash Pick-Up",
    "date_created": "2024-02-15T14:45:11.000",
    "date_modified": "2024-02-15T15:06:24.000",
    "case_close_date": "2024-02-15T09:06:24.000",
    "request_status": "Closed",
    "responsible_agency": "Department of Sanitation",
    "final_address": "6721 W Laverne St",
    "address_councildis": "D",
    "status": "Invalid Request",
    "contractor": "Waste Pro",
    "contractor_action": "Invalid Request",
    "rowid": "1068015",
    "final_x": "3696279.92259",
    "final_y": "555767.648729",
    "longitude": "-90.02052367613254",
    "latitude": "30.021710839243163",
    "geocoded_column": {
      "latitude": "30.021710839243163",
      "longitude": "-90.02052367613254"
    }
  },
  {
    "service_request": "2024-1068016",
    "request_type": "Trash/Recycling",
    "request_reason": "Missed Trash Pick-Up",
    "date_created": "2024-02-15T14:45:11.000",
    "date_modified": "2024-02-15T14:45:12.000",
    "request_status": "Pending",
    "responsible_agency": "Department of Sanitation",
    "final_address": "919 Cherokee St",
    "address_councildis": "A",
    "status": "Assigned to Contractor",
    "contractor": "Richards Disposal",
    "rowid": "1068016",
    "final_x": "3662981.55744",
    "final_y": "526277.209854",
    "longitude": "-90.12671950845396",
    "latitude": "29.941628967088967",
    "geocoded_column": {
      "latitude": "29.941628967088967",
      "longitude": "-90.12671950845396"
    }
  },
  {
    "service_request": "2024-1068014",
    "request_type": "Trash/Recycling",
    "request_reason": "Request a Large Item Pick Up",
    "date_created": "2024-02-15T14:42:25.000",
    "date_modified": "2024-02-15T14:42:26.000",
    "request_status": "Pending",
    "responsible_agency": "Department of Sanitation",
    "final_address": "3221 Elmwood Park Dr",
    "address_councildis": "C",
    "status": "Assigned to Contractor",
    "contractor": "Richards Disposal",
    "rowid": "1068014",
    "final_x": "3694908.0081",
    "final_y": "518268.22815",
    "longitude": "-90.02621020273618",
    "latitude": "29.918643952674355",
    "geocoded_column": {
      "latitude": "29.918643952674355",
      "longitude": "-90.02621020273618"
    }
  },
  {
    "service_request": "2024-1068013",
    "request_type": "Trash/Recycling",
    "request_reason": "Missed Trash Pick-Up",
    "date_created": "2024-02-15T14:41:41.000",
    "date_modified": "2024-02-15T14:48:24.000",
    "case_close_date": "2024-02-15T08:48:24.000",
    "request_status": "Closed",
    "responsible_agency": "Department of Sanitation",
    "final_address": "1230 Mandeville St",
    "address_councildis": "C",
    "status": "Invalid Request",
    "contractor": "IV Waste",
    "contractor_action": "Invalid Pick-Up",
    "rowid": "1068013",
    "final_x": "3685696.1341",
    "final_y": "536973.42708",
    "longitude": "-90.05462830086975",
    "latitude": "29.97036265155399",
    "geocoded_column": {
      "latitude": "29.97036265155399",
      "longitude": "-90.05462830086975"
    }
  },
  {
    "service_request": "2024-1068012",
    "request_type": "Roads/Drainage",
    "request_reason": "Pothole",
    "date_created": "2024-02-15T14:37:42.000",
    "date_modified": "2024-02-15T14:38:07.000",
    "case_close_date": "2024-02-15T08:38:07.000",
    "request_status": "Closed",
    "responsible_agency": "Department of Public Works",
    "final_address": "3000 BLK General Taylor St",
    "address_councildis": "B",
    "status": "Resolved",
    "rowid": "1068012",
    "final_x": "3671420.73094",
    "final_y": "526191.623586",
    "longitude": "-90.10007818560922",
    "latitude": "29.941146577740618",
    "geocoded_column": {
      "latitude": "29.941146577740618",
      "longitude": "-90.10007818560922"
    }
  },
  {
    "service_request": "2024-1068011",
    "request_type": "Roads/Drainage",
    "request_reason": "Pothole",
    "date_created": "2024-02-15T14:32:47.000",
    "date_modified": "2024-02-15T14:32:48.000",
    "request_status": "Pending",
    "responsible_agency": "Department of Public Works",
    "final_address": "2657 Acacia St",
    "address_councildis": "D",
    "status": "Pending",
    "rowid": "1068011",
    "final_x": "3687603.7503",
    "final_y": "546432.249873",
    "longitude": "-90.04826883860332",
    "latitude": "29.996312381231807",
    "geocoded_column": {
      "latitude": "29.996312381231807",
      "longitude": "-90.04826883860332"
    }
  },
  {
    "service_request": "2024-1068010",
    "request_type": "Mosquito, Termite & Rodent Control",
    "request_reason": "Mosquito Complaint",
    "date_created": "2024-02-15T14:30:25.000",
    "date_modified": "2024-02-15T14:30:26.000",
    "request_status": "Pending",
    "responsible_agency": "Mosquito, Termite & Rodent Control Board",
    "final_address": "7620 Endeavors Ct",
    "address_councildis": "E",
    "status": "Pending",
    "rowid": "1068010",
    "final_x": "3725747.84185",
    "final_y": "571063.212391",
    "longitude": "-89.92682095902613",
    "latitude": "30.06280605260868",
    "geocoded_column": {
      "latitude": "30.06280605260868",
      "longitude": "-89.92682095902613"
    }
  },
  {
    "service_request": "2024-1068009",
    "request_type": "Roads/Drainage",
    "request_reason": "Street Flooding / Drainage",
    "date_created": "2024-02-15T14:20:16.000",
    "date_modified": "2024-02-15T14:20:16.000",
    "request_status": "Pending",
    "responsible_agency": "Department of Public Works",
    "final_address": "4527 Magazine St",
    "address_councildis": "B",
    "status": "Pending",
    "rowid": "1068009",
    "final_x": "3670425.97742",
    "final_y": "518766.249143",
    "longitude": "-90.10347043940386",
    "latitude": "29.920758581833628",
    "geocoded_column": {
      "latitude": "29.920758581833628",
      "longitude": "-90.10347043940386"
    }
  },
  {
    "service_request": "2024-1068008",
    "request_type": "Trash/Recycling",
    "request_reason": "Request a Large Item Pick Up",
    "date_created": "2024-02-15T14:18:11.000",
    "date_modified": "2024-02-15T14:18:11.000",
    "request_status": "Pending",
    "responsible_agency": "Department of Sanitation",
    "final_address": "8910 Olive St",
    "address_councildis": "A",
    "status": "Assigned to Contractor",
    "contractor": "Richards Disposal",
    "rowid": "1068008",
    "final_x": "3665058.41229",
    "final_y": "536123.051783",
    "longitude": "-90.11983322369574",
    "latitude": "29.968641528815535",
    "geocoded_column": {
      "latitude": "29.968641528815535",
      "longitude": "-90.11983322369574"
    }
  },
  {
    "service_request": "2024-1068007",
    "request_type": "Roads/Drainage",
    "request_reason": "Man hole cover issue",
    "date_created": "2024-02-15T14:17:45.000",
    "date_modified": "2024-02-15T14:17:45.000",
    "request_status": "Pending",
    "responsible_agency": "Department of Public Works",
    "final_address": "5500 Chef Menteur Hwy",
    "address_councildis": "E",
    "status": "Pending",
    "rowid": "1068007",
    "final_x": "3695005.2881",
    "final_y": "550976.596565",
    "longitude": "-90.02472405438645",
    "latitude": "30.0085773354638",
    "geocoded_column": {
      "latitude": "30.0085773354638",
      "longitude": "-90.02472405438645"
    }
  },
  {
    "service_request": "2024-1068006",
    "request_type": "Roads/Drainage",
    "request_reason": "Man hole cover issue",
    "date_created": "2024-02-15T14:14:16.000",
    "date_modified": "2024-02-15T14:14:48.000",
    "case_close_date": "2024-02-15T08:14:48.000",
    "request_status": "Closed",
    "responsible_agency": "Department of Public Works",
    "final_address": "25505 Chef Menteur Hwy",
    "address_councildis": "E",
    "status": "Resolved",
    "rowid": "1068006",
    "final_x": "3780221.78725",
    "final_y": "599972.606274",
    "longitude": "-89.75337255065112",
    "latitude": "30.14034142554623",
    "geocoded_column": {
      "latitude": "30.14034142554623",
      "longitude": "-89.75337255065112"
    }
  },
  {
    "service_request": "2024-1068005",
    "request_type": "Traffic Signals/Signs/Striping/Streetlights",
    "request_reason": "Street Light Outage/Malfunction",
    "date_created": "2024-02-15T14:11:08.000",
    "date_modified": "2024-02-15T14:11:09.000",
    "request_status": "Pending",
    "responsible_agency": "Department of Public Works",
    "final_address": "523 Homer St",
    "address_councildis": "C",
    "status": "Assigned to Contractor",
    "contractor": "Legacy Professional Services",
    "rowid": "1068005",
    "final_x": "3687132.7862",
    "final_y": "528290.139712",
    "longitude": "-90.05039824349029",
    "latitude": "29.946442444948033",
    "geocoded_column": {
      "latitude": "29.946442444948033",
      "longitude": "-90.05039824349029"
    }
  },
  {
    "service_request": "2024-1068004",
    "request_type": "Roads/Drainage",
    "request_reason": "Street Flooding / Drainage",
    "date_created": "2024-02-15T14:10:34.000",
    "date_modified": "2024-02-15T14:10:34.000",
    "request_status": "Pending",
    "responsible_agency": "Department of Public Works",
    "final_address": "755 Tchoupitoulas St",
    "address_councildis": "B",
    "status": "Pending",
    "rowid": "1068004",
    "final_x": "3681696.22428",
    "final_y": "527755.545663",
    "longitude": "-90.06758202365367",
    "latitude": "29.945138743730265",
    "geocoded_column": {
      "latitude": "29.945138743730265",
      "longitude": "-90.06758202365367"
    }
  },
  {
    "service_request": "2024-1068003",
    "request_type": "Trash/Recycling",
    "request_reason": "Repair Trash Cart",
    "date_created": "2024-02-15T14:09:06.000",
    "date_modified": "2024-02-15T14:09:06.000",
    "request_status": "Pending",
    "responsible_agency": "Department of Sanitation",
    "final_address": "1523 Broadway St",
    "address_councildis": "A",
    "status": "Assigned to Contractor",
    "contractor": "Richards Disposal",
    "rowid": "1068003",
    "final_x": "3664930.00244",
    "final_y": "527516.074047",
    "longitude": "-90.12052645008423",
    "latitude": "29.94497888485074",
    "geocoded_column": {
      "latitude": "29.94497888485074",
      "longitude": "-90.12052645008423"
    }
  },
  {
    "service_request": "2024-1068002",
    "request_type": "Abandoned Vehicles",
    "request_reason": "Abandoned/Junk Vehicles",
    "date_created": "2024-02-15T14:04:11.000",
    "date_modified": "2024-02-15T14:04:12.000",
    "request_status": "Pending",
    "responsible_agency": "Department of Public Works",
    "final_address": "4928 Sherwood Dr",
    "address_councildis": "E",
    "status": "Pending",
    "rowid": "1068002",
    "final_x": "3717833.1493",
    "final_y": "557919.512091",
    "longitude": "-89.95234004617127",
    "latitude": "30.02693100265227",
    "geocoded_column": {
      "latitude": "30.02693100265227",
      "longitude": "-89.95234004617127"
    }
  },
  {
    "service_request": "2024-1068001",
    "request_type": "Trash/Recycling",
    "request_reason": "Replace Recycling Cart",
    "date_created": "2024-02-15T14:03:34.000",
    "date_modified": "2024-02-15T14:03:34.000",
    "request_status": "Pending",
    "responsible_agency": "Department of Sanitation",
    "final_address": "4430 Lafaye St",
    "address_councildis": "D",
    "status": "Pending",
    "rowid": "1068001",
    "final_x": "3687494.96444",
    "final_y": "549162.262803",
    "longitude": "-90.04851578586843",
    "latitude": "30.003822282581194",
    "geocoded_column": {
      "latitude": "30.003822282581194",
      "longitude": "-90.04851578586843"
    }
  },
  {
    "service_request": "2024-1068000",
    "request_type": "Trash/Recycling",
    "request_reason": "Missed Trash Pick-Up",
    "date_created": "2024-02-15T14:02:01.000",
    "date_modified": "2024-02-15T14:13:30.000",
    "case_close_date": "2024-02-15T08:13:29.000",
    "request_status": "Closed",
    "responsible_agency": "Department of Sanitation",
    "final_address": "2361 N Robertson St",
    "address_councildis": "C",
    "status": "Invalid Request",
    "contractor": "IV Waste",
    "contractor_action": "Invalid Request",
    "rowid": "1068000",
    "final_x": "3686179.49129",
    "final_y": "537912.123721",
    "longitude": "-90.05306868590394",
    "latitude": "29.972928898802405",
    "geocoded_column": {
      "latitude": "29.972928898802405",
      "longitude": "-90.05306868590394"
    }
  },
  {
    "service_request": "2024-1067999",
    "request_type": "Trash/Recycling",
    "request_reason": "Request a Large Item Pick Up",
    "date_created": "2024-02-15T14:01:47.000",
    "date_modified": "2024-02-15T14:01:48.000",
    "request_status": "Pending",
    "responsible_agency": "Department of Sanitation",
    "final_address": "4934 Gabriel Dr",
    "address_councildis": "E",
    "status": "Assigned to Contractor",
    "contractor": "Waste Pro",
    "rowid": "1067999",
    "final_x": "3708719.06155",
    "final_y": "556797.569178",
    "longitude": "-89.9811812374563",
    "latitude": "30.024144982354226",
    "geocoded_column": {
      "latitude": "30.024144982354226",
      "longitude": "-89.9811812374563"
    }
  },
  {
    "service_request": "2024-1067998",
    "request_type": "Abandoned Vehicles",
    "request_reason": "Abandoned/Junk Vehicles",
    "date_created": "2024-02-15T13:59:54.000",
    "date_modified": "2024-02-15T14:02:01.000",
    "request_status": "Pending",
    "responsible_agency": "Department of Public Works",
    "final_address": "7300 Newcastle St",
    "address_councildis": "E",
    "status": "Pending",
    "rowid": "1067998",
    "final_x": "3697458.61123",
    "final_y": "558321.64054",
    "longitude": "-90.01670662441127",
    "latitude": "30.02869615753889",
    "geocoded_column": {
      "latitude": "30.02869615753889",
      "longitude": "-90.01670662441127"
    }
  },
  {
    "service_request": "2024-1067997",
    "request_type": "Trash/Recycling",
    "request_reason": "Missed Trash Pick-Up",
    "date_created": "2024-02-15T13:59:29.000",
    "date_modified": "2024-02-15T15:04:00.000",
    "case_close_date": "2024-02-15T09:04:00.000",
    "request_status": "Closed",
    "responsible_agency": "Department of Sanitation",
    "final_address": "5118 Royal St",
    "address_councildis": "E",
    "status": "Invalid Request",
    "contractor": "Waste Pro",
    "contractor_action": "Invalid Request",
    "rowid": "1067997",
    "final_x": "3695982.41334",
    "final_y": "532654.616324",
    "longitude": "-90.02229931914293",
    "latitude": "29.958167811717384",
    "geocoded_column": {
      "latitude": "29.958167811717384",
      "longitude": "-90.02229931914293"
    }
  },
  {
    "service_request": "2024-1067996",
    "request_type": "Roads/Drainage",
    "request_reason": "Damaged Sidewalk",
    "date_created": "2024-02-15T13:57:04.000",
    "date_modified": "2024-02-15T13:57:05.000",
    "request_status": "Pending",
    "responsible_agency": "Department of Public Works",
    "final_address": "3501 Huntlee Dr",
    "address_councildis": "C",
    "status": "Pending",
    "rowid": "1067996",
    "final_x": "3701650.83997",
    "final_y": "518197.785846",
    "longitude": "-90.00492935332447",
    "latitude": "29.918237036121074",
    "geocoded_column": {
      "latitude": "29.918237036121074",
      "longitude": "-90.00492935332447"
    }
  },
  {
    "service_request": "2024-1067995",
    "request_type": "Trash/Recycling",
    "request_reason": "Order Trash Cart",
    "date_created": "2024-02-15T13:54:34.000",
    "date_modified": "2024-02-15T13:54:35.000",
    "request_status": "Pending",
    "responsible_agency": "Department of Sanitation",
    "final_address": "1800 Andry St B",
    "address_councildis": "E",
    "status": "Assigned to Contractor",
    "contractor": "Waste Pro",
    "rowid": "1067995",
    "final_x": "3697864.80816",
    "final_y": "536636.532871",
    "longitude": "-90.01621073623039",
    "latitude": "29.96905730821308",
    "geocoded_column": {
      "latitude": "29.96905730821308",
      "longitude": "-90.01621073623039"
    }
  },
  {
    "service_request": "2024-1067994",
    "request_type": "Trash/Recycling",
    "request_reason": "Request a Large Item Pick Up",
    "date_created": "2024-02-15T13:51:24.000",
    "date_modified": "2024-02-15T13:51:25.000",
    "request_status": "Pending",
    "responsible_agency": "Department of Sanitation",
    "final_address": "7843 Keats St",
    "address_councildis": "E",
    "status": "Assigned to Contractor",
    "contractor": "Waste Pro",
    "rowid": "1067994",
    "final_x": "3696167.26128",
    "final_y": "559765.300701",
    "longitude": "-90.02073495621127",
    "latitude": "30.032706406751014",
    "geocoded_column": {
      "latitude": "30.032706406751014",
      "longitude": "-90.02073495621127"
    }
  },
  {
    "service_request": "2024-1067993",
    "request_type": "Traffic Signals/Signs/Striping/Streetlights",
    "request_reason": "Traffic Sign Missing/Damaged",
    "date_created": "2024-02-15T13:47:58.000",
    "date_modified": "2024-02-15T13:47:58.000",
    "request_status": "Pending",
    "responsible_agency": "Department of Public Works",
    "final_address": "4500 BLK Tchoupitoulas St",
    "address_councildis": "B",
    "status": "Pending",
    "rowid": "1067993",
    "final_x": "3670614.89364",
    "final_y": "517398.613941",
    "longitude": "-90.10292047234681",
    "latitude": "29.916992441216863",
    "geocoded_column": {
      "latitude": "29.916992441216863",
      "longitude": "-90.10292047234681"
    }
  },
  {
    "service_request": "2024-1067992",
    "request_type": "Trash/Recycling",
    "request_reason": "MIssed Recycling Pick-Up",
    "date_created": "2024-02-15T13:46:45.000",
    "date_modified": "2024-02-15T13:46:46.000",
    "request_status": "Pending",
    "responsible_agency": "Department of Sanitation",
    "final_address": "1745 Arabella St",
    "address_councildis": "A",
    "status": "Assigned to Contractor",
    "contractor": "Richards Disposal",
    "rowid": "1067992",
    "final_x": "3666889.76935",
    "final_y": "522884.683835",
    "longitude": "-90.11449438432834",
    "latitude": "29.932186865174955",
    "geocoded_column": {
      "latitude": "29.932186865174955",
      "longitude": "-90.11449438432834"
    }
  },
  {
    "service_request": "2024-1067991",
    "request_type": "Trash/Recycling",
    "request_reason": "MIssed Recycling Pick-Up",
    "date_created": "2024-02-15T13:44:16.000",
    "date_modified": "2024-02-15T13:44:17.000",
    "request_status": "Pending",
    "responsible_agency": "Department of Sanitation",
    "final_address": "1435 Euterpe St, New Orleans, Louisiana, 70130",
    "address_councildis": "B",
    "status": "Assigned to Contractor",
    "contractor": "Richards Disposal",
    "rowid": "1067991",
    "final_x": "3679484.85288",
    "final_y": "524670.224508",
    "longitude": "-90.07467101783345",
    "latitude": "29.936722117927204",
    "geocoded_column": {
      "latitude": "29.936722117927204",
      "longitude": "-90.07467101783345"
    }
  },