[
  {
    "service_request": "2025-1205577",
    "request_type": "Abandoned Vehicles",
    "request_reason": "Vehicle Blocking Your Driveway",
    "date_created": "2025-06-30T23:56:38.000",
    "date_modified": "2025-06-30T23:56:39.000",
    "request_status": "Pending",
    "responsible_agency": "Department of Public Works",
    "final_address": "3636 prytania",
    "address_councildis": "B",
    "status": "Pending",
    "rowid": "1205577",
    "final_x": "3673359.5883",
    "final_y": "520522.643768",
    "longitude": "-90.09415040197753",
    "latitude": "29.92550119857034",
    "geocoded_column": {
      "latitude": "29.92550119857034",
      "longitude": "-90.09415040197753"
    }
  },
  {
    "service_request": "2025-1205576",
    "request_type": "Streetlights",
    "request_reason": "Streetlight Outage/Malfunction",
    "date_created": "2025-06-30T23:01:10.000",
    "date_modified": "2025-06-30T23:01:12.000",
    "request_status": "Pending",
    "responsible_agency": "Department of Public Works",
    "final_address": "329 Eliza St",
    "address_councildis": "C",
    "status": "Pending",
    "contractor": "Legacy Professional Services",
    "rowid": "1205576",
    "final_x": "3686551.3503",
    "final_y": "529544.547457",
    "longitude": "-90.05218975520512",
    "latitude": "29.949909526614697",
    "geocoded_column": {
      "latitude": "29.949909526614697",
      "longitude": "-90.05218975520512"
    }
  },
  {
    "service_request": "2025-1205575",
    "request_type": "Streetlights",
    "request_reason": "Streetlight Outage/Malfunction",
    "date_created": "2025-06-30T22:59:07.000",
    "date_modified": "2025-06-30T22:59:09.000",
    "request_status": "Pending",
    "responsible_agency": "Department of Public Works",
    "final_address": "601 Seguin St",
    "address_councildis": "C",
    "status": "Pending",
    "contractor": "Legacy Professional Services",
    "rowid": "1205575",
    "final_x": "3686638.85916",
    "final_y": "529608.322177",
    "longitude": "-90.0519111979024",
    "latitude": "29.95008219471011",
    "geocoded_column": {
      "latitude": "29.95008219471011",
      "longitude": "-90.0519111979024"
    }
  },
  {
    "service_request": "2025-1205574",
    "request_type": "Trash/Recycling",
    "request_reason": "Request a Large Item Pick Up",
    "date_created": "2025-06-30T22:49:26.000",
    "date_modified": "2025-06-30T22:49:28.000",
    "request_status": "Pending",
    "responsible_agency": "Department of Sanitation",
    "final_address": "23 Park Timbers Drive ",
    "status": "Assigned to Contractor",
    "rowid": "1205574",
    "longitude": "0.0",
    "latitude": "0.0",
    "geocoded_column": {
      "latitude": "0.0",
      "longitude": "0.0"
    }
  },
  {
    "service_request": "2025-1205573",
    "request_type": "Streetlights",
    "request_reason": "Streetlight Outage/Malfunction",
    "date_created": "2025-06-30T22:25:11.000",
    "date_modified": "2025-06-30T22:25:13.000",
    "request_status": "Pending",
    "responsible_agency": "Department of Public Works",
    "final_address": "WALMSLEY AVE & S BROAD ST & GENERAL TAYLOR",
    "address_councildis": "B",
    "status": "Pending",
    "contractor": "Legacy Professional Services",
    "rowid": "1205573",
    "final_x": "3670672.2",
    "final_y": "529350.88",
    "longitude": "-90.10233428637517",
    "latitude": "29.949855632906203",
    "geocoded_column": {
      "latitude": "29.949855632906203",
      "longitude": "-90.10233428637517"
    }
  },
  {
    "service_request": "2025-1205572",
    "request_type": "Streetlights",
    "request_reason": "Streetlight Outage/Malfunction",
    "date_created": "2025-06-30T22:16:07.000",
    "date_modified": "2025-06-30T22:16:09.000",
    "request_status": "Pending",
    "responsible_agency": "Department of Public Works",
    "final_address": "9761 Andover Dr",
    "address_councildis": "E",
    "status": "Pending",
    "contractor": "Legacy Professional Services",
    "rowid": "1205572",
    "final_x": "3708684.90929",
    "final_y": "561993.540191",
    "longitude": "-89.98109539493595",
    "latitude": "30.038432962958854",
    "geocoded_column": {
      "latitude": "30.038432962958854",
      "longitude": "-89.98109539493595"
    }
  },
  {
    "service_request": "2025-1205571",
    "request_type": "Streetlights",
    "request_reason": "Streetlight Outage/Malfunction",
    "date_created": "2025-06-30T22:00:11.000",
    "date_modified": "2025-06-30T22:00:13.000",
    "request_status": "Pending",
    "responsible_agency": "Department of Public Works",
    "final_address": "6308 Pratt Dr",
    "address_councildis": "D",
    "status": "Pending",
    "contractor": "Legacy Professional Services",
    "rowid": "1205571",
    "final_x": "3679672.99842",
    "final_y": "556859.900506",
    "longitude": "-90.07295921149765",
    "latitude": "30.025226845105774",
    "geocoded_column": {
      "latitude": "30.025226845105774",
      "longitude": "-90.07295921149765"
    }
  },
  {
    "service_request": "2025-1205570",
    "request_type": "Streetlights",
    "request_reason": "Streetlight Outage/Malfunction",
    "date_created": "2025-06-30T21:56:02.000",
    "date_modified": "2025-06-30T21:56:04.000",
    "request_status": "Pending",
    "responsible_agency": "Department of Public Works",
    "final_address": "2406 Magic St",
    "address_councildis": "D",
    "status": "Pending",
    "contractor": "Legacy Professional Services",
    "rowid": "1205570",
    "final_x": "3677546.91957",
    "final_y": "535984.170823",
    "longitude": "-90.08039859482373",
    "latitude": "29.967890075692477",
    "geocoded_column": {
      "latitude": "29.967890075692477",
      "longitude": "-90.08039859482373"
    }
  },
  {
    "service_request": "2025-1205569",
    "request_type": "Streetlights",
    "request_reason": "Streetlight Outage/Malfunction",
    "date_created": "2025-06-30T21:47:43.000",
    "date_modified": "2025-06-30T21:47:45.000",
    "request_status": "Pending",
    "responsible_agency": "Department of Public Works",
    "final_address": "1317 Chartres St",
    "address_councildis": "C",
    "status": "Pending",
    "contractor": "Legacy Professional Services",
    "rowid": "1205569",
    "final_x": "3684239.19989",
    "final_y": "534118.334597",
    "longitude": "-90.05932970508056",
    "latitude": "29.962556759500426",
    "geocoded_column": {
      "latitude": "29.962556759500426",
      "longitude": "-90.05932970508056"
    }
  },
  {
    "service_request": "2025-1205568",
    "request_type": "Trash/Recycling",
    "request_reason": "Illegal Dumping",
    "date_created": "2025-06-30T21:32:16.000",
    "date_modified": "2025-06-30T21:32:18.000",
    "request_status": "Pending",
    "responsible_agency": "Department of Sanitation",
    "final_address": "1927 Montegut St",
    "address_councildis": "D",
    "status": "Pending",
    "rowid": "1205568",
    "final_x": "3689282.67203",
    "final_y": "539351.79617",
    "longitude": "-90.04321708434199",
    "latitude": "29.97679178779378",
    "geocoded_column": {
      "latitude": "29.97679178779378",
      "longitude": "-90.04321708434199"
    }
  },
  {
    "service_request": "2025-1205567",
    "request_type": "Trash/Recycling",
    "request_reason": "Missed Trash Pick-Up",
    "date_created": "2025-06-30T21:04:55.000",
    "date_modified": "2025-06-30T21:04:57.000",
    "request_status": "Pending",
    "responsible_agency": "Department of Sanitation",
    "final_address": "3469 Vespasian St",
    "address_councildis": "C",
    "status": "Assigned to Contractor",
    "contractor": "Richards Disposal",
    "rowid": "1205567",
    "final_x": "3696053.47414",
    "final_y": "522570.257786",
    "longitude": "-90.02243923494422",
    "latitude": "29.930437091892376",
    "geocoded_column": {
      "latitude": "29.930437091892376",
      "longitude": "-90.02243923494422"
    }
  },
  {
    "service_request": "2025-1205566",
    "request_type": "Streetlights",
    "request_reason": "Streetlight Outage/Malfunction",
    "date_created": "2025-06-30T21:00:48.000",
    "date_modified": "2025-06-30T21:00:50.000",
    "request_status": "Pending",
    "responsible_agency": "Department of Public Works",
    "final_address": "1019 Vallette St",
    "address_councildis": "C",
    "status": "Pending",
    "contractor": "Legacy Professional Services",
    "rowid": "1205566",
    "final_x": "3687402.96118",
    "final_y": "527797.254783",
    "longitude": "-90.04956264310515",
    "latitude": "29.94507885864932",
    "geocoded_column": {
      "latitude": "29.94507885864932",
      "longitude": "-90.04956264310515"
    }
  },
  {
    "service_request": "2025-1205565",
    "request_type": "Trash/Recycling",
    "request_reason": "Repair Trash Cart",
    "date_created": "2025-06-30T20:39:26.000",
    "date_modified": "2025-06-30T20:39:29.000",
    "request_status": "Pending",
    "responsible_agency": "Department of Sanitation",
    "final_address": "2200 Soniat St",
    "address_councildis": "B",
    "status": "Assigned to Contractor",
    "contractor": "IV Waste",
    "rowid": "1205565",
    "final_x": "3668445.44948",
    "final_y": "523611.371195",
    "longitude": "-90.10955873683822",
    "latitude": "29.934139429919075",
    "geocoded_column": {
      "latitude": "29.934139429919075",
      "longitude": "-90.10955873683822"
    }
  },
  {
    "service_request": "2025-1205564",
    "request_type": "Trash/Recycling",
    "request_reason": "Request a Large Item Pick Up",
    "date_created": "2025-06-30T20:08:32.000",
    "date_modified": "2025-06-30T20:08:34.000",
    "request_status": "Pending",
    "responsible_agency": "Department of Sanitation",
    "final_address": "2123 Forstall St",
    "address_councildis": "E",
    "status": "Assigned to Contractor",
    "contractor": "Waste Pro",
    "rowid": "1205564",
    "final_x": "3697432.74224",
    "final_y": "538103.127433",
    "longitude": "-90.01752203617131",
    "latitude": "29.973103566227216",
    "geocoded_column": {
      "latitude": "29.973103566227216",
      "longitude": "-90.01752203617131"
    }
  },
  {
    "service_request": "2025-1205563",
    "request_type": "Trash/Recycling",
    "request_reason": "Request a Large Item Pick Up",
    "date_created": "2025-06-30T19:59:36.000",
    "date_modified": "2025-06-30T19:59:38.000",
    "request_status": "Pending",
    "responsible_agency": "Department of Sanitation",
    "final_address": "57 Winners Cir",
    "address_councildis": "E",
    "status": "Assigned to Contractor",
    "contractor": "Waste Pro",
    "rowid": "1205563",
    "final_x": "3715977.65964",
    "final_y": "570315.819751",
    "longitude": "-89.95773288879047",
    "latitude": "30.061077168341413",
    "geocoded_column": {
      "latitude": "30.061077168341413",
      "longitude": "-89.95773288879047"
    }
  },
  {
    "service_request": "2025-1205562",
    "request_type": "Trash/Recycling",
    "request_reason": "Request a Large Item Pick Up",
    "date_created": "2025-06-30T19:51:18.000",
    "date_modified": "2025-06-30T19:51:19.000",
    "request_status": "Pending",
    "responsible_agency": "Department of Sanitation",
    "final_address": "7726 Mackenzie St",
    "address_councildis": "E",
    "status": "Assigned to Contractor",
    "contractor": "Waste Pro",
    "rowid": "1205562",
    "final_x": "3710675.63729",
    "final_y": "566526.105571",
    "longitude": "-89.97463437679718",
    "latitude": "30.05083094857042",
    "geocoded_column": {
      "latitude": "30.05083094857042",
      "longitude": "-89.97463437679718"
    }
  },
  {
    "service_request": "2025-1205561",
    "request_type": "Street and Traffic Signs",
    "request_reason": "Street Name Sign Damaged or Missing",
    "date_created": "2025-06-30T19:46:33.000",
    "date_modified": "2025-06-30T19:46:34.000",
    "request_status": "Pending",
    "responsible_agency": "Department of Public Works",
    "final_address": "JULIA ST & S PETERS ST",
    "address_councildis": "B",
    "status": "Pending",
    "rowid": "1205561",
    "final_x": "3682258.1",
    "final_y": "527566.58",
    "longitude": "-90.06581460801043",
    "latitude": "29.94460207313212",
    "geocoded_column": {
      "latitude": "29.94460207313212",
      "longitude": "-90.06581460801043"
    }
  },
  {
    "service_request": "2025-1205560",
    "request_type": "Trash/Recycling",
    "request_reason": "Request a Large Item Pick Up",
    "date_created": "2025-06-30T19:44:43.000",
    "date_modified": "2025-06-30T19:44:44.000",
    "request_status": "Pending",
    "responsible_agency": "Department of Sanitation",
    "final_address": "57 Winners Cir",
    "address_councildis": "E",
    "status": "Assigned to Contractor",
    "contractor": "Waste Pro",
    "rowid": "1205560",
    "final_x": "3715977.65964",
    "final_y": "570315.819751",
    "longitude": "-89.95773288879047",
    "latitude": "30.061077168341413",
    "geocoded_column": {
      "latitude": "30.061077168341413",
      "longitude": "-89.95773288879047"
    }
  },
  {
    "service_request": "2025-1205559",
    "request_type": "Trash/Recycling",
    "request_reason": "Request a Large Item Pick Up",
    "date_created": "2025-06-30T19:41:55.000",
    "date_modified": "2025-06-30T19:41:58.000",
    "request_status": "Pending",
    "responsible_agency": "Department of Sanitation",
    "final_address": "5107 Wentworth Dr",
    "address_councildis": "E",
    "status": "Assigned to Contractor",
    "contractor": "Waste Pro",
    "rowid": "1205559",
    "final_x": "3704987.69105",
    "final_y": "556703.546266",
    "longitude": "-89.99297505273783",
    "latitude": "30.02400699987795",
    "geocoded_column": {
      "latitude": "30.02400699987795",
      "longitude": "-89.99297505273783"
    }
  },
  {
    "service_request": "2025-1205558",
    "request_type": "Property Maintenance",
    "request_reason": "Property Maintenance",
    "date_created": "2025-06-30T19:21:48.000",
    "date_modified": "2025-06-30T19:21:49.000",
    "request_status": "Pending",
    "responsible_agency": "Department of Code Enforcement",
    "final_address": "4674 Longfellow Dr",
    "address_councildis": "E",
    "status": "Pending",
    "rowid": "1205558",
    "final_x": "3709592.67857",
    "final_y": "555433.364249",
    "longitude": "-89.97847176644403",
    "latitude": "30.0203655768501",
    "geocoded_column": {
      "latitude": "30.0203655768501",
      "longitude": "-89.97847176644403"
    }
  },
  {
    "service_request": "2025-1205557",
    "request_type": "Parks & Parkways",
    "request_reason": "Request Tree Service (Right of Way/Public Property)",
    "date_created": "2025-06-30T19:20:36.000",
    "date_modified": "2025-06-30T19:20:37.000",
    "request_status": "Pending",
    "responsible_agency": "Department of Parks & Parkway",
    "final_address": "1007 Fourth St",
    "address_councildis": "B",
    "status": "Pending",
    "rowid": "1205557",
    "final_x": "3677506.79048",
    "final_y": "520774.506809",
    "longitude": "-90.0810502698121",
    "latitude": "29.92606976464972",
    "geocoded_column": {
      "latitude": "29.92606976464972",
      "longitude": "-90.0810502698121"
    }
  },
  {
    "service_request": "2025-1205556",
    "request_type": "Roads and Streets",
    "request_reason": "Street Subsidence (Sinking)",
    "date_created": "2025-06-30T19:20:32.000",
    "date_modified": "2025-06-30T19:20:34.000",
    "request_status": "Pending",
    "responsible_agency": "Department of Public Works",
    "final_address": "6451 Center St",
    "address_councildis": "A",
    "status": "Pending",
    "rowid": "1205556",
    "final_x": "3664968.37805",
    "final_y": "551081.742357",
    "longitude": "-90.11961716993954",
    "latitude": "30.009775478668725",
    "geocoded_column": {
      "latitude": "30.009775478668725",
      "longitude": "-90.11961716993954"
    }
  },
  {
    "service_request": "2025-1205555",
    "request_type": "Roads and Streets",
    "request_reason": "Push-up/Pavement Expansion",
    "date_created": "2025-06-30T19:19:25.000",
    "date_modified": "2025-06-30T19:19:29.000",
    "request_status": "Pending",
    "responsible_agency": "Department of Public Works",
    "final_address": "1909 Milan St",
    "address_councildis": "B",
    "status": "Pending",
    "rowid": "1205555",
    "final_x": "3671518.32142",
    "final_y": "522123.157498",
    "longitude": "-90.09990834099803",
    "latitude": "29.92995672310267",
    "geocoded_column": {
      "latitude": "29.92995672310267",
      "longitude": "-90.09990834099803"
    }
  },
  {
    "service_request": "2025-1205554",
    "request_type": "Trash/Recycling",
    "request_reason": "Missed Trash Pick-Up",
    "date_created": "2025-06-30T19:18:08.000",
    "date_modified": "2025-06-30T19:18:09.000",
    "request_status": "Pending",
    "responsible_agency": "Department of Sanitation",
    "final_address": "4831 Suncrest Way, Fair Oaks, California, 95628",
    "status": "Assigned to Contractor",
    "rowid": "1205554",
    "longitude": "0.0",
    "latitude": "0.0",
    "geocoded_column": {
      "latitude": "0.0",
      "longitude": "0.0"
    }
  },
  {
    "service_request": "2025-1205553",
    "request_type": "Abandoned Vehicles",
    "request_reason": "Abandoned/Junk Vehicles",
    "date_created": "2025-06-30T19:17:28.000",
    "date_modified": "2025-06-30T19:17:30.000",
    "request_status": "Pending",
    "responsible_agency": "Department of Public Works",
    "final_address": "1216 Ursulines Ave",
    "address_councildis": "C",
    "status": "Pending",
    "rowid": "1205553",
    "final_x": "3681816.51407",
    "final_y": "534847.098822",
    "longitude": "-90.06695477543857",
    "latitude": "29.96463445574146",
    "geocoded_column": {
      "latitude": "29.96463445574146",
      "longitude": "-90.06695477543857"
    }
  },
  {
    "service_request": "2025-1205552",
    "request_type": "Abandoned Vehicles",
    "request_reason": "Abandoned/Junk Vehicles",
    "date_created": "2025-06-30T19:13:08.000",
    "date_modified": "2025-06-30T19:13:10.000",
    "request_status": "Pending",
    "responsible_agency": "Department of Public Works",
    "final_address": "7216 Benson Ct",
    "address_councildis": "E",
    "status": "Pending",
    "rowid": "1205552",
    "final_x": "3705111.90359",
    "final_y": "560902.13283",
    "longitude": "-89.99242731607484",
    "latitude": "30.035547478688354",
    "geocoded_column": {
      "latitude": "30.035547478688354",
      "longitude": "-89.99242731607484"
    }
  },
  {
    "service_request": "2025-1205551",
    "request_type": "Trash/Recycling",
    "request_reason": "Order Second Trash Cart",
    "date_created": "2025-06-30T19:10:23.000",
    "date_modified": "2025-06-30T19:10:24.000",
    "request_status": "Pending",
    "responsible_agency": "Department of Sanitation",
    "final_address": "8852 Dinkins St",
    "address_councildis": "E",
    "status": "Assigned to Contractor",
    "contractor": "Waste Pro",
    "rowid": "1205551",
    "final_x": "3704737.71658",
    "final_y": "563354.314208",
    "longitude": "-89.99351919158063",
    "latitude": "30.04230204619629",
    "geocoded_column": {
      "latitude": "30.04230204619629",
      "longitude": "-89.99351919158063"
    }
  },
  {
    "service_request": "2025-1205550",
    "request_type": "Trash/Recycling",
    "request_reason": "Illegal Dumping",
    "date_created": "2025-06-30T19:01:06.000",
    "date_modified": "2025-06-30T19:01:07.000",
    "request_status": "Pending",
    "responsible_agency": "Department of Sanitation",
    "final_address": "1444 St Mary St Unit 2",
    "address_councildis": "B",
    "status": "Pending",
    "rowid": "1205550",
    "final_x": "3678772.3819",
    "final_y": "523807.116283",
    "longitude": "-90.0769501992804",
    "latitude": "29.934370354861862",
    "geocoded_column": {
      "latitude": "29.934370354861862",
      "longitude": "-90.0769501992804"
    }
  },
  {
    "service_request": "2025-1205549",
    "request_type": "Abandoned Vehicles",
    "request_reason": "Abandoned/Junk Vehicles",
    "date_created": "2025-06-30T18:59:42.000",
    "date_modified": "2025-06-30T18:59:43.000",
    "request_status": "Pending",
    "responsible_agency": "Department of Public Works",
    "final_address": "820 Nunez St",
    "address_councildis": "C",
    "status": "Pending",
    "rowid": "1205549",
    "final_x": "3686986.41186",
    "final_y": "528510.747904",
    "longitude": "-90.05085260193374",
    "latitude": "29.94705354792499",
    "geocoded_column": {
      "latitude": "29.94705354792499",
      "longitude": "-90.05085260193374"
    }
  },
  {
    "service_request": "2025-1205548",
    "request_type": "Trash/Recycling",
    "request_reason": "Request a Large Item Pick Up",
    "date_created": "2025-06-30T18:58:02.000",
    "date_modified": "2025-06-30T18:58:05.000",
    "request_status": "Pending",
    "responsible_agency": "Department of Sanitation",
    "final_address": "15 Petit Bayou Ln",
    "address_councildis": "E",
    "status": "Assigned to Contractor",
    "contractor": "Waste Pro",
    "rowid": "1205548",
    "final_x": "3724929.0455",
    "final_y": "564026.405217",
    "longitude": "-89.92968165085618",
    "latitude": "30.043485390706312",
    "geocoded_column": {
      "latitude": "30.043485390706312",
      "longitude": "-89.92968165085618"
    }
  },
  {
    "service_request": "2025-1205547",
    "request_type": "Health Related Request",
    "request_reason": "Noise Ordinance Complaint",
    "date_created": "2025-06-30T18:51:41.000",
    "date_modified": "2025-06-30T18:51:43.000",
    "request_status": "Pending",
    "responsible_agency": "Health Department",
    "final_address": "2014 St Andrew St",
    "address_councildis": "B",
    "status": "Pending",
    "rowid": "1205547",
    "final_x": "525502.464445",
    "final_y": "525502.464445",
    "longitude": "-100.01662903170528",
    "latitude": "29.657816039318146",
    "geocoded_column": {
      "latitude": "29.657816039318146",
      "longitude": "-100.01662903170528"
    }
  },
  {
    "service_request": "2025-1205546",
    "request_type": "Abandoned Vehicles",
    "request_reason": "Abandoned/Junk Vehicles",
    "date_created": "2025-06-30T18:44:14.000",
    "date_modified": "2025-06-30T18:44:15.000",
    "request_status": "Pending",
    "responsible_agency": "Department of Public Works",
    "final_address": "2415 Urquhart St",
    "address_councildis": "C",
    "status": "Pending",
    "rowid": "1205546",
    "final_x": "3686594.04265",
    "final_y": "537213.463816",
    "longitude": "-90.05178413452317",
    "latitude": "29.97099508596997",
    "geocoded_column": {
      "latitude": "29.97099508596997",
      "longitude": "-90.05178413452317"
    }
  },
  {
    "service_request": "2025-1205545",
    "request_type": "Trash/Recycling",
    "request_reason": "Replace Trash Cart",
    "date_created": "2025-06-30T17:57:03.000",
    "date_modified": "2025-06-30T17:57:05.000",
    "request_status": "Pending",
    "responsible_agency": "Department of Sanitation",
    "final_address": "428 37Th St",
    "address_councildis": "A",
    "status": "Assigned to Contractor",
    "contractor": "IV Waste",
    "rowid": "1205545",
    "final_x": "3664721.19392",
    "final_y": "552344.922326",
    "longitude": "-90.1203558697846",
    "latitude": "30.013255980837773",
    "geocoded_column": {
      "latitude": "30.013255980837773",
      "longitude": "-90.1203558697846"
    }
  },
  {
    "service_request": "2025-1205544",
    "request_type": "Trash/Recycling",
    "request_reason": "Request a Large Item Pick Up",
    "date_created": "2025-06-30T17:34:42.000",
    "date_modified": "2025-06-30T17:34:44.000",
    "request_status": "Pending",
    "responsible_agency": "Department of Sanitation",
    "final_address": "1918 Columbus St",
    "address_councildis": "D",
    "status": "Assigned to Contractor",
    "contractor": "IV Waste",
    "rowid": "1205544",
    "final_x": "3680722.93525",
    "final_y": "537910.201097",
    "longitude": "-90.07030159444065",
    "latitude": "29.97309012198758",
    "geocoded_column": {
      "latitude": "29.97309012198758",
      "longitude": "-90.07030159444065"
    }
  },
  {
    "service_request": "2025-1205543",
    "request_type": "Trash/Recycling",
    "request_reason": "Damaged Caused By Contractor",
    "date_created": "2025-06-30T17:33:43.000",
    "date_modified": "2025-06-30T17:33:46.000",
    "request_status": "Pending",
    "responsible_agency": "Department of Sanitation",
    "final_address": "6507 Bellaire Dr",
    "address_councildis": "A",
    "status": "Assigned to Contractor",
    "contractor": "IV Waste",
    "rowid": "1205543",
    "final_x": "3664578.51047",
    "final_y": "551313.721877",
    "longitude": "-90.12084115128087",
    "latitude": "30.010424690988252",
    "geocoded_column": {
      "latitude": "30.010424690988252",
      "longitude": "-90.12084115128087"
    }
  },
  {
    "service_request": "2025-1205542",
    "request_type": "Streetlights",
    "request_reason": "Streetlight Knocked Down/Leaning",
    "date_created": "2025-06-30T17:26:17.000",
    "date_modified": "2025-06-30T17:26:19.000",
    "request_status": "Pending",
    "responsible_agency": "Department of Public Works",
    "final_address": "4215 S Broad St",
    "address_councildis": "B",
    "status": "Pending",
    "contractor": "Legacy Professional Services",
    "rowid": "1205542",
    "final_x": "3670441.04385",
    "final_y": "529373.988417",
    "longitude": "-90.10306337152018",
    "latitude": "29.94992599985655",
    "geocoded_column": {
      "latitude": "29.94992599985655",
      "longitude": "-90.10306337152018"
    }
  },
  {
    "service_request": "2025-1205541",
    "request_type": "Roads and Streets",
    "request_reason": "Abandoned Service Cut",
    "date_created": "2025-06-30T17:21:19.000",
    "date_modified": "2025-06-30T17:21:21.000",
    "request_status": "Pending",
    "responsible_agency": "Department of Public Works",
    "final_address": "3800 BLK S dOrgenois St",
    "address_councildis": "B",
    "status": "Pending",
    "rowid": "1205541",
    "final_x": "3670621.25944",
    "final_y": "528880.913154",
    "longitude": "-90.10251106922186",
    "latitude": "29.948564882790052",
    "geocoded_column": {
      "latitude": "29.948564882790052",
      "longitude": "-90.10251106922186"
    }
  },
  {
    "service_request": "2025-1205540",
    "request_type": "Trash/Recycling",
    "request_reason": "Request a Large Item Pick Up",
    "date_created": "2025-06-30T17:10:22.000",
    "date_modified": "2025-06-30T17:10:23.000",
    "request_status": "Pending",
    "responsible_agency": "Department of Sanitation",
    "final_address": "10840 Roger Dr",
    "address_councildis": "E",
    "status": "Assigned to Contractor",
    "contractor": "Waste Pro",
    "rowid": "1205540",
    "final_x": "3711867.71685",
    "final_y": "563184.178912",
    "longitude": "-89.97099224236545",
    "latitude": "30.041603079054916",
    "geocoded_column": {
      "latitude": "30.041603079054916",
      "longitude": "-89.97099224236545"
    }
  },
  {
    "service_request": "2025-1205539",
    "request_type": "Trash/Recycling",
    "request_reason": "Return Trash Cart",
    "date_created": "2025-06-30T17:07:18.000",
    "date_modified": "2025-06-30T17:07:20.000",
    "request_status": "Pending",
    "responsible_agency": "Department of Sanitation",
    "final_address": "8319 Spruce St",
    "address_councildis": "A",
    "status": "Assigned to Contractor",
    "contractor": "IV Waste",
    "rowid": "1205539",
    "final_x": "3663220.13927",
    "final_y": "531080.506498",
    "longitude": "-90.12580643998847",
    "latitude": "29.954829578866097",
    "geocoded_column": {
      "latitude": "29.954829578866097",
      "longitude": "-90.12580643998847"
    }
  },
  {
    "service_request": "2025-1205538",
    "request_type": "Trash/Recycling",
    "request_reason": "Illegal Dumping",
    "date_created": "2025-06-30T17:04:17.000",
    "date_modified": "2025-06-30T17:04:18.000",
    "request_status": "Pending",
    "responsible_agency": "Department of Sanitation",
    "final_address": "2230 Amelia St",
    "address_councildis": "B",
    "status": "Pending",
    "rowid": "1205538",
    "final_x": "3672530.94049",
    "final_y": "523487.945787",
    "longitude": "-90.09666516703807",
    "latitude": "29.933679439461795",
    "geocoded_column": {
      "latitude": "29.933679439461795",
      "longitude": "-90.09666516703807"
    }
  },
  {
    "service_request": "2025-1205537",
    "request_type": "Parks & Parkways",
    "request_reason": "Request Tree Service (Right of Way/Public Property)",
    "date_created": "2025-06-30T17:03:15.000",
    "date_modified": "2025-06-30T17:03:17.000",
    "request_status": "Pending",
    "responsible_agency": "Department of Parks & Parkway",
    "final_address": "2508 Palmer Ave",
    "address_councildis": "A",
    "status": "Pending",
    "rowid": "1205537",
    "final_x": "3666432.72327",
    "final_y": "526004.241214",
    "longitude": "-90.11583259924609",
    "latitude": "29.940778010998873",
    "geocoded_column": {
      "latitude": "29.940778010998873",
      "longitude": "-90.11583259924609"
    }
  },
  {
    "service_request": "2025-1205536",
    "request_type": "Property Maintenance",
    "request_reason": "Property Maintenance",
    "date_created": "2025-06-30T17:02:52.000",
    "date_modified": "2025-06-30T17:02:55.000",
    "request_status": "Pending",
    "responsible_agency": "Department of Code Enforcement",
    "final_address": "1900 BLK Pelopidas St",
    "address_councildis": "D",
    "status": "Pending",
    "rowid": "1205536",
    "final_x": "3682500.07722",
    "final_y": "547768.900969",
    "longitude": "-90.06434421634907",
    "latitude": "30.000144091051",
    "geocoded_column": {
      "latitude": "30.000144091051",
      "longitude": "-90.06434421634907"
    }
  },
  {
    "service_request": "2025-1205535",
    "request_type": "Property Maintenance",
    "request_reason": "Property Maintenance",
    "date_created": "2025-06-30T16:52:41.000",
    "date_modified": "2025-06-30T16:52:43.000",
    "request_status": "Pending",
    "responsible_agency": "Department of Code Enforcement",
    "final_address": "1900 BLK Pelopidas St",
    "address_councildis": "D",
    "status": "Pending",
    "rowid": "1205535",
    "final_x": "3682500.07722",
    "final_y": "547768.900969",
    "longitude": "-90.06434421634907",
    "latitude": "30.000144091051",
    "geocoded_column": {
      "latitude": "30.000144091051",
      "longitude": "-90.06434421634907"
    }
  },
  {
    "service_request": "2025-1205534",
    "request_type": "Trash/Recycling",
    "request_reason": "Repair Recycling Cart",
    "date_created": "2025-06-30T16:52:23.000",
    "date_modified": "2025-06-30T16:52:25.000",
    "request_status": "Pending",
    "responsible_agency": "Department of Sanitation",
    "final_address": "6420 Paris Ave",
    "address_councildis": "D",
    "status": "Pending",
    "rowid": "1205534",
    "final_x": "3678070.55272",
    "final_y": "557031.03305",
    "longitude": "-90.07801677362156",
    "latitude": "30.02574576536304",
    "geocoded_column": {
      "latitude": "30.02574576536304",
      "longitude": "-90.07801677362156"
    }
  },
  {
    "service_request": "2025-1205533",
    "request_type": "Trash/Recycling",
    "request_reason": "Missed Trash Pick-Up",
    "date_created": "2025-06-30T16:51:16.000",
    "date_modified": "2025-06-30T18:45:50.000",
    "case_close_date": "2025-06-30T13:45:49.000",
    "request_status": "Closed",
    "responsible_agency": "Department of Sanitation",
    "final_address": "7601 Avon Park Blvd",
    "address_councildis": "E",
    "status": "Invalid Request",
    "contractor": "Waste Pro",
    "contractor_action": "Invalid",
    "rowid": "1205533",
    "final_x": "3719692.10265",
    "final_y": "572576.434409",
    "longitude": "-89.94590522138499",
    "latitude": "30.06716977588226",
    "geocoded_column": {
      "latitude": "30.06716977588226",
      "longitude": "-89.94590522138499"
    }
  },
  {
    "service_request": "2025-1205532",
    "request_type": "Trash/Recycling",
    "request_reason": "Request a Large Item Pick Up",
    "date_created": "2025-06-30T16:47:26.000",
    "date_modified": "2025-06-30T16:47:27.000",
    "request_status": "Pending",
    "responsible_agency": "Department of Sanitation",
    "final_address": "4849 Magazine St Unit B",
    "address_councildis": "B",
    "status": "Assigned to Contractor",
    "contractor": "IV Waste",
    "rowid": "1205532",
    "final_x": "3669139.59745",
    "final_y": "518672.911543",
    "longitude": "-90.1075341147743",
    "latitude": "29.920539835285147",
    "geocoded_column": {
      "latitude": "29.920539835285147",
      "longitude": "-90.1075341147743"
    }
  },
  {
    "service_request": "2025-1205531",
    "request_type": "Trash/Recycling",
    "request_reason": "Order Second Trash Cart",
    "date_created": "2025-06-30T16:44:37.000",
    "date_modified": "2025-06-30T16:44:39.000",
    "request_status": "Pending",
    "responsible_agency": "Department of Sanitation",
    "final_address": "6420 Paris Ave",
    "address_councildis": "D",
    "status": "Assigned to Contractor",
    "contractor": "IV Waste",
    "rowid": "1205531",
    "final_x": "3678070.55272",
    "final_y": "557031.03305",
    "longitude": "-90.07801677362156",
    "latitude": "30.02574576536304",
    "geocoded_column": {
      "latitude": "30.02574576536304",
      "longitude": "-90.07801677362156"
    }
  },
  {
    "service_request": "2025-1205530",
    "request_type": "Property Maintenance",
    "request_reason": "Property Maintenance",
    "date_created": "2025-06-30T16:43:17.000",
    "date_modified": "2025-06-30T16:43:19.000",
    "request_status": "Pending",
    "responsible_agency": "Department of Code Enforcement",
    "final_address": "1300 Prytania St",
    "address_councildis": "B",
    "status": "Pending",
    "rowid": "1205530",
    "final_x": "3679991.23759",
    "final_y": "525711.046717",
    "longitude": "-90.07303619689449",
    "latitude": "29.939568729584096",
    "geocoded_column": {
      "latitude": "29.939568729584096",
      "longitude": "-90.07303619689449"
    }
  },
  {
    "service_request": "2025-1205529",
    "request_type": "Trash/Recycling",
    "request_reason": "Replace Trash Cart",
    "date_created": "2025-06-30T16:41:09.000",
    "date_modified": "2025-06-30T16:41:10.000",
    "request_status": "Pending",
    "responsible_agency": "Department of Sanitation",
    "final_address": "13601 N Lemans St",
    "address_councildis": "E",
    "status": "Assigned to Contractor",
    "contractor": "Waste Pro",
    "rowid": "1205529",
    "final_x": "3725810.09452",
    "final_y": "563221.894816",
    "longitude": "-89.92692840951649",
    "latitude": "30.041243615234965",
    "geocoded_column": {
      "latitude": "30.041243615234965",
      "longitude": "-89.92692840951649"
    }
  },
  {
    "service_request": "2025-1205528",
    "request_type": "Trash/Recycling",
    "request_reason": "Request a Large Item Pick Up",
    "date_created": "2025-06-30T16:39:28.000",
    "date_modified": "2025-06-30T16:39:29.000",
    "request_status": "Pending",
    "responsible_agency": "Department of Sanitation",
    "final_address": "7420 Dalewood Rd",
    "address_councildis": "E",
    "status": "Assigned to Contractor",
    "contractor": "Waste Pro",
    "rowid": "1205528",
    "final_x": "3700074.27978",
    "final_y": "559791.288157",
    "longitude": "-90.00838757679414",
    "latitude": "30.03265422064345",
    "geocoded_column": {
      "latitude": "30.03265422064345",
      "longitude": "-90.00838757679414"
    }
  },
  {
    "service_request": "2025-1205527",
    "request_type": "Abandoned Vehicles",
    "request_reason": "Abandoned/Junk Vehicles",
    "date_created": "2025-06-30T16:38:57.000",
    "date_modified": "2025-06-30T16:38:58.000",
    "request_status": "Pending",
    "responsible_agency": "Department of Public Works",
    "final_address": "5900 Laurel St",
    "address_councildis": "A",
    "status": "Pending",
    "rowid": "1205527",
    "final_x": "3664952.58439",
    "final_y": "518039.13407",
    "longitude": "-90.12077179121596",
    "latitude": "29.91891964459324",
    "geocoded_column": {
      "latitude": "29.91891964459324",
      "longitude": "-90.12077179121596"
    }
  },
  {
    "service_request": "2025-1205526",
    "request_type": "Trash/Recycling",
    "request_reason": "Request a Large Item Pick Up",
    "date_created": "2025-06-30T16:37:56.000",
    "date_modified": "2025-06-30T16:37:58.000",
    "request_status": "Pending",
    "responsible_agency": "Department of Sanitation",
    "final_address": "7625 Lady Gray St",
    "address_councildis": "E",
    "status": "Assigned to Contractor",
    "contractor": "Waste Pro",
    "rowid": "1205526",
    "final_x": "3709993.01029",
    "final_y": "565324.215266",
    "longitude": "-89.97683687860402",
    "latitude": "30.04754847379839",
    "geocoded_column": {
      "latitude": "30.04754847379839",
      "longitude": "-89.97683687860402"
    }
  },
  {
    "service_request": "2025-1205525",
    "request_type": "Trash/Recycling",
    "request_reason": "Request a Large Item Pick Up",
    "date_created": "2025-06-30T16:37:29.000",
    "date_modified": "2025-06-30T16:37:30.000",
    "request_status": "Pending",
    "responsible_agency": "Department of Sanitation",
    "final_address": "3433 Pauger St",
    "address_councildis": "D",
    "status": "Assigned to Contractor",
    "contractor": "IV Waste",
    "rowid": "1205525",
    "final_x": "3683416.20367",
    "final_y": "542382.791821",
    "longitude": "-90.06163896624537",
    "latitude": "29.985306276552937",
    "geocoded_column": {
      "latitude": "29.985306276552937",
      "longitude": "-90.06163896624537"
    }
  },
  {
    "service_request": "2025-1205524",
    "request_type": "Parks & Parkways",
    "request_reason": "Request Tree Service (Right of Way/Public Property)",
    "date_created": "2025-06-30T16:36:43.000",
    "date_modified": "2025-06-30T16:36:44.000",
    "request_status": "Pending",
    "responsible_agency": "Department of Parks & Parkway",
    "final_address": "7707 Benjamin St",
    "address_councildis": "A",
    "status": "Pending",
    "rowid": "1205524",
    "final_x": "3660901.9527",
    "final_y": "525120.793213",
    "longitude": "-90.13332351107603",
    "latitude": "29.93850923866763",
    "geocoded_column": {
      "latitude": "29.93850923866763",
      "longitude": "-90.13332351107603"
    }
  },
  {
    "service_request": "2025-1205523",
    "request_type": "Abandoned Vehicles",
    "request_reason": "Abandoned/Junk Vehicles",
    "date_created": "2025-06-30T16:36:40.000",
    "date_modified": "2025-06-30T16:36:41.000",
    "request_status": "Pending",
    "responsible_agency": "Department of Public Works",
    "final_address": "5900 Laurel St",
    "address_councildis": "A",
    "status": "Pending",
    "rowid": "1205523",
    "final_x": "3664952.58439",
    "final_y": "518039.13407",
    "longitude": "-90.12077179121596",
    "latitude": "29.91891964459324",
    "geocoded_column": {
      "latitude": "29.91891964459324",
      "longitude": "-90.12077179121596"
    }
  },
  {
    "service_request": "2025-1205522",
    "request_type": "Trash/Recycling",
    "request_reason": "Request a Large Item Pick Up",
    "date_created": "2025-06-30T16:32:47.000",
    "date_modified": "2025-06-30T16:32:48.000",
    "request_status": "Pending",
    "responsible_agency": "Department of Sanitation",
    "final_address": "1221 Desire St",
    "address_councildis": "C",
    "status": "Assigned to Contractor",
    "contractor": "IV Waste",
    "rowid": "1205522",
    "final_x": "3690352.39312",
    "final_y": "536245.861895",
    "longitude": "-90.03994930710036",
    "latitude": "29.968218405074",
    "geocoded_column": {
      "latitude": "29.968218405074",
      "longitude": "-90.03994930710036"
    }
  },
  {
    "service_request": "2025-1205521",
    "request_type": "Utility Poles",
    "request_reason": "Utility Pole Leaning",
    "date_created": "2025-06-30T16:31:31.000",
    "date_modified": "2025-06-30T16:31:34.000",
    "request_status": "Pending",
    "responsible_agency": "Utility Company Collective",
    "final_address": "7700 St Charles Ave",
    "address_councildis": "A",
    "status": "Pending",
    "rowid": "1205521",
    "final_x": "3661580.99885",
    "final_y": "525823.957821",
    "longitude": "-90.13115639045508",
    "latitude": "29.940423146864543",
    "geocoded_column": {
      "latitude": "29.940423146864543",
      "longitude": "-90.13115639045508"
    }
  },
  {
    "service_request": "2025-1205520",
    "request_type": "Trash/Recycling",
    "request_reason": "Request a Large Item Pick Up",
    "date_created": "2025-06-30T16:28:17.000",
    "date_modified": "2025-06-30T16:28:18.000",
    "request_status": "Pending",
    "responsible_agency": "Department of Sanitation",
    "final_address": "2337 Annunciation St",
    "address_councildis": "B",
    "status": "Assigned to Contractor",
    "contractor": "IV Waste",
    "rowid": "1205520",
    "final_x": "3678948.29666",
    "final_y": "520802.683961",
    "longitude": "-90.07649887813808",
    "latitude": "29.926103845163027",
    "geocoded_column": {
      "latitude": "29.926103845163027",
      "longitude": "-90.07649887813808"
    }
  },
  {
    "service_request": "2025-1205519",
    "request_type": "Trash/Recycling",
    "request_reason": "Order Trash Cart",
    "date_created": "2025-06-30T16:25:53.000",
    "date_modified": "2025-06-30T16:25:55.000",
    "request_status": "Pending",
    "responsible_agency": "Department of Sanitation",
    "final_address": "3707 Frenchmen St",
    "address_councildis": "D",
    "status": "Assigned to Contractor",
    "contractor": "IV Waste",
    "rowid": "1205519",
    "final_x": "3683827.6998",
    "final_y": "546321.858768",
    "longitude": "-90.06020098285755",
    "latitude": "29.99612474818728",
    "geocoded_column": {
      "latitude": "29.99612474818728",
      "longitude": "-90.06020098285755"
    }
  },
  {
    "service_request": "2025-1205518",
    "request_type": "Streetlights",
    "request_reason": "Streetlight Outage/Malfunction",
    "date_created": "2025-06-30T16:23:29.000",
    "date_modified": "2025-06-30T16:23:31.000",
    "request_status": "Pending",
    "responsible_agency": "Department of Public Works",
    "final_address": "4032 Buick St",
    "address_councildis": "D",
    "status": "Pending",
    "contractor": "Legacy Professional Services",
    "rowid": "1205518",
    "final_x": "3688827.34895",
    "final_y": "548165.821778",
    "longitude": "-90.04434198138442",
    "latitude": "30.00104128607336",
    "geocoded_column": {
      "latitude": "30.00104128607336",
      "longitude": "-90.04434198138442"
    }
  },
  {
    "service_request": "2025-1205517",
    "request_type": "Trash/Recycling",
    "request_reason": "Request a Large Item Pick Up",
    "date_created": "2025-06-30T16:23:00.000",
    "date_modified": "2025-06-30T16:23:02.000",
    "request_status": "Pending",
    "responsible_agency": "Department of Sanitation",
    "final_address": "7661 Wave Dr",
    "address_councildis": "E",
    "status": "Assigned to Contractor",
    "contractor": "Waste Pro",
    "rowid": "1205517",
    "final_x": "3714906.95352",
    "final_y": "568974.38167",
    "longitude": "-89.9611681134045",
    "latitude": "30.057424067034063",
    "geocoded_column": {
      "latitude": "30.057424067034063",
      "longitude": "-89.9611681134045"
    }
  },
  {
    "service_request": "2025-1205516",
    "request_type": "Abandoned Vehicles",
    "request_reason": "Abandoned/Junk Vehicles",
    "date_created": "2025-06-30T16:20:23.000",
    "date_modified": "2025-06-30T16:21:29.000",
    "request_status": "Pending",
    "responsible_agency": "Department of Public Works",
    "final_address": "600 Second St",
    "address_councildis": "B",
    "status": "Pending",
    "rowid": "1205516",
    "final_x": "3678780.10402",
    "final_y": "519813.722936",
    "longitude": "-90.07706404091556",
    "latitude": "29.923389595843435",
    "geocoded_column": {
      "latitude": "29.923389595843435",
      "longitude": "-90.07706404091556"
    }
  },
  {
    "service_request": "2025-1205515",
    "request_type": "Abandoned Vehicles",
    "request_reason": "Abandoned/Junk Vehicles",
    "date_created": "2025-06-30T16:19:31.000",
    "date_modified": "2025-06-30T16:20:44.000",
    "request_status": "Pending",
    "responsible_agency": "Department of Public Works",
    "final_address": "4300 Dumaine St",
    "address_councildis": "A",
    "status": "Pending",
    "rowid": "1205515",
    "final_x": "3672044.76481",
    "final_y": "541330.858828",
    "longitude": "-90.09759251548296",
    "latitude": "29.982755938366562",
    "geocoded_column": {
      "latitude": "29.982755938366562",
      "longitude": "-90.09759251548296"
    }
  },
  {
    "service_request": "2025-1205514",
    "request_type": "Trash/Recycling",
    "request_reason": "Order Trash Cart",
    "date_created": "2025-06-30T16:13:25.000",
    "date_modified": "2025-06-30T16:13:26.000",
    "request_status": "Pending",
    "responsible_agency": "Department of Sanitation",
    "final_address": "542 Elmira Ave",
    "address_councildis": "C",
    "status": "Assigned to Contractor",
    "contractor": "Richards Disposal",
    "rowid": "1205514",
    "final_x": "3688238.89622",
    "final_y": "529553.666945",
    "longitude": "-90.04686108257508",
    "latitude": "29.949882613155296",
    "geocoded_column": {
      "latitude": "29.949882613155296",
      "longitude": "-90.04686108257508"
    }
  },
  {
    "service_request": "2025-1205513",
    "request_type": "Trash/Recycling",
    "request_reason": "Request a Large Item Pick Up",
    "date_created": "2025-06-30T16:12:56.000",
    "date_modified": "2025-06-30T16:12:58.000",
    "request_status": "Pending",
    "responsible_agency": "Department of Sanitation",
    "final_address": "542 Elmira Ave",
    "address_councildis": "C",
    "status": "Assigned to Contractor",
    "contractor": "Richards Disposal",
    "rowid": "1205513",
    "final_x": "3688238.89622",
    "final_y": "529553.666945",
    "longitude": "-90.04686108257508",
    "latitude": "29.949882613155296",
    "geocoded_column": {
      "latitude": "29.949882613155296",
      "longitude": "-90.04686108257508"
    }
  },
  {
    "service_request": "2025-1205512",
    "request_type": "Trash/Recycling",
    "request_reason": "Repair Trash Cart",
    "date_created": "2025-06-30T16:09:27.000",
    "date_modified": "2025-06-30T16:09:29.000",
    "request_status": "Pending",
    "responsible_agency": "Department of Sanitation",
    "final_address": "5235 Camp St",
    "address_councildis": "B",
    "status": "Assigned to Contractor",
    "contractor": "IV Waste",
    "rowid": "1205512",
    "final_x": "3667771.08237",
    "final_y": "519020.341047",
    "longitude": "-90.11184220342157",
    "latitude": "29.92153534165166",
    "geocoded_column": {
      "latitude": "29.92153534165166",
      "longitude": "-90.11184220342157"
    }
  },
  {
    "service_request": "2025-1205511",
    "request_type": "Abandoned Vehicles",
    "request_reason": "Abandoned/Junk Vehicles",
    "date_created": "2025-06-30T16:09:15.000",
    "date_modified": "2025-06-30T16:09:17.000",
    "request_status": "Pending",
    "responsible_agency": "Department of Public Works",
    "final_address": "8518 Apricot St",
    "address_councildis": "A",
    "status": "Pending",
    "rowid": "1205511",
    "final_x": "3664637.02413",
    "final_y": "533655.331205",
    "longitude": "-90.12124643456417",
    "latitude": "29.961868373422895",
    "geocoded_column": {
      "latitude": "29.961868373422895",
      "longitude": "-90.12124643456417"
    }
  },
  {
    "service_request": "2025-1205510",
    "request_type": "Trash/Recycling",
    "request_reason": "Request a Large Item Pick Up",
    "date_created": "2025-06-30T16:07:58.000",
    "date_modified": "2025-06-30T16:08:00.000",
    "request_status": "Pending",
    "responsible_agency": "Department of Sanitation",
    "final_address": "3313 St Claude Ave",
    "address_councildis": "C",
    "status": "Assigned to Contractor",
    "contractor": "IV Waste",
    "rowid": "1205510",
    "final_x": "3689977.76681",
    "final_y": "535864.435911",
    "longitude": "-90.04114597305119",
    "latitude": "29.967181239502885",
    "geocoded_column": {
      "latitude": "29.967181239502885",
      "longitude": "-90.04114597305119"
    }
  },
  {
    "service_request": "2025-1205509",
    "request_type": "Abandoned Vehicles",
    "request_reason": "Abandoned/Junk Vehicles",
    "date_created": "2025-06-30T16:06:49.000",
    "date_modified": "2025-06-30T16:06:51.000",
    "request_status": "Pending",
    "responsible_agency": "Department of Public Works",
    "final_address": "8520 Apricot St",
    "address_councildis": "A",
    "status": "Pending",
    "rowid": "1205509",
    "final_x": "3664617.87514",
    "final_y": "533671.744773",
    "longitude": "-90.12130635604818",
    "latitude": "29.961914062316268",
    "geocoded_column": {
      "latitude": "29.961914062316268",
      "longitude": "-90.12130635604818"
    }
  },
  {
    "service_request": "2025-1205508",
    "request_type": "Trash/Recycling",
    "request_reason": "Request a Large Item Pick Up",
    "date_created": "2025-06-30T16:05:41.000",
    "date_modified": "2025-06-30T16:05:44.000",
    "request_status": "Pending",
    "responsible_agency": "Department of Sanitation",
    "final_address": "4551 Hickerson Dr",
    "address_councildis": "E",
    "status": "Assigned to Contractor",
    "contractor": "Waste Pro",
    "rowid": "1205508",
    "final_x": "3710570.32709",
    "final_y": "554633.107864",
    "longitude": "-89.97541269257478",
    "latitude": "30.01813336264607",
    "geocoded_column": {
      "latitude": "30.01813336264607",
      "longitude": "-89.97541269257478"
    }
  },
  {
    "service_request": "2025-1205507",
    "request_type": "Health Related Request",
    "request_reason": "Homeless Encampment Complaint",
    "date_created": "2025-06-30T16:03:59.000",
    "date_modified": "2025-06-30T16:04:01.000",
    "request_status": "Pending",
    "responsible_agency": "Health Department",
    "final_address": "2137 Mandeville St",
    "address_councildis": "D",
    "status": "Pending",
    "rowid": "1205507",
    "final_x": "3685488.13423",
    "final_y": "540375.562699",
    "longitude": "-90.055165334938",
    "latitude": "29.979723714254852",
    "geocoded_column": {
      "latitude": "29.979723714254852",
      "longitude": "-90.055165334938"
    }
  },
  {
    "service_request": "2025-1205506",
    "request_type": "Abandoned Vehicles",
    "request_reason": "Abandoned/Junk Vehicles",
    "date_created": "2025-06-30T16:02:29.000",
    "date_modified": "2025-06-30T16:02:31.000",
    "request_status": "Pending",
    "responsible_agency": "Department of Public Works",
    "final_address": "8520 Apricot St",
    "address_councildis": "A",
    "status": "Pending",
    "rowid": "1205506",
    "final_x": "3664617.87514",
    "final_y": "533671.744773",
    "longitude": "-90.12130635604818",
    "latitude": "29.961914062316268",
    "geocoded_column": {
      "latitude": "29.961914062316268",
      "longitude": "-90.12130635604818"
    }
  },
  {
    "service_request": "2025-1205505",
    "request_type": "Trash/Recycling",
    "request_reason": "Order Trash Cart",
    "date_created": "2025-06-30T16:01:59.000",
    "date_modified": "2025-06-30T16:02:02.000",
    "request_status": "Pending",
    "responsible_agency": "Department of Sanitation",
    "final_address": "1436 N Derbigny St",
    "address_councildis": "D",
    "status": "Assigned to Contractor",
    "contractor": "IV Waste",
    "rowid": "1205505",
    "final_x": "3681193.90063",
    "final_y": "537044.853128",
    "longitude": "-90.06884435328708",
    "latitude": "29.970696431019046",
    "geocoded_column": {
      "latitude": "29.970696431019046",
      "longitude": "-90.06884435328708"
    }
  },
  {
    "service_request": "2025-1205504",
    "request_type": "Trash/Recycling",
    "request_reason": "Repair Recycling Cart",
    "date_created": "2025-06-30T16:01:53.000",
    "date_modified": "2025-06-30T16:01:55.000",
    "request_status": "Pending",
    "responsible_agency": "Department of Sanitation",
    "final_address": "502 Wallace Dr",
    "address_councildis": "D",
    "status": "Pending",
    "rowid": "1205504",
    "final_x": "3681526.09058",
    "final_y": "548545.894803",
    "longitude": "-90.06739397150119",
    "latitude": "30.002310169809753",
    "geocoded_column": {
      "latitude": "30.002310169809753",
      "longitude": "-90.06739397150119"
    }
  },
  {
    "service_request": "2025-1205503",
    "request_type": "Trash/Recycling",
    "request_reason": "Missed Trash Pick-Up",
    "date_created": "2025-06-30T16:00:58.000",
    "date_modified": "2025-06-30T16:01:00.000",
    "request_status": "Pending",
    "responsible_agency": "Department of Sanitation",
    "final_address": "26 Kristen Ct",
    "address_councildis": "E",
    "status": "Assigned to Contractor",
    "contractor": "Waste Pro",
    "rowid": "1205503",
    "final_x": "3713446.53055",
    "final_y": "567159.104868",
    "longitude": "-89.96585274520214",
    "latitude": "30.05248080526913",
    "geocoded_column": {
      "latitude": "30.05248080526913",
      "longitude": "-89.96585274520214"
    }
  },
  {
    "service_request": "2025-1205502",
    "request_type": "Trash/Recycling",
    "request_reason": "Request a Large Item Pick Up",
    "date_created": "2025-06-30T16:00:38.000",
    "date_modified": "2025-06-30T16:00:41.000",
    "request_status": "Pending",
    "responsible_agency": "Department of Sanitation",
    "final_address": "523 S Telemachus St",
    "address_councildis": "B",
    "status": "Assigned to Contractor",
    "contractor": "IV Waste",
    "rowid": "1205502",
    "final_x": "3671216.95591",
    "final_y": "535986.920135",
    "longitude": "-90.10038877791547",
    "latitude": "29.96808643711169",
    "geocoded_column": {
      "latitude": "29.96808643711169",
      "longitude": "-90.10038877791547"
    }
  },
  {
    "service_request": "2025-1205501",
    "request_type": "Trash/Recycling",
    "request_reason": "Request a Large Item Pick Up",
    "date_created": "2025-06-30T15:59:12.000",
    "date_modified": "2025-06-30T15:59:13.000",
    "request_status": "Pending",
    "responsible_agency": "Department of Sanitation",
    "final_address": "1916 Fern St",
    "address_councildis": "A",
    "status": "Assigned to Contractor",
    "contractor": "IV Waste",
    "rowid": "1205501",
    "final_x": "3664264.84436",
    "final_y": "529816.204161",
    "longitude": "-90.12254982945325",
    "latitude": "29.951322843397715",
    "geocoded_column": {
      "latitude": "29.951322843397715",
      "longitude": "-90.12254982945325"
    }
  },
  {
    "service_request": "2025-1205500",
    "request_type": "Healthy Homes",
    "request_reason": "Healthy Homes",
    "date_created": "2025-06-30T15:58:08.000",
    "date_modified": "2025-06-30T15:58:10.000",
    "request_status": "Pending",
    "responsible_agency": "Department of Code Enforcement",
    "final_address": "1628 N Rocheblave St",
    "address_councildis": "D",
    "status": "Pending",
    "rowid": "1205500",
    "final_x": "3680135.54991",
    "final_y": "539681.591306",
    "longitude": "-90.07209509424405",
    "latitude": "29.97797862238351",
    "geocoded_column": {
      "latitude": "29.97797862238351",
      "longitude": "-90.07209509424405"
    }
  },
  {
    "service_request": "2025-1205499",
    "request_type": "Trash/Recycling",
    "request_reason": "Missed Trash Pick-Up",
    "date_created": "2025-06-30T15:53:09.000",
    "date_modified": "2025-06-30T15:53:11.000",
    "request_status": "Pending",
    "responsible_agency": "Department of Sanitation",
    "final_address": "7441 Crestmont Rd",
    "address_councildis": "E",
    "status": "Assigned to Contractor",
    "contractor": "Waste Pro",
    "rowid": "1205499",
    "final_x": "3699921.20509",
    "final_y": "559855.391581",
    "longitude": "-90.00886896092807",
    "latitude": "30.032835346245314",
    "geocoded_column": {
      "latitude": "30.032835346245314",
      "longitude": "-90.00886896092807"
    }
  },
  {
    "service_request": "2025-1205498",
    "request_type": "Roads and Streets",
    "request_reason": "Push-up/Pavement Expansion",
    "date_created": "2025-06-30T15:49:48.000",
    "date_modified": "2025-06-30T15:49:52.000",
    "request_status": "Pending",
    "responsible_agency": "Department of Public Works",
    "final_address": "6415 Bellaire Dr",
    "address_councildis": "A",
    "status": "Pending",
    "rowid": "1205498",
    "final_x": "3664508.53933",
    "final_y": "550687.18274",
    "longitude": "-90.1210831596138",
    "latitude": "30.00870396152009",
    "geocoded_column": {
      "latitude": "30.00870396152009",
      "longitude": "-90.1210831596138"
    }
  },
  {
    "service_request": "2025-1205497",
    "request_type": "Trash/Recycling",
    "request_reason": "Request a Large Item Pick Up",
    "date_created": "2025-06-30T15:48:34.000",
    "date_modified": "2025-06-30T15:48:36.000",
    "request_status": "Pending",
    "responsible_agency": "Department of Sanitation",
    "final_address": "3125 N Galvez St",
    "address_councildis": "D",
    "status": "Assigned to Contractor",
    "contractor": "IV Waste",
    "rowid": "1205497",
    "final_x": "3690211.31638",
    "final_y": "539730.906698",
    "longitude": "-90.04027063202363",
    "latitude": "29.977805424882973",
    "geocoded_column": {
      "latitude": "29.977805424882973",
      "longitude": "-90.04027063202363"
    }
  },
  {
    "service_request": "2025-1205496",
    "request_type": "Trash/Recycling",
    "request_reason": "Request a Large Item Pick Up",
    "date_created": "2025-06-30T15:46:59.000",
    "date_modified": "2025-06-30T15:47:01.000",
    "request_status": "Pending",
    "responsible_agency": "Department of Sanitation",
    "final_address": "3444 Plymouth Pl",
    "address_councildis": "C",
    "status": "Assigned to Contractor",
    "contractor": "Richards Disposal",
    "rowid": "1205496",
    "final_x": "3702840.5226",
    "final_y": "518344.635894",
    "longitude": "-90.00116880462276",
    "latitude": "29.91860284535878",
    "geocoded_column": {
      "latitude": "29.91860284535878",
      "longitude": "-90.00116880462276"
    }
  },
  {
    "service_request": "2025-1205495",
    "request_type": "Abandoned Vehicles",
    "request_reason": "Abandoned/Junk Vehicles",
    "date_created": "2025-06-30T15:46:19.000",
    "date_modified": "2025-06-30T15:47:18.000",
    "request_status": "Pending",
    "responsible_agency": "Department of Public Works",
    "final_address": "S GAYOSO ST & ERATO ST",
    "address_councildis": "B",
    "status": "Pending",
    "rowid": "1205495",
    "final_x": "3671126.7",
    "final_y": "531333.28",
    "longitude": "-90.10083188910633",
    "latitude": "29.955293146055364",
    "geocoded_column": {
      "latitude": "29.955293146055364",
      "longitude": "-90.10083188910633"
    }
  },
  {
    "service_request": "2025-1205494",
    "request_type": "Trash/Recycling",
    "request_reason": "Request a Large Item Pick Up",
    "date_created": "2025-06-30T15:45:01.000",
    "date_modified": "2025-06-30T15:45:02.000",
    "request_status": "Pending",
    "responsible_agency": "Department of Sanitation",
    "final_address": "7331 Briarheath Dr",
    "address_councildis": "E",
    "status": "Assigned to Contractor",
    "contractor": "Waste Pro",
    "rowid": "1205494",
    "final_x": "3714246.23544",
    "final_y": "566475.079075",
    "longitude": "-89.96335098585419",
    "latitude": "30.050573747323753",
    "geocoded_column": {
      "latitude": "30.050573747323753",
      "longitude": "-89.96335098585419"
    }
  },
  {
    "service_request": "2025-1205493",
    "request_type": "Trash/Recycling",
    "request_reason": "Request a Large Item Pick Up",
    "date_created": "2025-06-30T15:44:26.000",
    "date_modified": "2025-06-30T15:44:28.000",
    "request_status": "Pending",
    "responsible_agency": "Department of Sanitation",
    "final_address": "9031 Olive St",
    "address_councildis": "A",
    "status": "Assigned to Contractor",
    "contractor": "IV Waste",
    "rowid": "1205493",
    "final_x": "3664728.4626",
    "final_y": "536538.644807",
    "longitude": "-90.12086133985466",
    "latitude": "29.969793876292673",
    "geocoded_column": {
      "latitude": "29.969793876292673",
      "longitude": "-90.12086133985466"
    }
  },
  {
    "service_request": "2025-1205492",
    "request_type": "Streetlights",
    "request_reason": "Streetlight Outage/Malfunction",
    "date_created": "2025-06-30T15:43:27.000",
    "date_modified": "2025-06-30T15:43:29.000",
    "request_status": "Pending",
    "responsible_agency": "Department of Public Works",
    "final_address": "5550 Cherlyn Dr",
    "address_councildis": "A",
    "status": "Pending",
    "contractor": "Legacy Professional Services",
    "rowid": "1205492",
    "final_x": "3665094.80455",
    "final_y": "544799.758543",
    "longitude": "-90.11942800179942",
    "latitude": "29.99249850137802",
    "geocoded_column": {
      "latitude": "29.99249850137802",
      "longitude": "-90.11942800179942"
    }
  },
  {
    "service_request": "2025-1205491",
    "request_type": "Abandoned Vehicles",
    "request_reason": "Abandoned/Junk Vehicles",
    "date_created": "2025-06-30T15:42:38.000",
    "date_modified": "2025-06-30T15:44:29.000",
    "request_status": "Pending",
    "responsible_agency": "Department of Public Works",
    "final_address": "2458 Athis St",
    "address_councildis": "D",
    "status": "Pending",
    "rowid": "1205491",
    "final_x": "3685621.03977",
    "final_y": "554343.650008",
    "longitude": "-90.05425309766447",
    "latitude": "30.0181268481555",
    "geocoded_column": {
      "latitude": "30.0181268481555",
      "longitude": "-90.05425309766447"
    }
  },
  {
    "service_request": "2025-1205490",
    "request_type": "Roads and Streets",
    "request_reason": "Pothole",
    "date_created": "2025-06-30T15:42:23.000",
    "date_modified": "2025-06-30T15:42:25.000",
    "request_status": "Pending",
    "responsible_agency": "Department of Public Works",
    "final_address": "300 BLK Neil Ave",
    "address_councildis": "C",
    "status": "Pending",
    "rowid": "1205490",
    "final_x": "3707331.81102",
    "final_y": "518738.26218",
    "longitude": "-89.98697769985353",
    "latitude": "29.919540839668112",
    "geocoded_column": {
      "latitude": "29.919540839668112",
      "longitude": "-89.98697769985353"
    }
  },
  {
    "service_request": "2025-1205489",
    "request_type": "Trash/Recycling",
    "request_reason": "Replace Trash Cart",
    "date_created": "2025-06-30T15:41:32.000",
    "date_modified": "2025-06-30T15:41:33.000",
    "request_status": "Pending",
    "responsible_agency": "Department of Sanitation",
    "final_address": "4224 Walmsley Ave",
    "address_councildis": "B",
    "status": "Assigned to Contractor",
    "contractor": "IV Waste",
    "rowid": "1205489",
    "final_x": "3669893.42119",
    "final_y": "529840.516993",
    "longitude": "-90.10477668114004",
    "latitude": "29.951224956539303",
    "geocoded_column": {
      "latitude": "29.951224956539303",
      "longitude": "-90.10477668114004"
    }
  },
  {
    "service_request": "2025-1205488",
    "request_type": "Trash/Recycling",
    "request_reason": "Request a Large Item Pick Up",
    "date_created": "2025-06-30T15:40:05.000",
    "date_modified": "2025-06-30T15:40:08.000",
    "request_status": "Pending",
    "responsible_agency": "Department of Sanitation",
    "final_address": "9221 Dwyer Rd",
    "address_councildis": "E",
    "status": "Assigned to Contractor",
    "contractor": "Waste Pro",
    "rowid": "1205488",
    "final_x": "3708759.24024",
    "final_y": "557148.37801",
    "longitude": "-89.98104119937992",
    "latitude": "30.025108265663537",
    "geocoded_column": {
      "latitude": "30.025108265663537",
      "longitude": "-89.98104119937992"
    }
  },
  {
    "service_request": "2025-1205487",
    "request_type": "Drainage",
    "request_reason": "Catch Basin Clogged",
    "date_created": "2025-06-30T15:39:42.000",
    "date_modified": "2025-06-30T15:39:44.000",
    "request_status": "Pending",
    "responsible_agency": "Sewerage & Water Board",
    "final_address": "1916 Burdette St",
    "address_councildis": "A",
    "status": "Pending",
    "rowid": "1205487",
    "final_x": "3664523.79604",
    "final_y": "529575.722369",
    "longitude": "-90.12174021289066",
    "latitude": "29.95065406984298",
    "geocoded_column": {
      "latitude": "29.95065406984298",
      "longitude": "-90.12174021289066"
    }
  },
  {
    "service_request": "2025-1205486",
    "request_type": "Trash/Recycling",
    "request_reason": "Order Trash Cart",
    "date_created": "2025-06-30T15:39:22.000",
    "date_modified": "2025-06-30T15:39:23.000",
    "request_status": "Pending",
    "responsible_agency": "Department of Sanitation",
    "final_address": "7010 Manchester St",
    "address_councildis": "E",
    "status": "Assigned to Contractor",
    "contractor": "Waste Pro",
    "rowid": "1205486",
    "final_x": "3699013.64624",
    "final_y": "560002.441373",
    "longitude": "-90.01173155026885",
    "latitude": "30.033268489724378",
    "geocoded_column": {
      "latitude": "30.033268489724378",
      "longitude": "-90.01173155026885"
    }
  },
  {
    "service_request": "2025-1205485",
    "request_type": "Roads and Streets",
    "request_reason": "Pothole",
    "date_created": "2025-06-30T15:38:53.000",
    "date_modified": "2025-06-30T15:38:56.000",
    "request_status": "Pending",
    "responsible_agency": "Department of Public Works",
    "final_address": "SYCAMORE ST & PINE ST",
    "address_councildis": "A",
    "status": "Pending",
    "rowid": "1205485",
    "final_x": "3665900.2",
    "final_y": "529604.78",
    "longitude": "-90.11739324484799",
    "latitude": "29.950693878804255",
    "geocoded_column": {
      "latitude": "29.950693878804255",
      "longitude": "-90.11739324484799"
    }
  },
  {
    "service_request": "2025-1205484",
    "request_type": "Street and Traffic Signs",
    "request_reason": "One Way Sign Missing or Damaged",
    "date_created": "2025-06-30T15:37:00.000",
    "date_modified": "2025-06-30T15:37:02.000",
    "request_status": "Pending",
    "responsible_agency": "Department of Public Works",
    "final_address": "SYCAMORE ST & PINE ST",
    "address_councildis": "A",
    "status": "Pending",
    "rowid": "1205484",
    "final_x": "3665900.2",
    "final_y": "529604.78",
    "longitude": "-90.11739324484799",
    "latitude": "29.950693878804255",
    "geocoded_column": {
      "latitude": "29.950693878804255",
      "longitude": "-90.11739324484799"
    }
  },
  {
    "service_request": "2025-1205483",
    "request_type": "Trash/Recycling",
    "request_reason": "Repair Trash Cart",
    "date_created": "2025-06-30T15:35:20.000",
    "date_modified": "2025-06-30T15:35:21.000",
    "request_status": "Pending",
    "responsible_agency": "Department of Sanitation",
    "final_address": "7 Olympic Ct",
    "address_councildis": "C",
    "status": "Assigned to Contractor",
    "contractor": "Richards Disposal",
    "rowid": "1205483",
    "final_x": "3700000.41015",
    "final_y": "516523.671285",
    "longitude": "-90.01019985671086",
    "latitude": "29.91368629968899",
    "geocoded_column": {
      "latitude": "29.91368629968899",
      "longitude": "-90.01019985671086"
    }
  },
  {
    "service_request": "2025-1205482",
    "request_type": "Trash/Recycling",
    "request_reason": "Request a Large Item Pick Up",
    "date_created": "2025-06-30T15:34:57.000",
    "date_modified": "2025-06-30T15:34:58.000",
    "request_status": "Pending",
    "responsible_agency": "Department of Sanitation",
    "final_address": "7816 Green St",
    "address_councildis": "A",
    "status": "Assigned to Contractor",
    "contractor": "IV Waste",
    "rowid": "1205482",
    "final_x": "3663834.05127",
    "final_y": "528984.476864",
    "longitude": "-90.12393778676852",
    "latitude": "29.949048371365212",
    "geocoded_column": {
      "latitude": "29.949048371365212",
      "longitude": "-90.12393778676852"
    }
  },
  {
    "service_request": "2025-1205481",
    "request_type": "Drainage",
    "request_reason": "Street Flooding",
    "date_created": "2025-06-30T15:33:58.000",
    "date_modified": "2025-06-30T15:34:00.000",
    "request_status": "Pending",
    "responsible_agency": "Sewerage & Water Board",
    "final_address": "821 Perdido St",
    "address_councildis": "B",
    "status": "Pending",
    "rowid": "1205481",
    "final_x": "3680198.42754",
    "final_y": "529865.472833",
    "longitude": "-90.07223771646889",
    "latitude": "29.95098574557051",
    "geocoded_column": {
      "latitude": "29.95098574557051",
      "longitude": "-90.07223771646889"
    }
  },
  {
    "service_request": "2025-1205480",
    "request_type": "New Orleans Recreation Development Commission (NORDC)",
    "request_reason": "Facilities and Parks Maintenance/Clean Up",
    "date_created": "2025-06-30T15:32:41.000",
    "date_modified": "2025-06-30T15:32:42.000",
    "request_status": "Pending",
    "responsible_agency": "New Orleans Recreation Development Commission",
    "final_address": "5900 BLK Laurel St",
    "address_councildis": "A",
    "status": "Pending",
    "rowid": "1205480",
    "final_x": "3664831.25068",
    "final_y": "518107.233258",
    "longitude": "-90.12115250665221",
    "latitude": "29.91911042611226",
    "geocoded_column": {
      "latitude": "29.91911042611226",
      "longitude": "-90.12115250665221"
    }
  },
  {
    "service_request": "2025-1205479",
    "request_type": "Trash/Recycling",
    "request_reason": "Request a Large Item Pick Up",
    "date_created": "2025-06-30T15:32:14.000",
    "date_modified": "2025-06-30T15:32:17.000",
    "request_status": "Pending",
    "responsible_agency": "Department of Sanitation",
    "final_address": "6015 Colbert St",
    "address_councildis": "A",
    "status": "Assigned to Contractor",
    "contractor": "IV Waste",
    "rowid": "1205479",
    "final_x": "3667474.5449",
    "final_y": "547484.730834",
    "longitude": "-90.11182041073776",
    "latitude": "29.999811715932992",
    "geocoded_column": {
      "latitude": "29.999811715932992",
      "longitude": "-90.11182041073776"
    }
  },
  {
    "service_request": "2025-1205478",
    "request_type": "Trash/Recycling",
    "request_reason": "Request a Large Item Pick Up",
    "date_created": "2025-06-30T15:31:22.000",
    "date_modified": "2025-06-30T15:31:23.000",
    "request_status": "Pending",
    "responsible_agency": "Department of Sanitation",
    "final_address": "1344 Michael St",
    "address_councildis": "C",
    "status": "Assigned to Contractor",
    "contractor": "Richards Disposal",
    "rowid": "1205478",
    "final_x": "3697238.5112",
    "final_y": "526166.02163",
    "longitude": "-90.018568027831",
    "latitude": "29.940286870644382",
    "geocoded_column": {
      "latitude": "29.940286870644382",
      "longitude": "-90.018568027831"
    }
  },
  {
    "service_request": "2025-1205477",
    "request_type": "Trash/Recycling",
    "request_reason": "Request a Large Item Pick Up",
    "date_created": "2025-06-30T15:28:40.000",
    "date_modified": "2025-06-30T15:28:42.000",
    "request_status": "Pending",
    "responsible_agency": "Department of Sanitation",
    "final_address": "14812 Curran Rd",
    "address_councildis": "E",
    "status": "Assigned to Contractor",
    "contractor": "Waste Pro",
    "rowid": "1205477",
    "final_x": "3720477.53375",
    "final_y": "573944.421802",
    "longitude": "-89.94336990946897",
    "latitude": "30.07090499055775",
    "geocoded_column": {
      "latitude": "30.07090499055775",
      "longitude": "-89.94336990946897"
    }
  },
  {
    "service_request": "2025-1205476",
    "request_type": "Trash/Recycling",
    "request_reason": "Repair Trash Cart",
    "date_created": "2025-06-30T15:27:00.000",
    "date_modified": "2025-06-30T15:27:02.000",
    "request_status": "Pending",
    "responsible_agency": "Department of Sanitation",
    "final_address": "2726 Ursulines Ave",
    "address_councildis": "A",
    "status": "Assigned to Contractor",
    "contractor": "IV Waste",
    "rowid": "1205476",
    "final_x": "3677367.17115",
    "final_y": "538275.243017",
    "longitude": "-90.08088716211188",
    "latitude": "29.974195144545387",
    "geocoded_column": {
      "latitude": "29.974195144545387",
      "longitude": "-90.08088716211188"
    }
  },
  {
    "service_request": "2025-1205475",
    "request_type": "Trash/Recycling",
    "request_reason": "Missed Trash Pick-Up",
    "date_created": "2025-06-30T15:26:51.000",
    "date_modified": "2025-06-30T16:01:35.000",
    "case_close_date": "2025-06-30T11:01:34.000",
    "request_status": "Closed",
    "responsible_agency": "Department of Sanitation",
    "final_address": "530 S Rocheblave St",
    "address_councildis": "B",
    "status": "Invalid Request",
    "contractor": "IV Waste",
    "contractor_action": "Invalid",
    "rowid": "1205475",
    "final_x": "3675042.64865",
    "final_y": "533006.156292",
    "longitude": "-90.08840935196112",
    "latitude": "29.959776596280314",
    "geocoded_column": {
      "latitude": "29.959776596280314",
      "longitude": "-90.08840935196112"
    }
  },
  {
    "service_request": "2025-1205474",
    "request_type": "Trash/Recycling",
    "request_reason": "Repair Recycling Cart",
    "date_created": "2025-06-30T15:26:27.000",
    "date_modified": "2025-06-30T15:26:28.000",
    "request_status": "Pending",
    "responsible_agency": "Department of Sanitation",
    "final_address": "2705 N Rampart St",
    "address_councildis": "C",
    "status": "Pending",
    "rowid": "1205474",
    "final_x": "3687374.72316",
    "final_y": "535971.054279",
    "longitude": "-90.0493626166816",
    "latitude": "29.967554862369123",
    "geocoded_column": {
      "latitude": "29.967554862369123",
      "longitude": "-90.0493626166816"
    }
  },
  {
    "service_request": "2025-1205473",
    "request_type": "Trash/Recycling",
    "request_reason": "Illegal Dumping",
    "date_created": "2025-06-30T15:24:00.000",
    "date_modified": "2025-06-30T15:24:02.000",
    "request_status": "Pending",
    "responsible_agency": "Department of Sanitation",
    "final_address": "2200 BLK Saint Roch Ave",
    "address_councildis": "D",
    "status": "Pending",
    "rowid": "1205473",
    "final_x": "3686189.29819",
    "final_y": "540660.991956",
    "longitude": "-90.05294070510799",
    "latitude": "29.980487019338163",
    "geocoded_column": {
      "latitude": "29.980487019338163",
      "longitude": "-90.05294070510799"
    }
  },
  {
    "service_request": "2025-1205472",
    "request_type": "Trash/Recycling",
    "request_reason": "Request a Large Item Pick Up",
    "date_created": "2025-06-30T15:20:29.000",
    "date_modified": "2025-06-30T15:20:30.000",
    "request_status": "Pending",
    "responsible_agency": "Department of Sanitation",
    "final_address": "1908 Louisa St",
    "address_councildis": "D",
    "status": "Assigned to Contractor",
    "contractor": "IV Waste",
    "rowid": "1205472",
    "final_x": "3690302.72643",
    "final_y": "538967.693706",
    "longitude": "-90.04000913591722",
    "latitude": "29.975704023281956",
    "geocoded_column": {
      "latitude": "29.975704023281956",
      "longitude": "-90.04000913591722"
    }
  },
  {
    "service_request": "2025-1205471",
    "request_type": "Trash/Recycling",
    "request_reason": "Repair Trash Cart",
    "date_created": "2025-06-30T15:18:21.000",
    "date_modified": "2025-06-30T15:18:22.000",
    "request_status": "Pending",
    "responsible_agency": "Department of Sanitation",
    "final_address": "4727 Bundy Rd",
    "address_councildis": "E",
    "status": "Assigned to Contractor",
    "contractor": "Waste Pro",
    "rowid": "1205471",
    "final_x": "3709472.85265",
    "final_y": "555717.771481",
    "longitude": "-89.97883975330376",
    "latitude": "30.021151481023516",
    "geocoded_column": {
      "latitude": "30.021151481023516",
      "longitude": "-89.97883975330376"
    }
  },
  {
    "service_request": "2025-1205470",
    "request_type": "Property Maintenance",
    "request_reason": "Property Maintenance",
    "date_created": "2025-06-30T15:16:49.000",
    "date_modified": "2025-06-30T15:17:18.000",
    "request_status": "Pending",
    "responsible_agency": "Department of Code Enforcement",
    "final_address": "1434 Joliet St",
    "address_councildis": "A",
    "status": "Pending",
    "rowid": "1205470",
    "final_x": "3661540.03885",
    "final_y": "530095.567553",
    "longitude": "-90.1311442145474",
    "latitude": "29.952169891221583",
    "geocoded_column": {
      "latitude": "29.952169891221583",
      "longitude": "-90.1311442145474"
    }
  },
  {
    "service_request": "2025-1205469",
    "request_type": "Trash/Recycling",
    "request_reason": "Return Recycling Cart",
    "date_created": "2025-06-30T15:15:38.000",
    "date_modified": "2025-06-30T15:15:39.000",
    "request_status": "Pending",
    "responsible_agency": "Department of Sanitation",
    "final_address": "2805 Bell St",
    "address_councildis": "A",
    "status": "Pending",
    "rowid": "1205469",
    "final_x": "3677321.23758",
    "final_y": "539199.502218",
    "longitude": "-90.08100032790301",
    "latitude": "29.976737920378408",
    "geocoded_column": {
      "latitude": "29.976737920378408",
      "longitude": "-90.08100032790301"
    }
  },
  {
    "service_request": "2025-1205468",
    "request_type": "Drainage",
    "request_reason": "Catch Basin Clogged",
    "date_created": "2025-06-30T15:14:36.000",
    "date_modified": "2025-06-30T15:14:38.000",
    "request_status": "Pending",
    "responsible_agency": "Sewerage & Water Board",
    "final_address": "623 Frenchmen St",
    "address_councildis": "C",
    "status": "Pending",
    "rowid": "1205468",
    "final_x": "3684811.63151",
    "final_y": "534676.498246",
    "longitude": "-90.05750242171668",
    "latitude": "29.96407400418081",
    "geocoded_column": {
      "latitude": "29.96407400418081",
      "longitude": "-90.05750242171668"
    }
  },
  {
    "service_request": "2025-1205467",
    "request_type": "Drainage",
    "request_reason": "Catch Basin Clogged",
    "date_created": "2025-06-30T15:13:44.000",
    "date_modified": "2025-06-30T15:13:46.000",
    "request_status": "Pending",
    "responsible_agency": "Sewerage & Water Board",
    "final_address": "1 Maryland Dr",
    "address_councildis": "A",
    "status": "Pending",
    "rowid": "1205467",
    "final_x": "3663651.25959",
    "final_y": "540080.148939",
    "longitude": "-90.1241452347023",
    "latitude": "29.97956313477445",
    "geocoded_column": {
      "latitude": "29.97956313477445",
      "longitude": "-90.1241452347023"
    }
  },
  {
    "service_request": "2025-1205466",
    "request_type": "Trash/Recycling",
    "request_reason": "Request a Large Item Pick Up",
    "date_created": "2025-06-30T15:11:00.000",
    "date_modified": "2025-06-30T15:11:01.000",
    "request_status": "Pending",
    "responsible_agency": "Department of Sanitation",
    "final_address": "5118 Royal St",
    "address_councildis": "E",
    "status": "Assigned to Contractor",
    "contractor": "Waste Pro",
    "rowid": "1205466",
    "final_x": "3695982.41334",
    "final_y": "532654.616324",
    "longitude": "-90.02229931914293",
    "latitude": "29.958167811717384",
    "geocoded_column": {
      "latitude": "29.958167811717384",
      "longitude": "-90.02229931914293"
    }
  },
  {
    "service_request": "2025-1205465",
    "request_type": "Streetlights",
    "request_reason": "Streetlight Outage/Malfunction",
    "date_created": "2025-06-30T15:10:47.000",
    "date_modified": "2025-06-30T15:14:56.000",
    "request_status": "Pending",
    "responsible_agency": "Department of Public Works",
    "final_address": "16 Maryland Dr",
    "address_councildis": "A",
    "status": "Pending",
    "contractor": "Legacy Professional Services",
    "rowid": "1205465",
    "final_x": "3663566.16256",
    "final_y": "540598.636683",
    "longitude": "-90.12439672884692",
    "latitude": "29.980991271775107",
    "geocoded_column": {
      "latitude": "29.980991271775107",
      "longitude": "-90.12439672884692"
    }
  },
  {
    "service_request": "2025-1205464",
    "request_type": "Trash/Recycling",
    "request_reason": "Request a Large Item Pick Up",
    "date_created": "2025-06-30T15:08:34.000",
    "date_modified": "2025-06-30T15:08:36.000",
    "request_status": "Pending",
    "responsible_agency": "Department of Sanitation",
    "final_address": "2224 Royal St",
    "address_councildis": "C",
    "status": "Assigned to Contractor",
    "contractor": "IV Waste",
    "rowid": "1205464",
    "final_x": "3685394.18882",
    "final_y": "534853.095302",
    "longitude": "-90.05565654242851",
    "latitude": "29.96454173662454",
    "geocoded_column": {
      "latitude": "29.96454173662454",
      "longitude": "-90.05565654242851"
    }
  },
  {
    "service_request": "2025-1205463",
    "request_type": "Trash/Recycling",
    "request_reason": "Order Recycling Cart",
    "date_created": "2025-06-30T15:08:12.000",
    "date_modified": "2025-06-30T15:08:15.000",
    "request_status": "Pending",
    "responsible_agency": "Department of Sanitation",
    "final_address": "8825 Edinburgh St",
    "address_councildis": "A",
    "status": "Pending",
    "rowid": "1205463",
    "final_x": "3665516.16852",
    "final_y": "536271.309383",
    "longitude": "-90.11838263358605",
    "latitude": "29.969035850209462",
    "geocoded_column": {
      "latitude": "29.969035850209462",
      "longitude": "-90.11838263358605"
    }
  },
  {
    "service_request": "2025-1205462",
    "request_type": "Trash/Recycling",
    "request_reason": "Order Second Trash Cart",
    "date_created": "2025-06-30T15:06:41.000",
    "date_modified": "2025-06-30T15:06:43.000",
    "request_status": "Pending",
    "responsible_agency": "Department of Sanitation",
    "final_address": "3644 Johnny Jackson Jr Blvd",
    "address_councildis": "D",
    "status": "Assigned to Contractor",
    "contractor": "IV Waste",
    "rowid": "1205462",
    "final_x": "3691796.42819",
    "final_y": "545989.486736",
    "longitude": "-90.0350403532969",
    "latitude": "29.99496498632941",
    "geocoded_column": {
      "latitude": "29.99496498632941",
      "longitude": "-90.0350403532969"
    }
  },
  {
    "service_request": "2025-1205461",
    "request_type": "Trash/Recycling",
    "request_reason": "Request a Large Item Pick Up",
    "date_created": "2025-06-30T15:05:57.000",
    "date_modified": "2025-06-30T15:05:59.000",
    "request_status": "Pending",
    "responsible_agency": "Department of Sanitation",
    "final_address": "7200 Yorktown Dr",
    "address_councildis": "E",
    "status": "Assigned to Contractor",
    "contractor": "Waste Pro",
    "rowid": "1205461",
    "final_x": "3705801.17041",
    "final_y": "561209.723678",
    "longitude": "-89.99023773679654",
    "latitude": "30.036371035809474",
    "geocoded_column": {
      "latitude": "30.036371035809474",
      "longitude": "-89.99023773679654"
    }
  },
  {
    "service_request": "2025-1205460",
    "request_type": "Trash/Recycling",
    "request_reason": "Illegal Dumping",
    "date_created": "2025-06-30T15:05:22.000",
    "date_modified": "2025-06-30T15:05:23.000",
    "request_status": "Pending",
    "responsible_agency": "Department of Sanitation",
    "final_address": "3815 Roneagle Way",
    "address_councildis": "D",
    "status": "Pending",
    "rowid": "1205460",
    "final_x": "3677027.31579",
    "final_y": "546218.580432",
    "longitude": "-90.08168647056468",
    "latitude": "29.996046775206292",
    "geocoded_column": {
      "latitude": "29.996046775206292",
      "longitude": "-90.08168647056468"
    }
  },
  {
    "service_request": "2025-1205459",
    "request_type": "Trash/Recycling",
    "request_reason": "Order Trash Cart",
    "date_created": "2025-06-30T15:04:37.000",
    "date_modified": "2025-06-30T15:04:39.000",
    "request_status": "Pending",
    "responsible_agency": "Department of Sanitation",
    "final_address": "3104 St Philip St",
    "address_councildis": "A",
    "status": "Assigned to Contractor",
    "contractor": "IV Waste",
    "rowid": "1205459",
    "final_x": "3675882.91611",
    "final_y": "538979.95361",
    "longitude": "-90.08555055159967",
    "latitude": "29.97617738302699",
    "geocoded_column": {
      "latitude": "29.97617738302699",
      "longitude": "-90.08555055159967"
    }
  },
  {
    "service_request": "2025-1205458",
    "request_type": "Trash/Recycling",
    "request_reason": "Replace Trash Cart",
    "date_created": "2025-06-30T15:03:05.000",
    "date_modified": "2025-06-30T15:03:06.000",
    "request_status": "Pending",
    "responsible_agency": "Department of Sanitation",
    "final_address": "1435 N Prieur St",
    "address_councildis": "D",
    "status": "Assigned to Contractor",
    "contractor": "IV Waste",
    "rowid": "1205458",
    "final_x": "3680582.93813",
    "final_y": "537497.280392",
    "longitude": "-90.07075810210851",
    "latitude": "29.97195897489021",
    "geocoded_column": {
      "latitude": "29.97195897489021",
      "longitude": "-90.07075810210851"
    }
  },
  {
    "service_request": "2025-1205457",
    "request_type": "Trash/Recycling",
    "request_reason": "Return Trash Cart",
    "date_created": "2025-06-30T15:02:31.000",
    "date_modified": "2025-06-30T15:02:34.000",
    "request_status": "Pending",
    "responsible_agency": "Department of Sanitation",
    "final_address": "CONSTANCE ST & JOSEPH ST",
    "address_councildis": "A",
    "status": "Assigned to Contractor",
    "contractor": "IV Waste",
    "rowid": "1205457",
    "final_x": "3666042.3",
    "final_y": "518544.08",
    "longitude": "-90.11731519421745",
    "latitude": "29.920276334340283",
    "geocoded_column": {
      "latitude": "29.920276334340283",
      "longitude": "-90.11731519421745"
    }
  },
  {
    "service_request": "2025-1205456",
    "request_type": "Property Maintenance",
    "request_reason": "Property Maintenance",
    "date_created": "2025-06-30T15:01:08.000",
    "date_modified": "2025-06-30T15:02:00.000",
    "request_status": "Pending",
    "responsible_agency": "Department of Code Enforcement",
    "final_address": "14607 Emory Rd",
    "address_councildis": "E",
    "status": "Pending",
    "rowid": "1205456",
    "final_x": "3719969.42866",
    "final_y": "573312.967146",
    "longitude": "-89.94500034571347",
    "latitude": "30.06918569451499",
    "geocoded_column": {
      "latitude": "30.06918569451499",
      "longitude": "-89.94500034571347"
    }
  },
  {
    "service_request": "2025-1205455",
    "request_type": "Abandoned Vehicles",
    "request_reason": "Abandoned/Junk Vehicles",
    "date_created": "2025-06-30T14:58:18.000",
    "date_modified": "2025-06-30T14:58:19.000",
    "request_status": "Pending",
    "responsible_agency": "Department of Public Works",
    "final_address": "2200 BLK First St",
    "address_councildis": "B",
    "status": "Pending",
    "rowid": "1205455",
    "final_x": "3675676.27886",
    "final_y": "525141.514137",
    "longitude": "-90.08667868606135",
    "latitude": "29.93813249510887",
    "geocoded_column": {
      "latitude": "29.93813249510887",
      "longitude": "-90.08667868606135"
    }
  },
  {
    "service_request": "2025-1205454",
    "request_type": "Trash/Recycling",
    "request_reason": "Request a Large Item Pick Up",
    "date_created": "2025-06-30T14:56:03.000",
    "date_modified": "2025-06-30T14:56:08.000",
    "request_status": "Pending",
    "responsible_agency": "Department of Sanitation",
    "final_address": "5690 Red Maple Dr",
    "address_councildis": "E",
    "status": "Assigned to Contractor",
    "contractor": "Waste Pro",
    "rowid": "1205454",
    "final_x": "3723305.01087",
    "final_y": "564529.525089",
    "longitude": "-89.93479481315721",
    "latitude": "30.044923364268662",
    "geocoded_column": {
      "latitude": "30.044923364268662",
      "longitude": "-89.93479481315721"
    }
  },
  {
    "service_request": "2025-1205453",
    "request_type": "Abandoned Vehicles",
    "request_reason": "Abandoned/Junk Vehicles",
    "date_created": "2025-06-30T14:55:23.000",
    "date_modified": "2025-06-30T14:55:27.000",
    "request_status": "Pending",
    "responsible_agency": "Department of Public Works",
    "final_address": "4421 Burgundy St",
    "address_councildis": "C",
    "status": "Pending",
    "rowid": "1205453",
    "final_x": "3693060.53853",
    "final_y": "534190.816133",
    "longitude": "-90.03147064122932",
    "latitude": "29.962483423102945",
    "geocoded_column": {
      "latitude": "29.962483423102945",
      "longitude": "-90.03147064122932"
    }
  },
  {
    "service_request": "2025-1205452",
    "request_type": "Trash/Recycling",
    "request_reason": "Start Trash Service",
    "date_created": "2025-06-30T14:55:16.000",
    "date_modified": "2025-06-30T14:55:18.000",
    "request_status": "Pending",
    "responsible_agency": "Department of Sanitation",
    "final_address": "3204 Hollygrove St",
    "address_councildis": "A",
    "status": "Assigned to Contractor",
    "contractor": "IV Waste",
    "rowid": "1205452",
    "final_x": "3664441.13172",
    "final_y": "535864.656967",
    "longitude": "-90.12179126696425",
    "latitude": "29.967948989282917",
    "geocoded_column": {
      "latitude": "29.967948989282917",
      "longitude": "-90.12179126696425"
    }
  },
  {
    "service_request": "2025-1205451",
    "request_type": "Trash/Recycling",
    "request_reason": "Illegal Dumping",
    "date_created": "2025-06-30T14:54:53.000",
    "date_modified": "2025-06-30T14:54:54.000",
    "request_status": "Pending",
    "responsible_agency": "Department of Sanitation",
    "final_address": "7000 BLK Wright Rd",
    "address_councildis": "E",
    "status": "Pending",
    "rowid": "1205451",
    "final_x": "3712434.99898",
    "final_y": "563796.605462",
    "longitude": "-89.96917639903549",
    "latitude": "30.043268448091705",
    "geocoded_column": {
      "latitude": "30.043268448091705",
      "longitude": "-89.96917639903549"
    }
  },
  {
    "service_request": "2025-1205450",
    "request_type": "Trash/Recycling",
    "request_reason": "MIssed Recycling Pick-Up",
    "date_created": "2025-06-30T14:54:24.000",
    "date_modified": "2025-06-30T14:54:25.000",
    "request_status": "Pending",
    "responsible_agency": "Department of Sanitation",
    "final_address": "1700 Wagner St",
    "address_councildis": "C",
    "status": "Assigned to Contractor",
    "contractor": "Richards Disposal",
    "rowid": "1205450",
    "final_x": "3690395.68982",
    "final_y": "524729.12774",
    "longitude": "-90.04022302284028",
    "latitude": "29.936550020770415",
    "geocoded_column": {
      "latitude": "29.936550020770415",
      "longitude": "-90.04022302284028"
    }
  },
  {
    "service_request": "2025-1205449",
    "request_type": "Trash/Recycling",
    "request_reason": "Order Trash Cart",
    "date_created": "2025-06-30T14:53:42.000",
    "date_modified": "2025-06-30T14:54:01.000",
    "request_status": "Pending",
    "responsible_agency": "Department of Sanitation",
    "final_address": "3204 Hollygrove St",
    "address_councildis": "A",
    "status": "Assigned to Contractor",
    "contractor": "IV Waste",
    "rowid": "1205449",
    "final_x": "3664441.13172",
    "final_y": "535864.656967",
    "longitude": "-90.12179126696425",
    "latitude": "29.967948989282917",
    "geocoded_column": {
      "latitude": "29.967948989282917",
      "longitude": "-90.12179126696425"
    }
  },
  {
    "service_request": "2025-1205448",
    "request_type": "Trash/Recycling",
    "request_reason": "Order Trash Cart",
    "date_created": "2025-06-30T14:53:31.000",
    "date_modified": "2025-06-30T15:27:10.000",
    "request_status": "Pending",
    "responsible_agency": "Department of Sanitation",
    "final_address": "8825 Edinburgh St",
    "address_councildis": "A",
    "status": "Assigned to Contractor",
    "contractor": "IV Waste",
    "rowid": "1205448",
    "final_x": "3665516.16852",
    "final_y": "536271.309383",
    "longitude": "-90.11838263358605",
    "latitude": "29.969035850209462",
    "geocoded_column": {
      "latitude": "29.969035850209462",
      "longitude": "-90.11838263358605"
    }
  },
  {
    "service_request": "2025-1205447",
    "request_type": "Property Maintenance",
    "request_reason": "Property Maintenance",
    "date_created": "2025-06-30T14:50:15.000",
    "date_modified": "2025-06-30T14:50:16.000",
    "request_status": "Pending",
    "responsible_agency": "Department of Code Enforcement",
    "final_address": "4526 St Claude Ave",
    "address_councildis": "C",
    "status": "Pending",
    "rowid": "1205447",
    "final_x": "3693525.23529",
    "final_y": "534809.858886",
    "longitude": "-90.029980964228",
    "latitude": "29.96417104698286",
    "geocoded_column": {
      "latitude": "29.96417104698286",
      "longitude": "-90.029980964228"
    }
  },
  {
    "service_request": "2025-1205446",
    "request_type": "Trash/Recycling",
    "request_reason": "Request a Large Item Pick Up",
    "date_created": "2025-06-30T14:49:22.000",
    "date_modified": "2025-06-30T14:50:44.000",
    "request_status": "Pending",
    "responsible_agency": "Department of Sanitation",
    "final_address": "1327 Sixth St",
    "address_councildis": "B",
    "status": "Assigned to Contractor",
    "contractor": "IV Waste",
    "rowid": "1205446",
    "final_x": "3676116.57493",
    "final_y": "521370.019577",
    "longitude": "-90.08541830673501",
    "latitude": "29.92774893604285",
    "geocoded_column": {
      "latitude": "29.92774893604285",
      "longitude": "-90.08541830673501"
    }
  },
  {
    "service_request": "2025-1205445",
    "request_type": "Property Maintenance",
    "request_reason": "Property Maintenance",
    "date_created": "2025-06-30T14:46:41.000",
    "date_modified": "2025-06-30T14:46:42.000",
    "request_status": "Pending",
    "responsible_agency": "Department of Code Enforcement",
    "final_address": "4535 N Rampart St",
    "address_councildis": "C",
    "status": "Pending",
    "rowid": "1205445",
    "final_x": "3693468.1976",
    "final_y": "534486.627909",
    "longitude": "-90.03017269235849",
    "latitude": "29.963284059519808",
    "geocoded_column": {
      "latitude": "29.963284059519808",
      "longitude": "-90.03017269235849"
    }
  },
  {
    "service_request": "2025-1205444",
    "request_type": "Trash/Recycling",
    "request_reason": "Request a Large Item Pick Up",
    "date_created": "2025-06-30T14:46:37.000",
    "date_modified": "2025-06-30T14:46:39.000",
    "request_status": "Pending",
    "responsible_agency": "Department of Sanitation",
    "final_address": "8067 Driftwood Dr",
    "address_councildis": "E",
    "status": "Assigned to Contractor",
    "contractor": "Waste Pro",
    "rowid": "1205444",
    "final_x": "3702485.09802",
    "final_y": "561993.732127",
    "longitude": "-90.00068830048633",
    "latitude": "30.038633211127145",
    "geocoded_column": {
      "latitude": "30.038633211127145",
      "longitude": "-90.00068830048633"
    }
  },
  {
    "service_request": "2025-1205443",
    "request_type": "Trash/Recycling",
    "request_reason": "Replace Trash Cart",
    "date_created": "2025-06-30T14:42:47.000",
    "date_modified": "2025-06-30T14:42:49.000",
    "request_status": "Pending",
    "responsible_agency": "Department of Sanitation",
    "final_address": "6542 Fleur-De-Lis Dr",
    "address_councildis": "A",
    "status": "Assigned to Contractor",
    "contractor": "IV Waste",
    "rowid": "1205443",
    "final_x": "3665265.46343",
    "final_y": "551560.267029",
    "longitude": "-90.1186625403967",
    "latitude": "30.011082598922968",
    "geocoded_column": {
      "latitude": "30.011082598922968",
      "longitude": "-90.1186625403967"
    }
  },
  {
    "service_request": "2025-1205442",
    "request_type": "Trash/Recycling",
    "request_reason": "Request a Large Item Pick Up",
    "date_created": "2025-06-30T14:42:45.000",
    "date_modified": "2025-06-30T14:42:47.000",
    "request_status": "Pending",
    "responsible_agency": "Department of Sanitation",
    "final_address": "7527 Horizon Dr",
    "address_councildis": "E",
    "status": "Assigned to Contractor",
    "contractor": "Waste Pro",
    "rowid": "1205442",
    "final_x": "3725451.6519",
    "final_y": "569724.18167",
    "longitude": "-89.92780913285766",
    "latitude": "30.0591342780683",
    "geocoded_column": {
      "latitude": "30.0591342780683",
      "longitude": "-89.92780913285766"
    }
  },
  {
    "service_request": "2025-1205441",
    "request_type": "Safety & Permits",
    "request_reason": "Licenses & Permits",
    "date_created": "2025-06-30T14:40:23.000",
    "date_modified": "2025-06-30T14:40:25.000",
    "request_status": "Pending",
    "responsible_agency": "Safety and Permits",
    "final_address": "5104 St Claude Ave",
    "address_councildis": "E",
    "status": "Pending",
    "rowid": "1205441",
    "final_x": "3696434.01437",
    "final_y": "534084.165189",
    "longitude": "-90.02082158787235",
    "latitude": "29.9620843502078",
    "geocoded_column": {
      "latitude": "29.9620843502078",
      "longitude": "-90.02082158787235"
    }
  },
  {
    "service_request": "2025-1205440",
    "request_type": "Trash/Recycling",
    "request_reason": "Request a Large Item Pick Up",
    "date_created": "2025-06-30T14:36:35.000",
    "date_modified": "2025-06-30T14:36:36.000",
    "request_status": "Pending",
    "responsible_agency": "Department of Sanitation",
    "final_address": "3319 N Dorgenois St",
    "address_councildis": "D",
    "status": "Assigned to Contractor",
    "contractor": "IV Waste",
    "rowid": "1205440",
    "final_x": "3691342.61539",
    "final_y": "541069.674508",
    "longitude": "-90.03664976254785",
    "latitude": "29.981451406544444",
    "geocoded_column": {
      "latitude": "29.981451406544444",
      "longitude": "-90.03664976254785"
    }
  },
  {
    "service_request": "2025-1205439",
    "request_type": "Drainage",
    "request_reason": "Street Flooding",
    "date_created": "2025-06-30T14:34:15.000",
    "date_modified": "2025-06-30T14:34:16.000",
    "request_status": "Pending",
    "responsible_agency": "Sewerage & Water Board",
    "final_address": "4544 St Claude Ave",
    "address_councildis": "C",
    "status": "Pending",
    "rowid": "1205439",
    "final_x": "3693682.66032",
    "final_y": "534769.189254",
    "longitude": "-90.0294852930851",
    "latitude": "29.96405429522348",
    "geocoded_column": {
      "latitude": "29.96405429522348",
      "longitude": "-90.0294852930851"
    }
  },