[
  {
    "service_request": "2023-1051185",
    "request_type": "Abandoned Vehicles",
    "request_reason": "Abandoned/Junk Vehicles",
    "date_created": "2023-11-21T01:38:39.000",
    "date_modified": "2023-11-21T01:38:39.000",
    "request_status": "Pending",
    "responsible_agency": "Department of Public Works",
    "final_address": "100 BLK Allen Toussaint Blvd",
    "address_councildis": "A",
    "status": "Pending",
    "rowid": "1051185",
    "final_x": "3666913.32919",
    "final_y": "554855.305103",
    "longitude": "-90.11334541463418",
    "latitude": "30.020094659842524",
    "geocoded_column": {
      "latitude": "30.020094659842524",
      "longitude": "-90.11334541463418"
    }
  },
  {
    "service_request": "2023-1051184",
    "request_type": "Roads/Drainage",
    "request_reason": "Pothole",
    "date_created": "2023-11-20T23:55:17.000",
    "date_modified": "2023-11-20T23:55:17.000",
    "request_status": "Pending",
    "responsible_agency": "Department of Public Works",
    "final_address": "1579 Henry Clay Ave",
    "address_councildis": "A",
    "status": "Pending",
    "rowid": "1051184",
    "final_x": "3665125.97453",
    "final_y": "522693.49369",
    "longitude": "-90.12006892685164",
    "latitude": "29.931712623369517",
    "geocoded_column": {
      "latitude": "29.931712623369517",
      "longitude": "-90.12006892685164"
    }
  },
  {
    "service_request": "2023-1051183",
    "request_type": "Roads/Drainage",
    "request_reason": "Pothole",
    "date_created": "2023-11-20T23:49:12.000",
    "date_modified": "2023-11-20T23:49:12.000",
    "request_status": "Pending",
    "responsible_agency": "Department of Public Works",
    "final_address": "1325 Henry Clay Ave",
    "address_councildis": "A",
    "status": "Pending",
    "rowid": "1051183",
    "final_x": "3664550.24192",
    "final_y": "521306.716217",
    "longitude": "-90.12193274180115",
    "latitude": "29.927916172790592",
    "geocoded_column": {
      "latitude": "29.927916172790592",
      "longitude": "-90.12193274180115"
    }
  },
  {
    "service_request": "2023-1051182",
    "request_type": "Abandoned Vehicles",
    "request_reason": "Abandoned/Junk Vehicles",
    "date_created": "2023-11-20T23:36:53.000",
    "date_modified": "2023-11-20T23:36:53.000",
    "request_status": "Pending",
    "responsible_agency": "Department of Public Works",
    "final_address": "1324 Harrison Ave",
    "address_councildis": "D",
    "status": "Pending",
    "rowid": "1051182",
    "final_x": "3677489.42203",
    "final_y": "547519.862802",
    "longitude": "-90.08018175528726",
    "latitude": "29.999610955063858",
    "geocoded_column": {
      "latitude": "29.999610955063858",
      "longitude": "-90.08018175528726"
    }
  },
  {
    "service_request": "2023-1051181",
    "request_type": "Roads/Drainage",
    "request_reason": "Pothole",
    "date_created": "2023-11-20T23:36:24.000",
    "date_modified": "2023-11-20T23:36:24.000",
    "request_status": "Pending",
    "responsible_agency": "Department of Public Works",
    "final_address": "1234 Henry Clay Ave",
    "address_councildis": "A",
    "status": "Pending",
    "rowid": "1051181",
    "final_x": "3664327.06445",
    "final_y": "521120.367609",
    "longitude": "-90.12264347982506",
    "latitude": "29.92741025864685",
    "geocoded_column": {
      "latitude": "29.92741025864685",
      "longitude": "-90.12264347982506"
    }
  },
  {
    "service_request": "2023-1051180",
    "request_type": "Abandoned Vehicles",
    "request_reason": "Abandoned/Junk Vehicles",
    "date_created": "2023-11-20T23:13:30.000",
    "date_modified": "2023-11-20T23:13:30.000",
    "request_status": "Pending",
    "responsible_agency": "Department of Public Works",
    "final_address": "1324 Harrison Ave",
    "address_councildis": "D",
    "status": "Pending",
    "rowid": "1051180",
    "final_x": "3677489.42203",
    "final_y": "547519.862802",
    "longitude": "-90.08018175528726",
    "latitude": "29.999610955063858",
    "geocoded_column": {
      "latitude": "29.999610955063858",
      "longitude": "-90.08018175528726"
    }
  },
  {
    "service_request": "2023-1051179",
    "request_type": "Roads/Drainage",
    "request_reason": "Pothole",
    "date_created": "2023-11-20T22:50:08.000",
    "date_modified": "2023-11-20T22:50:08.000",
    "request_status": "Pending",
    "responsible_agency": "Department of Public Works",
    "final_address": "5815 Hurst St",
    "address_councildis": "A",
    "status": "Pending",
    "rowid": "1051179",
    "final_x": "3665949.78439",
    "final_y": "521779.196794",
    "longitude": "-90.11749886798262",
    "latitude": "29.929174586020036",
    "geocoded_column": {
      "latitude": "29.929174586020036",
      "longitude": "-90.11749886798262"
    }
  },
  {
    "service_request": "2023-1051178",
    "request_type": "Roads/Drainage",
    "request_reason": "Damaged Sidewalk",
    "date_created": "2023-11-20T22:47:03.000",
    "date_modified": "2023-11-20T22:47:03.000",
    "request_status": "Pending",
    "responsible_agency": "Department of Public Works",
    "final_address": "1426 Dauphine St",
    "address_councildis": "C",
    "status": "Pending",
    "rowid": "1051178",
    "final_x": "3683656.68469",
    "final_y": "535050.010182",
    "longitude": "-90.06113654057582",
    "latitude": "29.965136342604577",
    "geocoded_column": {
      "latitude": "29.965136342604577",
      "longitude": "-90.06113654057582"
    }
  },
  {
    "service_request": "2023-1051177",
    "request_type": "Traffic Signals/Signs/Striping/Streetlights",
    "request_reason": "Street Light Outage/Malfunction",
    "date_created": "2023-11-20T22:41:04.000",
    "date_modified": "2023-11-20T22:41:05.000",
    "request_status": "Pending",
    "responsible_agency": "Department of Public Works",
    "final_address": "2000 BLK Philip St",
    "address_councildis": "B",
    "status": "Assigned to Contractor",
    "contractor": "Legacy Professional Services",
    "rowid": "1051177",
    "final_x": "3676254.42633",
    "final_y": "524682.938283",
    "longitude": "-90.0848691947947",
    "latitude": "29.936854253418108",
    "geocoded_column": {
      "latitude": "29.936854253418108",
      "longitude": "-90.0848691947947"
    }
  },
  {
    "service_request": "2023-1051176",
    "request_type": "Roads/Drainage",
    "request_reason": "Pothole",
    "date_created": "2023-11-20T22:24:11.000",
    "date_modified": "2023-11-20T22:24:11.000",
    "request_status": "Pending",
    "responsible_agency": "Department of Public Works",
    "final_address": "2820 Canal St",
    "address_councildis": "B",
    "status": "Pending",
    "rowid": "1051176",
    "final_x": "3674684.52334",
    "final_y": "535498.125766",
    "longitude": "-90.08945480915236",
    "latitude": "29.966639367900775",
    "geocoded_column": {
      "latitude": "29.966639367900775",
      "longitude": "-90.08945480915236"
    }
  },
  {
    "service_request": "2023-1051175",
    "request_type": "Trash/Recycling",
    "request_reason": "Request a Large Item Pick Up",
    "date_created": "2023-11-20T21:32:08.000",
    "date_modified": "2023-11-20T21:32:09.000",
    "request_status": "Pending",
    "responsible_agency": "Department of Sanitation",
    "final_address": "7521 Willow St",
    "address_councildis": "A",
    "status": "Assigned to Contractor",
    "contractor": "Richards Disposal",
    "rowid": "1051175",
    "final_x": "3663979.84122",
    "final_y": "527627.038207",
    "longitude": "-90.12352271539486",
    "latitude": "29.945311619695907",
    "geocoded_column": {
      "latitude": "29.945311619695907",
      "longitude": "-90.12352271539486"
    }
  },
  {
    "service_request": "2023-1051174",
    "request_type": "Roads/Drainage",
    "request_reason": "Pothole",
    "date_created": "2023-11-20T21:12:26.000",
    "date_modified": "2023-11-20T21:12:26.000",
    "request_status": "Pending",
    "responsible_agency": "Department of Public Works",
    "final_address": "BARRETT ST & PALMER AVE",
    "address_councildis": "A",
    "status": "Pending",
    "rowid": "1051174",
    "final_x": "3666846.3",
    "final_y": "526813.98",
    "longitude": "-90.11449966717602",
    "latitude": "29.94299244231882",
    "geocoded_column": {
      "latitude": "29.94299244231882",
      "longitude": "-90.11449966717602"
    }
  },
  {
    "service_request": "2023-1051173",
    "request_type": "Roads/Drainage",
    "request_reason": "Pothole",
    "date_created": "2023-11-20T20:34:18.000",
    "date_modified": "2023-11-20T20:34:18.000",
    "request_status": "Pending",
    "responsible_agency": "Department of Public Works",
    "final_address": "1430 Camp St",
    "address_councildis": "B",
    "status": "Pending",
    "rowid": "1051173",
    "final_x": "3679954.08258",
    "final_y": "524355.357564",
    "longitude": "-90.07320057043316",
    "latitude": "29.9358421569287",
    "geocoded_column": {
      "latitude": "29.9358421569287",
      "longitude": "-90.07320057043316"
    }
  },
  {
    "service_request": "2023-1051172",
    "request_type": "Roads/Drainage",
    "request_reason": "Pothole",
    "date_created": "2023-11-20T20:28:20.000",
    "date_modified": "2023-11-20T20:28:20.000",
    "request_status": "Pending",
    "responsible_agency": "Department of Public Works",
    "final_address": "6019 Chestnut St",
    "address_councildis": "A",
    "status": "Pending",
    "rowid": "1051172",
    "final_x": "3664762.62535",
    "final_y": "519948.884408",
    "longitude": "-90.12130763332809",
    "latitude": "29.92417638659354",
    "geocoded_column": {
      "latitude": "29.92417638659354",
      "longitude": "-90.12130763332809"
    }
  },
  {
    "service_request": "2023-1051171",
    "request_type": "Trash/Recycling",
    "request_reason": "Request a Large Item Pick Up",
    "date_created": "2023-11-20T20:05:46.000",
    "date_modified": "2023-11-20T20:05:47.000",
    "request_status": "Pending",
    "responsible_agency": "Department of Sanitation",
    "final_address": "3321 General Taylor St",
    "address_councildis": "B",
    "status": "Assigned to Contractor",
    "contractor": "Richards Disposal",
    "rowid": "1051171",
    "final_x": "3671240.33479",
    "final_y": "527188.711487",
    "longitude": "-90.10061386436449",
    "latitude": "29.943893582190693",
    "geocoded_column": {
      "latitude": "29.943893582190693",
      "longitude": "-90.10061386436449"
    }
  },
  {
    "service_request": "2023-1051170",
    "request_type": "Trash/Recycling",
    "request_reason": "Missed Trash Pick-Up",
    "date_created": "2023-11-20T19:27:21.000",
    "date_modified": "2023-11-20T19:27:22.000",
    "request_status": "Pending",
    "responsible_agency": "Department of Sanitation",
    "final_address": "7664 Anne Marie Ct",
    "address_councildis": "E",
    "status": "Assigned to Contractor",
    "contractor": "Waste Pro",
    "rowid": "1051170",
    "final_x": "3717697.7669",
    "final_y": "571345.029032",
    "longitude": "-89.9522565115918",
    "latitude": "30.063850173020324",
    "geocoded_column": {
      "latitude": "30.063850173020324",
      "longitude": "-89.9522565115918"
    }
  },
  {
    "service_request": "2023-1051169",
    "request_type": "Trash/Recycling",
    "request_reason": "MIssed Recycling Pick-Up",
    "date_created": "2023-11-20T19:09:31.000",
    "date_modified": "2023-11-20T19:09:32.000",
    "request_status": "Pending",
    "responsible_agency": "Department of Sanitation",
    "final_address": "822 Camp St",
    "address_councildis": "B",
    "status": "Assigned to Contractor",
    "contractor": "Empire Services",
    "rowid": "1051169",
    "final_x": "3680783.10402",
    "final_y": "527713.594815",
    "longitude": "-90.07046648783425",
    "latitude": "29.94505109660232",
    "geocoded_column": {
      "latitude": "29.94505109660232",
      "longitude": "-90.07046648783425"
    }
  },
  {
    "service_request": "2023-1051168",
    "request_type": "Trash/Recycling",
    "request_reason": "Request a Large Item Pick Up",
    "date_created": "2023-11-20T19:07:27.000",
    "date_modified": "2023-11-20T19:07:27.000",
    "request_status": "Pending",
    "responsible_agency": "Department of Sanitation",
    "final_address": "2000 Lapeyrouse St",
    "address_councildis": "D",
    "status": "Assigned to Contractor",
    "contractor": "IV Waste",
    "rowid": "1051168",
    "final_x": "3680964.10805",
    "final_y": "538598.348681",
    "longitude": "-90.06951595299786",
    "latitude": "29.974974977970405",
    "geocoded_column": {
      "latitude": "29.974974977970405",
      "longitude": "-90.06951595299786"
    }
  },
  {
    "service_request": "2023-1051167",
    "request_type": "Trash/Recycling",
    "request_reason": "Request a Large Item Pick Up",
    "date_created": "2023-11-20T19:05:44.000",
    "date_modified": "2023-11-20T19:05:44.000",
    "request_status": "Pending",
    "responsible_agency": "Department of Sanitation",
    "final_address": "5800 BLK Saint Bernard Ave",
    "address_councildis": "D",
    "status": "Assigned to Contractor",
    "contractor": "IV Waste",
    "rowid": "1051167",
    "final_x": "3676832.37497",
    "final_y": "553935.626824",
    "longitude": "-90.08203606271354",
    "latitude": "30.0172717598272",
    "geocoded_column": {
      "latitude": "30.0172717598272",
      "longitude": "-90.08203606271354"
    }
  },
  {
    "service_request": "2023-1051166",
    "request_type": "Trash/Recycling",
    "request_reason": "Replace Trash Cart",
    "date_created": "2023-11-20T18:58:27.000",
    "date_modified": "2023-11-20T18:58:28.000",
    "request_status": "Pending",
    "responsible_agency": "Department of Sanitation",
    "final_address": "6 Fontainebleau Dr",
    "address_councildis": "A",
    "status": "Assigned to Contractor",
    "contractor": "Richards Disposal",
    "rowid": "1051166",
    "final_x": "3665549.65671",
    "final_y": "531845.766531",
    "longitude": "-90.11842506144463",
    "latitude": "29.95686608646346",
    "geocoded_column": {
      "latitude": "29.95686608646346",
      "longitude": "-90.11842506144463"
    }
  },
  {
    "service_request": "2023-1051165",
    "request_type": "Trash/Recycling",
    "request_reason": "Request a Large Item Pick Up",
    "date_created": "2023-11-20T18:47:38.000",
    "date_modified": "2023-11-20T18:47:39.000",
    "request_status": "Pending",
    "responsible_agency": "Department of Sanitation",
    "final_address": "1300 Evelina St",
    "address_councildis": "C",
    "status": "Assigned to Contractor",
    "contractor": "Richards Disposal",
    "rowid": "1051165",
    "final_x": "3689556.48873",
    "final_y": "529471.857345",
    "longitude": "-90.04270375659087",
    "latitude": "29.949616923244278",
    "geocoded_column": {
      "latitude": "29.949616923244278",
      "longitude": "-90.04270375659087"
    }
  },
  {
    "service_request": "2023-1051164",
    "request_type": "Trash/Recycling",
    "request_reason": "Request a Large Item Pick Up",
    "date_created": "2023-11-20T18:43:01.000",
    "date_modified": "2023-11-20T18:43:02.000",
    "request_status": "Pending",
    "responsible_agency": "Department of Sanitation",
    "final_address": "4610 Lennox Blvd",
    "address_councildis": "C",
    "status": "Assigned to Contractor",
    "contractor": "Richards Disposal",
    "rowid": "1051164",
    "final_x": "3700851.62321",
    "final_y": "513751.210866",
    "longitude": "-90.007614420725",
    "latitude": "29.906035919005962",
    "geocoded_column": {
      "latitude": "29.906035919005962",
      "longitude": "-90.007614420725"
    }
  },
  {
    "service_request": "2023-1051163",
    "request_type": "Roads/Drainage",
    "request_reason": "Pothole",
    "date_created": "2023-11-20T18:16:41.000",
    "date_modified": "2023-11-20T18:16:41.000",
    "request_status": "Pending",
    "responsible_agency": "Department of Public Works",
    "final_address": "2609 St Claude Ave",
    "address_councildis": "C",
    "status": "Pending",
    "rowid": "1051163",
    "final_x": "3687268.55855",
    "final_y": "536614.324167",
    "longitude": "-90.04967512802371",
    "latitude": "29.969326900712144",
    "geocoded_column": {
      "latitude": "29.969326900712144",
      "longitude": "-90.04967512802371"
    }
  },
  {
    "service_request": "2023-1051162",
    "request_type": "Property Maintenance",
    "request_reason": "Property Maintenance",
    "date_created": "2023-11-20T18:14:12.000",
    "date_modified": "2023-11-20T18:14:12.000",
    "request_status": "Pending",
    "responsible_agency": "Department of Code Enforcement",
    "final_address": "336 Bermuda St",
    "address_councildis": "C",
    "status": "Pending",
    "rowid": "1051162",
    "final_x": "3686484.9389",
    "final_y": "530554.158722",
    "longitude": "-90.05236380882285",
    "latitude": "29.952687654182526",
    "geocoded_column": {
      "latitude": "29.952687654182526",
      "longitude": "-90.05236380882285"
    }
  },
  {
    "service_request": "2023-1051161",
    "request_type": "Trash/Recycling",
    "request_reason": "Replace Trash Cart",
    "date_created": "2023-11-20T18:10:48.000",
    "date_modified": "2023-11-20T18:10:49.000",
    "request_status": "Pending",
    "responsible_agency": "Department of Sanitation",
    "final_address": "6335 Wales St",
    "address_councildis": "E",
    "status": "Assigned to Contractor",
    "contractor": "Waste Pro",
    "rowid": "1051161",
    "final_x": "3696341.71344",
    "final_y": "559924.159453",
    "longitude": "-90.02017792242059",
    "latitude": "30.03313771129868",
    "geocoded_column": {
      "latitude": "30.03313771129868",
      "longitude": "-90.02017792242059"
    }
  },
  {
    "service_request": "2023-1051158",
    "request_type": "Trash/Recycling",
    "request_reason": "Replace Trash Cart",
    "date_created": "2023-11-20T17:41:51.000",
    "date_modified": "2023-11-20T17:41:52.000",
    "request_status": "Pending",
    "responsible_agency": "Department of Sanitation",
    "final_address": "6919 Foch Rd",
    "address_councildis": "D",
    "status": "Assigned to Contractor",
    "contractor": "Waste Pro",
    "rowid": "1051158",
    "final_x": "3696710.78461",
    "final_y": "556493.261658",
    "longitude": "-90.01913597698528",
    "latitude": "30.023692418779596",
    "geocoded_column": {
      "latitude": "30.023692418779596",
      "longitude": "-90.01913597698528"
    }
  },
  {
    "service_request": "2023-1051157",
    "request_type": "Trash/Recycling",
    "request_reason": "Replace Recycling Cart",
    "date_created": "2023-11-20T17:40:59.000",
    "date_modified": "2023-11-20T17:40:59.000",
    "request_status": "Pending",
    "responsible_agency": "Department of Sanitation",
    "final_address": "3820 Coliseum St",
    "address_councildis": "B",
    "status": "Pending",
    "rowid": "1051157",
    "final_x": "3672963.97352",
    "final_y": "519944.631928",
    "longitude": "-90.09541895020499",
    "latitude": "29.923923609682497",
    "geocoded_column": {
      "latitude": "29.923923609682497",
      "longitude": "-90.09541895020499"
    }
  },
  {
    "service_request": "2023-1051156",
    "request_type": "Trash/Recycling",
    "request_reason": "Replace Trash Cart",
    "date_created": "2023-11-20T17:16:28.000",
    "date_modified": "2023-11-20T17:16:29.000",
    "request_status": "Pending",
    "responsible_agency": "Department of Sanitation",
    "final_address": "2540 DAbadie St",
    "address_councildis": "D",
    "status": "Assigned to Contractor",
    "contractor": "IV Waste",
    "rowid": "1051156",
    "final_x": "3679680.04194",
    "final_y": "540597.525323",
    "longitude": "-90.07350194200791",
    "latitude": "29.980510901603438",
    "geocoded_column": {
      "latitude": "29.980510901603438",
      "longitude": "-90.07350194200791"
    }
  },
  {
    "service_request": "2023-1051155",
    "request_type": "Trash/Recycling",
    "request_reason": "Request a Large Item Pick Up",
    "date_created": "2023-11-20T17:16:22.000",
    "date_modified": "2023-11-20T17:16:22.000",
    "request_status": "Pending",
    "responsible_agency": "Department of Sanitation",
    "final_address": "11283 Winrock Dr",
    "address_councildis": "E",
    "status": "Assigned to Contractor",
    "contractor": "Waste Pro",
    "rowid": "1051155",
    "final_x": "3716681.44594",
    "final_y": "561706.381535",
    "longitude": "-89.95583541936485",
    "latitude": "30.037381488445696",
    "geocoded_column": {
      "latitude": "30.037381488445696",
      "longitude": "-89.95583541936485"
    }
  },
  {
    "service_request": "2023-1051154",
    "request_type": "Traffic Signals/Signs/Striping/Streetlights",
    "request_reason": "Traffic Signal Malfunctioning/Damaged",
    "date_created": "2023-11-20T17:09:24.000",
    "date_modified": "2023-11-20T17:09:24.000",
    "request_status": "Pending",
    "responsible_agency": "Department of Public Works",
    "final_address": "6201 Elysian Fields Ave",
    "address_councildis": "D",
    "status": "Pending",
    "rowid": "1051154",
    "final_x": "3683605.97116",
    "final_y": "555974.068121",
    "longitude": "-90.06056272436395",
    "latitude": "30.022671594683796",
    "geocoded_column": {
      "latitude": "30.022671594683796",
      "longitude": "-90.06056272436395"
    }
  },
  {
    "service_request": "2023-1051153",
    "request_type": "Parks & Parkways",
    "request_reason": "Request Tree Service (Right of Way/Public Property)",
    "date_created": "2023-11-20T17:02:06.000",
    "date_modified": "2023-11-20T18:07:02.000",
    "request_status": "Pending",
    "responsible_agency": "Department of Parks & Parkway",
    "final_address": "1614 Eagle St",
    "address_councildis": "A",
    "status": "Pending",
    "rowid": "1051153",
    "final_x": "3661114.11546",
    "final_y": "531182.750082",
    "longitude": "-90.1324531124472",
    "latitude": "29.955171573904448",
    "geocoded_column": {
      "latitude": "29.955171573904448",
      "longitude": "-90.1324531124472"
    }
  },
  {
    "service_request": "2023-1051152",
    "request_type": "Trash/Recycling",
    "request_reason": "Request a Large Item Pick Up",
    "date_created": "2023-11-20T16:50:33.000",
    "date_modified": "2023-11-20T16:50:33.000",
    "request_status": "Pending",
    "responsible_agency": "Department of Sanitation",
    "final_address": "1450 Burbank Dr",
    "address_councildis": "D",
    "status": "Assigned to Contractor",
    "contractor": "IV Waste",
    "rowid": "1051152",
    "final_x": "3677878.81582",
    "final_y": "554247.228824",
    "longitude": "-90.07871895131156",
    "latitude": "30.018097089689693",
    "geocoded_column": {
      "latitude": "30.018097089689693",
      "longitude": "-90.07871895131156"
    }
  },
  {
    "service_request": "2023-1051151",
    "request_type": "Trash/Recycling",
    "request_reason": "MIssed Recycling Pick-Up",
    "date_created": "2023-11-20T16:45:07.000",
    "date_modified": "2023-11-20T16:45:07.000",
    "request_status": "Pending",
    "responsible_agency": "Department of Sanitation",
    "final_address": "2037 Audubon St",
    "address_councildis": "A",
    "status": "Assigned to Contractor",
    "contractor": "Richards Disposal",
    "rowid": "1051151",
    "final_x": "3666202.49908",
    "final_y": "528908.456896",
    "longitude": "-90.11646208472514",
    "latitude": "29.94877039190224",
    "geocoded_column": {
      "latitude": "29.94877039190224",
      "longitude": "-90.11646208472514"
    }
  },
  {
    "service_request": "2023-1051150",
    "request_type": "Trash/Recycling",
    "request_reason": "Missed Trash Pick-Up",
    "date_created": "2023-11-20T16:44:30.000",
    "date_modified": "2023-11-20T16:44:31.000",
    "request_status": "Pending",
    "responsible_agency": "Department of Sanitation",
    "final_address": "2037 Audubon St",
    "address_councildis": "A",
    "status": "Assigned to Contractor",
    "contractor": "Richards Disposal",
    "rowid": "1051150",
    "final_x": "3666202.49908",
    "final_y": "528908.456896",
    "longitude": "-90.11646208472514",
    "latitude": "29.94877039190224",
    "geocoded_column": {
      "latitude": "29.94877039190224",
      "longitude": "-90.11646208472514"
    }
  },
  {
    "service_request": "2023-1051149",
    "request_type": "Trash/Recycling",
    "request_reason": "Return Trash Cart",
    "date_created": "2023-11-20T16:39:05.000",
    "date_modified": "2023-11-20T16:39:06.000",
    "request_status": "Pending",
    "responsible_agency": "Department of Sanitation",
    "final_address": "6711 Coventry St",
    "address_councildis": "E",
    "status": "Assigned to Contractor",
    "contractor": "Waste Pro",
    "rowid": "1051149",
    "final_x": "3697995.53475",
    "final_y": "559545.277341",
    "longitude": "-90.01496549040314",
    "latitude": "30.032043713776673",
    "geocoded_column": {
      "latitude": "30.032043713776673",
      "longitude": "-90.01496549040314"
    }
  },
  {
    "service_request": "2023-1051148",
    "request_type": "Trash/Recycling",
    "request_reason": "Request a Large Item Pick Up",
    "date_created": "2023-11-20T16:33:35.000",
    "date_modified": "2023-11-20T16:33:35.000",
    "request_status": "Pending",
    "responsible_agency": "Department of Sanitation",
    "final_address": "3510 Post Oak Ave",
    "address_councildis": "C",
    "status": "Assigned to Contractor",
    "contractor": "Richards Disposal",
    "rowid": "1051148",
    "final_x": "3703256.47978",
    "final_y": "514794.800115",
    "longitude": "-89.9999862420343",
    "latitude": "29.908828708913113",
    "geocoded_column": {
      "latitude": "29.908828708913113",
      "longitude": "-89.9999862420343"
    }
  },
  {
    "service_request": "2023-1051147",
    "request_type": "Trash/Recycling",
    "request_reason": "Illegal Dumping",
    "date_created": "2023-11-20T16:27:54.000",
    "date_modified": "2023-11-20T16:27:54.000",
    "request_status": "Pending",
    "responsible_agency": "Department of Code Enforcement",
    "final_address": "1611 Prytania St",
    "address_councildis": "B",
    "status": "Pending",
    "rowid": "1051147",
    "final_x": "3679377.57455",
    "final_y": "524934.137981",
    "longitude": "-90.07500055059124",
    "latitude": "29.93745103258859",
    "geocoded_column": {
      "latitude": "29.93745103258859",
      "longitude": "-90.07500055059124"
    }
  },
  {
    "service_request": "2023-1051146",
    "request_type": "Property Maintenance",
    "request_reason": "Property Maintenance",
    "date_created": "2023-11-20T16:18:41.000",
    "date_modified": "2023-11-20T16:18:42.000",
    "request_status": "Pending",
    "responsible_agency": "Department of Code Enforcement",
    "final_address": "4834 Dodt Ave",
    "address_councildis": "E",
    "status": "Pending",
    "rowid": "1051146",
    "final_x": "3705293.18705",
    "final_y": "555964.770265",
    "longitude": "-89.99203707736052",
    "latitude": "30.021965822546058",
    "geocoded_column": {
      "latitude": "30.021965822546058",
      "longitude": "-89.99203707736052"
    }
  },
  {
    "service_request": "2023-1051145",
    "request_type": "Roads/Drainage",
    "request_reason": "Pothole",
    "date_created": "2023-11-20T16:17:57.000",
    "date_modified": "2023-11-20T16:17:57.000",
    "request_status": "Pending",
    "responsible_agency": "Department of Public Works",
    "final_address": "1301 Constantinople St",
    "address_councildis": "B",
    "status": "Pending",
    "rowid": "1051145",
    "final_x": "3672430.66305",
    "final_y": "520250.7726",
    "longitude": "-90.09709199725775",
    "latitude": "29.924781230435865",
    "geocoded_column": {
      "latitude": "29.924781230435865",
      "longitude": "-90.09709199725775"
    }
  },
  {
    "service_request": "2023-1051144",
    "request_type": "Abandoned Vehicles",
    "request_reason": "Abandoned/Junk Vehicles",
    "date_created": "2023-11-20T16:06:29.000",
    "date_modified": "2023-11-20T16:06:29.000",
    "request_status": "Pending",
    "responsible_agency": "Department of Public Works",
    "final_address": "5737 Pasteur Blvd",
    "address_councildis": "D",
    "status": "Pending",
    "rowid": "1051144",
    "final_x": "3682913.96348",
    "final_y": "554246.623256",
    "longitude": "-90.06280982745463",
    "latitude": "30.017942872380015",
    "geocoded_column": {
      "latitude": "30.017942872380015",
      "longitude": "-90.06280982745463"
    }
  },
  {
    "service_request": "2023-1051143",
    "request_type": "Trash/Recycling",
    "request_reason": "Illegal Dumping",
    "date_created": "2023-11-20T16:06:11.000",
    "date_modified": "2023-11-20T16:06:11.000",
    "request_status": "Pending",
    "responsible_agency": "Department of Sanitation",
    "final_address": "3708 Pauger St",
    "address_councildis": "D",
    "status": "Pending",
    "rowid": "1051143",
    "final_x": "3683198.56424",
    "final_y": "543659.253902",
    "longitude": "-90.06228167385692",
    "latitude": "29.98882273646926",
    "geocoded_column": {
      "latitude": "29.98882273646926",
      "longitude": "-90.06228167385692"
    }
  },
  {
    "service_request": "2023-1051142",
    "request_type": "Trash/Recycling",
    "request_reason": "Request a Large Item Pick Up",
    "date_created": "2023-11-20T16:05:53.000",
    "date_modified": "2023-11-20T16:05:54.000",
    "request_status": "Pending",
    "responsible_agency": "Department of Sanitation",
    "final_address": "221 Vallette St",
    "address_councildis": "C",
    "status": "Assigned to Contractor",
    "contractor": "Richards Disposal",
    "rowid": "1051142",
    "final_x": "3687539.94012",
    "final_y": "531022.172098",
    "longitude": "-90.04901603343563",
    "latitude": "29.95394205812009",
    "geocoded_column": {
      "latitude": "29.95394205812009",
      "longitude": "-90.04901603343563"
    }
  },
  {
    "service_request": "2023-1051140",
    "request_type": "Mosquito, Termite & Rodent Control",
    "request_reason": "Mosquito Complaint",
    "date_created": "2023-11-20T16:01:47.000",
    "date_modified": "2023-11-20T16:01:47.000",
    "request_status": "Pending",
    "responsible_agency": "Mosquito, Termite & Rodent Control Board",
    "final_address": "2511 Flood St",
    "address_councildis": "E",
    "status": "Pending",
    "rowid": "1051140",
    "final_x": "3699189.70634",
    "final_y": "539204.936202",
    "longitude": "-90.01193310294174",
    "latitude": "29.976077548268727",
    "geocoded_column": {
      "latitude": "29.976077548268727",
      "longitude": "-90.01193310294174"
    }
  },
  {
    "service_request": "2023-1051139",
    "request_type": "Roads/Drainage",
    "request_reason": "WaterMain Break",
    "date_created": "2023-11-20T15:58:44.000",
    "date_modified": "2023-11-20T15:58:44.000",
    "request_status": "Pending",
    "responsible_agency": "Department of Public Works",
    "final_address": "ACADIANA PL & WILLOWBROOK DR & GRAND BAYOU DR",
    "address_councildis": "E",
    "status": "Pending",
    "rowid": "1051139",
    "final_x": "3725110.7",
    "final_y": "564232.18",
    "longitude": "-89.92909958374989",
    "latitude": "30.0440450661552",
    "geocoded_column": {
      "latitude": "30.0440450661552",
      "longitude": "-89.92909958374989"
    }
  },
  {
    "service_request": "2023-1051138",
    "request_type": "Trash/Recycling",
    "request_reason": "Request a Large Item Pick Up",
    "date_created": "2023-11-20T15:58:30.000",
    "date_modified": "2023-11-20T15:58:31.000",
    "request_status": "Pending",
    "responsible_agency": "Department of Sanitation",
    "final_address": "1039 Henriette Delille St",
    "address_councildis": "C",
    "status": "Assigned to Contractor",
    "contractor": "Richards Disposal",
    "rowid": "1051138",
    "final_x": "3681889.73378",
    "final_y": "534749.450182",
    "longitude": "-90.0667269616528",
    "latitude": "29.96436373017848",
    "geocoded_column": {
      "latitude": "29.96436373017848",
      "longitude": "-90.0667269616528"
    }
  },
  {
    "service_request": "2023-1051136",
    "request_type": "Property Maintenance",
    "request_reason": "Property Maintenance",
    "date_created": "2023-11-20T15:56:38.000",
    "date_modified": "2023-11-20T15:56:38.000",
    "request_status": "Pending",
    "responsible_agency": "Department of Code Enforcement",
    "final_address": "7904 St Charles Ave",
    "address_councildis": "A",
    "status": "Pending",
    "rowid": "1051136",
    "final_x": "3661026.29478",
    "final_y": "526321.54867",
    "longitude": "-90.13289123267742",
    "latitude": "29.941807354779325",
    "geocoded_column": {
      "latitude": "29.941807354779325",
      "longitude": "-90.13289123267742"
    }
  },
  {
    "service_request": "2023-1051135",
    "request_type": "Trash/Recycling",
    "request_reason": "Replace Trash Cart",
    "date_created": "2023-11-20T15:56:15.000",
    "date_modified": "2023-11-20T15:56:16.000",
    "request_status": "Pending",
    "responsible_agency": "Department of Sanitation",
    "final_address": "1517 Lowerline St",
    "address_councildis": "A",
    "status": "Assigned to Contractor",
    "contractor": "Richards Disposal",
    "rowid": "1051135",
    "final_x": "3664411.24576",
    "final_y": "527756.786943",
    "longitude": "-90.12215629804727",
    "latitude": "29.945655855532827",
    "geocoded_column": {
      "latitude": "29.945655855532827",
      "longitude": "-90.12215629804727"
    }
  },
  {
    "service_request": "2023-1051134",
    "request_type": "Abandoned Vehicles",
    "request_reason": "Abandoned/Junk Vehicles",
    "date_created": "2023-11-20T15:54:33.000",
    "date_modified": "2023-11-20T16:41:44.000",
    "request_status": "Pending",
    "responsible_agency": "Department of Public Works",
    "final_address": "2430 St Ann St",
    "address_councildis": "D",
    "status": "Pending",
    "rowid": "1051134",
    "final_x": "3677772.69013",
    "final_y": "536492.040583",
    "longitude": "-90.07966805588484",
    "latitude": "29.969279754252124",
    "geocoded_column": {
      "latitude": "29.969279754252124",
      "longitude": "-90.07966805588484"
    }
  },
  {
    "service_request": "2023-1051133",
    "request_type": "Tax and Revenue",
    "request_reason": "Business Renewal",
    "date_created": "2023-11-20T15:53:01.000",
    "date_modified": "2023-11-20T15:53:01.000",
    "request_status": "Pending",
    "responsible_agency": "Bureau of Revenue",
    "final_address": "1840 Euterpe St",
    "address_councildis": "B",
    "status": "Pending",
    "rowid": "1051133",
    "final_x": "3677849.43208",
    "final_y": "525626.742013",
    "longitude": "-90.07980108279143",
    "latitude": "29.93940152096696",
    "geocoded_column": {
      "latitude": "29.93940152096696",
      "longitude": "-90.07980108279143"
    }
  },
  {
    "service_request": "2023-1051132",
    "request_type": "Roads/Drainage",
    "request_reason": "Pothole",
    "date_created": "2023-11-20T15:52:28.000",
    "date_modified": "2023-11-20T15:52:28.000",
    "request_status": "Pending",
    "responsible_agency": "Department of Public Works",
    "final_address": "4216 Chestnut St",
    "address_councildis": "B",
    "status": "Pending",
    "rowid": "1051132",
    "final_x": "3671574.31393",
    "final_y": "519539.203703",
    "longitude": "-90.09981939416457",
    "latitude": "29.922850019854593",
    "geocoded_column": {
      "latitude": "29.922850019854593",
      "longitude": "-90.09981939416457"
    }
  },
  {
    "service_request": "2023-1051131",
    "request_type": "Traffic Signals/Signs/Striping/Streetlights",
    "request_reason": "Traffic Signal Malfunctioning/Damaged",
    "date_created": "2023-11-20T15:47:33.000",
    "date_modified": "2023-11-20T15:47:33.000",
    "request_status": "Pending",
    "responsible_agency": "Department of Public Works",
    "final_address": "ELYSIAN FIELDS AVE & GENTILLY BLVD",
    "address_councildis": "D",
    "status": "Pending",
    "rowid": "1051131",
    "final_x": "3684059.79",
    "final_y": "547584.11",
    "longitude": "-90.05942349799389",
    "latitude": "29.99958839427118",
    "geocoded_column": {
      "latitude": "29.99958839427118",
      "longitude": "-90.05942349799389"
    }
  },
  {
    "service_request": "2023-1051130",
    "request_type": "Trash/Recycling",
    "request_reason": "Repair Trash Cart",
    "date_created": "2023-11-20T15:46:40.000",
    "date_modified": "2023-11-20T15:46:41.000",
    "request_status": "Pending",
    "responsible_agency": "Department of Sanitation",
    "final_address": "4321 General Ogden St",
    "address_councildis": "A",
    "status": "Assigned to Contractor",
    "contractor": "Richards Disposal",
    "rowid": "1051130",
    "final_x": "3667425.61274",
    "final_y": "538486.519817",
    "longitude": "-90.11227790691444",
    "latitude": "29.975071131035463",
    "geocoded_column": {
      "latitude": "29.975071131035463",
      "longitude": "-90.11227790691444"
    }
  },
  {
    "service_request": "2023-1051129",
    "request_type": "Trash/Recycling",
    "request_reason": "Missed Trash Pick-Up",
    "date_created": "2023-11-20T15:44:09.000",
    "date_modified": "2023-11-20T15:44:09.000",
    "request_status": "Pending",
    "responsible_agency": "Department of Sanitation",
    "final_address": "2876 Grand-Route St John St",
    "address_councildis": "A",
    "status": "Assigned to Contractor",
    "contractor": "IV Waste",
    "rowid": "1051129",
    "final_x": "3677774.23003",
    "final_y": "540228.397131",
    "longitude": "-90.07953407832012",
    "latitude": "29.979553405432778",
    "geocoded_column": {
      "latitude": "29.979553405432778",
      "longitude": "-90.07953407832012"
    }
  },
  {
    "service_request": "2023-1051128",
    "request_type": "Property Maintenance",
    "request_reason": "Property Maintenance",
    "date_created": "2023-11-20T15:41:08.000",
    "date_modified": "2023-11-20T15:41:09.000",
    "request_status": "Pending",
    "responsible_agency": "Department of Code Enforcement",
    "final_address": "10400 Dwyer Rd",
    "address_councildis": "E",
    "status": "Pending",
    "rowid": "1051128",
    "final_x": "3713869.68984",
    "final_y": "558074.414747",
    "longitude": "-89.96485820589879",
    "latitude": "30.02748767331312",
    "geocoded_column": {
      "latitude": "30.02748767331312",
      "longitude": "-89.96485820589879"
    }
  },
  {
    "service_request": "2023-1051127",
    "request_type": "Traffic Signals/Signs/Striping/Streetlights",
    "request_reason": "Traffic Signal Malfunctioning/Damaged",
    "date_created": "2023-11-20T15:38:03.000",
    "date_modified": "2023-11-20T15:38:04.000",
    "request_status": "Pending",
    "responsible_agency": "Department of Public Works",
    "final_address": "FRERET ST & CALHOUN ST",
    "address_councildis": "A",
    "status": "Pending",
    "rowid": "1051127",
    "final_x": "3665629.7",
    "final_y": "524740.18",
    "longitude": "-90.11841020866967",
    "latitude": "29.937325683995972",
    "geocoded_column": {
      "latitude": "29.937325683995972",
      "longitude": "-90.11841020866967"
    }
  },
  {
    "service_request": "2023-1051126",
    "request_type": "Traffic Signals/Signs/Striping/Streetlights",
    "request_reason": "Street Light Outage/Malfunction",
    "date_created": "2023-11-20T15:37:17.000",
    "date_modified": "2023-11-20T15:37:18.000",
    "request_status": "Pending",
    "responsible_agency": "Department of Public Works",
    "final_address": "171 Roselyn Park Pl",
    "address_councildis": "C",
    "status": "Assigned to Contractor",
    "contractor": "Legacy Professional Services",
    "rowid": "1051126",
    "final_x": "3702591.1649",
    "final_y": "523618.034171",
    "longitude": "-90.00176245621664",
    "latitude": "29.9331108340415",
    "geocoded_column": {
      "latitude": "29.9331108340415",
      "longitude": "-90.00176245621664"
    }
  },
  {
    "service_request": "2023-1051125",
    "request_type": "Abandoned Vehicles",
    "request_reason": "Abandoned/Junk Vehicles",
    "date_created": "2023-11-20T15:37:08.000",
    "date_modified": "2023-11-20T15:37:09.000",
    "request_status": "Pending",
    "responsible_agency": "Department of Public Works",
    "final_address": "6960 Neptune Ct",
    "address_councildis": "E",
    "status": "Pending",
    "rowid": "1051125",
    "final_x": "3702000.29956",
    "final_y": "558587.824796",
    "longitude": "-90.00234541267278",
    "latitude": "30.029283786524577",
    "geocoded_column": {
      "latitude": "30.029283786524577",
      "longitude": "-90.00234541267278"
    }
  },
  {
    "service_request": "2023-1051124",
    "request_type": "Roads/Drainage",
    "request_reason": "Road Shoulder Repair",
    "date_created": "2023-11-20T15:33:42.000",
    "date_modified": "2023-11-20T15:33:43.000",
    "request_status": "Pending",
    "responsible_agency": "Department of Public Works",
    "final_address": "7708 Hickman St",
    "address_councildis": "E",
    "status": "Pending",
    "rowid": "1051124",
    "final_x": "3705956.11595",
    "final_y": "563504.121568",
    "longitude": "-89.98966305604156",
    "latitude": "30.042674728095594",
    "geocoded_column": {
      "latitude": "30.042674728095594",
      "longitude": "-89.98966305604156"
    }
  },
  {
    "service_request": "2023-1051123",
    "request_type": "Property Maintenance",
    "request_reason": "Property Maintenance",
    "date_created": "2023-11-20T15:29:56.000",
    "date_modified": "2023-11-20T15:29:56.000",
    "request_status": "Pending",
    "responsible_agency": "Department of Code Enforcement",
    "final_address": "1830 Pauger St",
    "address_councildis": "C",
    "status": "Pending",
    "rowid": "1051123",
    "final_x": "3683824.8893",
    "final_y": "536463.330823",
    "longitude": "-90.06055578420316",
    "latitude": "29.969017349880836",
    "geocoded_column": {
      "latitude": "29.969017349880836",
      "longitude": "-90.06055578420316"
    }
  },
  {
    "service_request": "2023-1051122",
    "request_type": "Trash/Recycling",
    "request_reason": "Request a Large Item Pick Up",
    "date_created": "2023-11-20T15:25:24.000",
    "date_modified": "2023-11-20T15:25:25.000",
    "request_status": "Pending",
    "responsible_agency": "Department of Code Enforcement",
    "final_address": "DREUX AVE & TULIP ST",
    "address_councildis": "E",
    "status": "Assigned to Contractor",
    "contractor": "Waste Pro",
    "rowid": "1051122",
    "final_x": "3702056.5",
    "final_y": "554515.38",
    "longitude": "-90.00231730671757",
    "latitude": "30.018084335465222",
    "geocoded_column": {
      "latitude": "30.018084335465222",
      "longitude": "-90.00231730671757"
    }
  },
  {
    "service_request": "2023-1051121",
    "request_type": "Traffic Signals/Signs/Striping/Streetlights",
    "request_reason": "Traffic Signal Malfunctioning/Damaged",
    "date_created": "2023-11-20T15:24:43.000",
    "date_modified": "2023-11-20T15:25:29.000",
    "request_status": "Pending",
    "responsible_agency": "Department of Public Works",
    "final_address": "ELYSIAN FIELDS AVE & GENTILLY BLVD",
    "address_councildis": "D",
    "status": "Pending",
    "rowid": "1051121",
    "final_x": "3684059.79",
    "final_y": "547584.11",
    "longitude": "-90.05942349799389",
    "latitude": "29.99958839427118",
    "geocoded_column": {
      "latitude": "29.99958839427118",
      "longitude": "-90.05942349799389"
    }
  },
  {
    "service_request": "2023-1051120",
    "request_type": "Traffic Signals/Signs/Striping/Streetlights",
    "request_reason": "Street Light Outage/Malfunction",
    "date_created": "2023-11-20T15:24:38.000",
    "date_modified": "2023-11-20T15:24:39.000",
    "request_status": "Pending",
    "responsible_agency": "Department of Public Works",
    "final_address": "4315 Marais St",
    "address_councildis": "D",
    "status": "Assigned to Contractor",
    "contractor": "Legacy Professional Services",
    "rowid": "1051120",
    "final_x": "3692939.27984",
    "final_y": "535425.239366",
    "longitude": "-90.03180928005219",
    "latitude": "29.96588143992453",
    "geocoded_column": {
      "latitude": "29.96588143992453",
      "longitude": "-90.03180928005219"
    }
  },
  {
    "service_request": "2023-1051119",
    "request_type": "Roads/Drainage",
    "request_reason": "Pothole",
    "date_created": "2023-11-20T15:22:13.000",
    "date_modified": "2023-11-20T15:32:24.000",
    "case_close_date": "2023-11-20T09:32:24.000",
    "request_status": "Closed",
    "responsible_agency": "Department of Public Works",
    "final_address": "1315 Peniston St",
    "address_councildis": "B",
    "status": "Not Enough Information- Resubmittal Required",
    "rowid": "1051119",
    "final_x": "3673101.31451",
    "final_y": "520423.11276",
    "longitude": "-90.09496908964098",
    "latitude": "29.925235197927364",
    "geocoded_column": {
      "latitude": "29.925235197927364",
      "longitude": "-90.09496908964098"
    }
  },
  {
    "service_request": "2023-1051118",
    "request_type": "Trash/Recycling",
    "request_reason": "Illegal Dumping",
    "date_created": "2023-11-20T15:21:33.000",
    "date_modified": "2023-11-20T15:21:33.000",
    "request_status": "Pending",
    "responsible_agency": "Department of Code Enforcement",
    "final_address": "DREUX AVE & TULIP ST",
    "address_councildis": "E",
    "status": "Pending",
    "rowid": "1051118",
    "final_x": "3702056.5",
    "final_y": "554515.38",
    "longitude": "-90.00231730671757",
    "latitude": "30.018084335465222",
    "geocoded_column": {
      "latitude": "30.018084335465222",
      "longitude": "-90.00231730671757"
    }
  },
  {
    "service_request": "2023-1051117",
    "request_type": "Trash/Recycling",
    "request_reason": "Repair Trash Cart",
    "date_created": "2023-11-20T15:20:26.000",
    "date_modified": "2023-11-20T15:20:27.000",
    "request_status": "Pending",
    "responsible_agency": "Department of Sanitation",
    "final_address": "3316 Elysian Fields Ave",
    "address_councildis": "D",
    "status": "Assigned to Contractor",
    "contractor": "IV Waste",
    "rowid": "1051117",
    "final_x": "3684175.51484",
    "final_y": "544927.151247",
    "longitude": "-90.05915125506478",
    "latitude": "29.992279169426656",
    "geocoded_column": {
      "latitude": "29.992279169426656",
      "longitude": "-90.05915125506478"
    }
  },
  {
    "service_request": "2023-1051116",
    "request_type": "Roads/Drainage",
    "request_reason": "Leaking Hydrant",
    "date_created": "2023-11-20T15:15:16.000",
    "date_modified": "2023-11-20T15:31:53.000",
    "case_close_date": "2023-11-20T09:31:53.000",
    "request_status": "Closed",
    "responsible_agency": "Department of Public Works",
    "final_address": "1300 Philip St",
    "address_councildis": "B",
    "status": "Referred to External Agency",
    "rowid": "1051116",
    "final_x": "3678034.38293",
    "final_y": "522447.160122",
    "longitude": "-90.07932702820894",
    "latitude": "29.93065315055426",
    "geocoded_column": {
      "latitude": "29.93065315055426",
      "longitude": "-90.07932702820894"
    }
  },
  {
    "service_request": "2023-1051114",
    "request_type": "Trash/Recycling",
    "request_reason": "Request a Large Item Pick Up",
    "date_created": "2023-11-20T15:14:43.000",
    "date_modified": "2023-11-20T15:14:43.000",
    "request_status": "Pending",
    "responsible_agency": "Department of Sanitation",
    "final_address": "2259 Mithra St",
    "address_councildis": "D",
    "status": "Assigned to Contractor",
    "contractor": "IV Waste",
    "rowid": "1051114",
    "final_x": "3684251.48233",
    "final_y": "552761.75087",
    "longitude": "-90.05863597886017",
    "latitude": "30.013819170325803",
    "geocoded_column": {
      "latitude": "30.013819170325803",
      "longitude": "-90.05863597886017"
    }
  },
  {
    "service_request": "2023-1051113",
    "request_type": "Roads/Drainage",
    "request_reason": "Pothole",
    "date_created": "2023-11-20T15:13:28.000",
    "date_modified": "2023-11-20T15:32:41.000",
    "case_close_date": "2023-11-20T09:32:41.000",
    "request_status": "Closed",
    "responsible_agency": "Department of Public Works",
    "final_address": "1312 Milan St",
    "address_councildis": "B",
    "status": "Not Enough Information- Resubmittal Required",
    "rowid": "1051113",
    "final_x": "3671625.82823",
    "final_y": "520286.919608",
    "longitude": "-90.09963137110304",
    "latitude": "29.92490447494246",
    "geocoded_column": {
      "latitude": "29.92490447494246",
      "longitude": "-90.09963137110304"
    }
  },
  {
    "service_request": "2023-1051112",
    "request_type": "Trash/Recycling",
    "request_reason": "Request a Large Item Pick Up",
    "date_created": "2023-11-20T15:12:26.000",
    "date_modified": "2023-11-20T15:12:27.000",
    "request_status": "Pending",
    "responsible_agency": "Department of Sanitation",
    "final_address": "19 Yosemite Dr",
    "address_councildis": "C",
    "status": "Assigned to Contractor",
    "contractor": "Richards Disposal",
    "rowid": "1051112",
    "final_x": "3699738.83056",
    "final_y": "517575.066806",
    "longitude": "-90.01098718251737",
    "latitude": "29.916585582884764",
    "geocoded_column": {
      "latitude": "29.916585582884764",
      "longitude": "-90.01098718251737"
    }
  },
  {
    "service_request": "2023-1051111",
    "request_type": "Trash/Recycling",
    "request_reason": "Repair Recycling Cart",
    "date_created": "2023-11-20T15:11:23.000",
    "date_modified": "2023-11-20T15:11:24.000",
    "request_status": "Pending",
    "responsible_agency": "Department of Sanitation",
    "final_address": "2257 Bayou Rd",
    "address_councildis": "D",
    "status": "Pending",
    "rowid": "1051111",
    "final_x": "3679345.97474",
    "final_y": "538282.219913",
    "longitude": "-90.07463740013006",
    "latitude": "29.97415470776145",
    "geocoded_column": {
      "latitude": "29.97415470776145",
      "longitude": "-90.07463740013006"
    }
  },
  {
    "service_request": "2023-1051110",
    "request_type": "Trash/Recycling",
    "request_reason": "Missed Trash Pick-Up",
    "date_created": "2023-11-20T15:10:02.000",
    "date_modified": "2023-11-20T15:10:02.000",
    "request_status": "Pending",
    "responsible_agency": "Department of Sanitation",
    "final_address": "7411 Dalewood Rd",
    "address_councildis": "E",
    "status": "Assigned to Contractor",
    "contractor": "Waste Pro",
    "rowid": "1051110",
    "final_x": "3700252.79607",
    "final_y": "559799.293789",
    "longitude": "-90.00782316150848",
    "latitude": "30.03267055604695",
    "geocoded_column": {
      "latitude": "30.03267055604695",
      "longitude": "-90.00782316150848"
    }
  },
  {
    "service_request": "2023-1051109",
    "request_type": "Trash/Recycling",
    "request_reason": "Dead Animal Pick Up",
    "date_created": "2023-11-20T15:03:23.000",
    "date_modified": "2023-11-20T15:03:24.000",
    "request_status": "Pending",
    "responsible_agency": "Department of Sanitation",
    "final_address": "CHEF MENTEUR HWY & READ BLVD",
    "address_councildis": "E",
    "status": "Assigned to Contractor",
    "contractor": "Waste Pro",
    "rowid": "1051109",
    "final_x": "3712879.3",
    "final_y": "554816.48",
    "longitude": "-89.96811038290976",
    "latitude": "30.018562123005566",
    "geocoded_column": {
      "latitude": "30.018562123005566",
      "longitude": "-89.96811038290976"
    }
  },
  {
    "service_request": "2023-1051108",
    "request_type": "Trash/Recycling",
    "request_reason": "Request a Large Item Pick Up",
    "date_created": "2023-11-20T15:02:14.000",
    "date_modified": "2023-11-20T15:02:15.000",
    "request_status": "Pending",
    "responsible_agency": "Department of Sanitation",
    "final_address": "7212 Boston Dr",
    "address_councildis": "E",
    "status": "Assigned to Contractor",
    "contractor": "Waste Pro",
    "rowid": "1051108",
    "final_x": "3706042.56126",
    "final_y": "561382.632478",
    "longitude": "-89.98946849102687",
    "latitude": "30.03683868470651",
    "geocoded_column": {
      "latitude": "30.03683868470651",
      "longitude": "-89.98946849102687"
    }
  },
  {
    "service_request": "2023-1051107",
    "request_type": "Trash/Recycling",
    "request_reason": "Request a Large Item Pick Up",
    "date_created": "2023-11-20T14:55:25.000",
    "date_modified": "2023-11-20T14:55:26.000",
    "request_status": "Pending",
    "responsible_agency": "Department of Sanitation",
    "final_address": "1120 Aline St Apt 2B",
    "address_councildis": "B",
    "status": "Assigned to Contractor",
    "contractor": "Richards Disposal",
    "rowid": "1051107",
    "final_x": "3674340.73",
    "final_y": "519532.003639",
    "longitude": "-90.09108713863803",
    "latitude": "29.922748044369026",
    "geocoded_column": {
      "latitude": "29.922748044369026",
      "longitude": "-90.09108713863803"
    }
  },
  {
    "service_request": "2023-1051106",
    "request_type": "Traffic Signals/Signs/Striping/Streetlights",
    "request_reason": "Traffic Signal Malfunctioning/Damaged",
    "date_created": "2023-11-20T14:54:25.000",
    "date_modified": "2023-11-20T14:54:26.000",
    "request_status": "Pending",
    "responsible_agency": "Department of Public Works",
    "final_address": "ST CLAUDE AVE & ALVAR ST",
    "address_councildis": "C",
    "status": "Pending",
    "rowid": "1051106",
    "final_x": "3691491.4",
    "final_y": "535382.68",
    "longitude": "-90.03638314304642",
    "latitude": "29.96580955805605",
    "geocoded_column": {
      "latitude": "29.96580955805605",
      "longitude": "-90.03638314304642"
    }
  },
  {
    "service_request": "2023-1051105",
    "request_type": "Trash/Recycling",
    "request_reason": "Request a Large Item Pick Up",
    "date_created": "2023-11-20T14:53:11.000",
    "date_modified": "2023-11-20T14:53:12.000",
    "request_status": "Pending",
    "responsible_agency": "Department of Sanitation",
    "final_address": "7217 W Tamaron Blvd",
    "address_councildis": "E",
    "status": "Assigned to Contractor",
    "contractor": "Waste Pro",
    "rowid": "1051105",
    "final_x": "3717926.82034",
    "final_y": "569467.243622",
    "longitude": "-89.95160404370831",
    "latitude": "30.05867945176392",
    "geocoded_column": {
      "latitude": "30.05867945176392",
      "longitude": "-89.95160404370831"
    }
  },
  {
    "service_request": "2023-1051104",
    "request_type": "Trash/Recycling",
    "request_reason": "Request a Large Item Pick Up",
    "date_created": "2023-11-20T14:52:05.000",
    "date_modified": "2023-11-20T14:52:06.000",
    "request_status": "Pending",
    "responsible_agency": "Department of Sanitation",
    "final_address": "5376 St Bernard Ave",
    "address_councildis": "D",
    "status": "Assigned to Contractor",
    "contractor": "IV Waste",
    "rowid": "1051104",
    "final_x": "3676778.00174",
    "final_y": "552009.600598",
    "longitude": "-90.08227430300303",
    "latitude": "30.01197751224517",
    "geocoded_column": {
      "latitude": "30.01197751224517",
      "longitude": "-90.08227430300303"
    }
  },
  {
    "service_request": "2023-1051103",
    "request_type": "Property Maintenance",
    "request_reason": "Property Maintenance",
    "date_created": "2023-11-20T14:45:50.000",
    "date_modified": "2023-11-20T14:45:50.000",
    "request_status": "Pending",
    "responsible_agency": "Department of Code Enforcement",
    "final_address": "7930 Forshey St",
    "address_councildis": "B",
    "status": "Pending",
    "rowid": "1051103",
    "final_x": "3667383.57991",
    "final_y": "533529.323396",
    "longitude": "-90.11257745530253",
    "latitude": "29.961441720405944",
    "geocoded_column": {
      "latitude": "29.961441720405944",
      "longitude": "-90.11257745530253"
    }
  },
  {
    "service_request": "2023-1051102",
    "request_type": "Safety & Permits",
    "request_reason": "Healthy Homes",
    "date_created": "2023-11-20T14:45:05.000",
    "date_modified": "2023-11-20T14:45:05.000",
    "request_status": "Pending",
    "responsible_agency": "Safety and Permits",
    "final_address": "7930 Forshey St",
    "address_councildis": "B",
    "status": "Pending",
    "rowid": "1051102",
    "final_x": "3667383.57991",
    "final_y": "533529.323396",
    "longitude": "-90.11257745530253",
    "latitude": "29.961441720405944",
    "geocoded_column": {
      "latitude": "29.961441720405944",
      "longitude": "-90.11257745530253"
    }
  },
  {
    "service_request": "2023-1051101",
    "request_type": "Trash/Recycling",
    "request_reason": "Repair Trash Cart",
    "date_created": "2023-11-20T14:42:46.000",
    "date_modified": "2023-11-20T14:42:47.000",
    "request_status": "Pending",
    "responsible_agency": "Department of Sanitation",
    "final_address": "1223 Delachaise St",
    "address_councildis": "B",
    "status": "Assigned to Contractor",
    "contractor": "Richards Disposal",
    "rowid": "1051101",
    "final_x": "3674476.66977",
    "final_y": "520020.18828",
    "longitude": "-90.09064131740695",
    "latitude": "29.924086342136867",
    "geocoded_column": {
      "latitude": "29.924086342136867",
      "longitude": "-90.09064131740695"
    }
  },
  {
    "service_request": "2023-1051100",
    "request_type": "Traffic Signals/Signs/Striping/Streetlights",
    "request_reason": "Street Name Sign Damaged or Missing",
    "date_created": "2023-11-20T14:41:34.000",
    "date_modified": "2023-11-20T14:41:34.000",
    "request_status": "Pending",
    "responsible_agency": "Department of Public Works",
    "final_address": "TROUT ST & HAYNE BLVD",
    "address_councildis": "E",
    "status": "Pending",
    "rowid": "1051100",
    "final_x": "3699355.1",
    "final_y": "561755.18",
    "longitude": "-90.01058858858096",
    "latitude": "30.03807700796064",
    "geocoded_column": {
      "latitude": "30.03807700796064",
      "longitude": "-90.01058858858096"
    }
  },
  {
    "service_request": "2023-1051099",
    "request_type": "Traffic Signals/Signs/Striping/Streetlights",
    "request_reason": "Street Name Sign Damaged or Missing",
    "date_created": "2023-11-20T14:41:11.000",
    "date_modified": "2023-11-20T14:41:11.000",
    "request_status": "Pending",
    "responsible_agency": "Department of Public Works",
    "final_address": "HAYNE BLVD & SHEEPHEAD ST",
    "address_councildis": "E",
    "status": "Pending",
    "rowid": "1051099",
    "final_x": "3699136.4",
    "final_y": "561658.98",
    "longitude": "-90.01128323976138",
    "latitude": "30.03781943536229",
    "geocoded_column": {
      "latitude": "30.03781943536229",
      "longitude": "-90.01128323976138"
    }
  },
  {
    "service_request": "2023-1051098",
    "request_type": "Traffic Signals/Signs/Striping/Streetlights",
    "request_reason": "Street Name Sign Damaged or Missing",
    "date_created": "2023-11-20T14:40:00.000",
    "date_modified": "2023-11-20T14:40:01.000",
    "request_status": "Pending",
    "responsible_agency": "Department of Public Works",
    "final_address": "HAYNE BLVD & REDFISH ST",
    "address_councildis": "E",
    "status": "Pending",
    "rowid": "1051098",
    "final_x": "3698402.6",
    "final_y": "561365.08",
    "longitude": "-90.01361291249194",
    "latitude": "30.037034583464973",
    "geocoded_column": {
      "latitude": "30.037034583464973",
      "longitude": "-90.01361291249194"
    }
  },
  {
    "service_request": "2023-1051097",
    "request_type": "Traffic Signals/Signs/Striping/Streetlights",
    "request_reason": "Traffic Signal Malfunctioning/Damaged",
    "date_created": "2023-11-20T14:30:36.000",
    "date_modified": "2023-11-20T14:31:47.000",
    "request_status": "Pending",
    "responsible_agency": "Department of Public Works",
    "final_address": "ELYSIAN FIELDS AVE & GENTILLY BLVD",
    "address_councildis": "D",
    "status": "Pending",
    "rowid": "1051097",
    "final_x": "3684059.79",
    "final_y": "547584.11",
    "longitude": "-90.05942349799389",
    "latitude": "29.99958839427118",
    "geocoded_column": {
      "latitude": "29.99958839427118",
      "longitude": "-90.05942349799389"
    }
  },
  {
    "service_request": "2023-1051096",
    "request_type": "Abandoned Vehicles",
    "request_reason": "Abandoned/Junk Vehicles",
    "date_created": "2023-11-20T14:26:53.000",
    "date_modified": "2023-11-20T14:26:53.000",
    "request_status": "Pending",
    "responsible_agency": "Department of Public Works",
    "final_address": "716 N Prieur St",
    "address_councildis": "D",
    "status": "Pending",
    "rowid": "1051096",
    "final_x": "3678957.48136",
    "final_y": "535246.114374",
    "longitude": "-90.07596957164002",
    "latitude": "29.96581818633751",
    "geocoded_column": {
      "latitude": "29.96581818633751",
      "longitude": "-90.07596957164002"
    }
  },
  {
    "service_request": "2023-1051095",
    "request_type": "Roads/Drainage",
    "request_reason": "Accessibility Ramps, Curbs and Sidewalk Repair",
    "date_created": "2023-11-20T14:24:59.000",
    "date_modified": "2023-11-20T14:24:59.000",
    "request_status": "Pending",
    "responsible_agency": "Department of Public Works",
    "final_address": "7100 General Diaz St",
    "address_councildis": "A",
    "status": "Pending",
    "rowid": "1051095",
    "final_x": "3670068.35514",
    "final_y": "554267.537304",
    "longitude": "-90.10339643311849",
    "latitude": "30.018385764567693",
    "geocoded_column": {
      "latitude": "30.018385764567693",
      "longitude": "-90.10339643311849"
    }
  },
  {
    "service_request": "2023-1051093",
    "request_type": "Trash/Recycling",
    "request_reason": "Order Recycling Cart",
    "date_created": "2023-11-20T14:23:10.000",
    "date_modified": "2023-11-20T14:23:11.000",
    "request_status": "Pending",
    "responsible_agency": "Department of Sanitation",
    "final_address": "2127 N Tonti St",
    "address_councildis": "D",
    "status": "Pending",
    "rowid": "1051093",
    "final_x": "3683674.71202",
    "final_y": "540731.999307",
    "longitude": "-90.06088035031931",
    "latitude": "29.980759286527167",
    "geocoded_column": {
      "latitude": "29.980759286527167",
      "longitude": "-90.06088035031931"
    }
  },
  {
    "service_request": "2023-1051092",
    "request_type": "Trash/Recycling",
    "request_reason": "Request a Large Item Pick Up",
    "date_created": "2023-11-20T14:21:43.000",
    "date_modified": "2023-11-20T14:30:29.000",
    "case_close_date": "2023-11-20T08:30:29.000",
    "request_status": "Closed",
    "responsible_agency": "Department of Sanitation",
    "final_address": "3140 Dauphine St",
    "address_councildis": "C",
    "status": "Invalid Request",
    "contractor": "IV Waste",
    "contractor_action": "Invalid Pick-Up",
    "rowid": "1051092",
    "final_x": "3689024.91631",
    "final_y": "534745.370502",
    "longitude": "-90.04419483489643",
    "latitude": "29.964133712593963",
    "geocoded_column": {
      "latitude": "29.964133712593963",
      "longitude": "-90.04419483489643"
    }
  },
  {
    "service_request": "2023-1051091",
    "request_type": "Roads/Drainage",
    "request_reason": "Accessibility Ramps, Curbs and Sidewalk Repair",
    "date_created": "2023-11-20T14:17:22.000",
    "date_modified": "2023-11-20T14:17:22.000",
    "request_status": "Pending",
    "responsible_agency": "Department of Public Works",
    "final_address": "7100 BLK General Diaz St",
    "address_councildis": "A",
    "status": "Pending",
    "rowid": "1051091",
    "final_x": "3670160.84567",
    "final_y": "554378.273249",
    "longitude": "-90.10310043982908",
    "latitude": "30.018687518914597",
    "geocoded_column": {
      "latitude": "30.018687518914597",
      "longitude": "-90.10310043982908"
    }
  },
  {
    "service_request": "2023-1051090",
    "request_type": "Trash/Recycling",
    "request_reason": "Missed Trash Pick-Up",
    "date_created": "2023-11-20T14:13:17.000",
    "date_modified": "2023-11-20T15:14:34.000",
    "case_close_date": "2023-11-20T09:14:34.000",
    "request_status": "Closed",
    "responsible_agency": "Department of Sanitation",
    "final_address": "7101 Ransom St",
    "address_councildis": "E",
    "status": "Duplicate Request",
    "contractor": "Waste Pro",
    "contractor_action": "duplicate",
    "rowid": "1051090",
    "final_x": "3701385.72113",
    "final_y": "553437.792023",
    "longitude": "-90.00447618524782",
    "latitude": "30.015142786807836",
    "geocoded_column": {
      "latitude": "30.015142786807836",
      "longitude": "-90.00447618524782"
    }
  },
  {
    "service_request": "2023-1051089",
    "request_type": "Traffic Signals/Signs/Striping/Streetlights",
    "request_reason": "Traffic Signal Malfunctioning/Damaged",
    "date_created": "2023-11-20T14:09:53.000",
    "date_modified": "2023-11-20T14:09:54.000",
    "request_status": "Pending",
    "responsible_agency": "Department of Public Works",
    "final_address": "S RAMPART ST & CANAL ST",
    "address_councildis": "B",
    "status": "Pending",
    "rowid": "1051089",
    "final_x": "3680010.2",
    "final_y": "531513.28",
    "longitude": "-90.07277480576094",
    "latitude": "29.9555223548756",
    "geocoded_column": {
      "latitude": "29.9555223548756",
      "longitude": "-90.07277480576094"
    }
  },
  {
    "service_request": "2023-1051088",
    "request_type": "Trash/Recycling",
    "request_reason": "Repair Trash Cart",
    "date_created": "2023-11-20T14:09:34.000",
    "date_modified": "2023-11-20T14:09:34.000",
    "request_status": "Pending",
    "responsible_agency": "Department of Sanitation",
    "final_address": "3701 Delgado Dr",
    "address_councildis": "A",
    "status": "Assigned to Contractor",
    "contractor": "Richards Disposal",
    "rowid": "1051088",
    "final_x": "3674311.29409",
    "final_y": "540561.876555",
    "longitude": "-90.09046001124534",
    "latitude": "29.980574095172003",
    "geocoded_column": {
      "latitude": "29.980574095172003",
      "longitude": "-90.09046001124534"
    }
  },
  {
    "service_request": "2023-1051087",
    "request_type": "Parks & Parkways",
    "request_reason": "Request Tree Service (Right of Way/Public Property)",
    "date_created": "2023-11-20T14:09:02.000",
    "date_modified": "2023-11-20T14:09:02.000",
    "request_status": "Pending",
    "responsible_agency": "Department of Parks & Parkway",
    "final_address": "3406 Touro St",
    "address_councildis": "D",
    "status": "Pending",
    "rowid": "1051087",
    "final_x": "3683469.74095",
    "final_y": "545168.061775",
    "longitude": "-90.06137220620367",
    "latitude": "29.992963148766098",
    "geocoded_column": {
      "latitude": "29.992963148766098",
      "longitude": "-90.06137220620367"
    }
  },
  {
    "service_request": "2023-1051086",
    "request_type": "Parks & Parkways",
    "request_reason": "Request Tree Service (Right of Way/Public Property)",
    "date_created": "2023-11-20T14:07:21.000",
    "date_modified": "2023-11-20T14:07:21.000",
    "request_status": "Pending",
    "responsible_agency": "Department of Parks & Parkway",
    "final_address": "7816 S Coronet Ct",
    "address_councildis": "E",
    "status": "Pending",
    "rowid": "1051086",
    "final_x": "3703075.20017",
    "final_y": "557283.331739",
    "longitude": "-89.99899678013561",
    "latitude": "30.025662560752412",
    "geocoded_column": {
      "latitude": "30.025662560752412",
      "longitude": "-89.99899678013561"
    }
  },
  {
    "service_request": "2023-1051085",
    "request_type": "Roads/Drainage",
    "request_reason": "Pothole",
    "date_created": "2023-11-20T14:01:21.000",
    "date_modified": "2023-11-20T14:01:21.000",
    "request_status": "Pending",
    "responsible_agency": "Department of Public Works",
    "final_address": "EUTERPE ST & BARONNE ST",
    "address_councildis": "B",
    "status": "Pending",
    "rowid": "1051085",
    "final_x": "3678104.5",
    "final_y": "525498.68",
    "longitude": "-90.07900022565127",
    "latitude": "29.939041717553447",
    "geocoded_column": {
      "latitude": "29.939041717553447",
      "longitude": "-90.07900022565127"
    }
  },
  {
    "service_request": "2023-1051084",
    "request_type": "Trash/Recycling",
    "request_reason": "Repair Recycling Cart",
    "date_created": "2023-11-20T14:00:28.000",
    "date_modified": "2023-11-20T14:00:29.000",
    "request_status": "Pending",
    "responsible_agency": "Department of Sanitation",
    "final_address": "3225 Ursulines Ave",
    "address_councildis": "A",
    "status": "Pending",
    "rowid": "1051084",
    "final_x": "3675755.15521",
    "final_y": "539719.238666",
    "longitude": "-90.08592864017433",
    "latitude": "29.97821398839491",
    "geocoded_column": {
      "latitude": "29.97821398839491",
      "longitude": "-90.08592864017433"
    }
  },
  {
    "service_request": "2023-1051083",
    "request_type": "Trash/Recycling",
    "request_reason": "Request a Large Item Pick Up",
    "date_created": "2023-11-20T13:59:53.000",
    "date_modified": "2023-11-20T13:59:54.000",
    "request_status": "Pending",
    "responsible_agency": "Department of Sanitation",
    "final_address": "5989 Tchoupitoulas St",
    "address_councildis": "A",
    "status": "Assigned to Contractor",
    "contractor": "Richards Disposal",
    "rowid": "1051083",
    "final_x": "3664218.29831",
    "final_y": "517547.15423",
    "longitude": "-90.12310596497085",
    "latitude": "29.917588198936496",
    "geocoded_column": {
      "latitude": "29.917588198936496",
      "longitude": "-90.12310596497085"
    }
  },
  {
    "service_request": "2023-1051082",
    "request_type": "Trash/Recycling",
    "request_reason": "Repair Trash Cart",
    "date_created": "2023-11-20T13:57:54.000",
    "date_modified": "2023-11-20T13:57:55.000",
    "request_status": "Pending",
    "responsible_agency": "Department of Sanitation",
    "final_address": "1709 Patterson St",
    "address_councildis": "C",
    "status": "Assigned to Contractor",
    "contractor": "Richards Disposal",
    "rowid": "1051082",
    "final_x": "3690767.24828",
    "final_y": "530848.793154",
    "longitude": "-90.03883173607198",
    "latitude": "29.953365467035567",
    "geocoded_column": {
      "latitude": "29.953365467035567",
      "longitude": "-90.03883173607198"
    }
  },
  {
    "service_request": "2023-1051081",
    "request_type": "Trash/Recycling",
    "request_reason": "Illegal Dumping",
    "date_created": "2023-11-20T13:50:22.000",
    "date_modified": "2023-11-20T13:51:38.000",
    "request_status": "Pending",
    "responsible_agency": "Department of Sanitation",
    "final_address": "5300 BLK Tullis Dr",
    "address_councildis": "C",
    "status": "Pending",
    "rowid": "1051081",
    "final_x": "3703807.05035",
    "final_y": "511915.797807",
    "longitude": "-89.99835442890897",
    "latitude": "29.900894803485077",
    "geocoded_column": {
      "latitude": "29.900894803485077",
      "longitude": "-89.99835442890897"
    }
  },
  {
    "service_request": "2023-1051080",
    "request_type": "Utility Poles",
    "request_reason": "Utility Pole Leaning",
    "date_created": "2023-11-20T13:42:37.000",
    "date_modified": "2023-11-20T13:42:41.000",
    "request_status": "Pending",
    "responsible_agency": "Utility Company Collective",
    "final_address": "3119 Delachaise St",
    "address_councildis": "B",
    "status": "Pending",
    "rowid": "1051080",
    "final_x": "3671783.31726",
    "final_y": "526582.26995",
    "longitude": "-90.09892014382305",
    "latitude": "29.942209992454153",
    "geocoded_column": {
      "latitude": "29.942209992454153",
      "longitude": "-90.09892014382305"
    }
  },
  {
    "service_request": "2023-1051079",
    "request_type": "Parks & Parkways",
    "request_reason": "Request Tree Service (Right of Way/Public Property)",
    "date_created": "2023-11-20T13:35:41.000",
    "date_modified": "2023-11-20T13:35:41.000",
    "request_status": "Pending",
    "responsible_agency": "Department of Parks & Parkway",
    "final_address": "216 Maumus Ave",
    "address_councildis": "C",
    "status": "Pending",
    "rowid": "1051079",
    "final_x": "3706585.17431",
    "final_y": "516832.821749",
    "longitude": "-89.9894049831792",
    "latitude": "29.91432564039068",
    "geocoded_column": {
      "latitude": "29.91432564039068",
      "longitude": "-89.9894049831792"
    }
  },
  {
    "service_request": "2023-1051078",
    "request_type": "Abandoned Vehicles",
    "request_reason": "Abandoned/Junk Vehicles",
    "date_created": "2023-11-20T13:35:10.000",
    "date_modified": "2023-11-20T13:35:11.000",
    "request_status": "Pending",
    "responsible_agency": "Department of Public Works",
    "final_address": "13245 St Helena Pl",
    "address_councildis": "E",
    "status": "Pending",
    "rowid": "1051078",
    "final_x": "3727033.43232",
    "final_y": "564208.263457",
    "longitude": "-89.92302391922969",
    "latitude": "30.04391437581324",
    "geocoded_column": {
      "latitude": "30.04391437581324",
      "longitude": "-89.92302391922969"
    }
  },
  {
    "service_request": "2023-1051077",
    "request_type": "Trash/Recycling",
    "request_reason": "Replace Trash Cart",
    "date_created": "2023-11-20T13:31:30.000",
    "date_modified": "2023-11-20T13:31:31.000",
    "request_status": "Pending",
    "responsible_agency": "Department of Sanitation",
    "final_address": "427 S Pierce St",
    "address_councildis": "A",
    "status": "Assigned to Contractor",
    "contractor": "Richards Disposal",
    "rowid": "1051077",
    "final_x": "3670558.36161",
    "final_y": "536913.25524",
    "longitude": "-90.1024372237732",
    "latitude": "29.97065301719276",
    "geocoded_column": {
      "latitude": "29.97065301719276",
      "longitude": "-90.1024372237732"
    }
  },
  {
    "service_request": "2023-1051076",
    "request_type": "Trash/Recycling",
    "request_reason": "Request a Large Item Pick Up",
    "date_created": "2023-11-20T13:31:09.000",
    "date_modified": "2023-11-20T13:31:10.000",
    "request_status": "Pending",
    "responsible_agency": "Department of Sanitation",
    "final_address": "11222 King Richard Dr",
    "address_councildis": "E",
    "status": "Assigned to Contractor",
    "contractor": "Waste Pro",
    "rowid": "1051076",
    "final_x": "3716996.13733",
    "final_y": "556347.626266",
    "longitude": "-89.9550446361275",
    "latitude": "30.022636654627522",
    "geocoded_column": {
      "latitude": "30.022636654627522",
      "longitude": "-89.9550446361275"
    }
  },
  {
    "service_request": "2023-1051075",
    "request_type": "Roads/Drainage",
    "request_reason": "Street Subsidence (Sinking)",
    "date_created": "2023-11-20T13:27:12.000",
    "date_modified": "2023-11-20T13:27:12.000",
    "request_status": "Pending",
    "responsible_agency": "Department of Public Works",
    "final_address": "110 Constitution St",
    "address_councildis": "C",
    "status": "Pending",
    "rowid": "1051075",
    "final_x": "3693820.84323",
    "final_y": "528226.180224",
    "longitude": "-90.02928407660094",
    "latitude": "29.946058982242185",
    "geocoded_column": {
      "latitude": "29.946058982242185",
      "longitude": "-90.02928407660094"
    }
  },
  {
    "service_request": "2023-1051074",
    "request_type": "Trash/Recycling",
    "request_reason": "Replace Trash Cart",
    "date_created": "2023-11-20T13:25:50.000",
    "date_modified": "2023-11-20T13:25:51.000",
    "request_status": "Pending",
    "responsible_agency": "Department of Sanitation",
    "final_address": "2357 Prancer St",
    "address_councildis": "C",
    "status": "Assigned to Contractor",
    "contractor": "Richards Disposal",
    "rowid": "1051074",
    "final_x": "3699964.07575",
    "final_y": "522709.07193",
    "longitude": "-90.01008908202422",
    "latitude": "29.93069518601541",
    "geocoded_column": {
      "latitude": "29.93069518601541",
      "longitude": "-90.01008908202422"
    }
  },
  {
    "service_request": "2023-1051073",
    "request_type": "Abandoned Vehicles",
    "request_reason": "Abandoned/Junk Vehicles",
    "date_created": "2023-11-20T13:25:27.000",
    "date_modified": "2023-11-20T13:25:27.000",
    "request_status": "Pending",
    "responsible_agency": "Department of Public Works",
    "final_address": "5825 Fontainebleau Dr",
    "address_councildis": "B",
    "status": "Pending",
    "rowid": "1051073",
    "final_x": "3668346.02958",
    "final_y": "529950.103169",
    "longitude": "-90.10965889813863",
    "latitude": "29.951571811600417",
    "geocoded_column": {
      "latitude": "29.951571811600417",
      "longitude": "-90.10965889813863"
    }
  },
  {
    "service_request": "2023-1051072",
    "request_type": "Abandoned Vehicles",
    "request_reason": "Abandoned/Junk Vehicles",
    "date_created": "2023-11-20T13:24:59.000",
    "date_modified": "2023-11-20T13:25:00.000",
    "request_status": "Pending",
    "responsible_agency": "Department of Public Works",
    "final_address": "707 Mandeville St",
    "address_councildis": "C",
    "status": "Pending",
    "rowid": "1051072",
    "final_x": "3685915.46095",
    "final_y": "535002.34631",
    "longitude": "-90.05400514459322",
    "latitude": "29.96493613257923",
    "geocoded_column": {
      "latitude": "29.96493613257923",
      "longitude": "-90.05400514459322"
    }
  },
  {
    "service_request": "2023-1051071",
    "request_type": "Abandoned Vehicles",
    "request_reason": "Abandoned/Junk Vehicles",
    "date_created": "2023-11-20T13:24:24.000",
    "date_modified": "2023-11-20T13:24:24.000",
    "request_status": "Pending",
    "responsible_agency": "Department of Public Works",
    "final_address": "10940 Roger Dr",
    "address_councildis": "E",
    "status": "Pending",
    "rowid": "1051071",
    "final_x": "3712138.98622",
    "final_y": "563385.519136",
    "longitude": "-89.97012737042596",
    "latitude": "30.042147812759573",
    "geocoded_column": {
      "latitude": "30.042147812759573",
      "longitude": "-89.97012737042596"
    }
  },
  {
    "service_request": "2023-1051070",
    "request_type": "Trash/Recycling",
    "request_reason": "Order Recycling Cart",
    "date_created": "2023-11-20T13:23:53.000",
    "date_modified": "2023-11-20T13:23:53.000",
    "case_close_date": "2023-11-05T18:00:00.000",
    "request_status": "Pending",
    "responsible_agency": "Department of Sanitation",
    "final_address": "8604 Willow St",
    "address_councildis": "A",
    "status": "Pending",
    "rowid": "1051070",
    "final_x": "3661044.9984",
    "final_y": "530108.745409",
    "longitude": "-90.13270689433463",
    "latitude": "29.95222039817451",
    "geocoded_column": {
      "latitude": "29.95222039817451",
      "longitude": "-90.13270689433463"
    }
  },
  {
    "service_request": "2023-1051068",
    "request_type": "Roads/Drainage",
    "request_reason": "Pothole",
    "date_created": "2023-11-20T13:19:02.000",
    "date_modified": "2023-11-20T13:19:03.000",
    "request_status": "Pending",
    "responsible_agency": "Department of Public Works",
    "final_address": "FLORIDA AVE & HOPE ST & ELYSIAN FIELDS AVE",
    "address_councildis": "D",
    "status": "Pending",
    "rowid": "1051068",
    "final_x": "3684474.6",
    "final_y": "542193.88",
    "longitude": "-90.058302578195",
    "latitude": "29.98475449468233",
    "geocoded_column": {
      "latitude": "29.98475449468233",
      "longitude": "-90.058302578195"
    }
  },
  {
    "service_request": "2023-1051067",
    "request_type": "Abandoned Vehicles",
    "request_reason": "Abandoned/Junk Vehicles",
    "date_created": "2023-11-20T13:16:36.000",
    "date_modified": "2023-11-20T13:16:37.000",
    "request_status": "Pending",
    "responsible_agency": "Department of Public Works",
    "final_address": "6700 Bundy Rd",
    "address_councildis": "E",
    "status": "Pending",
    "rowid": "1051067",
    "final_x": "3707873.14872",
    "final_y": "559000.702684",
    "longitude": "-89.9837721485914",
    "latitude": "30.030230157086496",
    "geocoded_column": {
      "latitude": "30.030230157086496",
      "longitude": "-89.9837721485914"
    }
  },
  {
    "service_request": "2023-1051066",
    "request_type": "Trash/Recycling",
    "request_reason": "Request a Large Item Pick Up",
    "date_created": "2023-11-20T13:14:39.000",
    "date_modified": "2023-11-20T13:14:40.000",
    "request_status": "Pending",
    "responsible_agency": "Department of Sanitation",
    "final_address": "255 Belleville St",
    "address_councildis": "C",
    "status": "Assigned to Contractor",
    "contractor": "Richards Disposal",
    "rowid": "1051066",
    "final_x": "3687856.53724",
    "final_y": "530994.247682",
    "longitude": "-90.0480173410112",
    "latitude": "29.95385551437567",
    "geocoded_column": {
      "latitude": "29.95385551437567",
      "longitude": "-90.0480173410112"
    }
  },
  {
    "service_request": "2023-1051065",
    "request_type": "Abandoned Vehicles",
    "request_reason": "Abandoned/Junk Vehicles",
    "date_created": "2023-11-20T13:13:53.000",
    "date_modified": "2023-11-20T13:13:53.000",
    "request_status": "Pending",
    "responsible_agency": "Department of Public Works",
    "final_address": "10930 Roger Dr",
    "address_councildis": "E",
    "status": "Pending",
    "rowid": "1051065",
    "final_x": "3712079.45854",
    "final_y": "563341.432608",
    "longitude": "-89.9703171561821",
    "latitude": "30.042028539677947",
    "geocoded_column": {
      "latitude": "30.042028539677947",
      "longitude": "-89.9703171561821"
    }
  },
  {
    "service_request": "2023-1051064",
    "request_type": "Traffic Signals/Signs/Striping/Streetlights",
    "request_reason": "Street Light Outage/Malfunction",
    "date_created": "2023-11-20T13:13:16.000",
    "date_modified": "2023-11-20T13:13:17.000",
    "request_status": "Pending",
    "responsible_agency": "Department of Public Works",
    "final_address": "47 Eugenie Ct",
    "address_councildis": "C",
    "status": "Assigned to Contractor",
    "contractor": "Legacy Professional Services",
    "rowid": "1051064",
    "final_x": "3700505.13194",
    "final_y": "511189.037936",
    "longitude": "-90.00880144068867",
    "latitude": "29.899001823398272",
    "geocoded_column": {
      "latitude": "29.899001823398272",
      "longitude": "-90.00880144068867"
    }
  },
  {
    "service_request": "2023-1051063",
    "request_type": "Trash/Recycling",
    "request_reason": "Repair Recycling Cart",
    "date_created": "2023-11-20T13:12:43.000",
    "date_modified": "2023-11-20T13:12:44.000",
    "request_status": "Pending",
    "responsible_agency": "Department of Sanitation",
    "final_address": "6041 Kingston Ct",
    "address_councildis": "C",
    "status": "Pending",
    "rowid": "1051063",
    "final_x": "3706323.74193",
    "final_y": "517693.782582",
    "longitude": "-89.99019829128515",
    "latitude": "29.916701413594843",
    "geocoded_column": {
      "latitude": "29.916701413594843",
      "longitude": "-89.99019829128515"
    }
  },
  {
    "service_request": "2023-1051062",
    "request_type": "Trash/Recycling",
    "request_reason": "Repair Trash Cart",
    "date_created": "2023-11-20T13:12:03.000",
    "date_modified": "2023-11-20T13:12:03.000",
    "request_status": "Pending",
    "responsible_agency": "Department of Sanitation",
    "final_address": "6041 Kingston Ct",
    "address_councildis": "C",
    "status": "Assigned to Contractor",
    "contractor": "Richards Disposal",
    "rowid": "1051062",
    "final_x": "3706323.74193",
    "final_y": "517693.782582",
    "longitude": "-89.99019829128515",
    "latitude": "29.916701413594843",
    "geocoded_column": {
      "latitude": "29.916701413594843",
      "longitude": "-89.99019829128515"
    }
  },
  {
    "service_request": "2023-1051061",
    "request_type": "Trash/Recycling",
    "request_reason": "Missed Trash Pick-Up",
    "date_created": "2023-11-20T13:11:15.000",
    "date_modified": "2023-11-20T13:11:15.000",
    "request_status": "Pending",
    "responsible_agency": "Department of Sanitation",
    "final_address": "8500 BLK Palmetto St",
    "address_councildis": "A",
    "status": "Assigned to Contractor",
    "contractor": "Richards Disposal",
    "rowid": "1051061",
    "final_x": "3667011.78471",
    "final_y": "536294.574836",
    "longitude": "-90.11365857612957",
    "latitude": "29.969056132958368",
    "geocoded_column": {
      "latitude": "29.969056132958368",
      "longitude": "-90.11365857612957"
    }
  },
  {
    "service_request": "2023-1051060",
    "request_type": "Trash/Recycling",
    "request_reason": "MIssed Recycling Pick-Up",
    "date_created": "2023-11-20T13:10:42.000",
    "date_modified": "2023-11-20T13:10:43.000",
    "request_status": "Pending",
    "responsible_agency": "Department of Sanitation",
    "final_address": "110 Constitution St",
    "address_councildis": "C",
    "status": "Assigned to Contractor",
    "contractor": "Richards Disposal",
    "rowid": "1051060",
    "final_x": "3693820.84323",
    "final_y": "528226.180224",
    "longitude": "-90.02928407660094",
    "latitude": "29.946058982242185",
    "geocoded_column": {
      "latitude": "29.946058982242185",
      "longitude": "-90.02928407660094"
    }
  },
  {
    "service_request": "2023-1051059",
    "request_type": "Trash/Recycling",
    "request_reason": "Request a Large Item Pick Up",
    "date_created": "2023-11-20T13:10:21.000",
    "date_modified": "2023-11-20T13:10:22.000",
    "request_status": "Pending",
    "responsible_agency": "Department of Sanitation",
    "final_address": "5221 Edenboro Rd",
    "address_councildis": "E",
    "status": "Assigned to Contractor",
    "contractor": "Waste Pro",
    "rowid": "1051059",
    "final_x": "3708529.08939",
    "final_y": "557514.377115",
    "longitude": "-89.98175479199777",
    "latitude": "30.02612208641367",
    "geocoded_column": {
      "latitude": "30.02612208641367",
      "longitude": "-89.98175479199777"
    }
  },
  {
    "service_request": "2023-1051058",
    "request_type": "Trash/Recycling",
    "request_reason": "Request a Large Item Pick Up",
    "date_created": "2023-11-20T13:09:44.000",
    "date_modified": "2023-11-20T13:09:45.000",
    "request_status": "Pending",
    "responsible_agency": "Department of Sanitation",
    "final_address": "6338 Mandeville St",
    "address_councildis": "D",
    "status": "Assigned to Contractor",
    "contractor": "IV Waste",
    "rowid": "1051058",
    "final_x": "3684113.21141",
    "final_y": "556463.040794",
    "longitude": "-90.05894278208541",
    "latitude": "30.024000586992912",
    "geocoded_column": {
      "latitude": "30.024000586992912",
      "longitude": "-90.05894278208541"
    }
  },
  {
    "service_request": "2023-1051057",
    "request_type": "Trash/Recycling",
    "request_reason": "Order Recycling Cart",
    "date_created": "2023-11-20T13:09:30.000",
    "date_modified": "2023-11-20T13:09:31.000",
    "request_status": "Pending",
    "responsible_agency": "Department of Sanitation",
    "final_address": "47 Eugenie Ct",
    "address_councildis": "C",
    "status": "Pending",
    "rowid": "1051057",
    "final_x": "3700505.13194",
    "final_y": "511189.037936",
    "longitude": "-90.00880144068867",
    "latitude": "29.899001823398272",
    "geocoded_column": {
      "latitude": "29.899001823398272",
      "longitude": "-90.00880144068867"
    }
  },
  {
    "service_request": "2023-1051056",
    "request_type": "Trash/Recycling",
    "request_reason": "Request a Large Item Pick Up",
    "date_created": "2023-11-20T13:08:10.000",
    "date_modified": "2023-11-20T13:08:11.000",
    "request_status": "Pending",
    "responsible_agency": "Department of Sanitation",
    "final_address": "7519 Sandy Cove Dr",
    "address_councildis": "E",
    "status": "Assigned to Contractor",
    "contractor": "Waste Pro",
    "rowid": "1051056",
    "final_x": "3716040.85912",
    "final_y": "568911.764517",
    "longitude": "-89.95758640532006",
    "latitude": "30.057214510743293",
    "geocoded_column": {
      "latitude": "30.057214510743293",
      "longitude": "-89.95758640532006"
    }
  },
  {
    "service_request": "2023-1051055",
    "request_type": "Traffic Signals/Signs/Striping/Streetlights",
    "request_reason": "Street Light Outage/Malfunction",
    "date_created": "2023-11-20T13:06:53.000",
    "date_modified": "2023-11-20T13:06:54.000",
    "request_status": "Pending",
    "responsible_agency": "Department of Public Works",
    "final_address": "2802 Cherry St",
    "address_councildis": "A",
    "status": "Assigned to Contractor",
    "contractor": "Legacy Professional Services",
    "rowid": "1051055",
    "final_x": "3662707.53895",
    "final_y": "535532.940614",
    "longitude": "-90.12727706487837",
    "latitude": "29.967087165559043",
    "geocoded_column": {
      "latitude": "29.967087165559043",
      "longitude": "-90.12727706487837"
    }
  },
  {
    "service_request": "2023-1051054",
    "request_type": "Roads/Drainage",
    "request_reason": "Damaged Sidewalk",
    "date_created": "2023-11-20T13:06:01.000",
    "date_modified": "2023-11-20T13:06:02.000",
    "request_status": "Pending",
    "responsible_agency": "Department of Public Works",
    "final_address": "404 Fern St",
    "address_councildis": "A",
    "status": "Pending",
    "rowid": "1051054",
    "final_x": "3660656.11674",
    "final_y": "525855.856509",
    "longitude": "-90.13407535604672",
    "latitude": "29.940537507349468",
    "geocoded_column": {
      "latitude": "29.940537507349468",
      "longitude": "-90.13407535604672"
    }
  },
  {
    "service_request": "2023-1051053",
    "request_type": "Trash/Recycling",
    "request_reason": "Request a Large Item Pick Up",
    "date_created": "2023-11-20T13:06:00.000",
    "date_modified": "2023-11-20T13:06:01.000",
    "request_status": "Pending",
    "responsible_agency": "Department of Sanitation",
    "final_address": "7721 Cohn St",
    "address_councildis": "A",
    "status": "Assigned to Contractor",
    "contractor": "Richards Disposal",
    "rowid": "1051053",
    "final_x": "3664601.31879",
    "final_y": "529353.186753",
    "longitude": "-90.12150286598322",
    "latitude": "29.950039914673123",
    "geocoded_column": {
      "latitude": "29.950039914673123",
      "longitude": "-90.12150286598322"
    }
  },
  {
    "service_request": "2023-1051052",
    "request_type": "Trash/Recycling",
    "request_reason": "Replace Recycling Cart",
    "date_created": "2023-11-20T12:59:07.000",
    "date_modified": "2023-11-20T12:59:08.000",
    "request_status": "Pending",
    "responsible_agency": "Department of Sanitation",
    "final_address": "4635 Warren Dr",
    "address_councildis": "E",
    "status": "Pending",
    "rowid": "1051052",
    "final_x": "3713594.96018",
    "final_y": "555629.932057",
    "longitude": "-89.96581850699343",
    "latitude": "30.020775331224847",
    "geocoded_column": {
      "latitude": "30.020775331224847",
      "longitude": "-89.96581850699343"
    }
  },
  {
    "service_request": "2023-1051051",
    "request_type": "Trash/Recycling",
    "request_reason": "Repair Trash Cart",
    "date_created": "2023-11-20T12:57:48.000",
    "date_modified": "2023-11-20T12:57:49.000",
    "request_status": "Pending",
    "responsible_agency": "Department of Sanitation",
    "final_address": "4635 Warren Dr",
    "address_councildis": "E",
    "status": "Assigned to Contractor",
    "contractor": "Waste Pro",
    "rowid": "1051051",
    "final_x": "3713594.96018",
    "final_y": "555629.932057",
    "longitude": "-89.96581850699343",
    "latitude": "30.020775331224847",
    "geocoded_column": {
      "latitude": "30.020775331224847",
      "longitude": "-89.96581850699343"
    }
  },
  {
    "service_request": "2023-1051050",
    "request_type": "Trash/Recycling",
    "request_reason": "Return Recycling Cart",
    "date_created": "2023-11-20T12:55:54.000",
    "date_modified": "2023-11-20T12:55:54.000",
    "request_status": "Pending",
    "responsible_agency": "Department of Sanitation",
    "final_address": "4617 Constance St",
    "address_councildis": "B",
    "status": "Pending",
    "rowid": "1051050",
    "final_x": "3670184.32634",
    "final_y": "518359.397622",
    "longitude": "-90.1042469985005",
    "latitude": "29.919646998675592",
    "geocoded_column": {
      "latitude": "29.919646998675592",
      "longitude": "-90.1042469985005"
    }
  },
  {
    "service_request": "2023-1051049",
    "request_type": "Roads/Drainage",
    "request_reason": "Pothole",
    "date_created": "2023-11-20T12:55:43.000",
    "date_modified": "2023-11-20T12:55:43.000",
    "request_status": "Pending",
    "responsible_agency": "Department of Public Works",
    "final_address": "3900 BLK McFarland St",
    "address_councildis": "D",
    "status": "Pending",
    "rowid": "1051049",
    "final_x": "3689408.81307",
    "final_y": "547763.821255",
    "longitude": "-90.04251940075652",
    "latitude": "29.999917932492533",
    "geocoded_column": {
      "latitude": "29.999917932492533",
      "longitude": "-90.04251940075652"
    }
  },
  {
    "service_request": "2023-1051048",
    "request_type": "Traffic Signals/Signs/Striping/Streetlights",
    "request_reason": "Street Light Outage/Malfunction",
    "date_created": "2023-11-20T12:54:51.000",
    "date_modified": "2023-11-20T12:54:52.000",
    "request_status": "Pending",
    "responsible_agency": "Department of Public Works",
    "final_address": "3900 BLK McFarland St",
    "address_councildis": "D",
    "status": "Assigned to Contractor",
    "contractor": "Legacy Professional Services",
    "rowid": "1051048",
    "final_x": "3689408.81307",
    "final_y": "547763.821255",
    "longitude": "-90.04251940075652",
    "latitude": "29.999917932492533",
    "geocoded_column": {
      "latitude": "29.999917932492533",
      "longitude": "-90.04251940075652"
    }
  },
  {
    "service_request": "2023-1051047",
    "request_type": "Trash/Recycling",
    "request_reason": "Replace Trash Cart",
    "date_created": "2023-11-20T12:48:01.000",
    "date_modified": "2023-11-20T12:48:02.000",
    "request_status": "Pending",
    "responsible_agency": "Department of Sanitation",
    "final_address": "7906 Redfish St",
    "address_councildis": "E",
    "status": "Assigned to Contractor",
    "contractor": "Waste Pro",
    "rowid": "1051047",
    "final_x": "3698543.04637",
    "final_y": "560816.469022",
    "longitude": "-90.0131890480643",
    "latitude": "30.035521667283362",
    "geocoded_column": {
      "latitude": "30.035521667283362",
      "longitude": "-90.0131890480643"
    }
  },
  {
    "service_request": "2023-1051046",
    "request_type": "Trash/Recycling",
    "request_reason": "Request a Large Item Pick Up",
    "date_created": "2023-11-20T12:47:56.000",
    "date_modified": "2023-11-20T12:49:25.000",
    "request_status": "Pending",
    "responsible_agency": "Department of Sanitation",
    "final_address": "5011 Schindler Dr",
    "address_councildis": "E",
    "status": "Assigned to Contractor",
    "contractor": "Waste Pro",
    "rowid": "1051046",
    "final_x": "3714287.41202",
    "final_y": "557823.862619",
    "longitude": "-89.96354771667163",
    "latitude": "30.02678503043595",
    "geocoded_column": {
      "latitude": "30.02678503043595",
      "longitude": "-89.96354771667163"
    }
  },
  {
    "service_request": "2023-1051045",
    "request_type": "Trash/Recycling",
    "request_reason": "Dead Animal Pick Up",
    "date_created": "2023-11-20T12:44:40.000",
    "date_modified": "2023-11-20T12:44:41.000",
    "request_status": "Pending",
    "responsible_agency": "Department of Sanitation",
    "final_address": "2103 Calhoun St",
    "address_councildis": "A",
    "status": "Assigned to Contractor",
    "contractor": "Richards Disposal",
    "rowid": "1051045",
    "final_x": "3665686.63732",
    "final_y": "524774.057148",
    "longitude": "-90.11822931894653",
    "latitude": "29.937417175233307",
    "geocoded_column": {
      "latitude": "29.937417175233307",
      "longitude": "-90.11822931894653"
    }
  },
  {
    "service_request": "2023-1051044",
    "request_type": "Roads/Drainage",
    "request_reason": "Street Subsidence (Sinking)",
    "date_created": "2023-11-20T12:36:01.000",
    "date_modified": "2023-11-20T16:01:45.000",
    "case_close_date": "2023-11-20T10:01:45.000",
    "request_status": "Closed",
    "responsible_agency": "Department of Public Works",
    "final_address": "5600 BLK Lewis Rd",
    "address_councildis": "D",
    "status": "Duplicate Request",
    "rowid": "1051044",
    "final_x": "3695092.74298",
    "final_y": "556017.852647",
    "longitude": "-90.02426580040489",
    "latitude": "30.022436151724982",
    "geocoded_column": {
      "latitude": "30.022436151724982",
      "longitude": "-90.02426580040489"
    }
  },
  {
    "service_request": "2023-1051043",
    "request_type": "Trash/Recycling",
    "request_reason": "Repair Trash Cart",
    "date_created": "2023-11-20T12:34:59.000",
    "date_modified": "2023-11-20T12:35:00.000",
    "request_status": "Pending",
    "responsible_agency": "Department of Sanitation",
    "final_address": "921 N White St",
    "address_councildis": "A",
    "status": "Assigned to Contractor",
    "contractor": "Richards Disposal",
    "rowid": "1051043",
    "final_x": "3676756.25595",
    "final_y": "538093.058505",
    "longitude": "-90.0828228546887",
    "latitude": "29.97371254627776",
    "geocoded_column": {
      "latitude": "29.97371254627776",
      "longitude": "-90.0828228546887"
    }
  },
  {
    "service_request": "2023-1051042",
    "request_type": "Tax and Revenue",
    "request_reason": "Pay Property Tax",
    "date_created": "2023-11-20T12:32:42.000",
    "date_modified": "2023-11-20T12:32:42.000",
    "request_status": "Pending",
    "responsible_agency": "Bureau of Treasury",
    "final_address": "3109 Rabbits St",
    "address_councildis": "D",
    "status": "Pending",
    "rowid": "1051042",
    "final_x": "3688395.06799",
    "final_y": "544485.650703",
    "longitude": "-90.04583822051646",
    "latitude": "29.990935508647766",
    "geocoded_column": {
      "latitude": "29.990935508647766",
      "longitude": "-90.04583822051646"
    }
  },
  {
    "service_request": "2023-1051041",
    "request_type": "Trash/Recycling",
    "request_reason": "Request a Large Item Pick Up",
    "date_created": "2023-11-20T12:29:45.000",
    "date_modified": "2023-11-20T12:29:46.000",
    "request_status": "Pending",
    "responsible_agency": "Department of Sanitation",
    "final_address": "3030 Royal St",
    "address_councildis": "C",
    "status": "Assigned to Contractor",
    "contractor": "IV Waste",
    "rowid": "1051041",
    "final_x": "3688302.01097",
    "final_y": "534554.231877",
    "longitude": "-90.04648447966903",
    "latitude": "29.963630491376254",
    "geocoded_column": {
      "latitude": "29.963630491376254",
      "longitude": "-90.04648447966903"
    }
  },