[
  {
    "service_request": "2025-1159194",
    "request_type": "Trash/Recycling",
    "request_reason": "Order Second Trash Cart",
    "date_created": "2025-01-02T22:28:55.000",
    "date_modified": "2025-01-02T22:28:56.000",
    "request_status": "Pending",
    "responsible_agency": "Department of Sanitation",
    "final_address": "4821 Piety Dr",
    "address_councildis": "D",
    "status": "Assigned to Contractor",
    "contractor": "IV Waste",
    "rowid": "1159194",
    "final_x": "3691706.00131",
    "final_y": "551418.534229",
    "longitude": "-90.03513169948947",
    "latitude": "30.009895693236288",
    "geocoded_column": {
      "latitude": "30.009895693236288",
      "longitude": "-90.03513169948947"
    }
  },
  {
    "service_request": "2025-1159193",
    "request_type": "Trash/Recycling",
    "request_reason": "Illegal Dumping",
    "date_created": "2025-01-02T22:06:55.000",
    "date_modified": "2025-01-02T22:06:59.000",
    "request_status": "Pending",
    "responsible_agency": "Department of Sanitation",
    "final_address": "AIRWAY ST & CESSNA CT",
    "address_councildis": "D",
    "status": "Pending",
    "rowid": "1159193",
    "final_x": "3696611.8",
    "final_y": "552736.98",
    "longitude": "-90.01958483013566",
    "latitude": "30.013367184636248",
    "geocoded_column": {
      "latitude": "30.013367184636248",
      "longitude": "-90.01958483013566"
    }
  },
  {
    "service_request": "2025-1159192",
    "request_type": "Trash/Recycling",
    "request_reason": "Request a Large Item Pick Up",
    "date_created": "2025-01-02T22:02:15.000",
    "date_modified": "2025-01-02T22:02:16.000",
    "request_status": "Pending",
    "responsible_agency": "Department of Sanitation",
    "final_address": "5930 Airway St",
    "address_councildis": "D",
    "status": "Assigned to Contractor",
    "contractor": "Waste Pro",
    "rowid": "1159192",
    "final_x": "3696443.79735",
    "final_y": "552799.674838",
    "longitude": "-90.02011335681485",
    "latitude": "30.01354486721169",
    "geocoded_column": {
      "latitude": "30.01354486721169",
      "longitude": "-90.02011335681485"
    }
  },
  {
    "service_request": "2025-1159191",
    "request_type": "Trash/Recycling",
    "request_reason": "Request a Large Item Pick Up",
    "date_created": "2025-01-02T21:31:01.000",
    "date_modified": "2025-01-02T21:31:02.000",
    "request_status": "Pending",
    "responsible_agency": "Department of Sanitation",
    "final_address": "1020 N Carrollton Ave",
    "address_councildis": "A",
    "status": "Assigned to Contractor",
    "contractor": "IV Waste",
    "rowid": "1159191",
    "final_x": "3673817.22766",
    "final_y": "541137.605452",
    "longitude": "-90.0920007903434",
    "latitude": "29.982171878507195",
    "geocoded_column": {
      "latitude": "29.982171878507195",
      "longitude": "-90.0920007903434"
    }
  },
  {
    "service_request": "2025-1159190",
    "request_type": "Abandoned Vehicles",
    "request_reason": "Abandoned/Junk Vehicles",
    "date_created": "2025-01-02T21:14:43.000",
    "date_modified": "2025-01-02T21:14:46.000",
    "request_status": "Pending",
    "responsible_agency": "Department of Public Works",
    "final_address": "2620 Cleveland Ave",
    "address_councildis": "B",
    "status": "Pending",
    "rowid": "1159190",
    "final_x": "3675358.83752",
    "final_y": "534467.364101",
    "longitude": "-90.08736072350239",
    "latitude": "29.963784976481424",
    "geocoded_column": {
      "latitude": "29.963784976481424",
      "longitude": "-90.08736072350239"
    }
  },
  {
    "service_request": "2025-1159189",
    "request_type": "Trash/Recycling",
    "request_reason": "MIssed Recycling Pick-Up",
    "date_created": "2025-01-02T21:07:51.000",
    "date_modified": "2025-01-02T21:07:52.000",
    "request_status": "Pending",
    "responsible_agency": "Department of Sanitation",
    "final_address": "4716 Annunciation St Unit 1C",
    "address_councildis": "B",
    "status": "Assigned to Contractor",
    "contractor": "IV Waste",
    "rowid": "1159189",
    "final_x": "3669832.37761",
    "final_y": "517586.197942",
    "longitude": "-90.10538408491216",
    "latitude": "29.917531319647225",
    "geocoded_column": {
      "latitude": "29.917531319647225",
      "longitude": "-90.10538408491216"
    }
  },
  {
    "service_request": "2025-1159188",
    "request_type": "Streetlights",
    "request_reason": "Streetlight Outage/Malfunction",
    "date_created": "2025-01-02T21:01:42.000",
    "date_modified": "2025-01-02T21:01:43.000",
    "request_status": "Pending",
    "responsible_agency": "Department of Public Works",
    "final_address": "2903 Jefferson Ave",
    "address_councildis": "B",
    "status": "Pending",
    "contractor": "Legacy Professional Services",
    "rowid": "1159188",
    "final_x": "3668434.72801",
    "final_y": "525977.964989",
    "longitude": "-90.10951278708527",
    "latitude": "29.940647116767803",
    "geocoded_column": {
      "latitude": "29.940647116767803",
      "longitude": "-90.10951278708527"
    }
  },
  {
    "service_request": "2025-1159187",
    "request_type": "Christmas Tree Recycle Pick Up",
    "request_reason": "Christmas Tree Recycle Pick Up",
    "date_created": "2025-01-02T20:18:35.000",
    "date_modified": "2025-01-02T20:18:37.000",
    "request_status": "Pending",
    "responsible_agency": "Office of Resilience and Sustainability",
    "final_address": "8131 Apricot St",
    "address_councildis": "A",
    "status": "Pending",
    "contractor": "R&R Recycling",
    "rowid": "1159187",
    "final_x": "3665700.48903",
    "final_y": "532824.543364",
    "longitude": "-90.1179159954325",
    "latitude": "29.9595530042956",
    "geocoded_column": {
      "latitude": "29.9595530042956",
      "longitude": "-90.1179159954325"
    }
  },
  {
    "service_request": "2025-1159186",
    "request_type": "Trash/Recycling",
    "request_reason": "Repair Trash Cart",
    "date_created": "2025-01-02T20:02:34.000",
    "date_modified": "2025-01-02T20:02:35.000",
    "request_status": "Pending",
    "responsible_agency": "Department of Sanitation",
    "final_address": "844 Roosevelt Pl",
    "address_councildis": "A",
    "status": "Assigned to Contractor",
    "contractor": "IV Waste",
    "rowid": "1159186",
    "final_x": "3673619.66849",
    "final_y": "539962.345867",
    "longitude": "-90.09266497134368",
    "latitude": "29.978946200503373",
    "geocoded_column": {
      "latitude": "29.978946200503373",
      "longitude": "-90.09266497134368"
    }
  },
  {
    "service_request": "2025-1159185",
    "request_type": "Abandoned Vehicles",
    "request_reason": "Abandoned/Junk Vehicles",
    "date_created": "2025-01-02T19:52:58.000",
    "date_modified": "2025-01-02T19:53:02.000",
    "request_status": "Pending",
    "responsible_agency": "Department of Public Works",
    "final_address": "3116 Orleans Ave",
    "address_councildis": "A",
    "status": "Pending",
    "rowid": "1159185",
    "final_x": "3675147.35086",
    "final_y": "538164.508553",
    "longitude": "-90.0879016786774",
    "latitude": "29.973957191990166",
    "geocoded_column": {
      "latitude": "29.973957191990166",
      "longitude": "-90.0879016786774"
    }
  },
  {
    "service_request": "2025-1159184",
    "request_type": "Abandoned Vehicles",
    "request_reason": "Abandoned/Junk Vehicles",
    "date_created": "2025-01-02T19:48:42.000",
    "date_modified": "2025-01-02T19:48:45.000",
    "request_status": "Pending",
    "responsible_agency": "Department of Public Works",
    "final_address": "3116 Orleans Ave",
    "address_councildis": "A",
    "status": "Pending",
    "rowid": "1159184",
    "final_x": "3675147.35086",
    "final_y": "538164.508553",
    "longitude": "-90.0879016786774",
    "latitude": "29.973957191990166",
    "geocoded_column": {
      "latitude": "29.973957191990166",
      "longitude": "-90.0879016786774"
    }
  },
  {
    "service_request": "2025-1159183",
    "request_type": "Trash/Recycling",
    "request_reason": "Request a Large Item Pick Up",
    "date_created": "2025-01-02T19:35:55.000",
    "date_modified": "2025-01-02T19:37:35.000",
    "request_status": "Pending",
    "responsible_agency": "Department of Sanitation",
    "final_address": "519 Wallace Dr",
    "address_councildis": "D",
    "status": "Assigned to Contractor",
    "contractor": "IV Waste",
    "rowid": "1159183",
    "final_x": "3681429.1444",
    "final_y": "548927.047251",
    "longitude": "-90.06768693604182",
    "latitude": "30.003361147263025",
    "geocoded_column": {
      "latitude": "30.003361147263025",
      "longitude": "-90.06768693604182"
    }
  },
  {
    "service_request": "2025-1159182",
    "request_type": "Trash/Recycling",
    "request_reason": "Missed Trash Pick-Up",
    "date_created": "2025-01-02T19:32:50.000",
    "date_modified": "2025-01-02T19:32:51.000",
    "request_status": "Pending",
    "responsible_agency": "Department of Sanitation",
    "final_address": "1210 Short St",
    "address_councildis": "A",
    "status": "Assigned to Contractor",
    "contractor": "IV Waste",
    "rowid": "1159182",
    "final_x": "3662363.46855",
    "final_y": "528196.857408",
    "longitude": "-90.12860722727314",
    "latitude": "29.946925267442996",
    "geocoded_column": {
      "latitude": "29.946925267442996",
      "longitude": "-90.12860722727314"
    }
  },
  {
    "service_request": "2025-1159181",
    "request_type": "Trash/Recycling",
    "request_reason": "Request a Large Item Pick Up",
    "date_created": "2025-01-02T19:32:44.000",
    "date_modified": "2025-01-02T19:32:45.000",
    "request_status": "Pending",
    "responsible_agency": "Department of Sanitation",
    "final_address": "3013 Orleans Ave",
    "address_councildis": "A",
    "status": "Assigned to Contractor",
    "contractor": "IV Waste",
    "rowid": "1159181",
    "final_x": "3675713.96033",
    "final_y": "537886.008201",
    "longitude": "-90.08612177089002",
    "latitude": "29.97317446497651",
    "geocoded_column": {
      "latitude": "29.97317446497651",
      "longitude": "-90.08612177089002"
    }
  },
  {
    "service_request": "2025-1159180",
    "request_type": "Trash/Recycling",
    "request_reason": "Request a Large Item Pick Up",
    "date_created": "2025-01-02T19:32:25.000",
    "date_modified": "2025-01-02T19:32:26.000",
    "request_status": "Pending",
    "responsible_agency": "Department of Sanitation",
    "final_address": "734 France St",
    "address_councildis": "C",
    "status": "Assigned to Contractor",
    "contractor": "IV Waste",
    "rowid": "1159180",
    "final_x": "3692052.47664",
    "final_y": "533940.510725",
    "longitude": "-90.03466290654639",
    "latitude": "29.961826624951083",
    "geocoded_column": {
      "latitude": "29.961826624951083",
      "longitude": "-90.03466290654639"
    }
  },
  {
    "service_request": "2025-1159179",
    "request_type": "Mosquito, Termite & Rodent Control",
    "request_reason": "Non-Rodent Complaint (Mice, Possums, Snakes)",
    "date_created": "2025-01-02T19:26:38.000",
    "date_modified": "2025-01-02T19:26:41.000",
    "request_status": "Pending",
    "responsible_agency": "Mosquito, Termite & Rodent Control Board",
    "final_address": "6066 Kuebel Dr",
    "address_councildis": "E",
    "status": "Pending",
    "rowid": "1159179",
    "final_x": "3695324.5823",
    "final_y": "559773.873565",
    "longitude": "-90.02339757030357",
    "latitude": "30.032756494523603",
    "geocoded_column": {
      "latitude": "30.032756494523603",
      "longitude": "-90.02339757030357"
    }
  },
  {
    "service_request": "2025-1159178",
    "request_type": "Mosquito, Termite & Rodent Control",
    "request_reason": "Non-Rodent Complaint (Mice, Possums, Snakes)",
    "date_created": "2025-01-02T19:19:23.000",
    "date_modified": "2025-01-02T19:19:28.000",
    "request_status": "Pending",
    "responsible_agency": "Mosquito, Termite & Rodent Control Board",
    "final_address": "6066 Kuebel Dr",
    "address_councildis": "E",
    "status": "Pending",
    "rowid": "1159178",
    "final_x": "3695324.5823",
    "final_y": "559773.873565",
    "longitude": "-90.02339757030357",
    "latitude": "30.032756494523603",
    "geocoded_column": {
      "latitude": "30.032756494523603",
      "longitude": "-90.02339757030357"
    }
  },
  {
    "service_request": "2025-1159177",
    "request_type": "Christmas Tree Recycle Pick Up",
    "request_reason": "Christmas Tree Recycle Pick Up",
    "date_created": "2025-01-02T19:10:08.000",
    "date_modified": "2025-01-02T19:10:10.000",
    "request_status": "Pending",
    "responsible_agency": "Office of Resilience and Sustainability",
    "final_address": "2309 Chartres St",
    "address_councildis": "C",
    "status": "Pending",
    "contractor": "R&R Recycling",
    "rowid": "1159177",
    "final_x": "3685646.91977",
    "final_y": "534579.446789",
    "longitude": "-90.05486808015094",
    "latitude": "29.96378154666442",
    "geocoded_column": {
      "latitude": "29.96378154666442",
      "longitude": "-90.05486808015094"
    }
  },
  {
    "service_request": "2025-1159176",
    "request_type": "Trash/Recycling",
    "request_reason": "Missed Trash Pick-Up",
    "date_created": "2025-01-02T19:06:16.000",
    "date_modified": "2025-01-02T19:06:17.000",
    "request_status": "Pending",
    "responsible_agency": "Department of Sanitation",
    "final_address": "4731 Dauphine St",
    "address_councildis": "E",
    "status": "Assigned to Contractor",
    "contractor": "Waste Pro",
    "rowid": "1159176",
    "final_x": "3694593.21053",
    "final_y": "533433.713348",
    "longitude": "-90.02665796309971",
    "latitude": "29.960353686717127",
    "geocoded_column": {
      "latitude": "29.960353686717127",
      "longitude": "-90.02665796309971"
    }
  },
  {
    "service_request": "2025-1159175",
    "request_type": "Christmas Tree Recycle Pick Up",
    "request_reason": "Christmas Tree Recycle Pick Up",
    "date_created": "2025-01-02T18:40:28.000",
    "date_modified": "2025-01-02T18:40:31.000",
    "request_status": "Pending",
    "responsible_agency": "Office of Resilience and Sustainability",
    "final_address": "3200 BLK Louisiana Avenue Pkwy",
    "address_councildis": "B",
    "status": "Pending",
    "contractor": "R&R Recycling",
    "rowid": "1159175",
    "final_x": "3671806.12453",
    "final_y": "527345.426396",
    "longitude": "-90.09882217700938",
    "latitude": "29.94430774793278",
    "geocoded_column": {
      "latitude": "29.94430774793278",
      "longitude": "-90.09882217700938"
    }
  },
  {
    "service_request": "2025-1159174",
    "request_type": "Trash/Recycling",
    "request_reason": "Illegal Dumping",
    "date_created": "2025-01-02T18:37:11.000",
    "date_modified": "2025-01-02T18:37:14.000",
    "request_status": "Pending",
    "responsible_agency": "Department of Sanitation",
    "final_address": "2332 N Claiborne Ave",
    "address_councildis": "C",
    "status": "Pending",
    "rowid": "1159174",
    "final_x": "3685916.27369",
    "final_y": "538193.000201",
    "longitude": "-90.05389007090714",
    "latitude": "29.973709294905408",
    "geocoded_column": {
      "latitude": "29.973709294905408",
      "longitude": "-90.05389007090714"
    }
  },
  {
    "service_request": "2025-1159173",
    "request_type": "Trash/Recycling",
    "request_reason": "MIssed Recycling Pick-Up",
    "date_created": "2025-01-02T18:31:13.000",
    "date_modified": "2025-01-02T18:31:14.000",
    "request_status": "Pending",
    "responsible_agency": "Department of Sanitation",
    "final_address": "708 Thayer St",
    "address_councildis": "C",
    "status": "Assigned to Contractor",
    "contractor": "Richards Disposal",
    "rowid": "1159173",
    "final_x": "3689534.17615",
    "final_y": "528912.367808",
    "longitude": "-90.04279410376016",
    "latitude": "29.94807921014022",
    "geocoded_column": {
      "latitude": "29.94807921014022",
      "longitude": "-90.04279410376016"
    }
  },
  {
    "service_request": "2025-1159172",
    "request_type": "General Services",
    "request_reason": "General Service Request",
    "date_created": "2025-01-02T18:28:41.000",
    "date_modified": "2025-01-02T18:28:42.000",
    "request_status": "Pending",
    "responsible_agency": "Orleans Parish Communication District",
    "final_address": "1901 Ellen Park Pl",
    "address_councildis": "C",
    "status": "Pending",
    "rowid": "1159172",
    "final_x": "3702880.71447",
    "final_y": "523961.918012",
    "longitude": "-90.00083575010268",
    "latitude": "29.93404713917782",
    "geocoded_column": {
      "latitude": "29.93404713917782",
      "longitude": "-90.00083575010268"
    }
  },
  {
    "service_request": "2025-1159171",
    "request_type": "Trash/Recycling",
    "request_reason": "Replace Trash Cart",
    "date_created": "2025-01-02T18:28:08.000",
    "date_modified": "2025-01-02T18:28:09.000",
    "request_status": "Pending",
    "responsible_agency": "Department of Sanitation",
    "final_address": "2629 Aubry St",
    "address_councildis": "D",
    "status": "Assigned to Contractor",
    "contractor": "IV Waste",
    "rowid": "1159171",
    "final_x": "3679569.93973",
    "final_y": "541230.658508",
    "longitude": "-90.07382771151954",
    "latitude": "29.982255125883736",
    "geocoded_column": {
      "latitude": "29.982255125883736",
      "longitude": "-90.07382771151954"
    }
  },
  {
    "service_request": "2025-1159170",
    "request_type": "Family Reunification",
    "request_reason": "Misplaced Citizen",
    "date_created": "2025-01-02T18:28:02.000",
    "date_modified": "2025-01-02T18:28:05.000",
    "request_status": "Pending",
    "responsible_agency": "Health Department",
    "final_address": "0 BLK Canal St",
    "address_councildis": "C",
    "status": "Pending",
    "rowid": "1159170",
    "final_x": "3682776.12982",
    "final_y": "529518.218638",
    "longitude": "-90.06411078271097",
    "latitude": "29.949952654776755",
    "geocoded_column": {
      "latitude": "29.949952654776755",
      "longitude": "-90.06411078271097"
    }
  },
  {
    "service_request": "2025-1159169",
    "request_type": "Abandoned Vehicles",
    "request_reason": "Abandoned/Junk Vehicles",
    "date_created": "2025-01-02T18:15:06.000",
    "date_modified": "2025-01-02T18:15:11.000",
    "request_status": "Pending",
    "responsible_agency": "Department of Public Works",
    "final_address": "4900 BLK Schindler Dr",
    "address_councildis": "E",
    "status": "Pending",
    "rowid": "1159169",
    "final_x": "3714240.23257",
    "final_y": "557618.690981",
    "longitude": "-89.96370454661967",
    "latitude": "30.026222440590143",
    "geocoded_column": {
      "latitude": "30.026222440590143",
      "longitude": "-89.96370454661967"
    }
  },
  {
    "service_request": "2025-1159168",
    "request_type": "Trash/Recycling",
    "request_reason": "Request a Large Item Pick Up",
    "date_created": "2025-01-02T18:08:31.000",
    "date_modified": "2025-01-02T18:08:32.000",
    "request_status": "Pending",
    "responsible_agency": "Department of Sanitation",
    "final_address": "3504 S Tonti St",
    "address_councildis": "B",
    "status": "Assigned to Contractor",
    "contractor": "IV Waste",
    "rowid": "1159168",
    "final_x": "3671157.55412",
    "final_y": "528254.039424",
    "longitude": "-90.10083904715685",
    "latitude": "29.946825334493983",
    "geocoded_column": {
      "latitude": "29.946825334493983",
      "longitude": "-90.10083904715685"
    }
  },
  {
    "service_request": "2025-1159167",
    "request_type": "Streetlights",
    "request_reason": "Streetlight Outage/Malfunction",
    "date_created": "2025-01-02T17:46:28.000",
    "date_modified": "2025-01-02T17:46:29.000",
    "request_status": "Pending",
    "responsible_agency": "Department of Public Works",
    "final_address": "7704 Breakwater Dr",
    "address_councildis": "A",
    "status": "Pending",
    "contractor": "Legacy Professional Services",
    "rowid": "1159167",
    "final_x": "3664794.03028",
    "final_y": "556966.553818",
    "longitude": "-90.1199711208265",
    "latitude": "30.025961721810383",
    "geocoded_column": {
      "latitude": "30.025961721810383",
      "longitude": "-90.1199711208265"
    }
  },
  {
    "service_request": "2025-1159166",
    "request_type": "Christmas Tree Recycle Pick Up",
    "request_reason": "Christmas Tree Recycle Pick Up",
    "date_created": "2025-01-02T17:40:46.000",
    "date_modified": "2025-01-02T17:40:49.000",
    "request_status": "Pending",
    "responsible_agency": "Office of Resilience and Sustainability",
    "final_address": "902 Nashville Ave",
    "address_councildis": "A",
    "status": "Pending",
    "contractor": "R&R Recycling",
    "rowid": "1159166",
    "final_x": "3665555.0592",
    "final_y": "519395.933431",
    "longitude": "-90.11882468824541",
    "latitude": "29.922632873365387",
    "geocoded_column": {
      "latitude": "29.922632873365387",
      "longitude": "-90.11882468824541"
    }
  },
  {
    "service_request": "2025-1159165",
    "request_type": "Abandoned Vehicles",
    "request_reason": "Abandoned/Junk Vehicles",
    "date_created": "2025-01-02T17:28:24.000",
    "date_modified": "2025-01-02T17:28:26.000",
    "request_status": "Pending",
    "responsible_agency": "Department of Public Works",
    "final_address": "6005 Canal Blvd",
    "address_councildis": "A",
    "status": "Pending",
    "rowid": "1159165",
    "final_x": "3668646.76756",
    "final_y": "547317.931793",
    "longitude": "-90.10812293181935",
    "latitude": "29.999318663598146",
    "geocoded_column": {
      "latitude": "29.999318663598146",
      "longitude": "-90.10812293181935"
    }
  },
  {
    "service_request": "2025-1159164",
    "request_type": "Trash/Recycling",
    "request_reason": "Illegal Dumping",
    "date_created": "2025-01-02T17:26:21.000",
    "date_modified": "2025-01-02T17:26:29.000",
    "request_status": "Pending",
    "responsible_agency": "Department of Sanitation",
    "final_address": "4522 Citrus Dr",
    "address_councildis": "E",
    "status": "Pending",
    "rowid": "1159164",
    "final_x": "3710748.09662",
    "final_y": "554888.76188",
    "longitude": "-89.97484143666827",
    "latitude": "30.01883051750671",
    "geocoded_column": {
      "latitude": "30.01883051750671",
      "longitude": "-89.97484143666827"
    }
  },
  {
    "service_request": "2025-1159163",
    "request_type": "Christmas Tree Recycle Pick Up",
    "request_reason": "Christmas Tree Recycle Pick Up",
    "date_created": "2025-01-02T17:22:45.000",
    "date_modified": "2025-01-02T17:22:47.000",
    "request_status": "Pending",
    "responsible_agency": "Office of Resilience and Sustainability",
    "final_address": "4022 Laurel St",
    "address_councildis": "B",
    "status": "Pending",
    "contractor": "R&R Recycling",
    "rowid": "1159163",
    "final_x": "3672410.02516",
    "final_y": "518138.79935",
    "longitude": "-90.09722906418753",
    "latitude": "29.918974590284332",
    "geocoded_column": {
      "latitude": "29.918974590284332",
      "longitude": "-90.09722906418753"
    }
  },
  {
    "service_request": "2025-1159162",
    "request_type": "Trash/Recycling",
    "request_reason": "Order Recycling Cart",
    "date_created": "2025-01-02T17:19:20.000",
    "date_modified": "2025-01-02T17:19:23.000",
    "request_status": "Pending",
    "responsible_agency": "Department of Sanitation",
    "final_address": "5428 Laurel St",
    "address_councildis": "A",
    "status": "Pending",
    "rowid": "1159162",
    "final_x": "3666313.21037",
    "final_y": "517838.667638",
    "longitude": "-90.11648370176971",
    "latitude": "29.918328763177644",
    "geocoded_column": {
      "latitude": "29.918328763177644",
      "longitude": "-90.11648370176971"
    }
  },
  {
    "service_request": "2025-1159160",
    "request_type": "Trash/Recycling",
    "request_reason": "Illegal Dumping",
    "date_created": "2025-01-02T17:08:38.000",
    "date_modified": "2025-01-02T17:08:40.000",
    "request_status": "Pending",
    "responsible_agency": "Department of Sanitation",
    "final_address": "1932 Ap Tureaud Ave",
    "address_councildis": "D",
    "status": "Pending",
    "rowid": "1159160",
    "final_x": "3681657.0278",
    "final_y": "539365.763914",
    "longitude": "-90.0673007571682",
    "latitude": "29.97706407057423",
    "geocoded_column": {
      "latitude": "29.97706407057423",
      "longitude": "-90.0673007571682"
    }
  },
  {
    "service_request": "2025-1159159",
    "request_type": "Trash/Recycling",
    "request_reason": "Missed Trash Pick-Up",
    "date_created": "2025-01-02T17:08:18.000",
    "date_modified": "2025-01-02T17:08:19.000",
    "request_status": "Pending",
    "responsible_agency": "Department of Sanitation",
    "final_address": "4212 Magazine St",
    "address_councildis": "B",
    "status": "Assigned to Contractor",
    "contractor": "IV Waste",
    "rowid": "1159159",
    "final_x": "3671676.63668",
    "final_y": "518812.565815",
    "longitude": "-90.09952109881222",
    "latitude": "29.92084896791353",
    "geocoded_column": {
      "latitude": "29.92084896791353",
      "longitude": "-90.09952109881222"
    }
  },
  {
    "service_request": "2025-1159158",
    "request_type": "Abandoned Vehicles",
    "request_reason": "Abandoned/Junk Vehicles",
    "date_created": "2025-01-02T17:07:33.000",
    "date_modified": "2025-01-02T17:07:35.000",
    "request_status": "Pending",
    "responsible_agency": "Department of Public Works",
    "final_address": "2306 Somerset Dr",
    "address_councildis": "C",
    "status": "Pending",
    "rowid": "1159158",
    "final_x": "3702780.16702",
    "final_y": "522598.90425",
    "longitude": "-90.00120319763414",
    "latitude": "29.93030254124599",
    "geocoded_column": {
      "latitude": "29.93030254124599",
      "longitude": "-90.00120319763414"
    }
  },
  {
    "service_request": "2025-1159157",
    "request_type": "Trash/Recycling",
    "request_reason": "Missed Trash Pick-Up",
    "date_created": "2025-01-02T17:04:01.000",
    "date_modified": "2025-01-02T17:04:02.000",
    "request_status": "Pending",
    "responsible_agency": "Department of Sanitation",
    "final_address": "1210 Short St",
    "address_councildis": "A",
    "status": "Assigned to Contractor",
    "contractor": "IV Waste",
    "rowid": "1159157",
    "final_x": "3662363.46855",
    "final_y": "528196.857408",
    "longitude": "-90.12860722727314",
    "latitude": "29.946925267442996",
    "geocoded_column": {
      "latitude": "29.946925267442996",
      "longitude": "-90.12860722727314"
    }
  },
  {
    "service_request": "2025-1159156",
    "request_type": "Abandoned Vehicles",
    "request_reason": "Abandoned/Junk Vehicles",
    "date_created": "2025-01-02T16:59:15.000",
    "date_modified": "2025-01-02T16:59:16.000",
    "request_status": "Pending",
    "responsible_agency": "Department of Public Works",
    "final_address": "1701 St Bernard Ave",
    "address_councildis": "D",
    "status": "Pending",
    "rowid": "1159156",
    "final_x": "3682055.99394",
    "final_y": "538337.735305",
    "longitude": "-90.06607660341139",
    "latitude": "29.974225222146472",
    "geocoded_column": {
      "latitude": "29.974225222146472",
      "longitude": "-90.06607660341139"
    }
  },
  {
    "service_request": "2025-1159155",
    "request_type": "Christmas Tree Recycle Pick Up",
    "request_reason": "Christmas Tree Recycle Pick Up",
    "date_created": "2025-01-02T16:57:05.000",
    "date_modified": "2025-01-02T16:57:08.000",
    "request_status": "Pending",
    "responsible_agency": "Office of Resilience and Sustainability",
    "final_address": "4116 Chestnut St",
    "address_councildis": "B",
    "status": "Pending",
    "contractor": "R&R Recycling",
    "rowid": "1159155",
    "final_x": "3671899.58695",
    "final_y": "519538.134391",
    "longitude": "-90.09879266909591",
    "latitude": "29.922837447280685",
    "geocoded_column": {
      "latitude": "29.922837447280685",
      "longitude": "-90.09879266909591"
    }
  },
  {
    "service_request": "2025-1159154",
    "request_type": "Trash/Recycling",
    "request_reason": "Illegal Dumping",
    "date_created": "2025-01-02T16:56:13.000",
    "date_modified": "2025-01-02T16:56:15.000",
    "request_status": "Pending",
    "responsible_agency": "Department of Sanitation",
    "final_address": "1700 BLK Socrates St",
    "address_councildis": "C",
    "status": "Pending",
    "rowid": "1159154",
    "final_x": "3690882.02732",
    "final_y": "526276.603731",
    "longitude": "-90.03863243989889",
    "latitude": "29.940789952187334",
    "geocoded_column": {
      "latitude": "29.940789952187334",
      "longitude": "-90.03863243989889"
    }
  },
  {
    "service_request": "2025-1159153",
    "request_type": "Abandoned Vehicles",
    "request_reason": "Abandoned/Junk Vehicles",
    "date_created": "2025-01-02T16:56:06.000",
    "date_modified": "2025-01-02T16:56:07.000",
    "request_status": "Pending",
    "responsible_agency": "Department of Public Works",
    "final_address": "CHEF MENTEUR HWY & LURLINE ST",
    "address_councildis": "E",
    "status": "Pending",
    "rowid": "1159153",
    "final_x": "3712127.6",
    "final_y": "554552.48",
    "longitude": "-89.97049537822063",
    "latitude": "30.017860831143555",
    "geocoded_column": {
      "latitude": "30.017860831143555",
      "longitude": "-89.97049537822063"
    }
  },
  {
    "service_request": "2025-1159152",
    "request_type": "Roads and Streets",
    "request_reason": "Pothole",
    "date_created": "2025-01-02T16:53:15.000",
    "date_modified": "2025-01-02T16:53:17.000",
    "request_status": "Pending",
    "responsible_agency": "Department of Public Works",
    "final_address": "726 Louque Pl",
    "address_councildis": "A",
    "status": "Pending",
    "rowid": "1159152",
    "final_x": "3668444.11348",
    "final_y": "543495.275342",
    "longitude": "-90.10889216615112",
    "latitude": "29.98881362905192",
    "geocoded_column": {
      "latitude": "29.98881362905192",
      "longitude": "-90.10889216615112"
    }
  },
  {
    "service_request": "2025-1159151",
    "request_type": "Trash/Recycling",
    "request_reason": "Request a Large Item Pick Up",
    "date_created": "2025-01-02T16:49:34.000",
    "date_modified": "2025-01-02T16:49:35.000",
    "request_status": "Pending",
    "responsible_agency": "Department of Sanitation",
    "final_address": "6318 Orleans Ave",
    "address_councildis": "A",
    "status": "Assigned to Contractor",
    "contractor": "IV Waste",
    "rowid": "1159151",
    "final_x": "3671021.88014",
    "final_y": "549264.561363",
    "longitude": "-90.10055370796458",
    "latitude": "30.004601170559337",
    "geocoded_column": {
      "latitude": "30.004601170559337",
      "longitude": "-90.10055370796458"
    }
  },
  {
    "service_request": "2025-1159150",
    "request_type": "Trash/Recycling",
    "request_reason": "Request a Large Item Pick Up",
    "date_created": "2025-01-02T16:47:00.000",
    "date_modified": "2025-01-02T16:47:01.000",
    "request_status": "Pending",
    "responsible_agency": "Department of Sanitation",
    "final_address": "4524 Plum Orchard St",
    "address_councildis": "E",
    "status": "Assigned to Contractor",
    "contractor": "Waste Pro",
    "rowid": "1159150",
    "final_x": "3701727.25629",
    "final_y": "553268.812311",
    "longitude": "-90.00340329950075",
    "latitude": "30.0146672615995",
    "geocoded_column": {
      "latitude": "30.0146672615995",
      "longitude": "-90.00340329950075"
    }
  },
  {
    "service_request": "2025-1159149",
    "request_type": "Trash/Recycling",
    "request_reason": "Replace Trash Cart",
    "date_created": "2025-01-02T16:44:17.000",
    "date_modified": "2025-01-02T16:44:18.000",
    "request_status": "Pending",
    "responsible_agency": "Department of Sanitation",
    "final_address": "2553 Athis St",
    "address_councildis": "D",
    "status": "Assigned to Contractor",
    "contractor": "IV Waste",
    "rowid": "1159149",
    "final_x": "3686273.56111",
    "final_y": "554480.998744",
    "longitude": "-90.05218652861568",
    "latitude": "30.01848446210802",
    "geocoded_column": {
      "latitude": "30.01848446210802",
      "longitude": "-90.05218652861568"
    }
  },
  {
    "service_request": "2025-1159148",
    "request_type": "Roads and Streets",
    "request_reason": "Pothole",
    "date_created": "2025-01-02T16:44:06.000",
    "date_modified": "2025-01-02T16:44:26.000",
    "case_close_date": "2025-01-02T10:44:26.000",
    "request_status": "Closed",
    "responsible_agency": "Department of Public Works",
    "final_address": "8000 BLK Willow St",
    "address_councildis": "A",
    "status": "Resolved",
    "rowid": "1159148",
    "final_x": "3662645.29245",
    "final_y": "528698.553939",
    "longitude": "-90.12770073391604",
    "latitude": "29.948296621542088",
    "geocoded_column": {
      "latitude": "29.948296621542088",
      "longitude": "-90.12770073391604"
    }
  },
  {
    "service_request": "2025-1159147",
    "request_type": "Trash/Recycling",
    "request_reason": "Missed Trash Pick-Up",
    "date_created": "2025-01-02T16:37:40.000",
    "date_modified": "2025-01-02T17:01:44.000",
    "case_close_date": "2025-01-02T11:01:44.000",
    "request_status": "Closed",
    "responsible_agency": "Department of Sanitation",
    "final_address": "1512 General Pershing St",
    "address_councildis": "B",
    "status": "Invalid Request",
    "contractor": "IV Waste",
    "contractor_action": "Invalid Request",
    "rowid": "1159147",
    "final_x": "3671215.61991",
    "final_y": "520705.571577",
    "longitude": "-90.10091205336771",
    "latitude": "29.92606777202637",
    "geocoded_column": {
      "latitude": "29.92606777202637",
      "longitude": "-90.10091205336771"
    }
  },
  {
    "service_request": "2025-1159146",
    "request_type": "Trash/Recycling",
    "request_reason": "Request a Large Item Pick Up",
    "date_created": "2025-01-02T16:37:29.000",
    "date_modified": "2025-01-02T16:37:30.000",
    "request_status": "Pending",
    "responsible_agency": "Department of Sanitation",
    "final_address": "4858 Ken Ct",
    "address_councildis": "C",
    "status": "Assigned to Contractor",
    "contractor": "Richards Disposal",
    "rowid": "1159146",
    "final_x": "3702215.20765",
    "final_y": "518558.344887",
    "longitude": "-90.00313474927131",
    "latitude": "29.919210446905453",
    "geocoded_column": {
      "latitude": "29.919210446905453",
      "longitude": "-90.00313474927131"
    }
  },
  {
    "service_request": "2025-1159145",
    "request_type": "Trash/Recycling",
    "request_reason": "Request a Large Item Pick Up",
    "date_created": "2025-01-02T16:37:27.000",
    "date_modified": "2025-01-02T16:37:28.000",
    "request_status": "Pending",
    "responsible_agency": "Department of Sanitation",
    "final_address": "9426 Palmetto St",
    "address_councildis": "A",
    "status": "Assigned to Contractor",
    "contractor": "IV Waste",
    "rowid": "1159145",
    "final_x": "3664536.18887",
    "final_y": "538340.186633",
    "longitude": "-90.12140838496657",
    "latitude": "29.974753111595355",
    "geocoded_column": {
      "latitude": "29.974753111595355",
      "longitude": "-90.12140838496657"
    }
  },
  {
    "service_request": "2025-1159144",
    "request_type": "Trash/Recycling",
    "request_reason": "Request a Large Item Pick Up",
    "date_created": "2025-01-02T16:30:45.000",
    "date_modified": "2025-01-02T16:30:46.000",
    "request_status": "Pending",
    "responsible_agency": "Department of Sanitation",
    "final_address": "10340 Flossmoor Dr",
    "address_councildis": "E",
    "status": "Assigned to Contractor",
    "contractor": "Waste Pro",
    "rowid": "1159144",
    "final_x": "3710205.27742",
    "final_y": "563903.458849",
    "longitude": "-89.97621918628045",
    "latitude": "30.043635053475693",
    "geocoded_column": {
      "latitude": "30.043635053475693",
      "longitude": "-89.97621918628045"
    }
  },
  {
    "service_request": "2025-1159143",
    "request_type": "Trash/Recycling",
    "request_reason": "Request a Large Item Pick Up",
    "date_created": "2025-01-02T16:27:49.000",
    "date_modified": "2025-01-02T16:27:50.000",
    "request_status": "Pending",
    "responsible_agency": "Department of Sanitation",
    "final_address": "1828 Frenchmen St",
    "address_councildis": "D",
    "status": "Assigned to Contractor",
    "contractor": "IV Waste",
    "rowid": "1159143",
    "final_x": "3684330.94466",
    "final_y": "539099.447562",
    "longitude": "-90.0588650338907",
    "latitude": "29.976250287172853",
    "geocoded_column": {
      "latitude": "29.976250287172853",
      "longitude": "-90.0588650338907"
    }
  },
  {
    "service_request": "2025-1159142",
    "request_type": "Family Reunification",
    "request_reason": "Misplaced Citizen Search/Report",
    "date_created": "2025-01-02T16:25:13.000",
    "date_modified": "2025-01-02T16:26:28.000",
    "request_status": "Pending",
    "responsible_agency": "Health Department",
    "final_address": "CANAL ST & BOURBON ST",
    "address_councildis": "C",
    "status": "Pending",
    "rowid": "1159142",
    "final_x": "3680929.1",
    "final_y": "530923.88",
    "longitude": "-90.06989377240657",
    "latitude": "29.953873876006604",
    "geocoded_column": {
      "latitude": "29.953873876006604",
      "longitude": "-90.06989377240657"
    }
  },
  {
    "service_request": "2025-1159141",
    "request_type": "Abandoned Vehicles",
    "request_reason": "Abandoned/Junk Vehicles",
    "date_created": "2025-01-02T16:23:31.000",
    "date_modified": "2025-01-02T16:23:34.000",
    "request_status": "Pending",
    "responsible_agency": "Department of Public Works",
    "final_address": "2100 BLK Philip St",
    "address_councildis": "B",
    "status": "Pending",
    "rowid": "1159141",
    "final_x": "3676062.72723",
    "final_y": "524975.592881",
    "longitude": "-90.08546433710274",
    "latitude": "29.937664699446028",
    "geocoded_column": {
      "latitude": "29.937664699446028",
      "longitude": "-90.08546433710274"
    }
  },
  {
    "service_request": "2025-1159140",
    "request_type": "Trash/Recycling",
    "request_reason": "Request a Large Item Pick Up",
    "date_created": "2025-01-02T16:20:43.000",
    "date_modified": "2025-01-02T16:20:44.000",
    "request_status": "Pending",
    "responsible_agency": "Department of Sanitation",
    "final_address": "8 Curtis Dr",
    "address_councildis": "E",
    "status": "Assigned to Contractor",
    "contractor": "Waste Pro",
    "rowid": "1159140",
    "final_x": "3697689.92637",
    "final_y": "560638.780766",
    "longitude": "-90.01589149649521",
    "latitude": "30.035060091539236",
    "geocoded_column": {
      "latitude": "30.035060091539236",
      "longitude": "-90.01589149649521"
    }
  },
  {
    "service_request": "2025-1159139",
    "request_type": "Trash/Recycling",
    "request_reason": "Missed Trash Pick-Up",
    "date_created": "2025-01-02T16:11:30.000",
    "date_modified": "2025-01-02T17:00:40.000",
    "case_close_date": "2025-01-02T11:00:40.000",
    "request_status": "Closed",
    "responsible_agency": "Department of Sanitation",
    "final_address": "1512 General Pershing St",
    "address_councildis": "B",
    "status": "Invalid Request",
    "contractor": "IV Waste",
    "contractor_action": "Invalid Request",
    "rowid": "1159139",
    "final_x": "3671215.61991",
    "final_y": "520705.571577",
    "longitude": "-90.10091205336771",
    "latitude": "29.92606777202637",
    "geocoded_column": {
      "latitude": "29.92606777202637",
      "longitude": "-90.10091205336771"
    }
  },
  {
    "service_request": "2025-1159138",
    "request_type": "Trash/Recycling",
    "request_reason": "Repair Recycling Cart",
    "date_created": "2025-01-02T16:10:17.000",
    "date_modified": "2025-01-02T16:10:18.000",
    "request_status": "Pending",
    "responsible_agency": "Department of Sanitation",
    "final_address": "2501 Gladiolus St",
    "address_councildis": "D",
    "status": "Pending",
    "rowid": "1159138",
    "final_x": "3686347.53724",
    "final_y": "547496.159058",
    "longitude": "-90.05219954508996",
    "latitude": "29.999276426828928",
    "geocoded_column": {
      "latitude": "29.999276426828928",
      "longitude": "-90.05219954508996"
    }
  },
  {
    "service_request": "2025-1159136",
    "request_type": "Trash/Recycling",
    "request_reason": "Repair Trash Cart",
    "date_created": "2025-01-02T16:09:43.000",
    "date_modified": "2025-01-02T16:09:44.000",
    "request_status": "Pending",
    "responsible_agency": "Department of Sanitation",
    "final_address": "2501 Gladiolus St",
    "address_councildis": "D",
    "status": "Assigned to Contractor",
    "contractor": "IV Waste",
    "rowid": "1159136",
    "final_x": "3686347.53724",
    "final_y": "547496.159058",
    "longitude": "-90.05219954508996",
    "latitude": "29.999276426828928",
    "geocoded_column": {
      "latitude": "29.999276426828928",
      "longitude": "-90.05219954508996"
    }
  },
  {
    "service_request": "2025-1159135",
    "request_type": "Trash/Recycling",
    "request_reason": "Repair Recycling Cart",
    "date_created": "2025-01-02T16:07:07.000",
    "date_modified": "2025-01-02T16:07:09.000",
    "request_status": "Pending",
    "responsible_agency": "Department of Sanitation",
    "final_address": "3322 State Street Dr",
    "address_councildis": "A",
    "status": "Pending",
    "rowid": "1159135",
    "final_x": "3667677.31495",
    "final_y": "528543.112512",
    "longitude": "-90.11181774242625",
    "latitude": "29.947722664755794",
    "geocoded_column": {
      "latitude": "29.947722664755794",
      "longitude": "-90.11181774242625"
    }
  },
  {
    "service_request": "2025-1159134",
    "request_type": "Trash/Recycling",
    "request_reason": "Illegal Dumping",
    "date_created": "2025-01-02T16:00:43.000",
    "date_modified": "2025-01-02T16:00:44.000",
    "request_status": "Pending",
    "responsible_agency": "Department of Sanitation",
    "final_address": "5936 Airway St",
    "address_councildis": "D",
    "status": "Pending",
    "rowid": "1159134",
    "final_x": "3696470.58538",
    "final_y": "552800.036182",
    "longitude": "-90.02002870799811",
    "latitude": "30.01354501657649",
    "geocoded_column": {
      "latitude": "30.01354501657649",
      "longitude": "-90.02002870799811"
    }
  },
  {
    "service_request": "2025-1159133",
    "request_type": "Trash/Recycling",
    "request_reason": "Request a Large Item Pick Up",
    "date_created": "2025-01-02T16:00:15.000",
    "date_modified": "2025-01-02T16:00:16.000",
    "request_status": "Pending",
    "responsible_agency": "Department of Sanitation",
    "final_address": "2319 Alvar St",
    "address_councildis": "D",
    "status": "Assigned to Contractor",
    "contractor": "IV Waste",
    "rowid": "1159133",
    "final_x": "3692699.19645",
    "final_y": "540061.062347",
    "longitude": "-90.0324012398676",
    "latitude": "29.97863580298472",
    "geocoded_column": {
      "latitude": "29.97863580298472",
      "longitude": "-90.0324012398676"
    }
  },
  {
    "service_request": "2025-1159132",
    "request_type": "Trash/Recycling",
    "request_reason": "MIssed Recycling Pick-Up",
    "date_created": "2025-01-02T15:59:54.000",
    "date_modified": "2025-01-02T15:59:55.000",
    "request_status": "Pending",
    "responsible_agency": "Department of Sanitation",
    "final_address": "8441 Beechwood Ct",
    "address_councildis": "E",
    "status": "Assigned to Contractor",
    "contractor": "Waste Pro",
    "rowid": "1159132",
    "final_x": "3704345.16932",
    "final_y": "560758.862366",
    "longitude": "-89.99485560016834",
    "latitude": "30.035178190098236",
    "geocoded_column": {
      "latitude": "30.035178190098236",
      "longitude": "-89.99485560016834"
    }
  },
  {
    "service_request": "2025-1159131",
    "request_type": "Trash/Recycling",
    "request_reason": "Request a Large Item Pick Up",
    "date_created": "2025-01-02T15:58:06.000",
    "date_modified": "2025-01-02T15:58:07.000",
    "request_status": "Pending",
    "responsible_agency": "Department of Sanitation",
    "final_address": "7223 Yorktown Dr",
    "address_councildis": "E",
    "status": "Assigned to Contractor",
    "contractor": "Waste Pro",
    "rowid": "1159131",
    "final_x": "3705822.27543",
    "final_y": "561369.044382",
    "longitude": "-89.99016513934588",
    "latitude": "30.036808424759542",
    "geocoded_column": {
      "latitude": "30.036808424759542",
      "longitude": "-89.99016513934588"
    }
  },
  {
    "service_request": "2025-1159130",
    "request_type": "Abandoned Vehicles",
    "request_reason": "Abandoned/Junk Vehicles",
    "date_created": "2025-01-02T15:57:21.000",
    "date_modified": "2025-01-02T15:57:23.000",
    "request_status": "Pending",
    "responsible_agency": "Department of Public Works",
    "final_address": "4900 BLK Schindler Dr",
    "address_councildis": "E",
    "status": "Pending",
    "rowid": "1159130",
    "final_x": "3714240.23257",
    "final_y": "557618.690981",
    "longitude": "-89.96370454661967",
    "latitude": "30.026222440590143",
    "geocoded_column": {
      "latitude": "30.026222440590143",
      "longitude": "-89.96370454661967"
    }
  },
  {
    "service_request": "2025-1159129",
    "request_type": "Family Reunification",
    "request_reason": "Misplaced Citizen Search/Report",
    "date_created": "2025-01-02T15:56:23.000",
    "date_modified": "2025-01-02T16:01:00.000",
    "request_status": "Pending",
    "responsible_agency": "Health Department",
    "final_address": "CANAL ST & BOURBON ST",
    "address_councildis": "C",
    "status": "Pending",
    "rowid": "1159129",
    "final_x": "3680929.1",
    "final_y": "530923.88",
    "longitude": "-90.06989377240657",
    "latitude": "29.953873876006604",
    "geocoded_column": {
      "latitude": "29.953873876006604",
      "longitude": "-90.06989377240657"
    }
  },
  {
    "service_request": "2025-1159128",
    "request_type": "Mosquito, Termite & Rodent Control",
    "request_reason": "Rodent Complaint (Rats)",
    "date_created": "2025-01-02T15:56:10.000",
    "date_modified": "2025-01-02T15:56:11.000",
    "request_status": "Pending",
    "responsible_agency": "Mosquito, Termite & Rodent Control Board",
    "final_address": "1411 Mandeville St",
    "address_councildis": "C",
    "status": "Pending",
    "rowid": "1159128",
    "final_x": "3685718.30076",
    "final_y": "537576.73492",
    "longitude": "-90.0545370323361",
    "latitude": "29.97202085751056",
    "geocoded_column": {
      "latitude": "29.97202085751056",
      "longitude": "-90.0545370323361"
    }
  },
  {
    "service_request": "2025-1159127",
    "request_type": "Christmas Tree Recycle Pick Up",
    "request_reason": "Christmas Tree Recycle Pick Up",
    "date_created": "2025-01-02T15:55:20.000",
    "date_modified": "2025-01-02T15:55:23.000",
    "request_status": "Pending",
    "responsible_agency": "Office of Resilience and Sustainability",
    "final_address": "1120 N Dupre St",
    "address_councildis": "A",
    "status": "Pending",
    "contractor": "R&R Recycling",
    "rowid": "1159127",
    "final_x": "3677036.37883",
    "final_y": "539013.440522",
    "longitude": "-90.08190641925815",
    "latitude": "29.976234872154976",
    "geocoded_column": {
      "latitude": "29.976234872154976",
      "longitude": "-90.08190641925815"
    }
  },
  {
    "service_request": "2025-1159126",
    "request_type": "Property Maintenance",
    "request_reason": "Property Maintenance",
    "date_created": "2025-01-02T15:54:17.000",
    "date_modified": "2025-01-02T15:54:21.000",
    "request_status": "Pending",
    "responsible_agency": "Department of Code Enforcement",
    "final_address": "2808 Seine St",
    "address_councildis": "C",
    "status": "Pending",
    "rowid": "1159126",
    "final_x": "3693363.14576",
    "final_y": "521041.724089",
    "longitude": "-90.03098699779967",
    "latitude": "29.926318499274164",
    "geocoded_column": {
      "latitude": "29.926318499274164",
      "longitude": "-90.03098699779967"
    }
  },
  {
    "service_request": "2025-1159125",
    "request_type": "Family Reunification",
    "request_reason": "Misplaced Citizen",
    "date_created": "2025-01-02T15:53:02.000",
    "date_modified": "2025-01-02T15:53:03.000",
    "request_status": "Pending",
    "responsible_agency": "Health Department",
    "final_address": "500 BLK Bourbon St",
    "address_councildis": "C",
    "status": "Pending",
    "rowid": "1159125",
    "final_x": "3681921.81755",
    "final_y": "532227.967484",
    "longitude": "-90.06671366328978",
    "latitude": "29.957429538679012",
    "geocoded_column": {
      "latitude": "29.957429538679012",
      "longitude": "-90.06671366328978"
    }
  },
  {
    "service_request": "2025-1159124",
    "request_type": "Trash/Recycling",
    "request_reason": "Request a Large Item Pick Up",
    "date_created": "2025-01-02T15:52:05.000",
    "date_modified": "2025-01-02T15:52:06.000",
    "request_status": "Pending",
    "responsible_agency": "Department of Sanitation",
    "final_address": "5943 Warwick Ct",
    "address_councildis": "C",
    "status": "Assigned to Contractor",
    "contractor": "Richards Disposal",
    "rowid": "1159124",
    "final_x": "3705795.72747",
    "final_y": "515819.450676",
    "longitude": "-89.9919341675788",
    "latitude": "29.911564655239363",
    "geocoded_column": {
      "latitude": "29.911564655239363",
      "longitude": "-89.9919341675788"
    }
  },
  {
    "service_request": "2025-1159123",
    "request_type": "Trash/Recycling",
    "request_reason": "Request a Large Item Pick Up",
    "date_created": "2025-01-02T15:48:31.000",
    "date_modified": "2025-01-02T15:48:32.000",
    "request_status": "Pending",
    "responsible_agency": "Department of Sanitation",
    "final_address": "4215 S Rocheblave St",
    "address_councildis": "B",
    "status": "Assigned to Contractor",
    "contractor": "IV Waste",
    "rowid": "1159123",
    "final_x": "3670708.90299",
    "final_y": "528577.6256",
    "longitude": "-90.10224462947839",
    "latitude": "29.94772835237759",
    "geocoded_column": {
      "latitude": "29.94772835237759",
      "longitude": "-90.10224462947839"
    }
  },
  {
    "service_request": "2025-1159122",
    "request_type": "Christmas Tree Recycle Pick Up",
    "request_reason": "Christmas Tree Recycle Pick Up",
    "date_created": "2025-01-02T15:46:49.000",
    "date_modified": "2025-01-02T15:47:00.000",
    "request_status": "Pending",
    "responsible_agency": "Office of Resilience and Sustainability",
    "final_address": "2801 St Charles Ave",
    "address_councildis": "B",
    "status": "Pending",
    "contractor": "R&R Recycling",
    "rowid": "1159122",
    "final_x": "3675836.21307",
    "final_y": "522560.44729",
    "longitude": "-90.08626244441714",
    "latitude": "29.93103061856899",
    "geocoded_column": {
      "latitude": "29.93103061856899",
      "longitude": "-90.08626244441714"
    }
  },
  {
    "service_request": "2025-1159121",
    "request_type": "Trash/Recycling",
    "request_reason": "Request a Large Item Pick Up",
    "date_created": "2025-01-02T15:46:44.000",
    "date_modified": "2025-01-02T15:46:45.000",
    "request_status": "Pending",
    "responsible_agency": "Department of Sanitation",
    "final_address": "913 Odeon St",
    "address_councildis": "C",
    "status": "Assigned to Contractor",
    "contractor": "Richards Disposal",
    "rowid": "1159121",
    "final_x": "3696011.73622",
    "final_y": "528055.264895",
    "longitude": "-90.02237288949932",
    "latitude": "29.945520282762864",
    "geocoded_column": {
      "latitude": "29.945520282762864",
      "longitude": "-90.02237288949932"
    }
  },
  {
    "service_request": "2025-1159120",
    "request_type": "Trash/Recycling",
    "request_reason": "Order Trash Cart",
    "date_created": "2025-01-02T15:39:30.000",
    "date_modified": "2025-01-02T15:39:30.000",
    "request_status": "Pending",
    "responsible_agency": "Department of Sanitation",
    "final_address": "1622 Richland Rd",
    "address_councildis": "C",
    "status": "Assigned to Contractor",
    "contractor": "Richards Disposal",
    "rowid": "1159120",
    "final_x": "3698015.51869",
    "final_y": "525011.621821",
    "longitude": "-90.01615680202268",
    "latitude": "29.937088133882824",
    "geocoded_column": {
      "latitude": "29.937088133882824",
      "longitude": "-90.01615680202268"
    }
  },
  {
    "service_request": "2025-1159119",
    "request_type": "Trash/Recycling",
    "request_reason": "Replace Trash Cart",
    "date_created": "2025-01-02T15:39:15.000",
    "date_modified": "2025-01-02T15:39:16.000",
    "request_status": "Pending",
    "responsible_agency": "Department of Sanitation",
    "final_address": "3811 Piedmont Dr",
    "address_councildis": "D",
    "status": "Assigned to Contractor",
    "contractor": "IV Waste",
    "rowid": "1159119",
    "final_x": "3685636.11311",
    "final_y": "546826.311633",
    "longitude": "-90.05447056506328",
    "latitude": "29.99745643955362",
    "geocoded_column": {
      "latitude": "29.99745643955362",
      "longitude": "-90.05447056506328"
    }
  },
  {
    "service_request": "2025-1159118",
    "request_type": "Christmas Tree Recycle Pick Up",
    "request_reason": "Christmas Tree Recycle Pick Up",
    "date_created": "2025-01-02T15:37:08.000",
    "date_modified": "2025-01-02T15:37:11.000",
    "request_status": "Pending",
    "responsible_agency": "Office of Resilience and Sustainability",
    "final_address": "6 S Park Pl",
    "address_councildis": "A",
    "status": "Pending",
    "contractor": "R&R Recycling",
    "rowid": "1159118",
    "final_x": "3670456.9362",
    "final_y": "543866.553806",
    "longitude": "-90.10252166026392",
    "latitude": "29.98977522164304",
    "geocoded_column": {
      "latitude": "29.98977522164304",
      "longitude": "-90.10252166026392"
    }
  },
  {
    "service_request": "2025-1159117",
    "request_type": "Trash/Recycling",
    "request_reason": "Request a Large Item Pick Up",
    "date_created": "2025-01-02T15:32:21.000",
    "date_modified": "2025-01-02T15:32:22.000",
    "request_status": "Pending",
    "responsible_agency": "Department of Sanitation",
    "final_address": "5719 Painters St",
    "address_councildis": "D",
    "status": "Assigned to Contractor",
    "contractor": "IV Waste",
    "rowid": "1159117",
    "final_x": "3686180.99516",
    "final_y": "554229.031576",
    "longitude": "-90.0524879017767",
    "latitude": "30.01779449074635",
    "geocoded_column": {
      "latitude": "30.01779449074635",
      "longitude": "-90.0524879017767"
    }
  },
  {
    "service_request": "2025-1159116",
    "request_type": "Trash/Recycling",
    "request_reason": "Replace Trash Cart",
    "date_created": "2025-01-02T15:31:56.000",
    "date_modified": "2025-01-02T15:31:57.000",
    "request_status": "Pending",
    "responsible_agency": "Department of Sanitation",
    "final_address": "3801 Piedmont Dr",
    "address_councildis": "D",
    "status": "Assigned to Contractor",
    "contractor": "IV Waste",
    "rowid": "1159116",
    "final_x": "3685665.74358",
    "final_y": "546777.267281",
    "longitude": "-90.0543786928155",
    "latitude": "29.99732067586197",
    "geocoded_column": {
      "latitude": "29.99732067586197",
      "longitude": "-90.0543786928155"
    }
  },
  {
    "service_request": "2025-1159115",
    "request_type": "Drainage",
    "request_reason": "Drainage Manhole Cover Missing or Damaged",
    "date_created": "2025-01-02T15:25:37.000",
    "date_modified": "2025-01-02T15:25:39.000",
    "request_status": "Pending",
    "responsible_agency": "Department of Public Works",
    "final_address": "1000 BLK Canal St",
    "address_councildis": "B",
    "status": "Pending",
    "rowid": "1159115",
    "final_x": "3680153.82896",
    "final_y": "531410.267348",
    "longitude": "-90.07232485693862",
    "latitude": "29.95523475940532",
    "geocoded_column": {
      "latitude": "29.95523475940532",
      "longitude": "-90.07232485693862"
    }
  },
  {
    "service_request": "2025-1159114",
    "request_type": "Roads and Streets",
    "request_reason": "Street Subsidence (Sinking)",
    "date_created": "2025-01-02T15:21:00.000",
    "date_modified": "2025-01-02T15:21:01.000",
    "request_status": "Pending",
    "responsible_agency": "Department of Public Works",
    "final_address": "CHICKASAW ST & ALVAR ST",
    "address_councildis": "D",
    "status": "Pending",
    "rowid": "1159114",
    "final_x": "3693339.4",
    "final_y": "547382.38",
    "longitude": "-90.03011625438197",
    "latitude": "29.998746772211305",
    "geocoded_column": {
      "latitude": "29.998746772211305",
      "longitude": "-90.03011625438197"
    }
  },
  {
    "service_request": "2025-1159113",
    "request_type": "Trash/Recycling",
    "request_reason": "Replace Trash Cart",
    "date_created": "2025-01-02T15:18:08.000",
    "date_modified": "2025-01-02T15:18:09.000",
    "request_status": "Pending",
    "responsible_agency": "Department of Sanitation",
    "final_address": "616 Flood St",
    "address_councildis": "E",
    "status": "Assigned to Contractor",
    "contractor": "Waste Pro",
    "rowid": "1159113",
    "final_x": "3697216.34954",
    "final_y": "532162.043907",
    "longitude": "-90.01842075943536",
    "latitude": "29.956774533390558",
    "geocoded_column": {
      "latitude": "29.956774533390558",
      "longitude": "-90.01842075943536"
    }
  },
  {
    "service_request": "2025-1159112",
    "request_type": "Christmas Tree Recycle Pick Up",
    "request_reason": "Christmas Tree Recycle Pick Up",
    "date_created": "2025-01-02T15:17:56.000",
    "date_modified": "2025-01-02T15:18:00.000",
    "request_status": "Pending",
    "responsible_agency": "Office of Resilience and Sustainability",
    "final_address": "1006 Piety St",
    "address_councildis": "C",
    "status": "Pending",
    "contractor": "R&R Recycling",
    "rowid": "1159112",
    "final_x": "3689718.11292",
    "final_y": "535438.230278",
    "longitude": "-90.04198112876205",
    "latitude": "29.966017372229953",
    "geocoded_column": {
      "latitude": "29.966017372229953",
      "longitude": "-90.04198112876205"
    }
  },
  {
    "service_request": "2025-1159111",
    "request_type": "Trash/Recycling",
    "request_reason": "Repair Recycling Cart",
    "date_created": "2025-01-02T15:15:48.000",
    "date_modified": "2025-01-02T15:15:49.000",
    "request_status": "Pending",
    "responsible_agency": "Department of Sanitation",
    "final_address": "4849 Virgilian St",
    "address_councildis": "D",
    "status": "Pending",
    "rowid": "1159111",
    "final_x": "3697494.87466",
    "final_y": "554434.273816",
    "longitude": "-90.0167331792313",
    "latitude": "30.018006233182057",
    "geocoded_column": {
      "latitude": "30.018006233182057",
      "longitude": "-90.0167331792313"
    }
  },
  {
    "service_request": "2025-1159110",
    "request_type": "Trash/Recycling",
    "request_reason": "Replace Recycling Cart",
    "date_created": "2025-01-02T15:14:48.000",
    "date_modified": "2025-01-02T15:14:51.000",
    "request_status": "Pending",
    "responsible_agency": "Department of Sanitation",
    "final_address": "6610 Manchester St",
    "address_councildis": "E",
    "status": "Pending",
    "rowid": "1159110",
    "final_x": "3697626.52592",
    "final_y": "559427.560669",
    "longitude": "-90.01613585142084",
    "latitude": "30.031731707124113",
    "geocoded_column": {
      "latitude": "30.031731707124113",
      "longitude": "-90.01613585142084"
    }
  },
  {
    "service_request": "2025-1159109",
    "request_type": "Trash/Recycling",
    "request_reason": "Return Recycling Cart",
    "date_created": "2025-01-02T15:13:34.000",
    "date_modified": "2025-01-02T15:13:35.000",
    "request_status": "Pending",
    "responsible_agency": "Department of Sanitation",
    "final_address": "1631 Nie Prkwy",
    "address_councildis": "C",
    "status": "Pending",
    "rowid": "1159109",
    "final_x": "3701161.42532",
    "final_y": "524871.030332",
    "longitude": "-90.00623020211088",
    "latitude": "29.936601745085877",
    "geocoded_column": {
      "latitude": "29.936601745085877",
      "longitude": "-90.00623020211088"
    }
  },
  {
    "service_request": "2025-1159108",
    "request_type": "Christmas Tree Recycle Pick Up",
    "request_reason": "Christmas Tree Recycle Pick Up",
    "date_created": "2025-01-02T15:12:26.000",
    "date_modified": "2025-01-02T15:12:28.000",
    "request_status": "Pending",
    "responsible_agency": "Office of Resilience and Sustainability",
    "final_address": "5600 Marcia Ave",
    "address_councildis": "A",
    "status": "Pending",
    "contractor": "R&R Recycling",
    "rowid": "1159108",
    "final_x": "3664766.13556",
    "final_y": "544928.882319",
    "longitude": "-90.12046189213747",
    "latitude": "29.992863117822214",
    "geocoded_column": {
      "latitude": "29.992863117822214",
      "longitude": "-90.12046189213747"
    }
  },
  {
    "service_request": "2025-1159107",
    "request_type": "Trash/Recycling",
    "request_reason": "Replace Trash Cart",
    "date_created": "2025-01-02T15:12:10.000",
    "date_modified": "2025-01-02T15:12:11.000",
    "request_status": "Pending",
    "responsible_agency": "Department of Sanitation",
    "final_address": "6610 Manchester St",
    "address_councildis": "E",
    "status": "Assigned to Contractor",
    "contractor": "Waste Pro",
    "rowid": "1159107",
    "final_x": "3697626.52592",
    "final_y": "559427.560669",
    "longitude": "-90.01613585142084",
    "latitude": "30.031731707124113",
    "geocoded_column": {
      "latitude": "30.031731707124113",
      "longitude": "-90.01613585142084"
    }
  },
  {
    "service_request": "2025-1159106",
    "request_type": "Abandoned Vehicles",
    "request_reason": "Abandoned/Junk Vehicles",
    "date_created": "2025-01-02T15:09:59.000",
    "date_modified": "2025-01-02T15:10:00.000",
    "request_status": "Pending",
    "responsible_agency": "Department of Public Works",
    "final_address": "734 Spain St",
    "address_councildis": "C",
    "status": "Pending",
    "rowid": "1159106",
    "final_x": "3686201.57942",
    "final_y": "535232.664326",
    "longitude": "-90.0530934755476",
    "latitude": "29.965560640346922",
    "geocoded_column": {
      "latitude": "29.965560640346922",
      "longitude": "-90.0530934755476"
    }
  },
  {
    "service_request": "2025-1159105",
    "request_type": "Trash/Recycling",
    "request_reason": "Order Trash Cart",
    "date_created": "2025-01-02T15:07:48.000",
    "date_modified": "2025-01-02T15:07:51.000",
    "request_status": "Pending",
    "responsible_agency": "Department of Sanitation",
    "final_address": "3410 Fourth St",
    "address_councildis": "B",
    "status": "Assigned to Contractor",
    "contractor": "IV Waste",
    "rowid": "1159105",
    "final_x": "3672575.84769",
    "final_y": "528097.586815",
    "longitude": "-90.09636629957447",
    "latitude": "29.94635311737402",
    "geocoded_column": {
      "latitude": "29.94635311737402",
      "longitude": "-90.09636629957447"
    }
  },
  {
    "service_request": "2025-1159104",
    "request_type": "Family Reunification",
    "request_reason": "Misplaced Citizen",
    "date_created": "2025-01-02T15:07:43.000",
    "date_modified": "2025-01-02T18:23:43.000",
    "case_close_date": "2025-01-02T12:23:43.000",
    "request_status": "Closed",
    "responsible_agency": "Health Department",
    "final_address": "CANAL ST & BOURBON ST",
    "address_councildis": "C",
    "status": "Misplaced Citizen Reunited",
    "rowid": "1159104",
    "final_x": "3680929.1",
    "final_y": "530923.88",
    "longitude": "-90.06989377240657",
    "latitude": "29.953873876006604",
    "geocoded_column": {
      "latitude": "29.953873876006604",
      "longitude": "-90.06989377240657"
    }
  },
  {
    "service_request": "2025-1159103",
    "request_type": "Trash/Recycling",
    "request_reason": "Request a Large Item Pick Up",
    "date_created": "2025-01-02T15:06:38.000",
    "date_modified": "2025-01-02T15:06:39.000",
    "request_status": "Pending",
    "responsible_agency": "Department of Sanitation",
    "final_address": "4638 Arts St",
    "address_councildis": "D",
    "status": "Assigned to Contractor",
    "contractor": "IV Waste",
    "rowid": "1159103",
    "final_x": "3685888.77705",
    "final_y": "549876.960084",
    "longitude": "-90.05356477661928",
    "latitude": "30.00583686409909",
    "geocoded_column": {
      "latitude": "30.00583686409909",
      "longitude": "-90.05356477661928"
    }
  },
  {
    "service_request": "2025-1159102",
    "request_type": "Trash/Recycling",
    "request_reason": "Request a Large Item Pick Up",
    "date_created": "2025-01-02T15:05:36.000",
    "date_modified": "2025-01-02T15:05:37.000",
    "request_status": "Pending",
    "responsible_agency": "Department of Sanitation",
    "final_address": "181 Turnberry Dr",
    "address_councildis": "E",
    "status": "Assigned to Contractor",
    "contractor": "Waste Pro",
    "rowid": "1159102",
    "final_x": "3720563.88569",
    "final_y": "563861.189409",
    "longitude": "-89.94348356900524",
    "latitude": "30.043177422838173",
    "geocoded_column": {
      "latitude": "30.043177422838173",
      "longitude": "-89.94348356900524"
    }
  },
  {
    "service_request": "2025-1159101",
    "request_type": "Trash/Recycling",
    "request_reason": "Order Trash Cart",
    "date_created": "2025-01-02T15:01:30.000",
    "date_modified": "2025-01-02T15:11:37.000",
    "request_status": "Pending",
    "responsible_agency": "Department of Sanitation",
    "final_address": "1810 S Dupre St",
    "address_councildis": "B",
    "contractor": "IV Waste",
    "rowid": "1159101",
    "final_x": "3670570.25294",
    "final_y": "529754.471553",
    "longitude": "-90.10264249421213",
    "latitude": "29.950968388393452",
    "geocoded_column": {
      "latitude": "29.950968388393452",
      "longitude": "-90.10264249421213"
    }
  },
  {
    "service_request": "2025-1159100",
    "request_type": "Christmas Tree Recycle Pick Up",
    "request_reason": "Christmas Tree Recycle Pick Up",
    "date_created": "2025-01-02T15:00:34.000",
    "date_modified": "2025-01-02T15:00:43.000",
    "request_status": "Pending",
    "responsible_agency": "Office of Resilience and Sustainability",
    "final_address": "721 Seventh St",
    "address_councildis": "B",
    "status": "Pending",
    "contractor": "R&R Recycling",
    "rowid": "1159100",
    "final_x": "3677125.86971",
    "final_y": "519302.421879",
    "longitude": "-90.08230346202996",
    "latitude": "29.92203344934166",
    "geocoded_column": {
      "latitude": "29.92203344934166",
      "longitude": "-90.08230346202996"
    }
  },
  {
    "service_request": "2025-1159099",
    "request_type": "Trash/Recycling",
    "request_reason": "Missed Trash Pick-Up",
    "date_created": "2025-01-02T14:59:26.000",
    "date_modified": "2025-01-02T14:59:27.000",
    "request_status": "Pending",
    "responsible_agency": "Department of Sanitation",
    "final_address": "4951 Tynecastle Dr",
    "address_councildis": "E",
    "status": "Assigned to Contractor",
    "contractor": "Waste Pro",
    "rowid": "1159099",
    "final_x": "3718478.73938",
    "final_y": "558260.53462",
    "longitude": "-89.95028706366588",
    "latitude": "30.02784726771959",
    "geocoded_column": {
      "latitude": "30.02784726771959",
      "longitude": "-89.95028706366588"
    }
  },
  {
    "service_request": "2025-1159098",
    "request_type": "Trash/Recycling",
    "request_reason": "Replace Recycling Cart",
    "date_created": "2025-01-02T14:58:37.000",
    "date_modified": "2025-01-02T14:58:40.000",
    "request_status": "Pending",
    "responsible_agency": "Department of Sanitation",
    "final_address": "2467 Royal St",
    "address_councildis": "C",
    "status": "Pending",
    "rowid": "1159098",
    "final_x": "3686458.48514",
    "final_y": "535015.125318",
    "longitude": "-90.05228986015172",
    "latitude": "29.964954588479372",
    "geocoded_column": {
      "latitude": "29.964954588479372",
      "longitude": "-90.05228986015172"
    }
  },
  {
    "service_request": "2025-1159097",
    "request_type": "Trash/Recycling",
    "request_reason": "Order Trash Cart",
    "date_created": "2025-01-02T14:56:33.000",
    "date_modified": "2025-01-02T14:56:35.000",
    "request_status": "Pending",
    "responsible_agency": "Department of Sanitation",
    "final_address": "5215 Camp St",
    "address_councildis": "B",
    "status": "Assigned to Contractor",
    "contractor": "IV Waste",
    "rowid": "1159097",
    "final_x": "3667932.14183",
    "final_y": "519066.132151",
    "longitude": "-90.11133226544077",
    "latitude": "29.92165653075858",
    "geocoded_column": {
      "latitude": "29.92165653075858",
      "longitude": "-90.11133226544077"
    }
  },
  {
    "service_request": "2025-1159096",
    "request_type": "Abandoned Vehicles",
    "request_reason": "Abandoned/Junk Vehicles",
    "date_created": "2025-01-02T14:52:15.000",
    "date_modified": "2025-01-02T14:53:33.000",
    "request_status": "Pending",
    "responsible_agency": "Department of Public Works",
    "final_address": "WRIGHT RD & DWYER RD",
    "address_councildis": "E",
    "status": "Pending",
    "rowid": "1159096",
    "final_x": "3716325.8",
    "final_y": "558449.78",
    "longitude": "-89.95708294067948",
    "latitude": "30.028438893641248",
    "geocoded_column": {
      "latitude": "30.028438893641248",
      "longitude": "-89.95708294067948"
    }
  },
  {
    "service_request": "2025-1159095",
    "request_type": "Trash/Recycling",
    "request_reason": "Missed Trash Pick-Up",
    "date_created": "2025-01-02T14:52:03.000",
    "date_modified": "2025-01-02T14:52:03.000",
    "request_status": "Pending",
    "responsible_agency": "Department of Sanitation",
    "final_address": "11300 BLK Pressburg St",
    "address_councildis": "E",
    "status": "Assigned to Contractor",
    "contractor": "Waste Pro",
    "rowid": "1159095",
    "final_x": "3717041.59245",
    "final_y": "557561.581187",
    "longitude": "-89.95485486458684",
    "latitude": "30.025973043372314",
    "geocoded_column": {
      "latitude": "30.025973043372314",
      "longitude": "-89.95485486458684"
    }
  },
  {
    "service_request": "2025-1159094",
    "request_type": "Christmas Tree Recycle Pick Up",
    "request_reason": "Christmas Tree Recycle Pick Up",
    "date_created": "2025-01-02T14:49:10.000",
    "date_modified": "2025-01-02T14:49:13.000",
    "request_status": "Pending",
    "responsible_agency": "Office of Resilience and Sustainability",
    "final_address": "1636 Arabella St",
    "address_councildis": "A",
    "status": "Pending",
    "contractor": "R&R Recycling",
    "rowid": "1159094",
    "final_x": "3666595.36935",
    "final_y": "522424.82841",
    "longitude": "-90.11543921001898",
    "latitude": "29.930931016425568",
    "geocoded_column": {
      "latitude": "29.930931016425568",
      "longitude": "-90.11543921001898"
    }
  },
  {
    "service_request": "2025-1159093",
    "request_type": "Trash/Recycling",
    "request_reason": "Repair Trash Cart",
    "date_created": "2025-01-02T14:45:32.000",
    "date_modified": "2025-01-02T14:45:33.000",
    "request_status": "Pending",
    "responsible_agency": "Department of Sanitation",
    "final_address": "2701 Prancer St",
    "address_councildis": "C",
    "status": "Assigned to Contractor",
    "contractor": "Richards Disposal",
    "rowid": "1159093",
    "final_x": "3699527.37719",
    "final_y": "521049.286841",
    "longitude": "-90.01152811094957",
    "latitude": "29.926145208323973",
    "geocoded_column": {
      "latitude": "29.926145208323973",
      "longitude": "-90.01152811094957"
    }
  },
  {
    "service_request": "2025-1159092",
    "request_type": "Trash/Recycling",
    "request_reason": "Request a Large Item Pick Up",
    "date_created": "2025-01-02T14:39:56.000",
    "date_modified": "2025-01-02T14:39:59.000",
    "request_status": "Pending",
    "responsible_agency": "Department of Sanitation",
    "final_address": "7823 S Coronet Ct",
    "address_councildis": "E",
    "status": "Assigned to Contractor",
    "contractor": "Waste Pro",
    "rowid": "1159092",
    "final_x": "3703146.69572",
    "final_y": "557409.484123",
    "longitude": "-89.99876622299178",
    "latitude": "30.026007141570982",
    "geocoded_column": {
      "latitude": "30.026007141570982",
      "longitude": "-89.99876622299178"
    }
  },
  {
    "service_request": "2025-1159091",
    "request_type": "Christmas Tree Recycle Pick Up",
    "request_reason": "Christmas Tree Recycle Pick Up",
    "date_created": "2025-01-02T14:37:03.000",
    "date_modified": "2025-01-02T14:37:07.000",
    "request_status": "Pending",
    "responsible_agency": "Office of Resilience and Sustainability",
    "final_address": "2605 Nashville Ave",
    "address_councildis": "A",
    "status": "Pending",
    "contractor": "R&R Recycling",
    "rowid": "1159091",
    "final_x": "3667350.80052",
    "final_y": "525607.249341",
    "longitude": "-90.11294740826919",
    "latitude": "29.93965955626461",
    "geocoded_column": {
      "latitude": "29.93965955626461",
      "longitude": "-90.11294740826919"
    }
  },
  {
    "service_request": "2025-1159090",
    "request_type": "Trash/Recycling",
    "request_reason": "Request a Large Item Pick Up",
    "date_created": "2025-01-02T14:33:06.000",
    "date_modified": "2025-01-02T14:33:07.000",
    "request_status": "Pending",
    "responsible_agency": "Department of Sanitation",
    "final_address": "6821 Manchester St",
    "address_councildis": "E",
    "status": "Assigned to Contractor",
    "contractor": "Waste Pro",
    "rowid": "1159090",
    "final_x": "3698467.64912",
    "final_y": "560019.128541",
    "longitude": "-90.01345633947615",
    "latitude": "30.03333167740206",
    "geocoded_column": {
      "latitude": "30.03333167740206",
      "longitude": "-90.01345633947615"
    }
  },
  {
    "service_request": "2025-1159089",
    "request_type": "Family Reunification",
    "request_reason": "Misplaced Citizen Search/Report",
    "date_created": "2025-01-02T14:32:37.000",
    "date_modified": "2025-01-02T14:32:38.000",
    "request_status": "Pending",
    "responsible_agency": "Health Department",
    "final_address": "CANAL ST & BOURBON ST",
    "address_councildis": "C",
    "status": "Pending",
    "rowid": "1159089",
    "final_x": "3680929.1",
    "final_y": "530923.88",
    "longitude": "-90.06989377240657",
    "latitude": "29.953873876006604",
    "geocoded_column": {
      "latitude": "29.953873876006604",
      "longitude": "-90.06989377240657"
    }
  },
  {
    "service_request": "2025-1159088",
    "request_type": "Streetlights",
    "request_reason": "Streetlight Outage/Malfunction",
    "date_created": "2025-01-02T14:30:06.000",
    "date_modified": "2025-01-02T14:30:41.000",
    "request_status": "Pending",
    "responsible_agency": "Department of Public Works",
    "final_address": "3879 Magellan St",
    "address_councildis": "C",
    "status": "Pending",
    "contractor": "Legacy Professional Services",
    "rowid": "1159088",
    "final_x": "3698411.71748",
    "final_y": "524298.761532",
    "longitude": "-90.01493188169196",
    "latitude": "29.93511548584631",
    "geocoded_column": {
      "latitude": "29.93511548584631",
      "longitude": "-90.01493188169196"
    }
  },
  {
    "service_request": "2025-1159087",
    "request_type": "Trash/Recycling",
    "request_reason": "Request a Large Item Pick Up",
    "date_created": "2025-01-02T14:27:54.000",
    "date_modified": "2025-01-02T14:27:55.000",
    "request_status": "Pending",
    "responsible_agency": "Department of Sanitation",
    "final_address": "7250 Warfield St",
    "address_councildis": "E",
    "status": "Assigned to Contractor",
    "contractor": "Waste Pro",
    "rowid": "1159087",
    "final_x": "3702311.17079",
    "final_y": "553081.971031",
    "longitude": "-90.0015652883156",
    "latitude": "30.0141348713786",
    "geocoded_column": {
      "latitude": "30.0141348713786",
      "longitude": "-90.0015652883156"
    }
  },
  {
    "service_request": "2025-1159086",
    "request_type": "Trash/Recycling",
    "request_reason": "Missed Trash Pick-Up",
    "date_created": "2025-01-02T14:27:28.000",
    "date_modified": "2025-01-02T14:27:29.000",
    "request_status": "Pending",
    "responsible_agency": "Department of Sanitation",
    "final_address": "7250 Warfield St",
    "address_councildis": "E",
    "status": "Assigned to Contractor",
    "contractor": "Waste Pro",
    "rowid": "1159086",
    "final_x": "3702311.17079",
    "final_y": "553081.971031",
    "longitude": "-90.0015652883156",
    "latitude": "30.0141348713786",
    "geocoded_column": {
      "latitude": "30.0141348713786",
      "longitude": "-90.0015652883156"
    }
  },
  {
    "service_request": "2025-1159085",
    "request_type": "Safety & Permits",
    "request_reason": "Construction permit",
    "date_created": "2025-01-02T14:26:32.000",
    "date_modified": "2025-01-02T14:26:52.000",
    "request_status": "Pending",
    "responsible_agency": "Safety and Permits",
    "final_address": "6301 Annunciation St",
    "address_councildis": "A",
    "status": "Pending",
    "rowid": "1159085",
    "final_x": "3662848.78714",
    "final_y": "518469.32159",
    "longitude": "-90.12739813270514",
    "latitude": "29.92016357513028",
    "geocoded_column": {
      "latitude": "29.92016357513028",
      "longitude": "-90.12739813270514"
    }
  },
  {
    "service_request": "2025-1159084",
    "request_type": "Trash/Recycling",
    "request_reason": "Replace Trash Cart",
    "date_created": "2025-01-02T14:26:28.000",
    "date_modified": "2025-01-02T14:26:29.000",
    "request_status": "Pending",
    "responsible_agency": "Department of Sanitation",
    "final_address": "877 Navarre St",
    "address_councildis": "A",
    "status": "Assigned to Contractor",
    "contractor": "IV Waste",
    "rowid": "1159084",
    "final_x": "3669336.04634",
    "final_y": "543821.625998",
    "longitude": "-90.10606377344558",
    "latitude": "29.989684744054895",
    "geocoded_column": {
      "latitude": "29.989684744054895",
      "longitude": "-90.10606377344558"
    }
  },
  {
    "service_request": "2025-1159083",
    "request_type": "Parks & Parkways",
    "request_reason": "Request Tree Service (Right of Way/Public Property)",
    "date_created": "2025-01-02T14:23:13.000",
    "date_modified": "2025-01-02T14:23:16.000",
    "request_status": "Pending",
    "responsible_agency": "Department of Parks & Parkway",
    "final_address": "1611 Burdette St",
    "address_councildis": "A",
    "status": "Pending",
    "rowid": "1159083",
    "final_x": "3663835.04531",
    "final_y": "528692.508096",
    "longitude": "-90.12394437815006",
    "latitude": "29.948245522424873",
    "geocoded_column": {
      "latitude": "29.948245522424873",
      "longitude": "-90.12394437815006"
    }
  },
  {
    "service_request": "2025-1159082",
    "request_type": "Family Reunification",
    "request_reason": "Misplaced Citizen Search/Report",
    "date_created": "2025-01-02T14:19:54.000",
    "date_modified": "2025-01-02T18:20:01.000",
    "case_close_date": "2025-01-02T12:20:01.000",
    "request_status": "Closed",
    "responsible_agency": "Health Department",
    "final_address": "CANAL ST & BOURBON ST",
    "address_councildis": "C",
    "status": "Misplaced Citizen Found",
    "rowid": "1159082",
    "final_x": "3680929.1",
    "final_y": "530923.88",
    "longitude": "-90.06989377240657",
    "latitude": "29.953873876006604",
    "geocoded_column": {
      "latitude": "29.953873876006604",
      "longitude": "-90.06989377240657"
    }
  },
  {
    "service_request": "2025-1159081",
    "request_type": "Trash/Recycling",
    "request_reason": "Request a Large Item Pick Up",
    "date_created": "2025-01-02T14:18:01.000",
    "date_modified": "2025-01-02T14:18:02.000",
    "request_status": "Pending",
    "responsible_agency": "Department of Sanitation",
    "final_address": "6080 S Muirfield Cir",
    "address_councildis": "E",
    "status": "Assigned to Contractor",
    "contractor": "Waste Pro",
    "rowid": "1159081",
    "final_x": "3718796.35557",
    "final_y": "566360.085347",
    "longitude": "-89.94897421559459",
    "latitude": "30.050107192839796",
    "geocoded_column": {
      "latitude": "30.050107192839796",
      "longitude": "-89.94897421559459"
    }
  },
  {
    "service_request": "2025-1159080",
    "request_type": "Abandoned Vehicles",
    "request_reason": "Abandoned/Junk Vehicles",
    "date_created": "2025-01-02T14:05:54.000",
    "date_modified": "2025-01-02T14:08:38.000",
    "request_status": "Pending",
    "responsible_agency": "Department of Public Works",
    "final_address": "3423 St Anthony Ave",
    "address_councildis": "D",
    "status": "Pending",
    "rowid": "1159080",
    "final_x": "3682885.25288",
    "final_y": "545230.958863",
    "longitude": "-90.06321629787222",
    "latitude": "29.993153920770954",
    "geocoded_column": {
      "latitude": "29.993153920770954",
      "longitude": "-90.06321629787222"
    }
  },
  {
    "service_request": "2025-1159079",
    "request_type": "Trash/Recycling",
    "request_reason": "Repair Trash Cart",
    "date_created": "2025-01-02T14:05:23.000",
    "date_modified": "2025-01-02T14:05:24.000",
    "request_status": "Pending",
    "responsible_agency": "Department of Sanitation",
    "final_address": "5115 Pratt Dr",
    "address_councildis": "D",
    "status": "Assigned to Contractor",
    "contractor": "IV Waste",
    "rowid": "1159079",
    "final_x": "3680569.06408",
    "final_y": "551242.521621",
    "longitude": "-90.07032343265804",
    "latitude": "30.00975396437037",
    "geocoded_column": {
      "latitude": "30.00975396437037",
      "longitude": "-90.07032343265804"
    }
  },
  {
    "service_request": "2025-1159078",
    "request_type": "Trash/Recycling",
    "request_reason": "Return Trash Cart",
    "date_created": "2025-01-02T14:04:25.000",
    "date_modified": "2025-01-02T14:04:26.000",
    "request_status": "Pending",
    "responsible_agency": "Department of Sanitation",
    "final_address": "7500 Alabama St",
    "address_councildis": "D",
    "status": "Assigned to Contractor",
    "contractor": "Waste Pro",
    "rowid": "1159078",
    "final_x": "3694987.46762",
    "final_y": "558102.792155",
    "longitude": "-90.02452319484017",
    "latitude": "30.02817225100528",
    "geocoded_column": {
      "latitude": "30.02817225100528",
      "longitude": "-90.02452319484017"
    }
  },
  {
    "service_request": "2025-1159077",
    "request_type": "Trash/Recycling",
    "request_reason": "Request a Large Item Pick Up",
    "date_created": "2025-01-02T14:04:11.000",
    "date_modified": "2025-01-02T14:04:12.000",
    "request_status": "Pending",
    "responsible_agency": "Department of Sanitation",
    "final_address": "1905 Deslonde St",
    "address_councildis": "E",
    "status": "Assigned to Contractor",
    "contractor": "Waste Pro",
    "rowid": "1159077",
    "final_x": "3696292.72509",
    "final_y": "537454.488264",
    "longitude": "-90.0211458752637",
    "latitude": "29.97135598797278",
    "geocoded_column": {
      "latitude": "29.97135598797278",
      "longitude": "-90.0211458752637"
    }
  },
  {
    "service_request": "2025-1159076",
    "request_type": "Trash/Recycling",
    "request_reason": "Request a Large Item Pick Up",
    "date_created": "2025-01-02T14:03:01.000",
    "date_modified": "2025-01-02T14:03:02.000",
    "request_status": "Pending",
    "responsible_agency": "Department of Sanitation",
    "final_address": "7500 Alabama St",
    "address_councildis": "D",
    "status": "Assigned to Contractor",
    "contractor": "Waste Pro",
    "rowid": "1159076",
    "final_x": "3694987.46762",
    "final_y": "558102.792155",
    "longitude": "-90.02452319484017",
    "latitude": "30.02817225100528",
    "geocoded_column": {
      "latitude": "30.02817225100528",
      "longitude": "-90.02452319484017"
    }
  },
  {
    "service_request": "2025-1159075",
    "request_type": "Trash/Recycling",
    "request_reason": "Request a Large Item Pick Up",
    "date_created": "2025-01-02T14:01:54.000",
    "date_modified": "2025-01-02T14:17:06.000",
    "case_close_date": "2025-01-02T08:17:06.000",
    "request_status": "Closed",
    "responsible_agency": "Department of Sanitation",
    "final_address": "7 Marywood Ct",
    "address_councildis": "E",
    "status": "Duplicate Request",
    "contractor": "Waste Pro",
    "contractor_action": "Duplicate",
    "rowid": "1159075",
    "final_x": "3712796.4828",
    "final_y": "566436.933283",
    "longitude": "-89.96793453627065",
    "latitude": "30.050516442446803",
    "geocoded_column": {
      "latitude": "30.050516442446803",
      "longitude": "-89.96793453627065"
    }
  },
  {
    "service_request": "2025-1159074",
    "request_type": "Trash/Recycling",
    "request_reason": "Order Trash Cart",
    "date_created": "2025-01-02T13:59:32.000",
    "date_modified": "2025-01-02T13:59:33.000",
    "request_status": "Pending",
    "responsible_agency": "Department of Sanitation",
    "final_address": "4888 Viola St",
    "address_councildis": "E",
    "status": "Assigned to Contractor",
    "contractor": "Waste Pro",
    "rowid": "1159074",
    "final_x": "3703809.29873",
    "final_y": "556138.035098",
    "longitude": "-89.99671936307917",
    "latitude": "30.02248991178117",
    "geocoded_column": {
      "latitude": "30.02248991178117",
      "longitude": "-89.99671936307917"
    }
  },
  {
    "service_request": "2025-1159073",
    "request_type": "Roads and Streets",
    "request_reason": "Debris in Driving Lanes",
    "date_created": "2025-01-02T13:56:53.000",
    "date_modified": "2025-01-02T13:56:54.000",
    "request_status": "Pending",
    "responsible_agency": "Department of Public Works",
    "final_address": "721 Milan St",
    "address_councildis": "B",
    "status": "Pending",
    "rowid": "1159073",
    "final_x": "3671895.72257",
    "final_y": "518328.060598",
    "longitude": "-90.09884601984825",
    "latitude": "29.919510244227904",
    "geocoded_column": {
      "latitude": "29.919510244227904",
      "longitude": "-90.09884601984825"
    }
  },
  {
    "service_request": "2025-1159072",
    "request_type": "Safety & Permits",
    "request_reason": "Construction permit",
    "date_created": "2025-01-02T13:56:05.000",
    "date_modified": "2025-01-02T13:56:05.000",
    "request_status": "Pending",
    "responsible_agency": "Safety and Permits",
    "final_address": "3128 Constance St",
    "address_councildis": "B",
    "status": "Pending",
    "rowid": "1159072",
    "final_x": "3676228.67624",
    "final_y": "519754.095032",
    "longitude": "-90.08511999761585",
    "latitude": "29.92330230896122",
    "geocoded_column": {
      "latitude": "29.92330230896122",
      "longitude": "-90.08511999761585"
    }
  },
  {
    "service_request": "2025-1159071",
    "request_type": "Roads and Streets",
    "request_reason": "Debris in Driving Lanes",
    "date_created": "2025-01-02T13:54:13.000",
    "date_modified": "2025-01-02T13:58:18.000",
    "request_status": "Pending",
    "responsible_agency": "Department of Public Works",
    "final_address": "7241 Beauvoir Ct",
    "address_councildis": "E",
    "status": "Pending",
    "rowid": "1159071",
    "final_x": "3716234.58732",
    "final_y": "567821.32746",
    "longitude": "-89.95701546433737",
    "latitude": "30.054209861228298",
    "geocoded_column": {
      "latitude": "30.054209861228298",
      "longitude": "-89.95701546433737"
    }
  },
  {
    "service_request": "2025-1159070",
    "request_type": "Trash/Recycling",
    "request_reason": "Request a Large Item Pick Up",
    "date_created": "2025-01-02T13:53:33.000",
    "date_modified": "2025-01-02T13:53:34.000",
    "request_status": "Pending",
    "responsible_agency": "Department of Sanitation",
    "final_address": "4909 Lafon Dr",
    "address_councildis": "E",
    "status": "Assigned to Contractor",
    "contractor": "Waste Pro",
    "rowid": "1159070",
    "final_x": "3701153.15025",
    "final_y": "555082.517657",
    "longitude": "-90.0051507595851",
    "latitude": "30.019672569373284",
    "geocoded_column": {
      "latitude": "30.019672569373284",
      "longitude": "-90.0051507595851"
    }
  },
  {
    "service_request": "2025-1159069",
    "request_type": "Trash/Recycling",
    "request_reason": "Request a Large Item Pick Up",
    "date_created": "2025-01-02T13:51:32.000",
    "date_modified": "2025-01-02T13:51:33.000",
    "request_status": "Pending",
    "responsible_agency": "Department of Sanitation",
    "final_address": "8320 Birch St",
    "address_councildis": "A",
    "status": "Assigned to Contractor",
    "contractor": "IV Waste",
    "rowid": "1159069",
    "final_x": "3662198.07475",
    "final_y": "529994.535937",
    "longitude": "-90.12906978568132",
    "latitude": "29.95187308680227",
    "geocoded_column": {
      "latitude": "29.95187308680227",
      "longitude": "-90.12906978568132"
    }
  },
  {
    "service_request": "2025-1159068",
    "request_type": "Traffic Signals",
    "request_reason": "Traffic Signal Malfunctioning or Damaged",
    "date_created": "2025-01-02T13:51:31.000",
    "date_modified": "2025-01-02T13:51:31.000",
    "request_status": "Pending",
    "responsible_agency": "Department of Public Works",
    "final_address": "HICKERSON DR & CHEF MENTEUR HWY",
    "address_councildis": "E",
    "status": "Pending",
    "rowid": "1159068",
    "final_x": "3710548.8",
    "final_y": "554082.98",
    "longitude": "-89.97550130712611",
    "latitude": "30.016621426818645",
    "geocoded_column": {
      "latitude": "30.016621426818645",
      "longitude": "-89.97550130712611"
    }
  },
  {
    "service_request": "2025-1159067",
    "request_type": "Trash/Recycling",
    "request_reason": "Request a Large Item Pick Up",
    "date_created": "2025-01-02T13:40:26.000",
    "date_modified": "2025-01-02T13:40:27.000",
    "request_status": "Pending",
    "responsible_agency": "Department of Sanitation",
    "final_address": "1839 Fern St",
    "address_councildis": "A",
    "status": "Assigned to Contractor",
    "contractor": "IV Waste",
    "rowid": "1159067",
    "final_x": "3664192.88704",
    "final_y": "529617.029313",
    "longitude": "-90.12278368039898",
    "latitude": "29.950777267475058",
    "geocoded_column": {
      "latitude": "29.950777267475058",
      "longitude": "-90.12278368039898"
    }
  },
  {
    "service_request": "2025-1159066",
    "request_type": "Family Reunification",
    "request_reason": "Misplaced Citizen",
    "date_created": "2025-01-02T13:37:28.000",
    "date_modified": "2025-01-02T14:07:35.000",
    "case_close_date": "2025-01-02T08:07:35.000",
    "request_status": "Closed",
    "responsible_agency": "Health Department",
    "final_address": "100 BLK Bourbon St",
    "address_councildis": "C",
    "status": "Duplicate",
    "rowid": "1159066",
    "final_x": "3681046.05782",
    "final_y": "531075.957977",
    "longitude": "-90.06951917153452",
    "latitude": "29.954288492495905",
    "geocoded_column": {
      "latitude": "29.954288492495905",
      "longitude": "-90.06951917153452"
    }
  },
  {
    "service_request": "2025-1159065",
    "request_type": "Christmas Tree Recycle Pick Up",
    "request_reason": "Christmas Tree Recycle Pick Up",
    "date_created": "2025-01-02T13:37:00.000",
    "date_modified": "2025-01-02T13:37:02.000",
    "request_status": "Pending",
    "responsible_agency": "Office of Resilience and Sustainability",
    "final_address": "2551 Lavender St",
    "address_councildis": "D",
    "status": "Pending",
    "contractor": "R&R Recycling",
    "rowid": "1159065",
    "final_x": "3686761.79164",
    "final_y": "546954.289553",
    "longitude": "-90.05091006598344",
    "latitude": "29.997773739247766",
    "geocoded_column": {
      "latitude": "29.997773739247766",
      "longitude": "-90.05091006598344"
    }
  },
  {
    "service_request": "2025-1159064",
    "request_type": "Trash/Recycling",
    "request_reason": "Request a Large Item Pick Up",
    "date_created": "2025-01-02T13:35:30.000",
    "date_modified": "2025-01-02T13:35:31.000",
    "request_status": "Pending",
    "responsible_agency": "Department of Sanitation",
    "final_address": "7145 Downman Rd",
    "address_councildis": "D",
    "status": "Assigned to Contractor",
    "contractor": "Waste Pro",
    "rowid": "1159064",
    "final_x": "3695294.48867",
    "final_y": "556839.897242",
    "longitude": "-90.02359864589498",
    "latitude": "30.024690123887616",
    "geocoded_column": {
      "latitude": "30.024690123887616",
      "longitude": "-90.02359864589498"
    }
  },
  {
    "service_request": "2025-1159063",
    "request_type": "Family Reunification",
    "request_reason": "Misplaced Citizen",
    "date_created": "2025-01-02T13:35:12.000",
    "date_modified": "2025-01-02T17:05:04.000",
    "case_close_date": "2025-01-02T11:05:04.000",
    "request_status": "Closed",
    "responsible_agency": "Health Department",
    "final_address": "100 BLK Bourbon St",
    "address_councildis": "C",
    "status": "Misplaced Citizen Reunited",
    "rowid": "1159063",
    "final_x": "3681046.05782",
    "final_y": "531075.957977",
    "longitude": "-90.06951917153452",
    "latitude": "29.954288492495905",
    "geocoded_column": {
      "latitude": "29.954288492495905",
      "longitude": "-90.06951917153452"
    }
  },
  {
    "service_request": "2025-1159062",
    "request_type": "Christmas Tree Recycle Pick Up",
    "request_reason": "Christmas Tree Recycle Pick Up",
    "date_created": "2025-01-02T13:34:27.000",
    "date_modified": "2025-01-02T13:34:31.000",
    "request_status": "Pending",
    "responsible_agency": "Office of Resilience and Sustainability",
    "final_address": "15 S Park Pl",
    "address_councildis": "A",
    "status": "Pending",
    "contractor": "R&R Recycling",
    "rowid": "1159062",
    "final_x": "3670229.88282",
    "final_y": "543912.650318",
    "longitude": "-90.10323729823024",
    "latitude": "29.989908675413506",
    "geocoded_column": {
      "latitude": "29.989908675413506",
      "longitude": "-90.10323729823024"
    }
  },
  {
    "service_request": "2025-1159061",
    "request_type": "Utility Poles",
    "request_reason": "Wires Sagging/Hanging Low",
    "date_created": "2025-01-02T13:28:49.000",
    "date_modified": "2025-01-02T13:28:54.000",
    "request_status": "Pending",
    "responsible_agency": "Utility Company Collective",
    "final_address": "732 France St",
    "address_councildis": "C",
    "status": "Pending",
    "rowid": "1159061",
    "final_x": "3692047.89014",
    "final_y": "533922.738053",
    "longitude": "-90.03467802600387",
    "latitude": "29.961777899264597",
    "geocoded_column": {
      "latitude": "29.961777899264597",
      "longitude": "-90.03467802600387"
    }
  },
  {
    "service_request": "2025-1159060",
    "request_type": "Streetlights",
    "request_reason": "Streetlight Outage/Malfunction",
    "date_created": "2025-01-02T13:27:30.000",
    "date_modified": "2025-01-02T13:27:31.000",
    "request_status": "Pending",
    "responsible_agency": "Department of Public Works",
    "final_address": "41 Oriole St",
    "address_councildis": "D",
    "status": "Pending",
    "contractor": "Legacy Professional Services",
    "rowid": "1159060",
    "final_x": "3675604.45749",
    "final_y": "556626.967898",
    "longitude": "-90.08582320910732",
    "latitude": "30.02470878947314",
    "geocoded_column": {
      "latitude": "30.02470878947314",
      "longitude": "-90.08582320910732"
    }
  },
  {
    "service_request": "2025-1159059",
    "request_type": "Christmas Tree Recycle Pick Up",
    "request_reason": "Christmas Tree Recycle Pick Up",
    "date_created": "2025-01-02T13:26:39.000",
    "date_modified": "2025-01-02T13:26:42.000",
    "request_status": "Pending",
    "responsible_agency": "Office of Resilience and Sustainability",
    "final_address": "1823 Prytania St",
    "address_councildis": "B",
    "status": "Pending",
    "contractor": "R&R Recycling",
    "rowid": "1159059",
    "final_x": "3678753.23317",
    "final_y": "524036.89446",
    "longitude": "-90.0770026977678",
    "latitude": "29.9350027465606",
    "geocoded_column": {
      "latitude": "29.9350027465606",
      "longitude": "-90.0770026977678"
    }
  },
  {
    "service_request": "2025-1159058",
    "request_type": "Trash/Recycling",
    "request_reason": "Replace Trash Cart",
    "date_created": "2025-01-02T13:22:32.000",
    "date_modified": "2025-01-02T16:24:22.000",
    "case_close_date": "2025-01-02T10:24:22.000",
    "request_status": "Closed",
    "responsible_agency": "Department of Sanitation",
    "final_address": "North Derbigny Street & Saint Bernard Avenue",
    "address_councildis": "D",
    "status": "Assigned to Contractor",
    "contractor": "IV Waste",
    "contractor_action": "Invalid Request",
    "rowid": "1159058",
    "final_x": "3681987.84245",
    "final_y": "538144.786633",
    "longitude": "-90.06629857978683",
    "latitude": "29.97369675251709",
    "geocoded_column": {
      "latitude": "29.97369675251709",
      "longitude": "-90.06629857978683"
    }
  },
  {
    "service_request": "2025-1159057",
    "request_type": "Christmas Tree Recycle Pick Up",
    "request_reason": "Christmas Tree Recycle Pick Up",
    "date_created": "2025-01-02T13:20:51.000",
    "date_modified": "2025-01-02T13:20:53.000",
    "request_status": "Pending",
    "responsible_agency": "Office of Resilience and Sustainability",
    "final_address": "7615 St Charles Ave",
    "address_councildis": "A",
    "status": "Pending",
    "contractor": "R&R Recycling",
    "rowid": "1159057",
    "final_x": "3661838.93754",
    "final_y": "525764.685053",
    "longitude": "-90.1303439964404",
    "latitude": "29.94025272186085",
    "geocoded_column": {
      "latitude": "29.94025272186085",
      "longitude": "-90.1303439964404"
    }
  },
  {
    "service_request": "2025-1159056",
    "request_type": "Roads and Streets",
    "request_reason": "Sidewalk Damaged or Missing",
    "date_created": "2025-01-02T13:19:18.000",
    "date_modified": "2025-01-02T13:19:19.000",
    "request_status": "Pending",
    "responsible_agency": "Department of Public Works",
    "final_address": "5400 Magazine St",
    "address_councildis": "A",
    "status": "Pending",
    "rowid": "1159056",
    "final_x": "3666703.48212",
    "final_y": "518734.837751",
    "longitude": "-90.11522174684953",
    "latitude": "29.920781547835716",
    "geocoded_column": {
      "latitude": "29.920781547835716",
      "longitude": "-90.11522174684953"
    }
  },