[
  {
    "service_request": "2022-955931",
    "request_type": "Roads/Drainage",
    "request_reason": "Man hole cover issue",
    "date_created": "2022-12-23T23:22:51.000",
    "date_modified": "2022-12-23T23:22:52.000",
    "request_status": "Pending",
    "responsible_agency": "Department of Public Works",
    "final_address": "1ST ST & MAGAZINE ST",
    "address_councildis": "B",
    "status": "Pending",
    "rowid": "955931",
    "final_x": "3678080.3",
    "final_y": "521503.78",
    "longitude": "-90.07921467002753",
    "latitude": "29.928057781401485",
    "geocoded_column": {
      "latitude": "29.928057781401485",
      "longitude": "-90.07921467002753"
    }
  },
  {
    "service_request": "2022-955930",
    "request_type": "Trash/Recycling",
    "request_reason": "Repair Trash Cart",
    "date_created": "2022-12-23T22:47:33.000",
    "date_modified": "2022-12-23T22:47:34.000",
    "request_status": "Pending",
    "responsible_agency": "Department of Sanitation",
    "final_address": "4530 S Miro St",
    "address_councildis": "B",
    "status": "Assigned to Contractor",
    "contractor": "Richards Disposal",
    "rowid": "955930",
    "final_x": "3669514.26209",
    "final_y": "527709.590911",
    "longitude": "-90.10604594803426",
    "latitude": "29.945376778272422",
    "geocoded_column": {
      "latitude": "29.945376778272422",
      "longitude": "-90.10604594803426"
    }
  },
  {
    "service_request": "2022-955929",
    "request_type": "Parks & Parkways",
    "request_reason": "Request Tree Service (Right of Way/Public Property)",
    "date_created": "2022-12-23T22:36:23.000",
    "date_modified": "2022-12-23T22:36:23.000",
    "request_status": "Pending",
    "responsible_agency": "Department of Parks & Parkway",
    "final_address": "1139 St Andrew St",
    "address_councildis": "B",
    "status": "Pending",
    "rowid": "955929",
    "final_x": "3679356.38197",
    "final_y": "522929.281019",
    "longitude": "-90.07513695813607",
    "latitude": "29.93193897647055",
    "geocoded_column": {
      "latitude": "29.93193897647055",
      "longitude": "-90.07513695813607"
    }
  },
  {
    "service_request": "2022-955928",
    "request_type": "Abandoned Vehicles",
    "request_reason": "Abandoned/Junk Vehicles",
    "date_created": "2022-12-23T21:49:56.000",
    "date_modified": "2022-12-23T21:49:56.000",
    "request_status": "Pending",
    "responsible_agency": "Department of Public Works",
    "final_address": "4910 Banks St",
    "address_councildis": "A",
    "status": "Pending",
    "rowid": "955928",
    "final_x": "3667626.85697",
    "final_y": "539365.54529",
    "longitude": "-90.11161272284218",
    "latitude": "29.97748225760335",
    "geocoded_column": {
      "latitude": "29.97748225760335",
      "longitude": "-90.11161272284218"
    }
  },
  {
    "service_request": "2022-955927",
    "request_type": "Trash/Recycling",
    "request_reason": "MIssed Recycling Pick-Up",
    "date_created": "2022-12-23T21:15:28.000",
    "date_modified": "2022-12-23T21:15:28.000",
    "request_status": "Pending",
    "responsible_agency": "Department of Sanitation",
    "final_address": "7903 Plum St",
    "address_councildis": "A",
    "status": "Assigned to Contractor",
    "contractor": "Richards Disposal",
    "rowid": "955927",
    "final_x": "3662757.28013",
    "final_y": "528177.268416",
    "longitude": "-90.1273644637923",
    "latitude": "29.946860013110612",
    "geocoded_column": {
      "latitude": "29.946860013110612",
      "longitude": "-90.1273644637923"
    }
  },
  {
    "service_request": "2022-955926",
    "request_type": "Trash/Recycling",
    "request_reason": "Missed Trash Pick-Up",
    "date_created": "2022-12-23T20:51:00.000",
    "date_modified": "2022-12-23T20:51:01.000",
    "request_status": "Pending",
    "responsible_agency": "Department of Sanitation",
    "final_address": "1021 Henry Clay Ave",
    "address_councildis": "A",
    "status": "Assigned to Contractor",
    "contractor": "Richards Disposal",
    "rowid": "955926",
    "final_x": "3664156.70228",
    "final_y": "520320.188152",
    "longitude": "-90.12320795011891",
    "latitude": "29.92521496487658",
    "geocoded_column": {
      "latitude": "29.92521496487658",
      "longitude": "-90.12320795011891"
    }
  },
  {
    "service_request": "2022-955925",
    "request_type": "Trash/Recycling",
    "request_reason": "Missed Trash Pick-Up",
    "date_created": "2022-12-23T20:36:18.000",
    "date_modified": "2022-12-23T20:36:19.000",
    "request_status": "Pending",
    "responsible_agency": "Department of Sanitation",
    "final_address": "1111 Shirley Dr",
    "address_councildis": "C",
    "status": "Assigned to Contractor",
    "contractor": "Richards Disposal",
    "rowid": "955925",
    "final_x": "3693048.87305",
    "final_y": "527209.981119",
    "longitude": "-90.03175788517305",
    "latitude": "29.94328891987638",
    "geocoded_column": {
      "latitude": "29.94328891987638",
      "longitude": "-90.03175788517305"
    }
  },
  {
    "service_request": "2022-955924",
    "request_type": "Trash/Recycling",
    "request_reason": "Request a Large Item Pick Up",
    "date_created": "2022-12-23T20:24:58.000",
    "date_modified": "2022-12-23T20:24:59.000",
    "request_status": "Pending",
    "responsible_agency": "Department of Sanitation",
    "final_address": "417 Henry Clay Ave",
    "address_councildis": "A",
    "status": "Assigned to Contractor",
    "contractor": "Richards Disposal",
    "rowid": "955924",
    "final_x": "3663375.75616",
    "final_y": "518379.00959",
    "longitude": "-90.12573773977351",
    "latitude": "29.919899984815505",
    "geocoded_column": {
      "latitude": "29.919899984815505",
      "longitude": "-90.12573773977351"
    }
  },
  {
    "service_request": "2022-955923",
    "request_type": "Trash/Recycling",
    "request_reason": "Missed Trash Pick-Up",
    "date_created": "2022-12-23T20:23:08.000",
    "date_modified": "2022-12-23T20:23:08.000",
    "request_status": "Pending",
    "responsible_agency": "Department of Sanitation",
    "final_address": "417 Henry Clay Ave",
    "address_councildis": "A",
    "status": "Assigned to Contractor",
    "contractor": "Richards Disposal",
    "rowid": "955923",
    "final_x": "3663375.75616",
    "final_y": "518379.00959",
    "longitude": "-90.12573773977351",
    "latitude": "29.919899984815505",
    "geocoded_column": {
      "latitude": "29.919899984815505",
      "longitude": "-90.12573773977351"
    }
  },
  {
    "service_request": "2022-955922",
    "request_type": "Trash/Recycling",
    "request_reason": "Missed Trash Pick-Up",
    "date_created": "2022-12-23T20:16:33.000",
    "date_modified": "2022-12-23T20:16:33.000",
    "request_status": "Pending",
    "responsible_agency": "Department of Sanitation",
    "final_address": "5826 Clara St",
    "address_councildis": "A",
    "status": "Assigned to Contractor",
    "contractor": "Richards Disposal",
    "rowid": "955922",
    "final_x": "3666914.57978",
    "final_y": "525225.735933",
    "longitude": "-90.11433743670578",
    "latitude": "29.938623284611396",
    "geocoded_column": {
      "latitude": "29.938623284611396",
      "longitude": "-90.11433743670578"
    }
  },
  {
    "service_request": "2022-955921",
    "request_type": "Trash/Recycling",
    "request_reason": "MIssed Recycling Pick-Up",
    "date_created": "2022-12-23T19:53:23.000",
    "date_modified": "2022-12-23T19:53:23.000",
    "request_status": "Pending",
    "responsible_agency": "Department of Sanitation",
    "final_address": "8506 Apricot St",
    "address_councildis": "A",
    "status": "Assigned to Contractor",
    "contractor": "Richards Disposal",
    "rowid": "955921",
    "final_x": "3664686.92685",
    "final_y": "533611.932741",
    "longitude": "-90.12109029887758",
    "latitude": "29.961747590287853",
    "geocoded_column": {
      "latitude": "29.961747590287853",
      "longitude": "-90.12109029887758"
    }
  },
  {
    "service_request": "2022-955920",
    "request_type": "Trash/Recycling",
    "request_reason": "Missed Trash Pick-Up",
    "date_created": "2022-12-23T18:48:52.000",
    "date_modified": "2022-12-23T18:48:52.000",
    "request_status": "Pending",
    "responsible_agency": "Department of Sanitation",
    "final_address": "5531 Freret St",
    "address_councildis": "A",
    "status": "Assigned to Contractor",
    "contractor": "Richards Disposal",
    "rowid": "955920",
    "final_x": "3667399.82823",
    "final_y": "524165.411708",
    "longitude": "-90.11284110699744",
    "latitude": "29.935693529417932",
    "geocoded_column": {
      "latitude": "29.935693529417932",
      "longitude": "-90.11284110699744"
    }
  },
  {
    "service_request": "2022-955919",
    "request_type": "Abandoned Vehicles",
    "request_reason": "Abandoned/Junk Vehicles",
    "date_created": "2022-12-23T18:38:25.000",
    "date_modified": "2022-12-23T18:38:25.000",
    "request_status": "Pending",
    "responsible_agency": "Department of Public Works",
    "final_address": "3510 Franklin Ave",
    "address_councildis": "D",
    "status": "Pending",
    "rowid": "955919",
    "final_x": "3687091.49289",
    "final_y": "545849.242704",
    "longitude": "-90.04990764914271",
    "latitude": "29.994725108014077",
    "geocoded_column": {
      "latitude": "29.994725108014077",
      "longitude": "-90.04990764914271"
    }
  },
  {
    "service_request": "2022-955918",
    "request_type": "Trash/Recycling",
    "request_reason": "Missed Trash Pick-Up",
    "date_created": "2022-12-23T18:33:21.000",
    "date_modified": "2022-12-23T18:33:21.000",
    "request_status": "Pending",
    "responsible_agency": "Department of Sanitation",
    "final_address": "2508 Joseph St",
    "address_councildis": "A",
    "status": "Assigned to Contractor",
    "contractor": "Richards Disposal",
    "rowid": "955918",
    "final_x": "3667397.43489",
    "final_y": "525217.461757",
    "longitude": "-90.11281328476383",
    "latitude": "29.93858639986179",
    "geocoded_column": {
      "latitude": "29.93858639986179",
      "longitude": "-90.11281328476383"
    }
  },
  {
    "service_request": "2022-955917",
    "request_type": "Trash/Recycling",
    "request_reason": "Missed Trash Pick-Up",
    "date_created": "2022-12-23T18:28:41.000",
    "date_modified": "2022-12-23T18:28:42.000",
    "request_status": "Pending",
    "responsible_agency": "Department of Sanitation",
    "final_address": "2600 BLK Joseph St",
    "address_councildis": "A",
    "status": "Assigned to Contractor",
    "contractor": "Richards Disposal",
    "rowid": "955917",
    "final_x": "3667619.90882",
    "final_y": "525594.574583",
    "longitude": "-90.1120982195407",
    "latitude": "29.939616821020007",
    "geocoded_column": {
      "latitude": "29.939616821020007",
      "longitude": "-90.1120982195407"
    }
  },
  {
    "service_request": "2022-955916",
    "request_type": "Roads/Drainage",
    "request_reason": "Street Flooding / Drainage",
    "date_created": "2022-12-23T18:10:28.000",
    "date_modified": "2022-12-23T18:10:28.000",
    "request_status": "Pending",
    "responsible_agency": "Department of Public Works",
    "final_address": "6121 Hurst St",
    "address_councildis": "A",
    "status": "Pending",
    "rowid": "955916",
    "final_x": "3664934.89466",
    "final_y": "522108.984506",
    "longitude": "-90.12069167514666",
    "latitude": "29.930110969876843",
    "geocoded_column": {
      "latitude": "29.930110969876843",
      "longitude": "-90.12069167514666"
    }
  },
  {
    "service_request": "2022-955915",
    "request_type": "EMS",
    "request_reason": "EMS General",
    "date_created": "2022-12-23T17:34:47.000",
    "date_modified": "2022-12-23T18:11:59.000",
    "case_close_date": "2022-12-23T12:11:59.000",
    "request_status": "Closed",
    "responsible_agency": "Emergency Medical Services",
    "status": "Resolved",
    "rowid": "955915",
    "longitude": "0.0",
    "latitude": "0.0",
    "geocoded_column": {
      "latitude": "0.0",
      "longitude": "0.0"
    }
  },
  {
    "service_request": "2022-955914",
    "request_type": "Abandoned Vehicles",
    "request_reason": "Abandoned/Junk Vehicles",
    "date_created": "2022-12-23T17:32:18.000",
    "date_modified": "2022-12-23T17:32:18.000",
    "request_status": "Pending",
    "responsible_agency": "Department of Public Works",
    "final_address": "1316 Treme St",
    "address_councildis": "C",
    "status": "Pending",
    "rowid": "955914",
    "final_x": "3682269.9149",
    "final_y": "535649.331398",
    "longitude": "-90.06549493786753",
    "latitude": "29.966826533363562",
    "geocoded_column": {
      "latitude": "29.966826533363562",
      "longitude": "-90.06549493786753"
    }
  },
  {
    "service_request": "2022-955913",
    "request_type": "Trash/Recycling",
    "request_reason": "Missed Trash Pick-Up",
    "date_created": "2022-12-23T17:25:09.000",
    "date_modified": "2022-12-23T17:25:09.000",
    "request_status": "Pending",
    "responsible_agency": "Department of Sanitation",
    "final_address": "2418 Somerset Dr",
    "address_councildis": "C",
    "status": "Assigned to Contractor",
    "contractor": "Richards Disposal",
    "rowid": "955913",
    "final_x": "3702953.12164",
    "final_y": "522120.909946",
    "longitude": "-90.00067476078239",
    "latitude": "29.928982693213577",
    "geocoded_column": {
      "latitude": "29.928982693213577",
      "longitude": "-90.00067476078239"
    }
  },
  {
    "service_request": "2022-955912",
    "request_type": "Trash/Recycling",
    "request_reason": "Missed Trash Pick-Up",
    "date_created": "2022-12-23T17:20:14.000",
    "date_modified": "2022-12-23T17:20:15.000",
    "request_status": "Pending",
    "responsible_agency": "Department of Sanitation",
    "final_address": "1234 Henry Clay Ave",
    "address_councildis": "A",
    "status": "Assigned to Contractor",
    "contractor": "Richards Disposal",
    "rowid": "955912",
    "final_x": "3664327.06445",
    "final_y": "521120.367609",
    "longitude": "-90.12264347982506",
    "latitude": "29.92741025864685",
    "geocoded_column": {
      "latitude": "29.92741025864685",
      "longitude": "-90.12264347982506"
    }
  },
  {
    "service_request": "2022-955911",
    "request_type": "Safety & Permits",
    "request_reason": "Construction permit",
    "date_created": "2022-12-23T17:17:25.000",
    "date_modified": "2022-12-23T17:17:26.000",
    "request_status": "Pending",
    "responsible_agency": "Department of Code Enforcement",
    "final_address": "2660 N Galvez St",
    "address_councildis": "D",
    "status": "Pending",
    "rowid": "955911",
    "final_x": "3688281.39241",
    "final_y": "540141.842955",
    "longitude": "-90.04635140519716",
    "latitude": "29.978995097386715",
    "geocoded_column": {
      "latitude": "29.978995097386715",
      "longitude": "-90.04635140519716"
    }
  },
  {
    "service_request": "2022-955910",
    "request_type": "Trash/Recycling",
    "request_reason": "Missed Trash Pick-Up",
    "date_created": "2022-12-23T16:56:15.000",
    "date_modified": "2022-12-23T16:56:15.000",
    "request_status": "Pending",
    "responsible_agency": "Department of Sanitation",
    "final_address": "149 Millaudon St",
    "address_councildis": "A",
    "status": "Assigned to Contractor",
    "contractor": "Richards Disposal",
    "rowid": "955910",
    "final_x": "3660961.6135",
    "final_y": "523541.998075",
    "longitude": "-90.13318736136667",
    "latitude": "29.934166331437453",
    "geocoded_column": {
      "latitude": "29.934166331437453",
      "longitude": "-90.13318736136667"
    }
  },
  {
    "service_request": "2022-955909",
    "request_type": "Trash/Recycling",
    "request_reason": "Missed Trash Pick-Up",
    "date_created": "2022-12-23T16:56:10.000",
    "date_modified": "2022-12-23T16:56:11.000",
    "request_status": "Pending",
    "responsible_agency": "Department of Sanitation",
    "final_address": "1930 State St",
    "address_councildis": "A",
    "status": "Assigned to Contractor",
    "contractor": "Richards Disposal",
    "rowid": "955909",
    "final_x": "3666180.63591",
    "final_y": "524024.275388",
    "longitude": "-90.11669485948651",
    "latitude": "29.935341101152154",
    "geocoded_column": {
      "latitude": "29.935341101152154",
      "longitude": "-90.11669485948651"
    }
  },
  {
    "service_request": "2022-955908",
    "request_type": "Property Maintenance",
    "request_reason": "Property Maintenance",
    "date_created": "2022-12-23T16:53:06.000",
    "date_modified": "2022-12-23T16:53:07.000",
    "request_status": "Pending",
    "responsible_agency": "Department of Code Enforcement",
    "final_address": "7609 Edward St",
    "address_councildis": "E",
    "status": "Pending",
    "rowid": "955908",
    "final_x": "3701134.06973",
    "final_y": "560915.113822",
    "longitude": "-90.00499740533121",
    "latitude": "30.035710566679526",
    "geocoded_column": {
      "latitude": "30.035710566679526",
      "longitude": "-90.00499740533121"
    }
  },
  {
    "service_request": "2022-955907",
    "request_type": "Trash/Recycling",
    "request_reason": "Missed Trash Pick-Up",
    "date_created": "2022-12-23T16:37:08.000",
    "date_modified": "2022-12-23T16:37:08.000",
    "request_status": "Pending",
    "responsible_agency": "Department of Sanitation",
    "final_address": "5534 S Liberty St",
    "address_councildis": "A",
    "status": "Assigned to Contractor",
    "contractor": "Richards Disposal",
    "rowid": "955907",
    "final_x": "3667159.26644",
    "final_y": "523372.620027",
    "longitude": "-90.11362720855008",
    "latitude": "29.933520648995206",
    "geocoded_column": {
      "latitude": "29.933520648995206",
      "longitude": "-90.11362720855008"
    }
  },
  {
    "service_request": "2022-955906",
    "request_type": "Trash/Recycling",
    "request_reason": "Order Recycling Cart",
    "date_created": "2022-12-23T16:30:48.000",
    "date_modified": "2022-12-23T16:30:48.000",
    "request_status": "Pending",
    "responsible_agency": "Department of Sanitation",
    "final_address": "4466 Rosemont Pl",
    "address_councildis": "E",
    "status": "Pending",
    "rowid": "955906",
    "final_x": "3702789.44452",
    "final_y": "553301.680919",
    "longitude": "-90.00004611800405",
    "latitude": "30.014723696440907",
    "geocoded_column": {
      "latitude": "30.014723696440907",
      "longitude": "-90.00004611800405"
    }
  },
  {
    "service_request": "2022-955905",
    "request_type": "Trash/Recycling",
    "request_reason": "Missed Trash Pick-Up",
    "date_created": "2022-12-23T16:28:04.000",
    "date_modified": "2022-12-23T16:28:04.000",
    "request_status": "Pending",
    "responsible_agency": "Department of Sanitation",
    "final_address": "1831 Bordeaux St",
    "address_councildis": "B",
    "status": "Assigned to Contractor",
    "contractor": "Richards Disposal",
    "rowid": "955905",
    "final_x": "3669331.87892",
    "final_y": "521703.529722",
    "longitude": "-90.10682477262996",
    "latitude": "29.928867415105458",
    "geocoded_column": {
      "latitude": "29.928867415105458",
      "longitude": "-90.10682477262996"
    }
  },
  {
    "service_request": "2022-955904",
    "request_type": "Trash/Recycling",
    "request_reason": "Replace Recycling Cart",
    "date_created": "2022-12-23T16:19:26.000",
    "date_modified": "2022-12-23T16:19:26.000",
    "request_status": "Pending",
    "responsible_agency": "Department of Sanitation",
    "final_address": "4855 Kendall Dr",
    "address_councildis": "D",
    "status": "Pending",
    "rowid": "955904",
    "final_x": "3690410.1263",
    "final_y": "551239.406485",
    "longitude": "-90.03923221537026",
    "latitude": "30.009443464111758",
    "geocoded_column": {
      "latitude": "30.009443464111758",
      "longitude": "-90.03923221537026"
    }
  },
  {
    "service_request": "2022-955903",
    "request_type": "Trash/Recycling",
    "request_reason": "Order Recycling Cart",
    "date_created": "2022-12-23T16:16:02.000",
    "date_modified": "2022-12-23T16:16:02.000",
    "request_status": "Pending",
    "responsible_agency": "Department of Sanitation",
    "final_address": "211 Sharon Dr",
    "address_councildis": "A",
    "status": "Pending",
    "rowid": "955903",
    "final_x": "3665385.07732",
    "final_y": "546971.334993",
    "longitude": "-90.11843835110825",
    "latitude": "29.99846113545663",
    "geocoded_column": {
      "latitude": "29.99846113545663",
      "longitude": "-90.11843835110825"
    }
  },
  {
    "service_request": "2022-955902",
    "request_type": "Trash/Recycling",
    "request_reason": "Order Recycling Cart",
    "date_created": "2022-12-23T16:14:21.000",
    "date_modified": "2022-12-23T16:14:21.000",
    "request_status": "Pending",
    "responsible_agency": "Department of Sanitation",
    "final_address": "206 Sharon Dr",
    "address_councildis": "A",
    "status": "Pending",
    "rowid": "955902",
    "final_x": "3665553.68935",
    "final_y": "546845.396305",
    "longitude": "-90.11790992355037",
    "latitude": "29.998109930559764",
    "geocoded_column": {
      "latitude": "29.998109930559764",
      "longitude": "-90.11790992355037"
    }
  },
  {
    "service_request": "2022-955901",
    "request_type": "Trash/Recycling",
    "request_reason": "Order Recycling Cart",
    "date_created": "2022-12-23T16:02:12.000",
    "date_modified": "2022-12-23T16:02:12.000",
    "request_status": "Pending",
    "responsible_agency": "Department of Sanitation",
    "final_address": "221 Jewel St",
    "address_councildis": "D",
    "status": "Pending",
    "rowid": "955901",
    "final_x": "3667274.70957",
    "final_y": "555915.699225",
    "longitude": "-90.11216785461505",
    "latitude": "30.022999783133542",
    "geocoded_column": {
      "latitude": "30.022999783133542",
      "longitude": "-90.11216785461505"
    }
  },
  {
    "service_request": "2022-955900",
    "request_type": "Trash/Recycling",
    "request_reason": "Replace Recycling Cart",
    "date_created": "2022-12-23T16:02:11.000",
    "date_modified": "2022-12-23T16:02:11.000",
    "request_status": "Pending",
    "responsible_agency": "Department of Sanitation",
    "final_address": "43 Yosemite Dr",
    "address_councildis": "C",
    "status": "Pending",
    "rowid": "955900",
    "final_x": "3699901.08375",
    "final_y": "517001.975797",
    "longitude": "-90.01049593159685",
    "latitude": "29.9150046279479",
    "geocoded_column": {
      "latitude": "29.9150046279479",
      "longitude": "-90.01049593159685"
    }
  },
  {
    "service_request": "2022-955899",
    "request_type": "Trash/Recycling",
    "request_reason": "Order Trash Cart",
    "date_created": "2022-12-23T15:55:39.000",
    "date_modified": "2022-12-23T15:55:40.000",
    "request_status": "Pending",
    "responsible_agency": "Department of Sanitation",
    "final_address": "6650 Memphis St",
    "address_councildis": "A",
    "status": "Assigned to Contractor",
    "contractor": "IV Waste",
    "rowid": "955899",
    "final_x": "3669504.17441",
    "final_y": "551711.034069",
    "longitude": "-90.10526561404846",
    "latitude": "30.01137292362441",
    "geocoded_column": {
      "latitude": "30.01137292362441",
      "longitude": "-90.10526561404846"
    }
  },
  {
    "service_request": "2022-955898",
    "request_type": "Trash/Recycling",
    "request_reason": "Missed Trash Pick-Up",
    "date_created": "2022-12-23T15:54:14.000",
    "date_modified": "2022-12-23T15:54:14.000",
    "request_status": "Pending",
    "responsible_agency": "Department of Sanitation",
    "final_address": "607 Webster St",
    "address_councildis": "A",
    "status": "Assigned to Contractor",
    "contractor": "Richards Disposal",
    "rowid": "955898",
    "final_x": "3663956.76691",
    "final_y": "518835.797303",
    "longitude": "-90.12388854395607",
    "latitude": "29.921139158835498",
    "geocoded_column": {
      "latitude": "29.921139158835498",
      "longitude": "-90.12388854395607"
    }
  },
  {
    "service_request": "2022-955897",
    "request_type": "Abandoned Vehicles",
    "request_reason": "Abandoned/Junk Vehicles",
    "date_created": "2022-12-23T15:48:16.000",
    "date_modified": "2022-12-23T15:48:16.000",
    "request_status": "Pending",
    "responsible_agency": "Department of Public Works",
    "final_address": "4834 St Charles Ave",
    "address_councildis": "B",
    "status": "Pending",
    "rowid": "955897",
    "final_x": "3669105.06145",
    "final_y": "520638.678904",
    "longitude": "-90.10757675132766",
    "latitude": "29.925946088319",
    "geocoded_column": {
      "latitude": "29.925946088319",
      "longitude": "-90.10757675132766"
    }
  },
  {
    "service_request": "2022-955896",
    "request_type": "Trash/Recycling",
    "request_reason": "Missed Trash Pick-Up",
    "date_created": "2022-12-23T15:45:51.000",
    "date_modified": "2022-12-23T15:45:51.000",
    "request_status": "Pending",
    "responsible_agency": "Department of Sanitation",
    "final_address": "3005 Dauphine St, New Orleans, Louisiana, 70117",
    "address_councildis": "C",
    "status": "Assigned to Contractor",
    "contractor": "IV Waste",
    "rowid": "955896",
    "final_x": "3688208.94243",
    "final_y": "535011.52871",
    "longitude": "-90.0467621651806",
    "latitude": "29.964890772124892",
    "geocoded_column": {
      "latitude": "29.964890772124892",
      "longitude": "-90.0467621651806"
    }
  },
  {
    "service_request": "2022-955895",
    "request_type": "Trash/Recycling",
    "request_reason": "Missed Trash Pick-Up",
    "date_created": "2022-12-23T15:41:38.000",
    "date_modified": "2022-12-23T15:41:38.000",
    "request_status": "Pending",
    "responsible_agency": "Department of Sanitation",
    "final_address": "3140 Garden Oaks Dr",
    "address_councildis": "C",
    "status": "Assigned to Contractor",
    "contractor": "Richards Disposal",
    "rowid": "955895",
    "final_x": "3696276.53559",
    "final_y": "520202.746552",
    "longitude": "-90.02182061244983",
    "latitude": "29.923920224850203",
    "geocoded_column": {
      "latitude": "29.923920224850203",
      "longitude": "-90.02182061244983"
    }
  },
  {
    "service_request": "2022-955894",
    "request_type": "Trash/Recycling",
    "request_reason": "Order Trash Cart",
    "date_created": "2022-12-23T15:37:33.000",
    "date_modified": "2022-12-23T15:37:34.000",
    "request_status": "Pending",
    "responsible_agency": "Department of Sanitation",
    "final_address": "5824 Magnolia St",
    "address_councildis": "A",
    "status": "Assigned to Contractor",
    "contractor": "Richards Disposal",
    "rowid": "955894",
    "final_x": "3666837.57722",
    "final_y": "524892.224188",
    "longitude": "-90.11459174208953",
    "latitude": "29.937708486484265",
    "geocoded_column": {
      "latitude": "29.937708486484265",
      "longitude": "-90.11459174208953"
    }
  },
  {
    "service_request": "2022-955893",
    "request_type": "Trash/Recycling",
    "request_reason": "Missed Trash Pick-Up",
    "date_created": "2022-12-23T15:33:41.000",
    "date_modified": "2022-12-23T15:36:48.000",
    "request_status": "Pending",
    "responsible_agency": "Department of Sanitation",
    "final_address": "5824 Magnolia St",
    "address_councildis": "A",
    "status": "Assigned to Contractor",
    "contractor": "IV Waste",
    "rowid": "955893",
    "final_x": "3666837.57722",
    "final_y": "524892.224188",
    "longitude": "-90.11459174208953",
    "latitude": "29.937708486484265",
    "geocoded_column": {
      "latitude": "29.937708486484265",
      "longitude": "-90.11459174208953"
    }
  },
  {
    "service_request": "2022-955892",
    "request_type": "Trash/Recycling",
    "request_reason": "Missed Trash Pick-Up",
    "date_created": "2022-12-23T15:33:16.000",
    "date_modified": "2022-12-23T15:33:17.000",
    "request_status": "Pending",
    "responsible_agency": "Department of Sanitation",
    "final_address": "1127 Terpsichore St, New Orleans, Louisiana, 70130",
    "address_councildis": "B",
    "status": "Assigned to Contractor",
    "contractor": "Richards Disposal",
    "rowid": "955892",
    "final_x": "3680179.80411",
    "final_y": "524617.095164",
    "longitude": "-90.07247887116023",
    "latitude": "29.93655502115556",
    "geocoded_column": {
      "latitude": "29.93655502115556",
      "longitude": "-90.07247887116023"
    }
  },
  {
    "service_request": "2022-955891",
    "request_type": "Trash/Recycling",
    "request_reason": "Order Trash Cart",
    "date_created": "2022-12-23T15:31:56.000",
    "date_modified": "2022-12-23T15:31:57.000",
    "request_status": "Pending",
    "responsible_agency": "Department of Sanitation",
    "final_address": " & BALDWIN ST",
    "address_councildis": "D",
    "status": "Assigned to Contractor",
    "contractor": "IV Waste",
    "rowid": "955891",
    "final_x": "3687880.8",
    "final_y": "560035.64",
    "longitude": "-90.04691121641319",
    "latitude": "30.03370814054373",
    "geocoded_column": {
      "latitude": "30.03370814054373",
      "longitude": "-90.04691121641319"
    }
  },
  {
    "service_request": "2022-955890",
    "request_type": "Trash/Recycling",
    "request_reason": "Missed Trash Pick-Up",
    "date_created": "2022-12-23T15:30:20.000",
    "date_modified": "2022-12-23T15:30:21.000",
    "request_status": "Pending",
    "responsible_agency": "Department of Sanitation",
    "final_address": "1127 Terpsichore St",
    "address_councildis": "B",
    "status": "Assigned to Contractor",
    "contractor": "Richards Disposal",
    "rowid": "955890",
    "final_x": "3680179.80411",
    "final_y": "524617.095164",
    "longitude": "-90.07247887116023",
    "latitude": "29.93655502115556",
    "geocoded_column": {
      "latitude": "29.93655502115556",
      "longitude": "-90.07247887116023"
    }
  },
  {
    "service_request": "2022-955889",
    "request_type": "Trash/Recycling",
    "request_reason": "MIssed Recycling Pick-Up",
    "date_created": "2022-12-23T15:21:04.000",
    "date_modified": "2022-12-23T15:21:05.000",
    "request_status": "Pending",
    "responsible_agency": "Department of Sanitation",
    "final_address": "6324 Dauphine St",
    "address_councildis": "E",
    "status": "Assigned to Contractor",
    "contractor": "Waste Pro",
    "rowid": "955889",
    "final_x": "3699904.19076",
    "final_y": "531839.668803",
    "longitude": "-90.00994522738041",
    "latitude": "29.955803031106473",
    "geocoded_column": {
      "latitude": "29.955803031106473",
      "longitude": "-90.00994522738041"
    }
  },
  {
    "service_request": "2022-955888",
    "request_type": "Trash/Recycling",
    "request_reason": "Missed Trash Pick-Up",
    "date_created": "2022-12-23T15:19:07.000",
    "date_modified": "2022-12-23T15:19:07.000",
    "request_status": "Pending",
    "responsible_agency": "Department of Sanitation",
    "final_address": "1432 Cabrini Ct",
    "address_councildis": "D",
    "status": "Assigned to Contractor",
    "contractor": "IV Waste",
    "rowid": "955888",
    "final_x": "3677967.02472",
    "final_y": "553007.329815",
    "longitude": "-90.07848314758607",
    "latitude": "30.014685159094594",
    "geocoded_column": {
      "latitude": "30.014685159094594",
      "longitude": "-90.07848314758607"
    }
  },
  {
    "service_request": "2022-955887",
    "request_type": "Trash/Recycling",
    "request_reason": "Repair Trash Cart",
    "date_created": "2022-12-23T15:11:29.000",
    "date_modified": "2022-12-23T15:11:29.000",
    "request_status": "Pending",
    "responsible_agency": "Department of Sanitation",
    "final_address": "5824 Magnolia St",
    "address_councildis": "A",
    "status": "Assigned to Contractor",
    "contractor": "Richards Disposal",
    "rowid": "955887",
    "final_x": "3666837.57722",
    "final_y": "524892.224188",
    "longitude": "-90.11459174208953",
    "latitude": "29.937708486484265",
    "geocoded_column": {
      "latitude": "29.937708486484265",
      "longitude": "-90.11459174208953"
    }
  },
  {
    "service_request": "2022-955886",
    "request_type": "Trash/Recycling",
    "request_reason": "Request a Large Item Pick Up",
    "date_created": "2022-12-23T15:06:45.000",
    "date_modified": "2022-12-23T15:06:45.000",
    "request_status": "Pending",
    "responsible_agency": "Department of Sanitation",
    "final_address": "5011 Schindler Dr",
    "address_councildis": "E",
    "status": "Assigned to Contractor",
    "contractor": "Waste Pro",
    "rowid": "955886",
    "final_x": "3714287.41202",
    "final_y": "557823.862619",
    "longitude": "-89.96354771667163",
    "latitude": "30.02678503043595",
    "geocoded_column": {
      "latitude": "30.02678503043595",
      "longitude": "-89.96354771667163"
    }
  },
  {
    "service_request": "2022-955885",
    "request_type": "Trash/Recycling",
    "request_reason": "Replace Trash Cart",
    "date_created": "2022-12-23T15:06:19.000",
    "date_modified": "2022-12-23T15:06:20.000",
    "request_status": "Pending",
    "responsible_agency": "Department of Sanitation",
    "final_address": "3719 Nashville Ave",
    "address_councildis": "A",
    "status": "Assigned to Contractor",
    "contractor": "Richards Disposal",
    "rowid": "955885",
    "final_x": "3668468.39034",
    "final_y": "529211.813568",
    "longitude": "-90.10929744336033",
    "latitude": "29.949538162604473",
    "geocoded_column": {
      "latitude": "29.949538162604473",
      "longitude": "-90.10929744336033"
    }
  },
  {
    "service_request": "2022-955884",
    "request_type": "Roads/Drainage",
    "request_reason": "Street Subsidence (Sinking)",
    "date_created": "2022-12-23T15:03:14.000",
    "date_modified": "2022-12-23T15:03:14.000",
    "request_status": "Pending",
    "responsible_agency": "Department of Public Works",
    "final_address": "11700 Morrison Rd",
    "address_councildis": "E",
    "status": "Pending",
    "rowid": "955884",
    "final_x": "3713226.46795",
    "final_y": "566298.776355",
    "longitude": "-89.96658072710648",
    "latitude": "30.050122471734742",
    "geocoded_column": {
      "latitude": "30.050122471734742",
      "longitude": "-89.96658072710648"
    }
  },
  {
    "service_request": "2022-955883",
    "request_type": "Trash/Recycling",
    "request_reason": "Missed Trash Pick-Up",
    "date_created": "2022-12-23T14:59:47.000",
    "date_modified": "2022-12-23T15:01:08.000",
    "request_status": "Pending",
    "responsible_agency": "Department of Sanitation",
    "final_address": "STORY ST & JEFFERSON AVE",
    "address_councildis": "B",
    "status": "Assigned to Contractor",
    "contractor": "Richards Disposal",
    "rowid": "955883",
    "final_x": "3668375.8",
    "final_y": "525948.98",
    "longitude": "-90.10969981067491",
    "latitude": "29.940569147866906",
    "geocoded_column": {
      "latitude": "29.940569147866906",
      "longitude": "-90.10969981067491"
    }
  },
  {
    "service_request": "2022-955882",
    "request_type": "Trash/Recycling",
    "request_reason": "Repair Trash Cart",
    "date_created": "2022-12-23T14:55:58.000",
    "date_modified": "2022-12-23T14:55:58.000",
    "request_status": "Pending",
    "responsible_agency": "Department of Sanitation",
    "final_address": "2652 Gladiolus St",
    "address_councildis": "D",
    "status": "Assigned to Contractor",
    "contractor": "IV Waste",
    "rowid": "955882",
    "final_x": "3687488.06191",
    "final_y": "547461.121297",
    "longitude": "-90.04859784839901",
    "latitude": "29.999144973170427",
    "geocoded_column": {
      "latitude": "29.999144973170427",
      "longitude": "-90.04859784839901"
    }
  },
  {
    "service_request": "2022-955881",
    "request_type": "Trash/Recycling",
    "request_reason": "Missed Trash Pick-Up",
    "date_created": "2022-12-23T14:55:26.000",
    "date_modified": "2022-12-23T14:55:27.000",
    "request_status": "Pending",
    "responsible_agency": "Department of Sanitation",
    "final_address": "1241 Constance St",
    "address_councildis": "B",
    "status": "Assigned to Contractor",
    "contractor": "Richards Disposal",
    "rowid": "955881",
    "final_x": "3680888.57999",
    "final_y": "525219.218237",
    "longitude": "-90.0702202832014",
    "latitude": "29.938189195610676",
    "geocoded_column": {
      "latitude": "29.938189195610676",
      "longitude": "-90.0702202832014"
    }
  },
  {
    "service_request": "2022-955880",
    "request_type": "Trash/Recycling",
    "request_reason": "Missed Trash Pick-Up",
    "date_created": "2022-12-23T14:53:34.000",
    "date_modified": "2022-12-23T14:53:35.000",
    "request_status": "Pending",
    "responsible_agency": "Department of Sanitation",
    "final_address": "1239 Constance St",
    "address_councildis": "B",
    "status": "Assigned to Contractor",
    "contractor": "Richards Disposal",
    "rowid": "955880",
    "final_x": "3680891.55976",
    "final_y": "525230.147517",
    "longitude": "-90.07021049543229",
    "latitude": "29.938219157181614",
    "geocoded_column": {
      "latitude": "29.938219157181614",
      "longitude": "-90.07021049543229"
    }
  },
  {
    "service_request": "2022-955879",
    "request_type": "Trash/Recycling",
    "request_reason": "Missed Trash Pick-Up",
    "date_created": "2022-12-23T14:51:31.000",
    "date_modified": "2022-12-23T14:51:32.000",
    "request_status": "Pending",
    "responsible_agency": "Department of Sanitation",
    "final_address": "1632 Andry St",
    "address_councildis": "E",
    "status": "Assigned to Contractor",
    "contractor": "Waste Pro",
    "rowid": "955879",
    "final_x": "3697710.97757",
    "final_y": "536118.565575",
    "longitude": "-90.01671533678606",
    "latitude": "29.96763794472821",
    "geocoded_column": {
      "latitude": "29.96763794472821",
      "longitude": "-90.01671533678606"
    }
  },
  {
    "service_request": "2022-955878",
    "request_type": "Trash/Recycling",
    "request_reason": "Missed Trash Pick-Up",
    "date_created": "2022-12-23T14:47:03.000",
    "date_modified": "2022-12-23T14:47:04.000",
    "request_status": "Pending",
    "responsible_agency": "Department of Sanitation",
    "final_address": "4 Cromwell Pl",
    "address_councildis": "A",
    "status": "Assigned to Contractor",
    "contractor": "Richards Disposal",
    "rowid": "955878",
    "final_x": "3665872.74388",
    "final_y": "523773.415227",
    "longitude": "-90.11767528142107",
    "latitude": "29.934660301156775",
    "geocoded_column": {
      "latitude": "29.934660301156775",
      "longitude": "-90.11767528142107"
    }
  },
  {
    "service_request": "2022-955877",
    "request_type": "Trash/Recycling",
    "request_reason": "Missed Trash Pick-Up",
    "date_created": "2022-12-23T14:38:22.000",
    "date_modified": "2022-12-23T14:38:23.000",
    "request_status": "Pending",
    "responsible_agency": "Department of Sanitation",
    "final_address": "6838 Colbert St",
    "address_councildis": "A",
    "status": "Assigned to Contractor",
    "contractor": "IV Waste",
    "rowid": "955877",
    "final_x": "3667837.75629",
    "final_y": "553088.928727",
    "longitude": "-90.11048406902887",
    "latitude": "30.015210653179707",
    "geocoded_column": {
      "latitude": "30.015210653179707",
      "longitude": "-90.11048406902887"
    }
  },
  {
    "service_request": "2022-955876",
    "request_type": "Trash/Recycling",
    "request_reason": "Missed Trash Pick-Up",
    "date_created": "2022-12-23T14:36:42.000",
    "date_modified": "2022-12-23T14:36:43.000",
    "request_status": "Pending",
    "responsible_agency": "Department of Sanitation",
    "final_address": "5400 BLK S Saratoga St",
    "address_councildis": "A",
    "status": "Assigned to Contractor",
    "contractor": "Richards Disposal",
    "rowid": "955876",
    "final_x": "3667437.8101",
    "final_y": "522649.892152",
    "longitude": "-90.11277216251783",
    "latitude": "29.931525222131768",
    "geocoded_column": {
      "latitude": "29.931525222131768",
      "longitude": "-90.11277216251783"
    }
  },
  {
    "service_request": "2022-955875",
    "request_type": "Trash/Recycling",
    "request_reason": "Missed Trash Pick-Up",
    "date_created": "2022-12-23T14:33:07.000",
    "date_modified": "2022-12-23T14:33:07.000",
    "request_status": "Pending",
    "responsible_agency": "Department of Sanitation",
    "final_address": "834 Webster St, New Orleans, Louisiana, 70118",
    "address_councildis": "A",
    "status": "Assigned to Contractor",
    "contractor": "Richards Disposal",
    "rowid": "955875",
    "final_x": "3664185.13658",
    "final_y": "519700.483064",
    "longitude": "-90.12313885249341",
    "latitude": "29.923510144348008",
    "geocoded_column": {
      "latitude": "29.923510144348008",
      "longitude": "-90.12313885249341"
    }
  },
  {
    "service_request": "2022-955873",
    "request_type": "Trash/Recycling",
    "request_reason": "MIssed Recycling Pick-Up",
    "date_created": "2022-12-23T14:17:50.000",
    "date_modified": "2022-12-23T14:17:50.000",
    "request_status": "Pending",
    "responsible_agency": "Department of Sanitation",
    "final_address": "1036 Jefferson Ave",
    "address_councildis": "A",
    "status": "Assigned to Contractor",
    "contractor": "Richards Disposal",
    "rowid": "955873",
    "final_x": "3666809.81178",
    "final_y": "519471.317943",
    "longitude": "-90.11486139067169",
    "latitude": "29.922803528119932",
    "geocoded_column": {
      "latitude": "29.922803528119932",
      "longitude": "-90.11486139067169"
    }
  },
  {
    "service_request": "2022-955872",
    "request_type": "Trash/Recycling",
    "request_reason": "MIssed Recycling Pick-Up",
    "date_created": "2022-12-23T14:15:34.000",
    "date_modified": "2022-12-23T14:15:35.000",
    "request_status": "Pending",
    "responsible_agency": "Department of Sanitation",
    "final_address": "1036 Jefferson Ave",
    "address_councildis": "A",
    "status": "Assigned to Contractor",
    "contractor": "Richards Disposal",
    "rowid": "955872",
    "final_x": "3666809.81178",
    "final_y": "519471.317943",
    "longitude": "-90.11486139067169",
    "latitude": "29.922803528119932",
    "geocoded_column": {
      "latitude": "29.922803528119932",
      "longitude": "-90.11486139067169"
    }
  },
  {
    "service_request": "2022-955871",
    "request_type": "Trash/Recycling",
    "request_reason": "Order Trash Cart",
    "date_created": "2022-12-23T14:15:15.000",
    "date_modified": "2022-12-23T14:15:16.000",
    "request_status": "Pending",
    "responsible_agency": "Department of Sanitation",
    "final_address": "1500 Reynes St",
    "address_councildis": "E",
    "status": "Assigned to Contractor",
    "contractor": "Waste Pro",
    "rowid": "955871",
    "final_x": "3696313.11031",
    "final_y": "535793.648263",
    "longitude": "-90.02114156261764",
    "latitude": "29.966788628962043",
    "geocoded_column": {
      "latitude": "29.966788628962043",
      "longitude": "-90.02114156261764"
    }
  },
  {
    "service_request": "2022-955870",
    "request_type": "Safety & Permits",
    "request_reason": "Construction permit",
    "date_created": "2022-12-23T14:03:15.000",
    "date_modified": "2022-12-23T14:03:16.000",
    "request_status": "Pending",
    "responsible_agency": "Department of Code Enforcement",
    "final_address": "1714 First St",
    "address_councildis": "B",
    "status": "Pending",
    "rowid": "955870",
    "final_x": "3676624.40462",
    "final_y": "523651.147195",
    "longitude": "-90.08373667762702",
    "latitude": "29.934006076344442",
    "geocoded_column": {
      "latitude": "29.934006076344442",
      "longitude": "-90.08373667762702"
    }
  },
  {
    "service_request": "2022-955869",
    "request_type": "Trash/Recycling",
    "request_reason": "Missed Trash Pick-Up",
    "date_created": "2022-12-23T13:42:31.000",
    "date_modified": "2022-12-23T13:42:31.000",
    "request_status": "Pending",
    "responsible_agency": "Department of Sanitation",
    "final_address": "15018 Curran Rd",
    "address_councildis": "E",
    "status": "Assigned to Contractor",
    "contractor": "Waste Pro",
    "rowid": "955869",
    "final_x": "3720921.9751",
    "final_y": "574238.030122",
    "longitude": "-89.94195364682876",
    "latitude": "30.071697457585593",
    "geocoded_column": {
      "latitude": "30.071697457585593",
      "longitude": "-89.94195364682876"
    }
  },
  {
    "service_request": "2022-955868",
    "request_type": "Trash/Recycling",
    "request_reason": "Replace Trash Cart",
    "date_created": "2022-12-23T13:27:06.000",
    "date_modified": "2022-12-23T13:27:06.000",
    "request_status": "Pending",
    "responsible_agency": "Department of Sanitation",
    "final_address": "3315 Annunciation St, New Orleans, Louisiana, 70115",
    "address_councildis": "B",
    "status": "Assigned to Contractor",
    "contractor": "Richards Disposal",
    "rowid": "955868",
    "final_x": "3675695.80513",
    "final_y": "518754.355703",
    "longitude": "-90.08683640206618",
    "latitude": "29.920569298147313",
    "geocoded_column": {
      "latitude": "29.920569298147313",
      "longitude": "-90.08683640206618"
    }
  },
  {
    "service_request": "2022-955867",
    "request_type": "Traffic Signals/Signs/Striping/Streetlights",
    "request_reason": "Street Name Sign Damaged or Missing",
    "date_created": "2022-12-23T13:24:33.000",
    "date_modified": "2022-12-23T13:24:33.000",
    "request_status": "Pending",
    "responsible_agency": "Department of Public Works",
    "final_address": "3124 Pittari Pl",
    "address_councildis": "C",
    "status": "Pending",
    "rowid": "955867",
    "final_x": "3709795.08216",
    "final_y": "519183.537207",
    "longitude": "-89.97918584242291",
    "latitude": "29.92068537569112",
    "geocoded_column": {
      "latitude": "29.92068537569112",
      "longitude": "-89.97918584242291"
    }
  },
  {
    "service_request": "2022-955866",
    "request_type": "Abandoned Vehicles",
    "request_reason": "Abandoned/Junk Vehicles",
    "date_created": "2022-12-23T13:22:42.000",
    "date_modified": "2022-12-23T13:22:42.000",
    "request_status": "Pending",
    "responsible_agency": "Department of Public Works",
    "final_address": "3124 Pittari Pl",
    "address_councildis": "C",
    "status": "Pending",
    "rowid": "955866",
    "final_x": "3709795.08216",
    "final_y": "519183.537207",
    "longitude": "-89.97918584242291",
    "latitude": "29.92068537569112",
    "geocoded_column": {
      "latitude": "29.92068537569112",
      "longitude": "-89.97918584242291"
    }
  },
  {
    "service_request": "2022-955865",
    "request_type": "Trash/Recycling",
    "request_reason": "Order Trash Cart",
    "date_created": "2022-12-23T13:20:13.000",
    "date_modified": "2022-12-23T13:20:13.000",
    "request_status": "Pending",
    "responsible_agency": "Department of Sanitation",
    "final_address": "209 Harrison Ave Ste C",
    "address_councildis": "A",
    "status": "Assigned to Contractor",
    "contractor": "IV Waste",
    "rowid": "955865",
    "final_x": "3667041.42682",
    "final_y": "549515.322707",
    "longitude": "-90.11312034329163",
    "latitude": "30.00540782923668",
    "geocoded_column": {
      "latitude": "30.00540782923668",
      "longitude": "-90.11312034329163"
    }
  },
  {
    "service_request": "2022-955864",
    "request_type": "Trash/Recycling",
    "request_reason": "Missed Trash Pick-Up",
    "date_created": "2022-12-23T13:19:59.000",
    "date_modified": "2022-12-23T13:20:00.000",
    "request_status": "Pending",
    "responsible_agency": "Department of Sanitation",
    "final_address": "2538 Octavia St",
    "address_councildis": "A",
    "status": "Assigned to Contractor",
    "contractor": "Richards Disposal",
    "rowid": "955864",
    "final_x": "3667752.72749",
    "final_y": "525003.759485",
    "longitude": "-90.11169877799722",
    "latitude": "29.937988376399108",
    "geocoded_column": {
      "latitude": "29.937988376399108",
      "longitude": "-90.11169877799722"
    }
  },
  {
    "service_request": "2022-955863",
    "request_type": "Traffic Signals/Signs/Striping/Streetlights",
    "request_reason": "Traffic Signal Malfunctioning/Damaged",
    "date_created": "2022-12-23T13:15:13.000",
    "date_modified": "2022-12-23T13:17:47.000",
    "request_status": "Pending",
    "responsible_agency": "Department of Public Works",
    "final_address": "S CLAIBORNE AVE & WASHINGTON AVE",
    "address_councildis": "B",
    "status": "Assigned to Contractor",
    "contractor": "Legacy Professional Services",
    "rowid": "955863",
    "final_x": "3673121.4",
    "final_y": "526764.58",
    "longitude": "-90.09468929296312",
    "latitude": "29.942671580693215",
    "geocoded_column": {
      "latitude": "29.942671580693215",
      "longitude": "-90.09468929296312"
    }
  },
  {
    "service_request": "2022-955862",
    "request_type": "Trash/Recycling",
    "request_reason": "Report a Missed Trash/Recycling Pick Up",
    "date_created": "2022-12-23T13:12:51.000",
    "date_modified": "2022-12-23T13:13:46.000",
    "case_close_date": "2022-12-23T07:13:46.000",
    "request_status": "Closed",
    "responsible_agency": "Department of Sanitation",
    "final_address": "1457 Pauger St",
    "address_councildis": "C",
    "status": "Resolved",
    "contractor": "IV Waste",
    "rowid": "955862",
    "final_x": "3683997.44021",
    "final_y": "535060.710982",
    "longitude": "-90.06006007945768",
    "latitude": "29.96515535887955",
    "geocoded_column": {
      "latitude": "29.96515535887955",
      "longitude": "-90.06006007945768"
    }
  },
  {
    "service_request": "2022-955861",
    "request_type": "Trash/Recycling",
    "request_reason": "Missed Trash Pick-Up",
    "date_created": "2022-12-23T13:12:23.000",
    "date_modified": "2022-12-23T15:41:57.000",
    "case_close_date": "2022-12-23T09:41:57.000",
    "request_status": "Closed",
    "responsible_agency": "Department of Sanitation",
    "final_address": "7610 Eastmore Rd",
    "address_councildis": "E",
    "status": "Assigned to Contractor",
    "contractor": "Waste Pro",
    "contractor_action": "Completed",
    "rowid": "955861",
    "final_x": "3700150.98692",
    "final_y": "560463.786398",
    "longitude": "-90.00812059922362",
    "latitude": "30.034500891106408",
    "geocoded_column": {
      "latitude": "30.034500891106408",
      "longitude": "-90.00812059922362"
    }
  },
  {
    "service_request": "2022-955860",
    "request_type": "Roads/Drainage",
    "request_reason": "Damaged Sidewalk",
    "date_created": "2022-12-23T13:10:45.000",
    "date_modified": "2022-12-23T13:10:45.000",
    "request_status": "Pending",
    "responsible_agency": "Department of Public Works",
    "final_address": "3124 Pittari Pl",
    "address_councildis": "C",
    "status": "Pending",
    "rowid": "955860",
    "final_x": "3709795.08216",
    "final_y": "519183.537207",
    "longitude": "-89.97918584242291",
    "latitude": "29.92068537569112",
    "geocoded_column": {
      "latitude": "29.92068537569112",
      "longitude": "-89.97918584242291"
    }
  },
  {
    "service_request": "2022-955859",
    "request_type": "Trash/Recycling",
    "request_reason": "Illegal Dumping",
    "date_created": "2022-12-23T13:08:44.000",
    "date_modified": "2022-12-23T13:08:44.000",
    "request_status": "Pending",
    "responsible_agency": "Department of Sanitation",
    "final_address": "7766 Briarwood Dr",
    "address_councildis": "E",
    "status": "Pending",
    "rowid": "955859",
    "final_x": "3716910.81266",
    "final_y": "571628.473",
    "longitude": "-89.95473332101913",
    "latitude": "30.064655582676025",
    "geocoded_column": {
      "latitude": "30.064655582676025",
      "longitude": "-89.95473332101913"
    }
  },
  {
    "service_request": "2022-955858",
    "request_type": "Trash/Recycling",
    "request_reason": "Missed Trash Pick-Up",
    "date_created": "2022-12-23T13:06:34.000",
    "date_modified": "2022-12-23T13:06:35.000",
    "request_status": "Pending",
    "responsible_agency": "Department of Sanitation",
    "final_address": "2502 Nashville Ave",
    "address_councildis": "A",
    "status": "Assigned to Contractor",
    "contractor": "Richards Disposal",
    "rowid": "955858",
    "final_x": "3667125.58324",
    "final_y": "525277.595325",
    "longitude": "-90.11366953124964",
    "latitude": "29.938759707285808",
    "geocoded_column": {
      "latitude": "29.938759707285808",
      "longitude": "-90.11366953124964"
    }
  },
  {
    "service_request": "2022-955857",
    "request_type": "Traffic Signals/Signs/Striping/Streetlights",
    "request_reason": "Traffic Signal Malfunctioning/Damaged",
    "date_created": "2022-12-23T13:02:01.000",
    "date_modified": "2022-12-23T13:02:01.000",
    "request_status": "Pending",
    "responsible_agency": "Department of Public Works",
    "final_address": "S CLAIBORNE AVE & WASHINGTON AVE",
    "address_councildis": "B",
    "status": "Pending",
    "rowid": "955857",
    "final_x": "3673121.4",
    "final_y": "526764.58",
    "longitude": "-90.09468929296312",
    "latitude": "29.942671580693215",
    "geocoded_column": {
      "latitude": "29.942671580693215",
      "longitude": "-90.09468929296312"
    }
  },
  {
    "service_request": "2022-955856",
    "request_type": "Trash/Recycling",
    "request_reason": "Missed Trash Pick-Up",
    "date_created": "2022-12-23T12:59:07.000",
    "date_modified": "2022-12-23T14:24:47.000",
    "case_close_date": "2022-12-23T08:24:47.000",
    "request_status": "Closed",
    "responsible_agency": "Department of Sanitation",
    "final_address": "8033 Wales St",
    "address_councildis": "E",
    "status": "Assigned to Contractor",
    "contractor": "Waste Pro",
    "contractor_action": "Completed",
    "rowid": "955856",
    "final_x": "3702000.56445",
    "final_y": "562299.600095",
    "longitude": "-90.00220831851539",
    "latitude": "30.03948971417866",
    "geocoded_column": {
      "latitude": "30.03948971417866",
      "longitude": "-90.00220831851539"
    }
  },
  {
    "service_request": "2022-955855",
    "request_type": "Trash/Recycling",
    "request_reason": "Repair Trash Cart",
    "date_created": "2022-12-23T12:55:12.000",
    "date_modified": "2022-12-23T12:55:13.000",
    "request_status": "Pending",
    "responsible_agency": "Department of Sanitation",
    "final_address": "4212 Van Ave",
    "address_councildis": "D",
    "status": "Assigned to Contractor",
    "contractor": "IV Waste",
    "rowid": "955855",
    "final_x": "3679952.08661",
    "final_y": "547920.998162",
    "longitude": "-90.07238816508311",
    "latitude": "30.000639648546432",
    "geocoded_column": {
      "latitude": "30.000639648546432",
      "longitude": "-90.07238816508311"
    }
  },
  {
    "service_request": "2022-955854",
    "request_type": "Trash/Recycling",
    "request_reason": "Request a Large Item Pick Up",
    "date_created": "2022-12-23T12:50:54.000",
    "date_modified": "2022-12-23T12:50:55.000",
    "request_status": "Pending",
    "responsible_agency": "Department of Sanitation",
    "final_address": "612 N Alexander St",
    "address_councildis": "A",
    "status": "Assigned to Contractor",
    "contractor": "Richards Disposal",
    "rowid": "955854",
    "final_x": "3671182.83003",
    "final_y": "540677.531275",
    "longitude": "-90.10033715031817",
    "latitude": "29.98098504189818",
    "geocoded_column": {
      "latitude": "29.98098504189818",
      "longitude": "-90.10033715031817"
    }
  },
  {
    "service_request": "2022-955853",
    "request_type": "Traffic Signals/Signs/Striping/Streetlights",
    "request_reason": "Street Light Outage/Malfunction",
    "date_created": "2022-12-23T12:49:50.000",
    "date_modified": "2022-12-23T12:49:51.000",
    "request_status": "Pending",
    "responsible_agency": "Department of Public Works",
    "final_address": "4027 Vincennes Pl",
    "address_councildis": "B",
    "status": "Pending",
    "contractor": "Legacy Professional Services",
    "rowid": "955853",
    "final_x": "3668544.9961",
    "final_y": "530173.820737",
    "longitude": "-90.10902310854068",
    "latitude": "29.952181117706864",
    "geocoded_column": {
      "latitude": "29.952181117706864",
      "longitude": "-90.10902310854068"
    }
  },
  {
    "service_request": "2022-955852",
    "request_type": "Trash/Recycling",
    "request_reason": "Missed Trash Pick-Up",
    "date_created": "2022-12-23T12:36:43.000",
    "date_modified": "2022-12-23T12:36:43.000",
    "request_status": "Pending",
    "responsible_agency": "Department of Sanitation",
    "final_address": "20 Cromwell Pl",
    "address_councildis": "A",
    "status": "Assigned to Contractor",
    "contractor": "Richards Disposal",
    "rowid": "955852",
    "final_x": "3665428.7696",
    "final_y": "524012.218108",
    "longitude": "-90.11906891626877",
    "latitude": "29.93532987730545",
    "geocoded_column": {
      "latitude": "29.93532987730545",
      "longitude": "-90.11906891626877"
    }
  },
  {
    "service_request": "2022-955851",
    "request_type": "Trash/Recycling",
    "request_reason": "Order Trash Cart",
    "date_created": "2022-12-23T12:36:28.000",
    "date_modified": "2022-12-23T12:36:29.000",
    "request_status": "Pending",
    "responsible_agency": "Department of Sanitation",
    "final_address": "5419 Debore Dr",
    "address_councildis": "D",
    "status": "Assigned to Contractor",
    "contractor": "IV Waste",
    "rowid": "955851",
    "final_x": "3692015.45648",
    "final_y": "553957.50268",
    "longitude": "-90.03406306637876",
    "latitude": "30.016867269052184",
    "geocoded_column": {
      "latitude": "30.016867269052184",
      "longitude": "-90.03406306637876"
    }
  },
  {
    "service_request": "2022-955850",
    "request_type": "Traffic Signals/Signs/Striping/Streetlights",
    "request_reason": "Traffic Signal Malfunctioning/Damaged",
    "date_created": "2022-12-23T12:31:50.000",
    "date_modified": "2022-12-23T12:31:51.000",
    "request_status": "Pending",
    "responsible_agency": "Department of Public Works",
    "final_address": "S CLAIBORNE AVE & WASHINGTON AVE",
    "address_councildis": "B",
    "status": "Pending",
    "rowid": "955850",
    "final_x": "3673121.4",
    "final_y": "526764.58",
    "longitude": "-90.09468929296312",
    "latitude": "29.942671580693215",
    "geocoded_column": {
      "latitude": "29.942671580693215",
      "longitude": "-90.09468929296312"
    }
  },
  {
    "service_request": "2022-955849",
    "request_type": "Trash/Recycling",
    "request_reason": "Missed Trash Pick-Up",
    "date_created": "2022-12-23T12:07:26.000",
    "date_modified": "2022-12-23T14:02:43.000",
    "case_close_date": "2022-12-23T08:02:43.000",
    "request_status": "Closed",
    "responsible_agency": "Department of Sanitation",
    "final_address": "4928 Werner Dr",
    "address_councildis": "E",
    "status": "Assigned to Contractor",
    "contractor": "Waste Pro",
    "contractor_action": "Completed",
    "rowid": "955849",
    "final_x": "3704626.41719",
    "final_y": "556262.266906",
    "longitude": "-89.99413289664025",
    "latitude": "30.02280526748643",
    "geocoded_column": {
      "latitude": "30.02280526748643",
      "longitude": "-89.99413289664025"
    }
  },
  {
    "service_request": "2022-955848",
    "request_type": "Trash/Recycling",
    "request_reason": "Order Trash Cart",
    "date_created": "2022-12-23T12:04:52.000",
    "date_modified": "2022-12-23T13:37:24.000",
    "case_close_date": "2022-12-23T07:37:24.000",
    "request_status": "Closed",
    "responsible_agency": "Department of Sanitation",
    "final_address": "8630 Hayne Blvd",
    "address_councildis": "E",
    "status": "Assigned to Contractor",
    "contractor": "Waste Pro",
    "contractor_action": "Completed",
    "rowid": "955848",
    "final_x": "3703662.71351",
    "final_y": "563667.454561",
    "longitude": "-89.99690505094965",
    "latitude": "30.043197577015807",
    "geocoded_column": {
      "latitude": "30.043197577015807",
      "longitude": "-89.99690505094965"
    }
  },
  {
    "service_request": "2022-955847",
    "request_type": "Traffic Signals/Signs/Striping/Streetlights",
    "request_reason": "Street Light Outage/Malfunction",
    "date_created": "2022-12-23T12:02:53.000",
    "date_modified": "2022-12-23T12:02:54.000",
    "request_status": "Pending",
    "responsible_agency": "Department of Public Works",
    "final_address": "8630 Hayne Blvd",
    "address_councildis": "E",
    "status": "Pending",
    "contractor": "Legacy Professional Services",
    "rowid": "955847",
    "final_x": "3703662.71351",
    "final_y": "563667.454561",
    "longitude": "-89.99690505094965",
    "latitude": "30.043197577015807",
    "geocoded_column": {
      "latitude": "30.043197577015807",
      "longitude": "-89.99690505094965"
    }
  },
  {
    "service_request": "2022-955846",
    "request_type": "Trash/Recycling",
    "request_reason": "Request a Large Item Pick Up",
    "date_created": "2022-12-23T11:58:34.000",
    "date_modified": "2022-12-23T11:58:35.000",
    "request_status": "Pending",
    "responsible_agency": "Department of Sanitation",
    "final_address": "1014 N Robertson St",
    "address_councildis": "C",
    "status": "Assigned to Contractor",
    "contractor": "Richards Disposal",
    "rowid": "955846",
    "final_x": "3680855.82203",
    "final_y": "535335.723014",
    "longitude": "-90.06997155825611",
    "latitude": "29.966007164606612",
    "geocoded_column": {
      "latitude": "29.966007164606612",
      "longitude": "-90.06997155825611"
    }
  },
  {
    "service_request": "2022-955845",
    "request_type": "Trash/Recycling",
    "request_reason": "Missed Trash Pick-Up",
    "date_created": "2022-12-23T11:56:14.000",
    "date_modified": "2022-12-23T13:35:31.000",
    "case_close_date": "2022-12-23T07:35:31.000",
    "request_status": "Closed",
    "responsible_agency": "Department of Sanitation",
    "final_address": "4617 Crowder Blvd",
    "address_councildis": "E",
    "status": "Assigned to Contractor",
    "contractor": "Waste Pro",
    "contractor_action": "Completed",
    "rowid": "955845",
    "final_x": "3706643.6675",
    "final_y": "554779.944856",
    "longitude": "-89.98781390219847",
    "latitude": "30.018664475228775",
    "geocoded_column": {
      "latitude": "30.018664475228775",
      "longitude": "-89.98781390219847"
    }
  },
  {
    "service_request": "2022-955844",
    "request_type": "Trash/Recycling",
    "request_reason": "Request a Large Item Pick Up",
    "date_created": "2022-12-23T11:53:20.000",
    "date_modified": "2022-12-23T11:53:20.000",
    "request_status": "Pending",
    "responsible_agency": "Department of Sanitation",
    "final_address": "4311 S Galvez St, New Orleans, Louisiana, 70125",
    "address_councildis": "B",
    "status": "Assigned to Contractor",
    "contractor": "Richards Disposal",
    "rowid": "955844",
    "final_x": "3670479.87988",
    "final_y": "527624.171135",
    "longitude": "-90.10300007179369",
    "latitude": "29.945113427846763",
    "geocoded_column": {
      "latitude": "29.945113427846763",
      "longitude": "-90.10300007179369"
    }
  },
  {
    "service_request": "2022-955843",
    "request_type": "Trash/Recycling",
    "request_reason": "Replace Trash Cart",
    "date_created": "2022-12-23T11:51:37.000",
    "date_modified": "2022-12-23T13:22:08.000",
    "case_close_date": "2022-12-23T07:22:08.000",
    "request_status": "Closed",
    "responsible_agency": "Department of Sanitation",
    "final_address": "7500 Burke Ave",
    "address_councildis": "E",
    "status": "Assigned to Contractor",
    "contractor": "Waste Pro",
    "contractor_action": "Completed",
    "rowid": "955843",
    "final_x": "3705646.81105",
    "final_y": "562478.778975",
    "longitude": "-89.99067854623524",
    "latitude": "30.039865411319333",
    "geocoded_column": {
      "latitude": "30.039865411319333",
      "longitude": "-89.99067854623524"
    }
  },
  {
    "service_request": "2022-955842",
    "request_type": "Trash/Recycling",
    "request_reason": "Missed Trash Pick-Up",
    "date_created": "2022-12-23T11:41:20.000",
    "date_modified": "2022-12-23T15:42:23.000",
    "case_close_date": "2022-12-23T09:42:23.000",
    "request_status": "Closed",
    "responsible_agency": "Department of Sanitation",
    "final_address": "4919 Laine Ave",
    "address_councildis": "E",
    "status": "Assigned to Contractor",
    "contractor": "Waste Pro",
    "contractor_action": "Completed",
    "rowid": "955842",
    "final_x": "3705760.74481",
    "final_y": "556302.527514",
    "longitude": "-89.99054722001532",
    "latitude": "30.02287946671912",
    "geocoded_column": {
      "latitude": "30.02287946671912",
      "longitude": "-89.99054722001532"
    }
  },
  {
    "service_request": "2022-955841",
    "request_type": "Trash/Recycling",
    "request_reason": "Missed Trash Pick-Up",
    "date_created": "2022-12-23T11:39:45.000",
    "date_modified": "2022-12-23T11:39:46.000",
    "request_status": "Pending",
    "responsible_agency": "Department of Sanitation",
    "final_address": "5528 Pitt St",
    "address_councildis": "A",
    "status": "Assigned to Contractor",
    "contractor": "Richards Disposal",
    "rowid": "955841",
    "final_x": "3666592.72481",
    "final_y": "520616.136056",
    "longitude": "-90.11550824355001",
    "latitude": "29.925957762711835",
    "geocoded_column": {
      "latitude": "29.925957762711835",
      "longitude": "-90.11550824355001"
    }
  },
  {
    "service_request": "2022-955840",
    "request_type": "Trash/Recycling",
    "request_reason": "MIssed Recycling Pick-Up",
    "date_created": "2022-12-23T11:38:56.000",
    "date_modified": "2022-12-23T11:38:57.000",
    "request_status": "Pending",
    "responsible_agency": "Department of Sanitation",
    "final_address": "1014 Aline St",
    "address_councildis": "B",
    "status": "Assigned to Contractor",
    "contractor": "Richards Disposal",
    "rowid": "955840",
    "final_x": "3674493.55937",
    "final_y": "519166.814519",
    "longitude": "-90.09061721832725",
    "latitude": "29.92173933475211",
    "geocoded_column": {
      "latitude": "29.92173933475211",
      "longitude": "-90.09061721832725"
    }
  },
  {
    "service_request": "2022-955839",
    "request_type": "Trash/Recycling",
    "request_reason": "Order Recycling Cart",
    "date_created": "2022-12-23T11:37:58.000",
    "date_modified": "2022-12-23T11:37:58.000",
    "request_status": "Pending",
    "responsible_agency": "Department of Sanitation",
    "final_address": "2360 N Villere St, New Orleans, Louisiana, 70117",
    "address_councildis": "C",
    "status": "Pending",
    "rowid": "955839",
    "final_x": "3686207.8143",
    "final_y": "537475.59604",
    "longitude": "-90.0529946412114",
    "latitude": "29.971727730118086",
    "geocoded_column": {
      "latitude": "29.971727730118086",
      "longitude": "-90.0529946412114"
    }
  },
  {
    "service_request": "2022-955838",
    "request_type": "Trash/Recycling",
    "request_reason": "Missed Trash Pick-Up",
    "date_created": "2022-12-23T11:34:37.000",
    "date_modified": "2022-12-23T11:34:38.000",
    "request_status": "Pending",
    "responsible_agency": "Department of Sanitation",
    "final_address": "1131 Orange St",
    "address_councildis": "B",
    "status": "Assigned to Contractor",
    "contractor": "Richards Disposal",
    "rowid": "955838",
    "final_x": "3679856.47944",
    "final_y": "523577.759035",
    "longitude": "-90.07353569564594",
    "latitude": "29.933706968638734",
    "geocoded_column": {
      "latitude": "29.933706968638734",
      "longitude": "-90.07353569564594"
    }
  },
  {
    "service_request": "2022-955837",
    "request_type": "Trash/Recycling",
    "request_reason": "Illegal Dumping",
    "date_created": "2022-12-23T11:32:52.000",
    "date_modified": "2022-12-23T13:21:05.000",
    "case_close_date": "2022-12-23T07:21:05.000",
    "request_status": "Closed",
    "responsible_agency": "Department of Sanitation",
    "final_address": "821 St Peter St",
    "address_councildis": "C",
    "status": "Resolved",
    "rowid": "955837",
    "final_x": "3682114.70037",
    "final_y": "532796.67802",
    "longitude": "-90.0660847365966",
    "latitude": "29.95898743485762",
    "geocoded_column": {
      "latitude": "29.95898743485762",
      "longitude": "-90.0660847365966"
    }
  },
  {
    "service_request": "2022-955836",
    "request_type": "Trash/Recycling",
    "request_reason": "Dead Animal Pick Up",
    "date_created": "2022-12-23T11:31:02.000",
    "date_modified": "2022-12-23T11:31:33.000",
    "case_close_date": "2022-12-23T05:31:33.000",
    "request_status": "Closed",
    "responsible_agency": "Department of Sanitation",
    "final_address": "528 Royal St",
    "address_councildis": "C",
    "status": "Assigned to Contractor",
    "contractor": "Empire Services",
    "contractor_action": "Completed",
    "rowid": "955836",
    "final_x": "3682273.65052",
    "final_y": "532047.770051",
    "longitude": "-90.06560897632511",
    "latitude": "29.956923358441035",
    "geocoded_column": {
      "latitude": "29.956923358441035",
      "longitude": "-90.06560897632511"
    }
  },
  {
    "service_request": "2022-955835",
    "request_type": "Trash/Recycling",
    "request_reason": "Illegal Dumping",
    "date_created": "2022-12-23T11:29:35.000",
    "date_modified": "2022-12-23T13:20:31.000",
    "case_close_date": "2022-12-23T07:20:31.000",
    "request_status": "Closed",
    "responsible_agency": "Department of Sanitation",
    "final_address": "623 Bienville St",
    "address_councildis": "C",
    "status": "Resolved",
    "rowid": "955835",
    "final_x": "3681761.92904",
    "final_y": "531261.97069",
    "longitude": "-90.06725224721687",
    "latitude": "29.954778234318226",
    "geocoded_column": {
      "latitude": "29.954778234318226",
      "longitude": "-90.06725224721687"
    }
  },
  {
    "service_request": "2022-955834",
    "request_type": "Trash/Recycling",
    "request_reason": "Replace Trash Cart",
    "date_created": "2022-12-23T11:28:05.000",
    "date_modified": "2022-12-23T12:00:24.000",
    "case_close_date": "2022-12-23T06:00:24.000",
    "request_status": "Closed",
    "responsible_agency": "Department of Sanitation",
    "final_address": "4509 Fort Macomb Rd",
    "address_councildis": "E",
    "status": "Assigned to Contractor",
    "contractor": "Waste Pro",
    "contractor_action": "Completed",
    "rowid": "955834",
    "final_x": "3762985.76278",
    "final_y": "573637.92017",
    "longitude": "-89.80900545393945",
    "latitude": "30.068575898155235",
    "geocoded_column": {
      "latitude": "30.068575898155235",
      "longitude": "-89.80900545393945"
    }
  },
  {
    "service_request": "2022-955833",
    "request_type": "Trash/Recycling",
    "request_reason": "MIssed Recycling Pick-Up",
    "date_created": "2022-12-23T11:26:59.000",
    "date_modified": "2022-12-23T11:27:00.000",
    "request_status": "Pending",
    "responsible_agency": "Department of Sanitation",
    "final_address": "5514 Constance St",
    "address_councildis": "A",
    "status": "Assigned to Contractor",
    "contractor": "Richards Disposal",
    "rowid": "955833",
    "final_x": "3666221.69946",
    "final_y": "518467.225078",
    "longitude": "-90.11675148870607",
    "latitude": "29.920059771153777",
    "geocoded_column": {
      "latitude": "29.920059771153777",
      "longitude": "-90.11675148870607"
    }
  },
  {
    "service_request": "2022-955832",
    "request_type": "Trash/Recycling",
    "request_reason": "Dead Animal Pick Up",
    "date_created": "2022-12-23T11:26:48.000",
    "date_modified": "2022-12-23T11:27:15.000",
    "case_close_date": "2022-12-23T05:27:15.000",
    "request_status": "Closed",
    "responsible_agency": "Department of Sanitation",
    "final_address": "204 Decatur St",
    "address_councildis": "C",
    "status": "Assigned to Contractor",
    "contractor": "Empire Services",
    "contractor_action": "Completed",
    "rowid": "955832",
    "final_x": "3682113.60322",
    "final_y": "530578.103042",
    "longitude": "-90.06616567614071",
    "latitude": "29.95288714082833",
    "geocoded_column": {
      "latitude": "29.95288714082833",
      "longitude": "-90.06616567614071"
    }
  },
  {
    "service_request": "2022-955831",
    "request_type": "Trash/Recycling",
    "request_reason": "MIssed Recycling Pick-Up",
    "date_created": "2022-12-23T11:25:14.000",
    "date_modified": "2022-12-23T11:25:14.000",
    "request_status": "Pending",
    "responsible_agency": "Department of Sanitation",
    "final_address": "5514 Constance St",
    "address_councildis": "A",
    "status": "Assigned to Contractor",
    "contractor": "Richards Disposal",
    "rowid": "955831",
    "final_x": "3666221.69946",
    "final_y": "518467.225078",
    "longitude": "-90.11675148870607",
    "latitude": "29.920059771153777",
    "geocoded_column": {
      "latitude": "29.920059771153777",
      "longitude": "-90.11675148870607"
    }
  },
  {
    "service_request": "2022-955830",
    "request_type": "Trash/Recycling",
    "request_reason": "Missed Trash Pick-Up",
    "date_created": "2022-12-23T11:23:18.000",
    "date_modified": "2022-12-23T15:44:12.000",
    "case_close_date": "2022-12-23T09:44:12.000",
    "request_status": "Closed",
    "responsible_agency": "Department of Sanitation",
    "final_address": "7700 Masefield St",
    "address_councildis": "E",
    "status": "Assigned to Contractor",
    "contractor": "Waste Pro",
    "contractor_action": "Completed",
    "rowid": "955830",
    "final_x": "3697290.60304",
    "final_y": "559721.332189",
    "longitude": "-90.01718671679335",
    "latitude": "30.032550079525556",
    "geocoded_column": {
      "latitude": "30.032550079525556",
      "longitude": "-90.01718671679335"
    }
  },
  {
    "service_request": "2022-955829",
    "request_type": "Trash/Recycling",
    "request_reason": "MIssed Recycling Pick-Up",
    "date_created": "2022-12-23T11:20:58.000",
    "date_modified": "2022-12-23T14:24:10.000",
    "case_close_date": "2022-12-23T08:24:10.000",
    "request_status": "Closed",
    "responsible_agency": "Department of Sanitation",
    "final_address": "7705 Wales St",
    "address_councildis": "E",
    "status": "Assigned to Contractor",
    "contractor": "Waste Pro",
    "contractor_action": "Completed",
    "rowid": "955829",
    "final_x": "3700924.6074",
    "final_y": "561811.202143",
    "longitude": "-90.00562652699891",
    "latitude": "30.03818113535046",
    "geocoded_column": {
      "latitude": "30.03818113535046",
      "longitude": "-90.00562652699891"
    }
  },
  {
    "service_request": "2022-955828",
    "request_type": "Trash/Recycling",
    "request_reason": "Order Recycling Cart",
    "date_created": "2022-12-23T11:17:59.000",
    "date_modified": "2022-12-23T11:17:59.000",
    "request_status": "Pending",
    "responsible_agency": "Department of Sanitation",
    "final_address": "7414 Maple St",
    "address_councildis": "A",
    "status": "Pending",
    "rowid": "955828",
    "final_x": "3662738.93165",
    "final_y": "525714.560061",
    "longitude": "-90.12750422464948",
    "latitude": "29.94008888223859",
    "geocoded_column": {
      "latitude": "29.94008888223859",
      "longitude": "-90.12750422464948"
    }
  },
  {
    "service_request": "2022-955827",
    "request_type": "Abandoned Vehicles",
    "request_reason": "Abandoned/Junk Vehicles",
    "date_created": "2022-12-23T11:13:16.000",
    "date_modified": "2022-12-23T11:13:17.000",
    "request_status": "Pending",
    "responsible_agency": "Department of Public Works",
    "final_address": "4200 BLK Thalia St",
    "address_councildis": "B",
    "status": "Pending",
    "rowid": "955827",
    "final_x": "3671110.24436",
    "final_y": "530993.230452",
    "longitude": "-90.10089539913342",
    "latitude": "29.95435860878347",
    "geocoded_column": {
      "latitude": "29.95435860878347",
      "longitude": "-90.10089539913342"
    }
  },
  {
    "service_request": "2022-955826",
    "request_type": "Trash/Recycling",
    "request_reason": "Repair Recycling Cart",
    "date_created": "2022-12-23T11:12:25.000",
    "date_modified": "2022-12-23T11:12:25.000",
    "request_status": "Pending",
    "responsible_agency": "Department of Sanitation",
    "final_address": "1025 Webster St",
    "address_councildis": "A",
    "status": "Pending",
    "rowid": "955826",
    "final_x": "3664482.50823",
    "final_y": "520242.863736",
    "longitude": "-90.12218205983686",
    "latitude": "29.924992881765164",
    "geocoded_column": {
      "latitude": "29.924992881765164",
      "longitude": "-90.12218205983686"
    }
  },
  {
    "service_request": "2022-955825",
    "request_type": "Trash/Recycling",
    "request_reason": "Order Recycling Cart",
    "date_created": "2022-12-23T11:07:56.000",
    "date_modified": "2022-12-23T11:07:56.000",
    "request_status": "Pending",
    "responsible_agency": "Department of Sanitation",
    "final_address": "1929 Feliciana St",
    "address_councildis": "D",
    "status": "Pending",
    "rowid": "955825",
    "final_x": "3689633.29219",
    "final_y": "539327.827658",
    "longitude": "-90.04211057241264",
    "latitude": "29.976715023483553",
    "geocoded_column": {
      "latitude": "29.976715023483553",
      "longitude": "-90.04211057241264"
    }
  },
  {
    "service_request": "2022-955824",
    "request_type": "Trash/Recycling",
    "request_reason": "Request a Large Item Pick Up",
    "date_created": "2022-12-23T11:06:08.000",
    "date_modified": "2022-12-23T11:06:09.000",
    "request_status": "Pending",
    "responsible_agency": "Department of Sanitation",
    "final_address": "4618 S Saratoga St",
    "address_councildis": "B",
    "status": "Assigned to Contractor",
    "contractor": "Richards Disposal",
    "rowid": "955824",
    "final_x": "3669739.8043",
    "final_y": "522466.45017",
    "longitude": "-90.105511224129",
    "latitude": "29.930953189725493",
    "geocoded_column": {
      "latitude": "29.930953189725493",
      "longitude": "-90.105511224129"
    }
  },
  {
    "service_request": "2022-955823",
    "request_type": "Trash/Recycling",
    "request_reason": "MIssed Recycling Pick-Up",
    "date_created": "2022-12-23T11:01:08.000",
    "date_modified": "2022-12-23T11:01:09.000",
    "request_status": "Pending",
    "responsible_agency": "Department of Sanitation",
    "final_address": "514 Henry Clay Ave",
    "address_councildis": "A",
    "status": "Assigned to Contractor",
    "contractor": "Richards Disposal",
    "rowid": "955823",
    "final_x": "3663388.13779",
    "final_y": "518755.507831",
    "longitude": "-90.12568613152693",
    "latitude": "29.920934878944568",
    "geocoded_column": {
      "latitude": "29.920934878944568",
      "longitude": "-90.12568613152693"
    }
  },
  {
    "service_request": "2022-955822",
    "request_type": "Trash/Recycling",
    "request_reason": "Missed Trash Pick-Up",
    "date_created": "2022-12-23T11:00:15.000",
    "date_modified": "2022-12-23T11:01:44.000",
    "request_status": "Pending",
    "responsible_agency": "Department of Sanitation",
    "final_address": "514 Henry Clay Ave",
    "address_councildis": "A",
    "status": "Assigned to Contractor",
    "contractor": "Richards Disposal",
    "rowid": "955822",
    "final_x": "3663388.13779",
    "final_y": "518755.507831",
    "longitude": "-90.12568613152693",
    "latitude": "29.920934878944568",
    "geocoded_column": {
      "latitude": "29.920934878944568",
      "longitude": "-90.12568613152693"
    }
  },
  {
    "service_request": "2022-955821",
    "request_type": "Trash/Recycling",
    "request_reason": "Illegal Dumping",
    "date_created": "2022-12-23T10:47:41.000",
    "date_modified": "2022-12-23T10:48:32.000",
    "request_status": "Pending",
    "responsible_agency": "Department of Sanitation",
    "final_address": "8601 Leake Ave",
    "address_councildis": "A",
    "status": "Pending",
    "rowid": "955821",
    "final_x": "3660208.80339",
    "final_y": "529136.21248",
    "longitude": "-90.13537932999203",
    "latitude": "29.949570309269692",
    "geocoded_column": {
      "latitude": "29.949570309269692",
      "longitude": "-90.13537932999203"
    }
  },
  {
    "service_request": "2022-955820",
    "request_type": "Trash/Recycling",
    "request_reason": "Missed Trash Pick-Up",
    "date_created": "2022-12-23T10:45:28.000",
    "date_modified": "2022-12-23T10:45:29.000",
    "request_status": "Pending",
    "responsible_agency": "Department of Sanitation",
    "final_address": "6017 Annunciation St",
    "address_councildis": "A",
    "status": "Assigned to Contractor",
    "contractor": "Richards Disposal",
    "rowid": "955820",
    "final_x": "3664101.18349",
    "final_y": "517948.366774",
    "longitude": "-90.12346226090293",
    "latitude": "29.918694809324705",
    "geocoded_column": {
      "latitude": "29.918694809324705",
      "longitude": "-90.12346226090293"
    }
  },
  {
    "service_request": "2022-955819",
    "request_type": "Trash/Recycling",
    "request_reason": "Missed Trash Pick-Up",
    "date_created": "2022-12-23T10:42:00.000",
    "date_modified": "2022-12-23T10:42:01.000",
    "request_status": "Pending",
    "responsible_agency": "Department of Sanitation",
    "final_address": "5425 York St",
    "address_councildis": "A",
    "status": "Assigned to Contractor",
    "contractor": "Richards Disposal",
    "rowid": "955819",
    "final_x": "3668781.08366",
    "final_y": "528693.476352",
    "longitude": "-90.10832762331677",
    "latitude": "29.948103715787227",
    "geocoded_column": {
      "latitude": "29.948103715787227",
      "longitude": "-90.10832762331677"
    }
  },
  {
    "service_request": "2022-955818",
    "request_type": "Trash/Recycling",
    "request_reason": "Missed Trash Pick-Up",
    "date_created": "2022-12-23T10:37:27.000",
    "date_modified": "2022-12-23T10:37:27.000",
    "request_status": "Pending",
    "responsible_agency": "Department of Sanitation",
    "final_address": "1431 Constance St, New Orleans, Louisiana, 70130",
    "address_councildis": "B",
    "status": "Assigned to Contractor",
    "contractor": "Richards Disposal",
    "rowid": "955818",
    "final_x": "3680635.16514",
    "final_y": "524194.270716",
    "longitude": "-90.07105598366722",
    "latitude": "29.935378608323525",
    "geocoded_column": {
      "latitude": "29.935378608323525",
      "longitude": "-90.07105598366722"
    }
  },
  {
    "service_request": "2022-955817",
    "request_type": "Trash/Recycling",
    "request_reason": "Replace Trash Cart",
    "date_created": "2022-12-23T10:37:10.000",
    "date_modified": "2022-12-23T10:37:10.000",
    "request_status": "Pending",
    "responsible_agency": "Department of Sanitation",
    "final_address": "3421 Chestnut St",
    "address_councildis": "B",
    "status": "Assigned to Contractor",
    "contractor": "Richards Disposal",
    "rowid": "955817",
    "final_x": "3674540.20929",
    "final_y": "520265.839032",
    "longitude": "-90.0904323341557",
    "latitude": "29.92475990769322",
    "geocoded_column": {
      "latitude": "29.92475990769322",
      "longitude": "-90.0904323341557"
    }
  },
  {
    "service_request": "2022-955816",
    "request_type": "Trash/Recycling",
    "request_reason": "Missed Trash Pick-Up",
    "date_created": "2022-12-23T10:32:21.000",
    "date_modified": "2022-12-23T10:33:51.000",
    "request_status": "Pending",
    "responsible_agency": "Department of Sanitation",
    "final_address": "1422 Polymnia St",
    "address_councildis": "B",
    "status": "Assigned to Contractor",
    "contractor": "Richards Disposal",
    "rowid": "955816",
    "final_x": "3679380.63061",
    "final_y": "524311.031036",
    "longitude": "-90.0750125053904",
    "latitude": "29.935737601970462",
    "geocoded_column": {
      "latitude": "29.935737601970462",
      "longitude": "-90.0750125053904"
    }
  },
  {
    "service_request": "2022-955815",
    "request_type": "Trash/Recycling",
    "request_reason": "Missed Trash Pick-Up",
    "date_created": "2022-12-23T10:27:47.000",
    "date_modified": "2022-12-23T10:27:48.000",
    "request_status": "Pending",
    "responsible_agency": "Department of Sanitation",
    "final_address": "1316 Toledano St",
    "address_councildis": "B",
    "status": "Assigned to Contractor",
    "contractor": "Richards Disposal",
    "rowid": "955815",
    "final_x": "3675004.57185",
    "final_y": "520576.692664",
    "longitude": "-90.0889558375557",
    "latitude": "29.925600796737257",
    "geocoded_column": {
      "latitude": "29.925600796737257",
      "longitude": "-90.0889558375557"
    }
  },
  {
    "service_request": "2022-955814",
    "request_type": "Trash/Recycling",
    "request_reason": "Request a Large Item Pick Up",
    "date_created": "2022-12-23T10:25:25.000",
    "date_modified": "2022-12-23T11:28:25.000",
    "case_close_date": "2022-12-23T05:28:25.000",
    "request_status": "Closed",
    "responsible_agency": "Department of Sanitation",
    "final_address": "6730 Lake Willow Dr",
    "address_councildis": "E",
    "status": "Assigned to Contractor",
    "contractor": "Waste Pro",
    "contractor_action": "Completed",
    "rowid": "955814",
    "final_x": "3703967.06564",
    "final_y": "559422.378141",
    "longitude": "-89.99609974986323",
    "latitude": "30.03151551965278",
    "geocoded_column": {
      "latitude": "30.03151551965278",
      "longitude": "-89.99609974986323"
    }
  },
  {
    "service_request": "2022-955813",
    "request_type": "Trash/Recycling",
    "request_reason": "Missed Trash Pick-Up",
    "date_created": "2022-12-23T10:23:48.000",
    "date_modified": "2022-12-23T10:23:48.000",
    "request_status": "Pending",
    "responsible_agency": "Department of Sanitation",
    "final_address": "1135 Terpsichore St, New Orleans, Louisiana, 70130",
    "address_councildis": "B",
    "status": "Assigned to Contractor",
    "contractor": "Richards Disposal",
    "rowid": "955813",
    "final_x": "3680118.16347",
    "final_y": "524623.577148",
    "longitude": "-90.07267324797162",
    "latitude": "29.936574709364567",
    "geocoded_column": {
      "latitude": "29.936574709364567",
      "longitude": "-90.07267324797162"
    }
  },
  {
    "service_request": "2022-955812",
    "request_type": "Trash/Recycling",
    "request_reason": "Missed Trash Pick-Up",
    "date_created": "2022-12-23T10:19:57.000",
    "date_modified": "2022-12-23T13:08:01.000",
    "case_close_date": "2022-12-23T07:08:01.000",
    "request_status": "Closed",
    "responsible_agency": "Department of Sanitation",
    "final_address": "4524 N Robertson St Apt 1A",
    "address_councildis": "D",
    "status": "Assigned to Contractor",
    "contractor": "IV Waste",
    "contractor_action": "Completed",
    "rowid": "955812",
    "final_x": "3693899.43517",
    "final_y": "536305.473863",
    "longitude": "-90.028745504842",
    "latitude": "29.968271750146457",
    "geocoded_column": {
      "latitude": "29.968271750146457",
      "longitude": "-90.028745504842"
    }
  },
  {
    "service_request": "2022-955811",
    "request_type": "EMS",
    "request_reason": "EMS General",
    "date_created": "2022-12-23T10:19:06.000",
    "date_modified": "2022-12-23T10:19:06.000",
    "request_status": "Pending",
    "responsible_agency": "Emergency Medical Services",
    "status": "Pending",
    "rowid": "955811",
    "longitude": "0.0",
    "latitude": "0.0",
    "geocoded_column": {
      "latitude": "0.0",
      "longitude": "0.0"
    }
  },
  {
    "service_request": "2022-955810",
    "request_type": "Trash/Recycling",
    "request_reason": "Missed Trash Pick-Up",
    "date_created": "2022-12-23T10:16:28.000",
    "date_modified": "2022-12-23T10:16:29.000",
    "request_status": "Pending",
    "responsible_agency": "Department of Sanitation",
    "final_address": "1500 BLK Pleasant St",
    "address_councildis": "B",
    "status": "Assigned to Contractor",
    "contractor": "Richards Disposal",
    "rowid": "955810",
    "final_x": "3674741.12194",
    "final_y": "521457.961793",
    "longitude": "-90.08975727766195",
    "latitude": "29.92803186667896",
    "geocoded_column": {
      "latitude": "29.92803186667896",
      "longitude": "-90.08975727766195"
    }
  },
  {
    "service_request": "2022-955809",
    "request_type": "Trash/Recycling",
    "request_reason": "Request a Large Item Pick Up",
    "date_created": "2022-12-23T10:15:16.000",
    "date_modified": "2022-12-23T10:16:40.000",
    "request_status": "Pending",
    "responsible_agency": "Department of Sanitation",
    "final_address": "1431 Leda St",
    "address_councildis": "A",
    "status": "Assigned to Contractor",
    "contractor": "IV Waste",
    "rowid": "955809",
    "final_x": "3675534.35509",
    "final_y": "541337.129292",
    "longitude": "-90.08657040751173",
    "latitude": "29.98266923867811",
    "geocoded_column": {
      "latitude": "29.98266923867811",
      "longitude": "-90.08657040751173"
    }
  },
  {
    "service_request": "2022-955808",
    "request_type": "Trash/Recycling",
    "request_reason": "Missed Trash Pick-Up",
    "date_created": "2022-12-23T10:13:51.000",
    "date_modified": "2022-12-23T10:13:52.000",
    "request_status": "Pending",
    "responsible_agency": "Department of Sanitation",
    "final_address": "1207 Josephine St",
    "address_councildis": "B",
    "status": "Assigned to Contractor",
    "contractor": "Richards Disposal",
    "rowid": "955808",
    "final_x": "3678920.16443",
    "final_y": "522681.56953",
    "longitude": "-90.07652262843074",
    "latitude": "29.931271014602547",
    "geocoded_column": {
      "latitude": "29.931271014602547",
      "longitude": "-90.07652262843074"
    }
  },
  {
    "service_request": "2022-955807",
    "request_type": "Trash/Recycling",
    "request_reason": "Missed Trash Pick-Up",
    "date_created": "2022-12-23T10:13:23.000",
    "date_modified": "2022-12-23T10:13:24.000",
    "request_status": "Pending",
    "responsible_agency": "Department of Sanitation",
    "final_address": "1111 St Mary St",
    "address_councildis": "B",
    "status": "Assigned to Contractor",
    "contractor": "Richards Disposal",
    "rowid": "955807",
    "final_x": "3679703.20667",
    "final_y": "522910.163643",
    "longitude": "-90.0740427325072",
    "latitude": "29.931875933766015",
    "geocoded_column": {
      "latitude": "29.931875933766015",
      "longitude": "-90.0740427325072"
    }
  },
  {
    "service_request": "2022-955806",
    "request_type": "Trash/Recycling",
    "request_reason": "MIssed Recycling Pick-Up",
    "date_created": "2022-12-23T10:07:16.000",
    "date_modified": "2022-12-23T10:07:17.000",
    "request_status": "Pending",
    "responsible_agency": "Department of Sanitation",
    "final_address": "5521 Prytania St",
    "address_councildis": "A",
    "status": "Assigned to Contractor",
    "contractor": "Richards Disposal",
    "rowid": "955806",
    "final_x": "3666605.94241",
    "final_y": "520510.518648",
    "longitude": "-90.11547006292037",
    "latitude": "29.925666961919042",
    "geocoded_column": {
      "latitude": "29.925666961919042",
      "longitude": "-90.11547006292037"
    }
  },
  {
    "service_request": "2022-955805",
    "request_type": "Roads/Drainage",
    "request_reason": "Catch Basin - Clogged",
    "date_created": "2022-12-23T10:06:34.000",
    "date_modified": "2022-12-23T10:06:35.000",
    "request_status": "Pending",
    "responsible_agency": "Department of Public Works",
    "final_address": "1450 St Andrew St",
    "address_councildis": "B",
    "status": "Pending",
    "rowid": "955805",
    "final_x": "3678559.9076",
    "final_y": "523658.811259",
    "longitude": "-90.07762610561298",
    "latitude": "29.933968969048664",
    "geocoded_column": {
      "latitude": "29.933968969048664",
      "longitude": "-90.07762610561298"
    }
  },
  {
    "service_request": "2022-955804",
    "request_type": "Trash/Recycling",
    "request_reason": "Request a Large Item Pick Up",
    "date_created": "2022-12-23T10:04:49.000",
    "date_modified": "2022-12-23T10:04:50.000",
    "request_status": "Pending",
    "responsible_agency": "Department of Sanitation",
    "final_address": "1450 St Andrew St",
    "address_councildis": "B",
    "status": "Assigned to Contractor",
    "contractor": "Richards Disposal",
    "rowid": "955804",
    "final_x": "3678559.9076",
    "final_y": "523658.811259",
    "longitude": "-90.07762610561298",
    "latitude": "29.933968969048664",
    "geocoded_column": {
      "latitude": "29.933968969048664",
      "longitude": "-90.07762610561298"
    }
  },
  {
    "service_request": "2022-955803",
    "request_type": "Trash/Recycling",
    "request_reason": "Repair Trash Cart",
    "date_created": "2022-12-23T10:02:12.000",
    "date_modified": "2022-12-23T11:27:10.000",
    "case_close_date": "2022-12-23T05:27:10.000",
    "request_status": "Closed",
    "responsible_agency": "Department of Sanitation",
    "final_address": "4957 Chantilly Dr",
    "address_councildis": "E",
    "status": "Assigned to Contractor",
    "contractor": "Waste Pro",
    "contractor_action": "Completed",
    "rowid": "955803",
    "final_x": "3700838.95633",
    "final_y": "555471.063897",
    "longitude": "-90.00612928265917",
    "latitude": "30.020750933229035",
    "geocoded_column": {
      "latitude": "30.020750933229035",
      "longitude": "-90.00612928265917"
    }
  },
  {
    "service_request": "2022-955802",
    "request_type": "Trash/Recycling",
    "request_reason": "Order Recycling Cart",
    "date_created": "2022-12-23T09:59:30.000",
    "date_modified": "2022-12-23T09:59:31.000",
    "request_status": "Pending",
    "responsible_agency": "Department of Sanitation",
    "final_address": "5600 New England Dr",
    "address_councildis": "E",
    "status": "Pending",
    "rowid": "955802",
    "final_x": "3723588.85503",
    "final_y": "564122.439713",
    "longitude": "-89.93391345737024",
    "latitude": "30.04379451899168",
    "geocoded_column": {
      "latitude": "30.04379451899168",
      "longitude": "-89.93391345737024"
    }
  },
  {
    "service_request": "2022-955801",
    "request_type": "Trash/Recycling",
    "request_reason": "Missed Trash Pick-Up",
    "date_created": "2022-12-23T09:58:51.000",
    "date_modified": "2022-12-23T11:32:52.000",
    "case_close_date": "2022-12-23T05:32:52.000",
    "request_status": "Closed",
    "responsible_agency": "Department of Sanitation",
    "final_address": "7319 Alabama St",
    "address_councildis": "D",
    "status": "Assigned to Contractor",
    "contractor": "Waste Pro",
    "contractor_action": "Completed",
    "rowid": "955801",
    "final_x": "3695250.30141",
    "final_y": "557646.476699",
    "longitude": "-90.02370913998186",
    "latitude": "30.026909299731713",
    "geocoded_column": {
      "latitude": "30.026909299731713",
      "longitude": "-90.02370913998186"
    }
  },
  {
    "service_request": "2022-955800",
    "request_type": "Trash/Recycling",
    "request_reason": "Order Trash Cart",
    "date_created": "2022-12-23T09:55:33.000",
    "date_modified": "2022-12-23T09:55:34.000",
    "request_status": "Pending",
    "responsible_agency": "Department of Sanitation",
    "final_address": "710 Barracks St",
    "address_councildis": "C",
    "status": "Assigned to Contractor",
    "contractor": "Empire Services",
    "rowid": "955800",
    "final_x": "3683772.93916",
    "final_y": "534232.183621",
    "longitude": "-90.060798097985",
    "latitude": "29.962884051510976",
    "geocoded_column": {
      "latitude": "29.962884051510976",
      "longitude": "-90.060798097985"
    }
  },
  {
    "service_request": "2022-955799",
    "request_type": "Trash/Recycling",
    "request_reason": "Missed Trash Pick-Up",
    "date_created": "2022-12-23T09:54:07.000",
    "date_modified": "2022-12-23T09:55:31.000",
    "request_status": "Pending",
    "responsible_agency": "Department of Sanitation",
    "final_address": "1821 Bordeaux St",
    "address_councildis": "B",
    "status": "Assigned to Contractor",
    "contractor": "Richards Disposal",
    "rowid": "955799",
    "final_x": "3669336.85191",
    "final_y": "521613.126137",
    "longitude": "-90.10681212866741",
    "latitude": "29.928618687726875",
    "geocoded_column": {
      "latitude": "29.928618687726875",
      "longitude": "-90.10681212866741"
    }
  },
  {
    "service_request": "2022-955798",
    "request_type": "Property Maintenance",
    "request_reason": "Property Maintenance",
    "date_created": "2022-12-23T09:48:08.000",
    "date_modified": "2022-12-23T09:48:09.000",
    "request_status": "Pending",
    "responsible_agency": "Department of Code Enforcement",
    "final_address": "2906 Mandeville St",
    "address_councildis": "D",
    "status": "Pending",
    "rowid": "955798",
    "final_x": "3685096.7702",
    "final_y": "543425.961806",
    "longitude": "-90.05629404413197",
    "latitude": "29.98812323204869",
    "geocoded_column": {
      "latitude": "29.98812323204869",
      "longitude": "-90.05629404413197"
    }
  },
  {
    "service_request": "2022-955797",
    "request_type": "Trash/Recycling",
    "request_reason": "Request a Large Item Pick Up",
    "date_created": "2022-12-23T09:47:37.000",
    "date_modified": "2022-12-23T09:47:38.000",
    "request_status": "Pending",
    "responsible_agency": "Department of Sanitation",
    "final_address": "303 Neil Ave",
    "address_councildis": "C",
    "status": "Assigned to Contractor",
    "contractor": "Richards Disposal",
    "rowid": "955797",
    "final_x": "3707212.5644",
    "final_y": "518677.056119",
    "longitude": "-89.98735636823662",
    "latitude": "29.91937639643333",
    "geocoded_column": {
      "latitude": "29.91937639643333",
      "longitude": "-89.98735636823662"
    }
  },
  {
    "service_request": "2022-955796",
    "request_type": "Trash/Recycling",
    "request_reason": "Missed Trash Pick-Up",
    "date_created": "2022-12-23T09:47:12.000",
    "date_modified": "2022-12-23T09:47:13.000",
    "request_status": "Pending",
    "responsible_agency": "Department of Sanitation",
    "final_address": "2220 Joseph St, New Orleans, Louisiana, 70115",
    "address_councildis": "A",
    "status": "Assigned to Contractor",
    "contractor": "Richards Disposal",
    "rowid": "955796",
    "final_x": "3667239.26791",
    "final_y": "524326.86438",
    "longitude": "-90.11334257296191",
    "latitude": "29.936142174135835",
    "geocoded_column": {
      "latitude": "29.936142174135835",
      "longitude": "-90.11334257296191"
    }
  },