[
  {
    "service_request": "2022-899526",
    "request_type": "Abandoned Vehicles",
    "request_reason": "Abandoned/Junk Vehicles",
    "date_created": "2022-07-13T01:31:07.000",
    "date_modified": "2022-07-13T01:31:07.000",
    "request_status": "Pending",
    "responsible_agency": "Department of Public Works",
    "final_address": "2301 Holiday Dr",
    "address_councildis": "C",
    "status": "Pending",
    "rowid": "899526",
    "final_x": "3698796.48458",
    "final_y": "522931.851963",
    "longitude": "-90.01376687700736",
    "latitude": "29.931344778137085",
    "geocoded_column": {
      "latitude": "29.931344778137085",
      "longitude": "-90.01376687700736"
    }
  },
  {
    "service_request": "2022-899525",
    "request_type": "Abandoned Vehicles",
    "request_reason": "Abandoned/Junk Vehicles",
    "date_created": "2022-07-13T01:27:05.000",
    "date_modified": "2022-07-13T01:27:05.000",
    "request_status": "Pending",
    "responsible_agency": "Department of Public Works",
    "final_address": "4846 General Meyer Ave",
    "address_councildis": "C",
    "status": "Pending",
    "rowid": "899525",
    "final_x": "3702092.74705",
    "final_y": "523450.221051",
    "longitude": "-90.00334206530769",
    "latitude": "29.932665323247836",
    "geocoded_column": {
      "latitude": "29.932665323247836",
      "longitude": "-90.00334206530769"
    }
  },
  {
    "service_request": "2022-899524",
    "request_type": "Trash/Recycling",
    "request_reason": "Replace Trash Cart",
    "date_created": "2022-07-13T00:57:58.000",
    "date_modified": "2022-07-13T00:57:59.000",
    "request_status": "Pending",
    "responsible_agency": "Department of Sanitation",
    "final_address": "3010 Ursula Spencer Way",
    "address_councildis": "D",
    "status": "Assigned to Contractor",
    "contractor": "Metro Disposal",
    "rowid": "899524",
    "final_x": "3693176.72137",
    "final_y": "543072.585549",
    "longitude": "-90.03078492178281",
    "latitude": "29.986901492241156",
    "geocoded_column": {
      "latitude": "29.986901492241156",
      "longitude": "-90.03078492178281"
    }
  },
  {
    "service_request": "2022-899523",
    "request_type": "Trash/Recycling",
    "request_reason": "Request a Large Item Pick Up",
    "date_created": "2022-07-12T23:55:04.000",
    "date_modified": "2022-07-12T23:55:04.000",
    "request_status": "Pending",
    "responsible_agency": "Department of Sanitation",
    "final_address": "5141 Carlisle Ct",
    "address_councildis": "C",
    "status": "Assigned to Contractor",
    "contractor": "Richards Disposal",
    "rowid": "899523",
    "final_x": "3703174.63895",
    "final_y": "516472.027317",
    "longitude": "-90.0001829538753",
    "latitude": "29.91344312926251",
    "geocoded_column": {
      "latitude": "29.91344312926251",
      "longitude": "-90.0001829538753"
    }
  },
  {
    "service_request": "2022-899522",
    "request_type": "Trash/Recycling",
    "request_reason": "Order Recycling Cart",
    "date_created": "2022-07-12T23:48:54.000",
    "date_modified": "2022-07-12T23:48:54.000",
    "request_status": "Pending",
    "responsible_agency": "Department of Sanitation",
    "final_address": "3858 S Inwood Ave",
    "address_councildis": "C",
    "status": "Pending",
    "rowid": "899522",
    "final_x": "3705099.7914",
    "final_y": "514160.503858",
    "longitude": "-89.99419189186429",
    "latitude": "29.90702550334035",
    "geocoded_column": {
      "latitude": "29.90702550334035",
      "longitude": "-89.99419189186429"
    }
  },
  {
    "service_request": "2022-899521",
    "request_type": "Property Maintenance",
    "request_reason": "Property Maintenance",
    "date_created": "2022-07-12T22:53:22.000",
    "date_modified": "2022-07-12T22:53:22.000",
    "request_status": "Pending",
    "responsible_agency": "Department of Code Enforcement",
    "final_address": "7432 Ligustrum Dr",
    "address_councildis": "E",
    "status": "Pending",
    "rowid": "899521",
    "final_x": "3701629.38455",
    "final_y": "560645.170974",
    "longitude": "-90.00344203315537",
    "latitude": "30.034952531323203",
    "geocoded_column": {
      "latitude": "30.034952531323203",
      "longitude": "-90.00344203315537"
    }
  },
  {
    "service_request": "2022-899520",
    "request_type": "Trash/Recycling",
    "request_reason": "Missed Trash Pick-Up",
    "date_created": "2022-07-12T22:23:20.000",
    "date_modified": "2022-07-12T22:23:21.000",
    "request_status": "Pending",
    "responsible_agency": "Department of Sanitation",
    "final_address": "5899 Bellaire Dr",
    "address_councildis": "A",
    "status": "Assigned to Contractor",
    "contractor": "Metro Disposal",
    "rowid": "899520",
    "final_x": "3664296.73076",
    "final_y": "547249.109777",
    "longitude": "-90.1218671755993",
    "latitude": "29.999256605308016",
    "geocoded_column": {
      "latitude": "29.999256605308016",
      "longitude": "-90.1218671755993"
    }
  },
  {
    "service_request": "2022-899519",
    "request_type": "Trash/Recycling",
    "request_reason": "MIssed Recycling Pick-Up",
    "date_created": "2022-07-12T22:13:52.000",
    "date_modified": "2022-07-12T22:13:52.000",
    "request_status": "Pending",
    "responsible_agency": "Department of Sanitation",
    "final_address": "2309 Iberville St, New Orleans, Louisiana, 70119",
    "address_councildis": "B",
    "status": "Assigned to Contractor",
    "contractor": "Richards Disposal",
    "rowid": "899519",
    "final_x": "3676907.40226",
    "final_y": "534519.047429",
    "longitude": "-90.08246872239917",
    "latitude": "29.963880696021",
    "geocoded_column": {
      "latitude": "29.963880696021",
      "longitude": "-90.08246872239917"
    }
  },
  {
    "service_request": "2022-899518",
    "request_type": "Trash/Recycling",
    "request_reason": "Replace Trash Cart",
    "date_created": "2022-07-12T22:07:59.000",
    "date_modified": "2022-07-12T22:07:59.000",
    "request_status": "Pending",
    "responsible_agency": "Department of Sanitation",
    "final_address": "2200 Charbonnet St",
    "address_councildis": "E",
    "status": "Assigned to Contractor",
    "contractor": "Metro Disposal",
    "rowid": "899518",
    "final_x": "3699659.36304",
    "final_y": "537787.7458",
    "longitude": "-90.01050147225612",
    "latitude": "29.972165886684184",
    "geocoded_column": {
      "latitude": "29.972165886684184",
      "longitude": "-90.01050147225612"
    }
  },
  {
    "service_request": "2022-899517",
    "request_type": "Trash/Recycling",
    "request_reason": "Missed Trash Pick-Up",
    "date_created": "2022-07-12T21:52:49.000",
    "date_modified": "2022-07-12T21:52:49.000",
    "request_status": "Pending",
    "responsible_agency": "Department of Sanitation",
    "final_address": "5860 Louisville St",
    "address_councildis": "A",
    "status": "Assigned to Contractor",
    "contractor": "Metro Disposal",
    "rowid": "899517",
    "final_x": "3667621.34509",
    "final_y": "546563.000081",
    "longitude": "-90.11138771293326",
    "latitude": "29.99727297042056",
    "geocoded_column": {
      "latitude": "29.99727297042056",
      "longitude": "-90.11138771293326"
    }
  },
  {
    "service_request": "2022-899515",
    "request_type": "Mosquito, Termite & Rodent Control",
    "request_reason": "Non-Rodent Complaint (Mice, Possums, Snakes)",
    "date_created": "2022-07-12T21:43:11.000",
    "date_modified": "2022-07-12T21:43:11.000",
    "request_status": "Pending",
    "responsible_agency": "Mosquito, Termite & Rodent Control Board",
    "final_address": "1925 Esplanade Ave",
    "address_councildis": "D",
    "status": "Pending",
    "rowid": "899515",
    "final_x": "3680288.83317",
    "final_y": "537423.314056",
    "longitude": "-90.07168950464929",
    "latitude": "29.971764500408025",
    "geocoded_column": {
      "latitude": "29.971764500408025",
      "longitude": "-90.07168950464929"
    }
  },
  {
    "service_request": "2022-899514",
    "request_type": "Traffic Signals/Signs/Striping/Streetlights",
    "request_reason": "Street Light Outage/Malfunction",
    "date_created": "2022-07-12T21:35:35.000",
    "date_modified": "2022-07-12T21:35:36.000",
    "request_status": "Pending",
    "responsible_agency": "Department of Public Works",
    "final_address": "3333 Pine St",
    "address_councildis": "B",
    "status": "Pending",
    "contractor": "Royal Engineering",
    "rowid": "899514",
    "final_x": "3668305.82708",
    "final_y": "533103.745988",
    "longitude": "-90.10967949949317",
    "latitude": "29.960244474211624",
    "geocoded_column": {
      "latitude": "29.960244474211624",
      "longitude": "-90.10967949949317"
    }
  },
  {
    "service_request": "2022-899513",
    "request_type": "Trash/Recycling",
    "request_reason": "Replace Trash Cart",
    "date_created": "2022-07-12T21:28:57.000",
    "date_modified": "2022-07-12T21:28:58.000",
    "request_status": "Pending",
    "responsible_agency": "Department of Sanitation",
    "final_address": "2113 Selma St",
    "address_councildis": "D",
    "status": "Assigned to Contractor",
    "contractor": "Metro Disposal",
    "rowid": "899513",
    "final_x": "3683140.72181",
    "final_y": "551478.431445",
    "longitude": "-90.06219038763302",
    "latitude": "30.010324438135097",
    "geocoded_column": {
      "latitude": "30.010324438135097",
      "longitude": "-90.06219038763302"
    }
  },
  {
    "service_request": "2022-899512",
    "request_type": "Trash/Recycling",
    "request_reason": "Missed Trash Pick-Up",
    "date_created": "2022-07-12T21:25:23.000",
    "date_modified": "2022-07-12T21:25:23.000",
    "request_status": "Pending",
    "responsible_agency": "Department of Sanitation",
    "final_address": "420 Leslie Ln",
    "address_councildis": "A",
    "status": "Assigned to Contractor",
    "contractor": "Metro Disposal",
    "rowid": "899512",
    "final_x": "3664399.2281",
    "final_y": "547350.339473",
    "longitude": "-90.12154000055757",
    "latitude": "29.999531972151598",
    "geocoded_column": {
      "latitude": "29.999531972151598",
      "longitude": "-90.12154000055757"
    }
  },
  {
    "service_request": "2022-899511",
    "request_type": "Trash/Recycling",
    "request_reason": "Start Trash Service",
    "date_created": "2022-07-12T21:08:54.000",
    "date_modified": "2022-07-12T21:08:55.000",
    "request_status": "Pending",
    "responsible_agency": "Department of Sanitation",
    "final_address": "2932 Ursulines Ave",
    "address_councildis": "A",
    "status": "Assigned to Contractor",
    "contractor": "Richards Disposal",
    "rowid": "899511",
    "final_x": "3676566.37665",
    "final_y": "538877.741705",
    "longitude": "-90.08339550168891",
    "latitude": "29.97587585289125",
    "geocoded_column": {
      "latitude": "29.97587585289125",
      "longitude": "-90.08339550168891"
    }
  },
  {
    "service_request": "2022-899510",
    "request_type": "Trash/Recycling",
    "request_reason": "Order Trash Cart",
    "date_created": "2022-07-12T21:00:58.000",
    "date_modified": "2022-07-12T21:00:59.000",
    "request_status": "Pending",
    "responsible_agency": "Department of Sanitation",
    "final_address": "3546 Meadow Park Ln",
    "address_councildis": "C",
    "status": "Assigned to Contractor",
    "contractor": "Richards Disposal",
    "rowid": "899510",
    "final_x": "3704077.92497",
    "final_y": "511326.726704",
    "longitude": "-89.99752125143124",
    "latitude": "29.89926637698954",
    "geocoded_column": {
      "latitude": "29.89926637698954",
      "longitude": "-89.99752125143124"
    }
  },
  {
    "service_request": "2022-899508",
    "request_type": "Traffic Signals/Signs/Striping/Streetlights",
    "request_reason": "Street Light Outage/Malfunction",
    "date_created": "2022-07-12T20:51:27.000",
    "date_modified": "2022-07-12T20:51:28.000",
    "request_status": "Pending",
    "responsible_agency": "Department of Public Works",
    "final_address": "LOMBARD ST & PEOPLES AVE",
    "address_councildis": "D",
    "status": "Pending",
    "contractor": "Royal Engineering",
    "rowid": "899508",
    "final_x": "3688250.9",
    "final_y": "549766.38",
    "longitude": "-90.04610622373151",
    "latitude": "30.005460056379203",
    "geocoded_column": {
      "latitude": "30.005460056379203",
      "longitude": "-90.04610622373151"
    }
  },
  {
    "service_request": "2022-899507",
    "request_type": "Trash/Recycling",
    "request_reason": "Request a Large Item Pick Up",
    "date_created": "2022-07-12T20:51:26.000",
    "date_modified": "2022-07-12T20:51:27.000",
    "request_status": "Pending",
    "responsible_agency": "Department of Sanitation",
    "final_address": "4600 S Carrollton Ave",
    "address_councildis": "A",
    "status": "Assigned to Contractor",
    "contractor": "Richards Disposal",
    "rowid": "899507",
    "final_x": "3670699.83188",
    "final_y": "537699.072712",
    "longitude": "-90.10196377310788",
    "latitude": "29.97280957135734",
    "geocoded_column": {
      "latitude": "29.97280957135734",
      "longitude": "-90.10196377310788"
    }
  },
  {
    "service_request": "2022-899506",
    "request_type": "Trash/Recycling",
    "request_reason": "Missed Trash Pick-Up",
    "date_created": "2022-07-12T20:48:53.000",
    "date_modified": "2022-07-12T20:48:53.000",
    "request_status": "Pending",
    "responsible_agency": "Department of Sanitation",
    "final_address": "360 Leslie Ln",
    "address_councildis": "A",
    "status": "Assigned to Contractor",
    "contractor": "Metro Disposal",
    "rowid": "899506",
    "final_x": "3664659.42522",
    "final_y": "547336.598545",
    "longitude": "-90.1207184848632",
    "latitude": "29.999486620435047",
    "geocoded_column": {
      "latitude": "29.999486620435047",
      "longitude": "-90.1207184848632"
    }
  },
  {
    "service_request": "2022-899505",
    "request_type": "Trash/Recycling",
    "request_reason": "Replace Trash Cart",
    "date_created": "2022-07-12T20:48:13.000",
    "date_modified": "2022-07-12T20:48:15.000",
    "request_status": "Pending",
    "responsible_agency": "Department of Sanitation",
    "final_address": "5248 Basinview Dr",
    "address_councildis": "E",
    "status": "Assigned to Contractor",
    "contractor": "Metro Disposal",
    "rowid": "899505",
    "final_x": "3698933.43312",
    "final_y": "556986.12521",
    "longitude": "-90.01209493965621",
    "latitude": "30.02497732370809",
    "geocoded_column": {
      "latitude": "30.02497732370809",
      "longitude": "-90.01209493965621"
    }
  },
  {
    "service_request": "2022-899504",
    "request_type": "Trash/Recycling",
    "request_reason": "Missed Trash Pick-Up",
    "date_created": "2022-07-12T20:47:01.000",
    "date_modified": "2022-07-12T20:47:01.000",
    "request_status": "Pending",
    "responsible_agency": "Department of Sanitation",
    "final_address": "7310 Sardonyx St",
    "address_councildis": "D",
    "status": "Assigned to Contractor",
    "contractor": "Metro Disposal",
    "rowid": "899504",
    "final_x": "3669508.51329",
    "final_y": "555629.360793",
    "longitude": "-90.10511921001164",
    "latitude": "30.022146806191035",
    "geocoded_column": {
      "latitude": "30.022146806191035",
      "longitude": "-90.10511921001164"
    }
  },
  {
    "service_request": "2022-899503",
    "request_type": "Trash/Recycling",
    "request_reason": "Missed Trash Pick-Up",
    "date_created": "2022-07-12T20:45:21.000",
    "date_modified": "2022-07-12T20:45:22.000",
    "request_status": "Pending",
    "responsible_agency": "Department of Sanitation",
    "final_address": "5816 Bellaire Dr",
    "address_councildis": "A",
    "status": "Assigned to Contractor",
    "contractor": "Metro Disposal",
    "rowid": "899503",
    "final_x": "3664071.1673",
    "final_y": "546746.802321",
    "longitude": "-90.12259650620211",
    "latitude": "29.997881987134022",
    "geocoded_column": {
      "latitude": "29.997881987134022",
      "longitude": "-90.12259650620211"
    }
  },
  {
    "service_request": "2022-899502",
    "request_type": "Trash/Recycling",
    "request_reason": "Request a Large Item Pick Up",
    "date_created": "2022-07-12T20:16:09.000",
    "date_modified": "2022-07-12T20:16:10.000",
    "request_status": "Pending",
    "responsible_agency": "Department of Sanitation",
    "final_address": "825 Atlantic Ave",
    "address_councildis": "C",
    "status": "Assigned to Contractor",
    "contractor": "Richards Disposal",
    "rowid": "899502",
    "final_x": "3688694.51292",
    "final_y": "528482.119744",
    "longitude": "-90.04546052170087",
    "latitude": "29.94692215194199",
    "geocoded_column": {
      "latitude": "29.94692215194199",
      "longitude": "-90.04546052170087"
    }
  },
  {
    "service_request": "2022-899501",
    "request_type": "Roads/Drainage",
    "request_reason": "Catch Basin - Clogged",
    "date_created": "2022-07-12T20:14:33.000",
    "date_modified": "2022-07-12T20:14:33.000",
    "request_status": "Pending",
    "responsible_agency": "Department of Public Works",
    "final_address": "1028 Eliza St",
    "address_councildis": "C",
    "status": "Pending",
    "rowid": "899501",
    "final_x": "3688665.68547",
    "final_y": "529935.045377",
    "longitude": "-90.04549998140911",
    "latitude": "29.95091809049814",
    "geocoded_column": {
      "latitude": "29.95091809049814",
      "longitude": "-90.04549998140911"
    }
  },
  {
    "service_request": "2022-899500",
    "request_type": "Traffic Signals/Signs/Striping/Streetlights",
    "request_reason": "Street Light Outage/Malfunction",
    "date_created": "2022-07-12T20:12:14.000",
    "date_modified": "2022-07-12T20:12:15.000",
    "request_status": "Pending",
    "responsible_agency": "Department of Public Works",
    "final_address": "1028 Eliza St",
    "address_councildis": "C",
    "status": "Pending",
    "contractor": "Royal Engineering",
    "rowid": "899500",
    "final_x": "3688665.68547",
    "final_y": "529935.045377",
    "longitude": "-90.04549998140911",
    "latitude": "29.95091809049814",
    "geocoded_column": {
      "latitude": "29.95091809049814",
      "longitude": "-90.04549998140911"
    }
  },
  {
    "service_request": "2022-899499",
    "request_type": "Roads/Drainage",
    "request_reason": "Catch Basin - Clogged",
    "date_created": "2022-07-12T20:08:52.000",
    "date_modified": "2022-07-12T20:08:52.000",
    "request_status": "Pending",
    "responsible_agency": "Department of Public Works",
    "final_address": "1028 Eliza St",
    "address_councildis": "C",
    "status": "Pending",
    "rowid": "899499",
    "final_x": "3688665.68547",
    "final_y": "529935.045377",
    "longitude": "-90.04549998140911",
    "latitude": "29.95091809049814",
    "geocoded_column": {
      "latitude": "29.95091809049814",
      "longitude": "-90.04549998140911"
    }
  },
  {
    "service_request": "2022-899498",
    "request_type": "Trash/Recycling",
    "request_reason": "Missed Trash Pick-Up",
    "date_created": "2022-07-12T20:08:46.000",
    "date_modified": "2022-07-12T20:08:46.000",
    "request_status": "Pending",
    "responsible_agency": "Department of Sanitation",
    "final_address": "5801 Marcia Ave",
    "address_councildis": "A",
    "status": "Assigned to Contractor",
    "contractor": "Metro Disposal",
    "rowid": "899498",
    "final_x": "3664856.64474",
    "final_y": "546396.05864",
    "longitude": "-90.12012691816523",
    "latitude": "29.99689471755044",
    "geocoded_column": {
      "latitude": "29.99689471755044",
      "longitude": "-90.12012691816523"
    }
  },
  {
    "service_request": "2022-899497",
    "request_type": "Trash/Recycling",
    "request_reason": "Request a Large Item Pick Up",
    "date_created": "2022-07-12T20:07:57.000",
    "date_modified": "2022-07-12T20:07:57.000",
    "request_status": "Pending",
    "responsible_agency": "Department of Sanitation",
    "final_address": "1925 Napoleon Ave",
    "address_councildis": "B",
    "status": "Assigned to Contractor",
    "contractor": "Richards Disposal",
    "rowid": "899497",
    "final_x": "3670832.46574",
    "final_y": "522163.044858",
    "longitude": "-90.10207212455205",
    "latitude": "29.930086683036908",
    "geocoded_column": {
      "latitude": "29.930086683036908",
      "longitude": "-90.10207212455205"
    }
  },
  {
    "service_request": "2022-899496",
    "request_type": "Trash/Recycling",
    "request_reason": "Illegal Dumping",
    "date_created": "2022-07-12T20:02:55.000",
    "date_modified": "2022-07-12T20:02:55.000",
    "request_status": "Pending",
    "responsible_agency": "Department of Sanitation",
    "final_address": "1028 Eliza St",
    "address_councildis": "C",
    "status": "Pending",
    "rowid": "899496",
    "final_x": "3688665.68547",
    "final_y": "529935.045377",
    "longitude": "-90.04549998140911",
    "latitude": "29.95091809049814",
    "geocoded_column": {
      "latitude": "29.95091809049814",
      "longitude": "-90.04549998140911"
    }
  },
  {
    "service_request": "2022-899495",
    "request_type": "Abandoned Vehicles",
    "request_reason": "Abandoned/Junk Vehicles",
    "date_created": "2022-07-12T19:57:06.000",
    "date_modified": "2022-07-12T19:57:06.000",
    "request_status": "Pending",
    "responsible_agency": "Department of Public Works",
    "final_address": "1626 Congress St",
    "address_councildis": "D",
    "status": "Pending",
    "rowid": "899495",
    "final_x": "3691201.5912",
    "final_y": "537700.049544",
    "longitude": "-90.03721556662941",
    "latitude": "29.972190523754293",
    "geocoded_column": {
      "latitude": "29.972190523754293",
      "longitude": "-90.03721556662941"
    }
  },
  {
    "service_request": "2022-899494",
    "request_type": "Trash/Recycling",
    "request_reason": "MIssed Recycling Pick-Up",
    "date_created": "2022-07-12T19:55:31.000",
    "date_modified": "2022-07-12T19:55:32.000",
    "request_status": "Pending",
    "responsible_agency": "Department of Sanitation",
    "final_address": "1924 Conti St",
    "address_councildis": "B",
    "status": "Assigned to Contractor",
    "contractor": "Richards Disposal",
    "rowid": "899494",
    "final_x": "3678308.20539",
    "final_y": "534268.424197",
    "longitude": "-90.07805378800992",
    "latitude": "29.963149445172075",
    "geocoded_column": {
      "latitude": "29.963149445172075",
      "longitude": "-90.07805378800992"
    }
  },
  {
    "service_request": "2022-899493",
    "request_type": "Roads/Drainage",
    "request_reason": "Street Flooding / Drainage",
    "date_created": "2022-07-12T19:53:37.000",
    "date_modified": "2022-07-12T19:53:37.000",
    "request_status": "Closed",
    "responsible_agency": "Department of Public Works",
    "final_address": "1225 St Andrew St",
    "address_councildis": "B",
    "status": "Resolved",
    "rowid": "899493",
    "final_x": "3679157.64757",
    "final_y": "523053.303099",
    "longitude": "-90.0757600446938",
    "latitude": "29.932285995337537",
    "geocoded_column": {
      "latitude": "29.932285995337537",
      "longitude": "-90.0757600446938"
    }
  },
  {
    "service_request": "2022-899492",
    "request_type": "Abandoned Vehicles",
    "request_reason": "Abandoned/Junk Vehicles",
    "date_created": "2022-07-12T19:53:05.000",
    "date_modified": "2022-07-12T19:53:05.000",
    "request_status": "Pending",
    "responsible_agency": "Department of Public Works",
    "final_address": "1619 Congress St",
    "address_councildis": "D",
    "status": "Pending",
    "rowid": "899492",
    "final_x": "3691254.81929",
    "final_y": "537567.36916",
    "longitude": "-90.03705220440513",
    "latitude": "29.971824043994022",
    "geocoded_column": {
      "latitude": "29.971824043994022",
      "longitude": "-90.03705220440513"
    }
  },
  {
    "service_request": "2022-899491",
    "request_type": "Property Maintenance",
    "request_reason": "Property Maintenance",
    "date_created": "2022-07-12T19:50:40.000",
    "date_modified": "2022-07-12T19:50:40.000",
    "request_status": "Pending",
    "responsible_agency": "Department of Code Enforcement",
    "final_address": "4103 N Claiborne Ave",
    "address_councildis": "D",
    "status": "Pending",
    "rowid": "899491",
    "final_x": "3692615.33609",
    "final_y": "537124.439944",
    "longitude": "-90.03277137418692",
    "latitude": "29.970563754496176",
    "geocoded_column": {
      "latitude": "29.970563754496176",
      "longitude": "-90.03277137418692"
    }
  },
  {
    "service_request": "2022-899490",
    "request_type": "Trash/Recycling",
    "request_reason": "MIssed Recycling Pick-Up",
    "date_created": "2022-07-12T19:40:34.000",
    "date_modified": "2022-07-12T19:40:35.000",
    "request_status": "Pending",
    "responsible_agency": "Department of Sanitation",
    "final_address": "2540 Palmyra St",
    "address_councildis": "B",
    "status": "Assigned to Contractor",
    "contractor": "Richards Disposal",
    "rowid": "899490",
    "final_x": "3675347.49729",
    "final_y": "534023.596549",
    "longitude": "-90.08741177263461",
    "latitude": "29.96256510429831",
    "geocoded_column": {
      "latitude": "29.96256510429831",
      "longitude": "-90.08741177263461"
    }
  },
  {
    "service_request": "2022-899489",
    "request_type": "Roads/Drainage",
    "request_reason": "Street Flooding / Drainage",
    "date_created": "2022-07-12T19:39:57.000",
    "date_modified": "2022-07-12T19:39:57.000",
    "request_status": "Pending",
    "responsible_agency": "Department of Public Works",
    "final_address": "1415 St Mary St",
    "address_councildis": "B",
    "status": "Pending",
    "rowid": "899489",
    "final_x": "3679030.17077",
    "final_y": "523731.528443",
    "longitude": "-90.07613898528018",
    "latitude": "29.9341547384794",
    "geocoded_column": {
      "latitude": "29.9341547384794",
      "longitude": "-90.07613898528018"
    }
  },
  {
    "service_request": "2022-899488",
    "request_type": "Trash/Recycling",
    "request_reason": "Replace Trash Cart",
    "date_created": "2022-07-12T19:37:34.000",
    "date_modified": "2022-07-12T19:37:35.000",
    "request_status": "Pending",
    "responsible_agency": "Department of Sanitation",
    "final_address": "3641 River Oaks Dr",
    "address_councildis": "C",
    "status": "Assigned to Contractor",
    "contractor": "Richards Disposal",
    "rowid": "899488",
    "final_x": "3701285.80951",
    "final_y": "517504.48095",
    "longitude": "-90.00610689804657",
    "latitude": "29.916342316047697",
    "geocoded_column": {
      "latitude": "29.916342316047697",
      "longitude": "-90.00610689804657"
    }
  },
  {
    "service_request": "2022-899487",
    "request_type": "Trash/Recycling",
    "request_reason": "Missed Trash Pick-Up",
    "date_created": "2022-07-12T19:37:09.000",
    "date_modified": "2022-07-12T19:37:10.000",
    "request_status": "Pending",
    "responsible_agency": "Department of Sanitation",
    "final_address": "5609 Hawthorne Pl",
    "address_councildis": "A",
    "status": "Assigned to Contractor",
    "contractor": "Metro Disposal",
    "rowid": "899487",
    "final_x": "3667888.93325",
    "final_y": "544707.946447",
    "longitude": "-90.11060494186472",
    "latitude": "29.992164361099633",
    "geocoded_column": {
      "latitude": "29.992164361099633",
      "longitude": "-90.11060494186472"
    }
  },
  {
    "service_request": "2022-899486",
    "request_type": "Traffic Signals/Signs/Striping/Streetlights",
    "request_reason": "Street Light Outage/Malfunction",
    "date_created": "2022-07-12T19:30:26.000",
    "date_modified": "2022-07-12T19:30:27.000",
    "request_status": "Pending",
    "responsible_agency": "Department of Public Works",
    "final_address": "2400 BLK Jackson Ave",
    "address_councildis": "B",
    "status": "Pending",
    "contractor": "Royal Engineering",
    "rowid": "899486",
    "final_x": "3675520.70601",
    "final_y": "526434.344557",
    "longitude": "-90.0871254531702",
    "latitude": "29.94169200758567",
    "geocoded_column": {
      "latitude": "29.94169200758567",
      "longitude": "-90.0871254531702"
    }
  },
  {
    "service_request": "2022-899485",
    "request_type": "Trash/Recycling",
    "request_reason": "Missed Trash Pick-Up",
    "date_created": "2022-07-12T19:22:14.000",
    "date_modified": "2022-07-12T19:22:15.000",
    "request_status": "Pending",
    "responsible_agency": "Department of Sanitation",
    "final_address": "6236 Pontchartrain Blvd",
    "address_councildis": "A",
    "status": "Assigned to Contractor",
    "contractor": "Metro Disposal",
    "rowid": "899485",
    "final_x": "3666140.49153",
    "final_y": "549362.488147",
    "longitude": "-90.11597173689881",
    "latitude": "30.005013936827794",
    "geocoded_column": {
      "latitude": "30.005013936827794",
      "longitude": "-90.11597173689881"
    }
  },
  {
    "service_request": "2022-899484",
    "request_type": "Mosquito, Termite & Rodent Control",
    "request_reason": "Non-Rodent Complaint (Mice, Possums, Snakes)",
    "date_created": "2022-07-12T19:19:07.000",
    "date_modified": "2022-07-12T19:19:07.000",
    "request_status": "Pending",
    "responsible_agency": "Mosquito, Termite & Rodent Control Board",
    "final_address": "2432 Music St",
    "address_councildis": "D",
    "status": "Pending",
    "rowid": "899484",
    "final_x": "3686407.09634",
    "final_y": "541530.322764",
    "longitude": "-90.05222210760914",
    "latitude": "29.982870678001746",
    "geocoded_column": {
      "latitude": "29.982870678001746",
      "longitude": "-90.05222210760914"
    }
  },
  {
    "service_request": "2022-899483",
    "request_type": "Trash/Recycling",
    "request_reason": "Missed Trash Pick-Up",
    "date_created": "2022-07-12T19:14:43.000",
    "date_modified": "2022-07-12T19:14:44.000",
    "request_status": "Pending",
    "responsible_agency": "Department of Sanitation",
    "final_address": "6361 Louisville St",
    "address_councildis": "A",
    "status": "Assigned to Contractor",
    "contractor": "Metro Disposal",
    "rowid": "899483",
    "final_x": "3668066.15316",
    "final_y": "549814.744788",
    "longitude": "-90.10987289640458",
    "latitude": "30.006201090675304",
    "geocoded_column": {
      "latitude": "30.006201090675304",
      "longitude": "-90.10987289640458"
    }
  },
  {
    "service_request": "2022-899482",
    "request_type": "Trash/Recycling",
    "request_reason": "Missed Trash Pick-Up",
    "date_created": "2022-07-12T19:14:17.000",
    "date_modified": "2022-07-12T19:14:18.000",
    "request_status": "Pending",
    "responsible_agency": "Department of Sanitation",
    "final_address": "871 Topaz St",
    "address_councildis": "D",
    "status": "Assigned to Contractor",
    "contractor": "Metro Disposal",
    "rowid": "899482",
    "final_x": "3670730.00161",
    "final_y": "556772.790298",
    "longitude": "-90.10122075241216",
    "latitude": "30.025254770092427",
    "geocoded_column": {
      "latitude": "30.025254770092427",
      "longitude": "-90.10122075241216"
    }
  },
  {
    "service_request": "2022-899481",
    "request_type": "Trash/Recycling",
    "request_reason": "Missed Trash Pick-Up",
    "date_created": "2022-07-12T19:13:36.000",
    "date_modified": "2022-07-12T19:13:37.000",
    "request_status": "Pending",
    "responsible_agency": "Department of Sanitation",
    "final_address": "508 Florida Blvd",
    "address_councildis": "A",
    "status": "Assigned to Contractor",
    "contractor": "Metro Disposal",
    "rowid": "899481",
    "final_x": "3667639.78017",
    "final_y": "545342.262352",
    "longitude": "-90.11137060155623",
    "latitude": "29.993915820676403",
    "geocoded_column": {
      "latitude": "29.993915820676403",
      "longitude": "-90.11137060155623"
    }
  },
  {
    "service_request": "2022-899480",
    "request_type": "Roads/Drainage",
    "request_reason": "Catch Basin - Clogged",
    "date_created": "2022-07-12T19:09:43.000",
    "date_modified": "2022-07-12T19:09:43.000",
    "request_status": "Pending",
    "responsible_agency": "Department of Public Works",
    "final_address": "3801 Annunciation St",
    "address_councildis": "B",
    "status": "Pending",
    "rowid": "899480",
    "final_x": "3673572.6363",
    "final_y": "518141.996982",
    "longitude": "-90.09355918443042",
    "latitude": "29.918948845208522",
    "geocoded_column": {
      "latitude": "29.918948845208522",
      "longitude": "-90.09355918443042"
    }
  },
  {
    "service_request": "2022-899479",
    "request_type": "Roads/Drainage",
    "request_reason": "Street Subsidence (Sinking)",
    "date_created": "2022-07-12T19:08:53.000",
    "date_modified": "2022-07-12T19:08:53.000",
    "request_status": "Pending",
    "responsible_agency": "Department of Public Works",
    "final_address": "2129 Louisiana Ave",
    "address_councildis": "B",
    "status": "Pending",
    "rowid": "899479",
    "final_x": "3673510.2306",
    "final_y": "523465.577659",
    "longitude": "-90.09357435610033",
    "latitude": "29.933588836312513",
    "geocoded_column": {
      "latitude": "29.933588836312513",
      "longitude": "-90.09357435610033"
    }
  },
  {
    "service_request": "2022-899477",
    "request_type": "Parks & Parkways",
    "request_reason": "Request Grass Cutting Service (City Owned Property)",
    "date_created": "2022-07-12T19:06:29.000",
    "date_modified": "2022-07-12T19:06:29.000",
    "request_status": "Pending",
    "responsible_agency": "Department of Parks & Parkway",
    "final_address": "2129 Louisiana Ave",
    "address_councildis": "B",
    "status": "Pending",
    "rowid": "899477",
    "final_x": "3673510.2306",
    "final_y": "523465.577659",
    "longitude": "-90.09357435610033",
    "latitude": "29.933588836312513",
    "geocoded_column": {
      "latitude": "29.933588836312513",
      "longitude": "-90.09357435610033"
    }
  },
  {
    "service_request": "2022-899476",
    "request_type": "Roads/Drainage",
    "request_reason": "Street Flooding / Drainage",
    "date_created": "2022-07-12T19:05:59.000",
    "date_modified": "2022-07-12T19:05:59.000",
    "request_status": "Pending",
    "responsible_agency": "Department of Public Works",
    "final_address": "315 N Johnson St",
    "address_councildis": "B",
    "status": "Pending",
    "rowid": "899476",
    "final_x": "3677804.42357",
    "final_y": "534430.579781",
    "longitude": "-90.0796390695966",
    "latitude": "29.963610483750937",
    "geocoded_column": {
      "latitude": "29.963610483750937",
      "longitude": "-90.0796390695966"
    }
  },
  {
    "service_request": "2022-899475",
    "request_type": "Parks & Parkways",
    "request_reason": "Request Tree Service (Right of Way/Public Property)",
    "date_created": "2022-07-12T19:04:55.000",
    "date_modified": "2022-07-12T19:04:55.000",
    "request_status": "Pending",
    "responsible_agency": "Department of Parks & Parkway",
    "final_address": "2129 Louisiana Ave",
    "address_councildis": "B",
    "status": "Pending",
    "rowid": "899475",
    "final_x": "3673510.2306",
    "final_y": "523465.577659",
    "longitude": "-90.09357435610033",
    "latitude": "29.933588836312513",
    "geocoded_column": {
      "latitude": "29.933588836312513",
      "longitude": "-90.09357435610033"
    }
  },
  {
    "service_request": "2022-899474",
    "request_type": "Roads/Drainage",
    "request_reason": "Catch Basin - Clogged",
    "date_created": "2022-07-12T19:03:34.000",
    "date_modified": "2022-07-12T19:03:34.000",
    "request_status": "Pending",
    "responsible_agency": "Department of Public Works",
    "final_address": "315 N Johnson St",
    "address_councildis": "B",
    "status": "Pending",
    "rowid": "899474",
    "final_x": "3677804.42357",
    "final_y": "534430.579781",
    "longitude": "-90.0796390695966",
    "latitude": "29.963610483750937",
    "geocoded_column": {
      "latitude": "29.963610483750937",
      "longitude": "-90.0796390695966"
    }
  },
  {
    "service_request": "2022-899473",
    "request_type": "Parks & Parkways",
    "request_reason": "Request Tree Service (Right of Way/Public Property)",
    "date_created": "2022-07-12T19:03:31.000",
    "date_modified": "2022-07-12T19:03:31.000",
    "request_status": "Pending",
    "responsible_agency": "Department of Parks & Parkway",
    "final_address": "2800 S Claiborne Ave",
    "address_councildis": "B",
    "status": "Pending",
    "rowid": "899473",
    "final_x": "3673171.69089",
    "final_y": "526576.126206",
    "longitude": "-90.0945369451756",
    "latitude": "29.942151899503116",
    "geocoded_column": {
      "latitude": "29.942151899503116",
      "longitude": "-90.0945369451756"
    }
  },
  {
    "service_request": "2022-899472",
    "request_type": "Trash/Recycling",
    "request_reason": "Missed Trash Pick-Up",
    "date_created": "2022-07-12T19:02:33.000",
    "date_modified": "2022-07-12T19:02:34.000",
    "request_status": "Pending",
    "responsible_agency": "Department of Sanitation",
    "final_address": "754 Topaz St",
    "address_councildis": "D",
    "status": "Assigned to Contractor",
    "contractor": "Metro Disposal",
    "rowid": "899472",
    "final_x": "3670107.69025",
    "final_y": "556361.584986",
    "longitude": "-90.10320111684338",
    "latitude": "30.02414248773799",
    "geocoded_column": {
      "latitude": "30.02414248773799",
      "longitude": "-90.10320111684338"
    }
  },
  {
    "service_request": "2022-899471",
    "request_type": "Parks & Parkways",
    "request_reason": "Request Grass Cutting Service (City Owned Property)",
    "date_created": "2022-07-12T19:01:58.000",
    "date_modified": "2022-07-12T19:01:58.000",
    "request_status": "Pending",
    "responsible_agency": "Department of Parks & Parkway",
    "final_address": "2127 Louisiana Ave",
    "address_councildis": "B",
    "status": "Pending",
    "rowid": "899471",
    "final_x": "3673516.62926",
    "final_y": "523449.891515",
    "longitude": "-90.09355469163722",
    "latitude": "29.933545514138235",
    "geocoded_column": {
      "latitude": "29.933545514138235",
      "longitude": "-90.09355469163722"
    }
  },
  {
    "service_request": "2022-899470",
    "request_type": "Property Maintenance",
    "request_reason": "Property Maintenance",
    "date_created": "2022-07-12T18:58:50.000",
    "date_modified": "2022-07-12T18:58:50.000",
    "request_status": "Pending",
    "responsible_agency": "Department of Code Enforcement",
    "final_address": "2416 St Ann St",
    "address_councildis": "D",
    "status": "Pending",
    "rowid": "899470",
    "final_x": "3677844.67733",
    "final_y": "536437.885511",
    "longitude": "-90.07944258626746",
    "latitude": "29.969128680429044",
    "geocoded_column": {
      "latitude": "29.969128680429044",
      "longitude": "-90.07944258626746"
    }
  },
  {
    "service_request": "2022-899469",
    "request_type": "Trash/Recycling",
    "request_reason": "Missed Trash Pick-Up",
    "date_created": "2022-07-12T18:49:26.000",
    "date_modified": "2022-07-12T18:49:26.000",
    "request_status": "Pending",
    "responsible_agency": "Department of Sanitation",
    "final_address": "6560 Catina St",
    "address_councildis": "A",
    "status": "Assigned to Contractor",
    "contractor": "Metro Disposal",
    "rowid": "899469",
    "final_x": "3666908.17607",
    "final_y": "551386.235669",
    "longitude": "-90.11347838901612",
    "latitude": "30.010556089200083",
    "geocoded_column": {
      "latitude": "30.010556089200083",
      "longitude": "-90.11347838901612"
    }
  },
  {
    "service_request": "2022-899468",
    "request_type": "Trash/Recycling",
    "request_reason": "Missed Trash Pick-Up",
    "date_created": "2022-07-12T18:46:44.000",
    "date_modified": "2022-07-12T18:46:44.000",
    "request_status": "Pending",
    "responsible_agency": "Department of Sanitation",
    "final_address": "730 Emerald St",
    "address_councildis": "D",
    "status": "Assigned to Contractor",
    "contractor": "Metro Disposal",
    "rowid": "899468",
    "final_x": "3669890.57863",
    "final_y": "554862.918744",
    "longitude": "-90.10393795922892",
    "latitude": "30.020028097572176",
    "geocoded_column": {
      "latitude": "30.020028097572176",
      "longitude": "-90.10393795922892"
    }
  },
  {
    "service_request": "2022-899467",
    "request_type": "Roads/Drainage",
    "request_reason": "Pothole",
    "date_created": "2022-07-12T18:41:34.000",
    "date_modified": "2022-07-12T18:41:34.000",
    "request_status": "Pending",
    "responsible_agency": "Department of Public Works",
    "final_address": "4334 Stemway Dr",
    "address_councildis": "D",
    "status": "Pending",
    "rowid": "899467",
    "final_x": "3697153.73565",
    "final_y": "551880.561686",
    "longitude": "-90.01790367207157",
    "latitude": "30.01099525991169",
    "geocoded_column": {
      "latitude": "30.01099525991169",
      "longitude": "-90.01790367207157"
    }
  },
  {
    "service_request": "2022-899466",
    "request_type": "Trash/Recycling",
    "request_reason": "MIssed Recycling Pick-Up",
    "date_created": "2022-07-12T18:23:57.000",
    "date_modified": "2022-07-12T18:23:57.000",
    "request_status": "Pending",
    "responsible_agency": "Department of Sanitation",
    "final_address": "234 S Norman C Francis Pkwy, New Orleans, Louisiana, 70119",
    "status": "Assigned to Contractor",
    "rowid": "899466",
    "longitude": "0.0",
    "latitude": "0.0",
    "geocoded_column": {
      "latitude": "0.0",
      "longitude": "0.0"
    }
  },
  {
    "service_request": "2022-899465",
    "request_type": "Trash/Recycling",
    "request_reason": "Missed Trash Pick-Up",
    "date_created": "2022-07-12T18:19:55.000",
    "date_modified": "2022-07-12T18:19:56.000",
    "request_status": "Pending",
    "responsible_agency": "Department of Sanitation",
    "final_address": "5430 Milne St",
    "address_councildis": "A",
    "status": "Assigned to Contractor",
    "contractor": "Metro Disposal",
    "rowid": "899465",
    "final_x": "3666594.89543",
    "final_y": "543760.938446",
    "longitude": "-90.11472437851896",
    "latitude": "29.989598317607754",
    "geocoded_column": {
      "latitude": "29.989598317607754",
      "longitude": "-90.11472437851896"
    }
  },
  {
    "service_request": "2022-899464",
    "request_type": "Trash/Recycling",
    "request_reason": "Missed Trash Pick-Up",
    "date_created": "2022-07-12T18:19:21.000",
    "date_modified": "2022-07-12T18:19:21.000",
    "request_status": "Pending",
    "responsible_agency": "Department of Sanitation",
    "final_address": "921 Emerald St",
    "address_councildis": "D",
    "status": "Assigned to Contractor",
    "contractor": "Metro Disposal",
    "rowid": "899464",
    "final_x": "3670855.93435",
    "final_y": "554929.307224",
    "longitude": "-90.10088547721307",
    "latitude": "30.02018212750014",
    "geocoded_column": {
      "latitude": "30.02018212750014",
      "longitude": "-90.10088547721307"
    }
  },
  {
    "service_request": "2022-899463",
    "request_type": "Trash/Recycling",
    "request_reason": "Missed Trash Pick-Up",
    "date_created": "2022-07-12T18:16:58.000",
    "date_modified": "2022-07-12T18:16:59.000",
    "request_status": "Pending",
    "responsible_agency": "Department of Sanitation",
    "final_address": "6019 Louisville St",
    "address_councildis": "A",
    "status": "Assigned to Contractor",
    "contractor": "Metro Disposal",
    "rowid": "899463",
    "final_x": "3667841.35745",
    "final_y": "547492.885522",
    "longitude": "-90.11066135540084",
    "latitude": "29.999823381258206",
    "geocoded_column": {
      "latitude": "29.999823381258206",
      "longitude": "-90.11066135540084"
    }
  },
  {
    "service_request": "2022-899462",
    "request_type": "Trash/Recycling",
    "request_reason": "Request a Large Item Pick Up",
    "date_created": "2022-07-12T18:14:20.000",
    "date_modified": "2022-07-12T18:14:20.000",
    "request_status": "Pending",
    "responsible_agency": "Department of Sanitation",
    "final_address": "12310 Carmel Pl",
    "address_councildis": "E",
    "status": "Assigned to Contractor",
    "contractor": "Metro Disposal",
    "rowid": "899462",
    "final_x": "3715823.54373",
    "final_y": "566469.189859",
    "longitude": "-89.95836594580753",
    "latitude": "30.050505606448535",
    "geocoded_column": {
      "latitude": "30.050505606448535",
      "longitude": "-89.95836594580753"
    }
  },
  {
    "service_request": "2022-899461",
    "request_type": "Trash/Recycling",
    "request_reason": "MIssed Recycling Pick-Up",
    "date_created": "2022-07-12T18:12:38.000",
    "date_modified": "2022-07-12T18:12:38.000",
    "request_status": "Pending",
    "responsible_agency": "Department of Sanitation",
    "final_address": "3729 Baudin St",
    "address_councildis": "B",
    "status": "Assigned to Contractor",
    "contractor": "Richards Disposal",
    "rowid": "899461",
    "final_x": "3671200.85748",
    "final_y": "536300.205959",
    "longitude": "-90.1004289720538",
    "latitude": "29.968948344270064",
    "geocoded_column": {
      "latitude": "29.968948344270064",
      "longitude": "-90.1004289720538"
    }
  },
  {
    "service_request": "2022-899460",
    "request_type": "Roads/Drainage",
    "request_reason": "Street Subsidence (Sinking)",
    "date_created": "2022-07-12T18:11:39.000",
    "date_modified": "2022-07-12T18:16:42.000",
    "request_status": "Pending",
    "responsible_agency": "Department of Public Works",
    "final_address": "6530 Pontchartrain Blvd, New Orleans, Louisiana, 70124",
    "address_councildis": "A",
    "rowid": "899460",
    "final_x": "3666202.03085",
    "final_y": "551575.747285",
    "longitude": "-90.11570301836039",
    "latitude": "30.01109783176945",
    "geocoded_column": {
      "latitude": "30.01109783176945",
      "longitude": "-90.11570301836039"
    }
  },
  {
    "service_request": "2022-899459",
    "request_type": "Trash/Recycling",
    "request_reason": "Missed Trash Pick-Up",
    "date_created": "2022-07-12T18:04:03.000",
    "date_modified": "2022-07-12T18:04:04.000",
    "request_status": "Pending",
    "responsible_agency": "Department of Sanitation",
    "final_address": "1132 Peniston St",
    "address_councildis": "B",
    "status": "Assigned to Contractor",
    "contractor": "Richards Disposal",
    "rowid": "899459",
    "final_x": "3673063.21588",
    "final_y": "520016.96076",
    "longitude": "-90.09510320984542",
    "latitude": "29.924119542299888",
    "geocoded_column": {
      "latitude": "29.924119542299888",
      "longitude": "-90.09510320984542"
    }
  },
  {
    "service_request": "2022-899458",
    "request_type": "Trash/Recycling",
    "request_reason": "Replace Trash Cart",
    "date_created": "2022-07-12T17:45:42.000",
    "date_modified": "2022-07-12T17:45:43.000",
    "request_status": "Pending",
    "responsible_agency": "Department of Sanitation",
    "final_address": "3710 Dumaine St",
    "address_councildis": "A",
    "status": "Assigned to Contractor",
    "contractor": "Richards Disposal",
    "rowid": "899458",
    "final_x": "3673978.86824",
    "final_y": "539883.159754",
    "longitude": "-90.09153318995807",
    "latitude": "29.97871776674738",
    "geocoded_column": {
      "latitude": "29.97871776674738",
      "longitude": "-90.09153318995807"
    }
  },
  {
    "service_request": "2022-899457",
    "request_type": "Trash/Recycling",
    "request_reason": "MIssed Recycling Pick-Up",
    "date_created": "2022-07-12T17:40:46.000",
    "date_modified": "2022-07-12T17:40:47.000",
    "request_status": "Pending",
    "responsible_agency": "Department of Sanitation",
    "final_address": "134 N Alexander St",
    "address_councildis": "A",
    "status": "Assigned to Contractor",
    "contractor": "Richards Disposal",
    "rowid": "899457",
    "final_x": "3670253.93831",
    "final_y": "539432.27457",
    "longitude": "-90.10331323336244",
    "latitude": "29.97758845966334",
    "geocoded_column": {
      "latitude": "29.97758845966334",
      "longitude": "-90.10331323336244"
    }
  },
  {
    "service_request": "2022-899456",
    "request_type": "Roads/Drainage",
    "request_reason": "Leaking Hydrant",
    "date_created": "2022-07-12T17:39:43.000",
    "date_modified": "2022-07-12T17:39:43.000",
    "request_status": "Pending",
    "responsible_agency": "Department of Public Works",
    "final_address": "4301 Saint Charles Ave, New Orleans, Louisiana, 70115",
    "status": "Pending",
    "rowid": "899456",
    "longitude": "0.0",
    "latitude": "0.0",
    "geocoded_column": {
      "latitude": "0.0",
      "longitude": "0.0"
    }
  },
  {
    "service_request": "2022-899455",
    "request_type": "Trash/Recycling",
    "request_reason": "Order Recycling Cart",
    "date_created": "2022-07-12T17:37:31.000",
    "date_modified": "2022-07-12T17:37:31.000",
    "request_status": "Pending",
    "responsible_agency": "Department of Sanitation",
    "final_address": "2020 Arts St",
    "address_councildis": "D",
    "status": "Pending",
    "rowid": "899455",
    "final_x": "3686890.5997",
    "final_y": "539981.017547",
    "longitude": "-90.05074973746181",
    "latitude": "29.978595763438282",
    "geocoded_column": {
      "latitude": "29.978595763438282",
      "longitude": "-90.05074973746181"
    }
  },
  {
    "service_request": "2022-899454",
    "request_type": "Trash/Recycling",
    "request_reason": "Missed Trash Pick-Up",
    "date_created": "2022-07-12T17:36:48.000",
    "date_modified": "2022-07-12T17:36:49.000",
    "request_status": "Pending",
    "responsible_agency": "Department of Sanitation",
    "final_address": "5524 Dayna Ct",
    "address_councildis": "A",
    "status": "Assigned to Contractor",
    "contractor": "Metro Disposal",
    "rowid": "899454",
    "final_x": "3664368.24064",
    "final_y": "544067.054542",
    "longitude": "-90.12174756285931",
    "latitude": "29.99050495874657",
    "geocoded_column": {
      "latitude": "29.99050495874657",
      "longitude": "-90.12174756285931"
    }
  },
  {
    "service_request": "2022-899453",
    "request_type": "Abandoned Vehicles",
    "request_reason": "Abandoned/Junk Vehicles",
    "date_created": "2022-07-12T17:27:14.000",
    "date_modified": "2022-07-12T17:27:14.000",
    "request_status": "Pending",
    "responsible_agency": "Department of Public Works",
    "final_address": "7350 Beauvoir Ct",
    "address_councildis": "E",
    "status": "Pending",
    "rowid": "899453",
    "final_x": "3715908.9852",
    "final_y": "567957.630117",
    "longitude": "-89.95803943370835",
    "latitude": "30.054595387045314",
    "geocoded_column": {
      "latitude": "30.054595387045314",
      "longitude": "-89.95803943370835"
    }
  },
  {
    "service_request": "2022-899452",
    "request_type": "Trash/Recycling",
    "request_reason": "MIssed Recycling Pick-Up",
    "date_created": "2022-07-12T17:19:55.000",
    "date_modified": "2022-07-12T17:19:56.000",
    "request_status": "Pending",
    "responsible_agency": "Department of Sanitation",
    "final_address": "3104 Dumaine St",
    "address_councildis": "A",
    "status": "Assigned to Contractor",
    "contractor": "Richards Disposal",
    "rowid": "899452",
    "final_x": "3675629.24091",
    "final_y": "538644.852425",
    "longitude": "-90.08636325099864",
    "latitude": "29.975263562735798",
    "geocoded_column": {
      "latitude": "29.975263562735798",
      "longitude": "-90.08636325099864"
    }
  },
  {
    "service_request": "2022-899451",
    "request_type": "Traffic Signals/Signs/Striping/Streetlights",
    "request_reason": "Street Light Outage/Malfunction",
    "date_created": "2022-07-12T17:15:47.000",
    "date_modified": "2022-07-12T17:15:47.000",
    "request_status": "Pending",
    "responsible_agency": "Department of Public Works",
    "final_address": "2100 Napoleon Ave",
    "address_councildis": "B",
    "status": "Pending",
    "contractor": "Royal Engineering",
    "rowid": "899451",
    "final_x": "3670394.96826",
    "final_y": "522656.31161",
    "longitude": "-90.10343652210679",
    "latitude": "29.931455927719163",
    "geocoded_column": {
      "latitude": "29.931455927719163",
      "longitude": "-90.10343652210679"
    }
  },
  {
    "service_request": "2022-899450",
    "request_type": "Trash/Recycling",
    "request_reason": "MIssed Recycling Pick-Up",
    "date_created": "2022-07-12T17:13:27.000",
    "date_modified": "2022-07-12T17:13:27.000",
    "request_status": "Pending",
    "responsible_agency": "Department of Sanitation",
    "final_address": "804 Roosevelt Pl, New Orleans, Louisiana, 70119",
    "address_councildis": "A",
    "status": "Assigned to Contractor",
    "contractor": "Richards Disposal",
    "rowid": "899450",
    "final_x": "3673576.30004",
    "final_y": "539639.26401",
    "longitude": "-90.09281299303812",
    "latitude": "29.97805912684594",
    "geocoded_column": {
      "latitude": "29.97805912684594",
      "longitude": "-90.09281299303812"
    }
  },
  {
    "service_request": "2022-899448",
    "request_type": "Trash/Recycling",
    "request_reason": "MIssed Recycling Pick-Up",
    "date_created": "2022-07-12T17:08:59.000",
    "date_modified": "2022-07-12T17:09:00.000",
    "request_status": "Pending",
    "responsible_agency": "Department of Sanitation",
    "final_address": "4226 Bienville Ave",
    "address_councildis": "A",
    "status": "Assigned to Contractor",
    "contractor": "Richards Disposal",
    "rowid": "899448",
    "final_x": "3670836.34087",
    "final_y": "539448.169674",
    "longitude": "-90.10147326426677",
    "latitude": "29.97761496240751",
    "geocoded_column": {
      "latitude": "29.97761496240751",
      "longitude": "-90.10147326426677"
    }
  },
  {
    "service_request": "2022-899447",
    "request_type": "Trash/Recycling",
    "request_reason": "Request a Large Item Pick Up",
    "date_created": "2022-07-12T17:08:57.000",
    "date_modified": "2022-07-12T17:08:58.000",
    "request_status": "Pending",
    "responsible_agency": "Department of Sanitation",
    "final_address": "6250 Carlson Dr, New Orleans, Louisiana, 70122",
    "address_councildis": "D",
    "status": "Assigned to Contractor",
    "contractor": "Metro Disposal",
    "rowid": "899447",
    "final_x": "3679556.18312",
    "final_y": "556374.098074",
    "longitude": "-90.07334520986424",
    "latitude": "30.023894598723114",
    "geocoded_column": {
      "latitude": "30.023894598723114",
      "longitude": "-90.07334520986424"
    }
  },
  {
    "service_request": "2022-899446",
    "request_type": "Trash/Recycling",
    "request_reason": "Request a Large Item Pick Up",
    "date_created": "2022-07-12T17:08:50.000",
    "date_modified": "2022-07-12T17:08:51.000",
    "request_status": "Pending",
    "responsible_agency": "Department of Sanitation",
    "final_address": "4317 Perrier St",
    "address_councildis": "B",
    "status": "Assigned to Contractor",
    "contractor": "Richards Disposal",
    "rowid": "899446",
    "final_x": "3671183.04737",
    "final_y": "520149.984568",
    "longitude": "-90.10103373727222",
    "latitude": "29.924541048468246",
    "geocoded_column": {
      "latitude": "29.924541048468246",
      "longitude": "-90.10103373727222"
    }
  },
  {
    "service_request": "2022-899445",
    "request_type": "Trash/Recycling",
    "request_reason": "Request a Large Item Pick Up",
    "date_created": "2022-07-12T17:06:52.000",
    "date_modified": "2022-07-12T17:06:53.000",
    "request_status": "Pending",
    "responsible_agency": "Department of Sanitation",
    "final_address": "5537 St Ferdinand Dr",
    "address_councildis": "D",
    "status": "Assigned to Contractor",
    "contractor": "Metro Disposal",
    "rowid": "899445",
    "final_x": "3688788.12246",
    "final_y": "553744.190679",
    "longitude": "-90.04426764825347",
    "latitude": "30.016380967480718",
    "geocoded_column": {
      "latitude": "30.016380967480718",
      "longitude": "-90.04426764825347"
    }
  },
  {
    "service_request": "2022-899444",
    "request_type": "Roads/Drainage",
    "request_reason": "Pothole",
    "date_created": "2022-07-12T17:06:17.000",
    "date_modified": "2022-07-12T17:06:17.000",
    "request_status": "Pending",
    "responsible_agency": "Department of Public Works",
    "final_address": "1820 Sophie Wright Pl",
    "address_councildis": "B",
    "status": "Pending",
    "rowid": "899444",
    "final_x": "3679667.25282",
    "final_y": "523207.660987",
    "longitude": "-90.07414591423982",
    "latitude": "29.93269504006671",
    "geocoded_column": {
      "latitude": "29.93269504006671",
      "longitude": "-90.07414591423982"
    }
  },
  {
    "service_request": "2022-899443",
    "request_type": "Abandoned Vehicles",
    "request_reason": "Abandoned/Junk Vehicles",
    "date_created": "2022-07-12T17:03:12.000",
    "date_modified": "2022-07-12T17:03:13.000",
    "request_status": "Pending",
    "responsible_agency": "Department of Public Works",
    "final_address": "800 BLK Melpomene St",
    "address_councildis": "B",
    "status": "Pending",
    "rowid": "899443",
    "final_x": "3681649.19277",
    "final_y": "524603.127091",
    "longitude": "-90.06784044180259",
    "latitude": "29.93647207298302",
    "geocoded_column": {
      "latitude": "29.93647207298302",
      "longitude": "-90.06784044180259"
    }
  },
  {
    "service_request": "2022-899441",
    "request_type": "Trash/Recycling",
    "request_reason": "Request a Large Item Pick Up",
    "date_created": "2022-07-12T16:55:15.000",
    "date_modified": "2022-07-12T16:55:16.000",
    "request_status": "Pending",
    "responsible_agency": "Department of Sanitation",
    "final_address": "1112 Seventh St",
    "address_councildis": "B",
    "status": "Assigned to Contractor",
    "contractor": "Richards Disposal",
    "rowid": "899441",
    "final_x": "3676273.06587",
    "final_y": "520457.57996",
    "longitude": "-90.08495568269619",
    "latitude": "29.925235335465008",
    "geocoded_column": {
      "latitude": "29.925235335465008",
      "longitude": "-90.08495568269619"
    }
  },
  {
    "service_request": "2022-899440",
    "request_type": "Roads/Drainage",
    "request_reason": "Debris in Roadway",
    "date_created": "2022-07-12T16:52:22.000",
    "date_modified": "2022-07-12T16:53:06.000",
    "request_status": "Pending",
    "responsible_agency": "Department of Public Works",
    "final_address": "LEON C SIMON DR & PRESS DR",
    "address_councildis": "D",
    "status": "Pending",
    "rowid": "899440",
    "final_x": "3688450.8",
    "final_y": "558159.08",
    "longitude": "-90.04517662187004",
    "latitude": "30.02853069869081",
    "geocoded_column": {
      "latitude": "30.02853069869081",
      "longitude": "-90.04517662187004"
    }
  },
  {
    "service_request": "2022-899439",
    "request_type": "Trash/Recycling",
    "request_reason": "Order Trash Cart",
    "date_created": "2022-07-12T16:49:59.000",
    "date_modified": "2022-07-12T16:50:30.000",
    "request_status": "Pending",
    "responsible_agency": "Department of Sanitation",
    "final_address": "3703 S Saratoga St",
    "address_councildis": "B",
    "status": "Assigned to Contractor",
    "contractor": "Richards Disposal",
    "rowid": "899439",
    "final_x": "3672636.80801",
    "final_y": "522952.191099",
    "longitude": "-90.09634920680692",
    "latitude": "29.93220314510709",
    "geocoded_column": {
      "latitude": "29.93220314510709",
      "longitude": "-90.09634920680692"
    }
  },
  {
    "service_request": "2022-899438",
    "request_type": "Trash/Recycling",
    "request_reason": "Order Recycling Cart",
    "date_created": "2022-07-12T16:43:16.000",
    "date_modified": "2022-07-12T16:43:16.000",
    "request_status": "Pending",
    "responsible_agency": "Department of Sanitation",
    "final_address": "4921 Lennox Blvd",
    "address_councildis": "C",
    "status": "Pending",
    "rowid": "899438",
    "final_x": "3700601.16605",
    "final_y": "512173.992497",
    "longitude": "-90.00846243285214",
    "latitude": "29.901707065138208",
    "geocoded_column": {
      "latitude": "29.901707065138208",
      "longitude": "-90.00846243285214"
    }
  },
  {
    "service_request": "2022-899437",
    "request_type": "Trash/Recycling",
    "request_reason": "Missed Trash Pick-Up",
    "date_created": "2022-07-12T16:36:53.000",
    "date_modified": "2022-07-12T16:36:54.000",
    "request_status": "Pending",
    "responsible_agency": "Department of Sanitation",
    "final_address": "1114 Robert St",
    "address_councildis": "B",
    "status": "Assigned to Contractor",
    "contractor": "Richards Disposal",
    "rowid": "899437",
    "final_x": "3668626.83329",
    "final_y": "519464.867447",
    "longitude": "-90.10912596942437",
    "latitude": "29.92273253705028",
    "geocoded_column": {
      "latitude": "29.92273253705028",
      "longitude": "-90.10912596942437"
    }
  },
  {
    "service_request": "2022-899436",
    "request_type": "Trash/Recycling",
    "request_reason": "Request a Large Item Pick Up",
    "date_created": "2022-07-12T16:36:25.000",
    "date_modified": "2022-07-12T16:36:26.000",
    "request_status": "Pending",
    "responsible_agency": "Department of Sanitation",
    "final_address": "46 Yosemite Dr",
    "address_councildis": "C",
    "status": "Assigned to Contractor",
    "contractor": "Richards Disposal",
    "rowid": "899436",
    "final_x": "3700006.52157",
    "final_y": "516906.241461",
    "longitude": "-90.01016662344932",
    "latitude": "29.914738043626386",
    "geocoded_column": {
      "latitude": "29.914738043626386",
      "longitude": "-90.01016662344932"
    }
  },
  {
    "service_request": "2022-899435",
    "request_type": "Roads/Drainage",
    "request_reason": "Street Subsidence (Sinking)",
    "date_created": "2022-07-12T16:32:44.000",
    "date_modified": "2022-07-12T16:32:44.000",
    "request_status": "Pending",
    "responsible_agency": "Department of Public Works",
    "final_address": "5330 Marcia Ave",
    "address_councildis": "A",
    "status": "Pending",
    "rowid": "899435",
    "final_x": "3664700.59066",
    "final_y": "543516.83131",
    "longitude": "-90.12071614142654",
    "latitude": "29.988982364343695",
    "geocoded_column": {
      "latitude": "29.988982364343695",
      "longitude": "-90.12071614142654"
    }
  },
  {
    "service_request": "2022-899434",
    "request_type": "Roads/Drainage",
    "request_reason": "Catch Basin - Clogged",
    "date_created": "2022-07-12T16:31:09.000",
    "date_modified": "2022-07-12T16:31:09.000",
    "request_status": "Pending",
    "responsible_agency": "Department of Public Works",
    "final_address": "1530 St Ann St",
    "address_councildis": "C",
    "status": "Pending",
    "rowid": "899434",
    "final_x": "3680290.43925",
    "final_y": "534589.041158",
    "longitude": "-90.07178298213687",
    "latitude": "29.96397117312484",
    "geocoded_column": {
      "latitude": "29.96397117312484",
      "longitude": "-90.07178298213687"
    }
  },
  {
    "service_request": "2022-899433",
    "request_type": "Trash/Recycling",
    "request_reason": "Missed Trash Pick-Up",
    "date_created": "2022-07-12T16:30:41.000",
    "date_modified": "2022-07-12T16:30:42.000",
    "request_status": "Pending",
    "responsible_agency": "Department of Sanitation",
    "final_address": "1811 Camp St",
    "address_councildis": "B",
    "status": "Assigned to Contractor",
    "contractor": "Richards Disposal",
    "rowid": "899433",
    "final_x": "3679549.62351",
    "final_y": "523278.194811",
    "longitude": "-90.07451481411721",
    "latitude": "29.932892538724165",
    "geocoded_column": {
      "latitude": "29.932892538724165",
      "longitude": "-90.07451481411721"
    }
  },
  {
    "service_request": "2022-899432",
    "request_type": "Trash/Recycling",
    "request_reason": "Request a Large Item Pick Up",
    "date_created": "2022-07-12T16:30:02.000",
    "date_modified": "2022-07-12T16:30:03.000",
    "request_status": "Pending",
    "responsible_agency": "Department of Sanitation",
    "final_address": "2228 Fourth St",
    "address_councildis": "B",
    "status": "Assigned to Contractor",
    "contractor": "Richards Disposal",
    "rowid": "899432",
    "final_x": "3674840.80744",
    "final_y": "524679.62406",
    "longitude": "-90.08933218001617",
    "latitude": "29.936887415816496",
    "geocoded_column": {
      "latitude": "29.936887415816496",
      "longitude": "-90.08933218001617"
    }
  },
  {
    "service_request": "2022-899431",
    "request_type": "Trash/Recycling",
    "request_reason": "Illegal Dumping",
    "date_created": "2022-07-12T16:26:19.000",
    "date_modified": "2022-07-12T16:26:19.000",
    "request_status": "Pending",
    "responsible_agency": "Department of Sanitation",
    "final_address": "833 Tupelo St",
    "address_councildis": "E",
    "status": "Pending",
    "rowid": "899431",
    "final_x": "3699189.21175",
    "final_y": "532473.205956",
    "longitude": "-90.01217980101123",
    "latitude": "29.95756771991109",
    "geocoded_column": {
      "latitude": "29.95756771991109",
      "longitude": "-90.01217980101123"
    }
  },
  {
    "service_request": "2022-899430",
    "request_type": "Traffic Signals/Signs/Striping/Streetlights",
    "request_reason": "Street Light Outage/Malfunction",
    "date_created": "2022-07-12T16:25:55.000",
    "date_modified": "2022-07-12T16:25:56.000",
    "request_status": "Pending",
    "responsible_agency": "Department of Public Works",
    "final_address": "3232 Prytania St",
    "address_councildis": "B",
    "status": "Pending",
    "contractor": "Royal Engineering",
    "rowid": "899430",
    "final_x": "3674846.63669",
    "final_y": "521168.220729",
    "longitude": "-90.0894341205081",
    "latitude": "29.927232023196606",
    "geocoded_column": {
      "latitude": "29.927232023196606",
      "longitude": "-90.0894341205081"
    }
  },
  {
    "service_request": "2022-899429",
    "request_type": "Trash/Recycling",
    "request_reason": "Order Recycling Cart",
    "date_created": "2022-07-12T16:25:18.000",
    "date_modified": "2022-07-12T16:25:19.000",
    "request_status": "Pending",
    "responsible_agency": "Department of Sanitation",
    "final_address": "8625 Apricot St",
    "address_councildis": "A",
    "status": "Pending",
    "rowid": "899429",
    "final_x": "3664371.59444",
    "final_y": "534001.347525",
    "longitude": "-90.12207307265803",
    "latitude": "29.962827522625744",
    "geocoded_column": {
      "latitude": "29.962827522625744",
      "longitude": "-90.12207307265803"
    }
  },
  {
    "service_request": "2022-899428",
    "request_type": "Trash/Recycling",
    "request_reason": "Missed Trash Pick-Up",
    "date_created": "2022-07-12T16:24:34.000",
    "date_modified": "2022-07-12T16:24:37.000",
    "request_status": "Pending",
    "responsible_agency": "Department of Sanitation",
    "final_address": "1720 Josephine St, New Orleans, Louisiana, 70113",
    "address_councildis": "B",
    "status": "Assigned to Contractor",
    "contractor": "Richards Disposal",
    "rowid": "899428",
    "final_x": "3677547.68936",
    "final_y": "524362.986364",
    "longitude": "-90.08079733807757",
    "latitude": "29.935935682092538",
    "geocoded_column": {
      "latitude": "29.935935682092538",
      "longitude": "-90.08079733807757"
    }
  },
  {
    "service_request": "2022-899427",
    "request_type": "Trash/Recycling",
    "request_reason": "Request a Large Item Pick Up",
    "date_created": "2022-07-12T16:24:30.000",
    "date_modified": "2022-07-12T16:24:31.000",
    "case_close_date": "2021-12-13T18:00:00.000",
    "request_status": "Pending",
    "responsible_agency": "Department of Sanitation",
    "final_address": "12970 Jeanne Ct",
    "address_councildis": "E",
    "status": "Assigned to Contractor",
    "contractor": "Metro Disposal",
    "rowid": "899427",
    "final_x": "3716863.64869",
    "final_y": "568199.851173",
    "longitude": "-89.95501278041864",
    "latitude": "30.055229854555048",
    "geocoded_column": {
      "latitude": "30.055229854555048",
      "longitude": "-89.95501278041864"
    }
  },
  {
    "service_request": "2022-899426",
    "request_type": "Trash/Recycling",
    "request_reason": "Illegal Dumping",
    "date_created": "2022-07-12T16:23:55.000",
    "date_modified": "2022-07-12T16:23:55.000",
    "request_status": "Pending",
    "responsible_agency": "Department of Sanitation",
    "final_address": "6126 Burgundy St",
    "address_councildis": "E",
    "status": "Pending",
    "rowid": "899426",
    "final_x": "3699362.97712",
    "final_y": "532442.904259",
    "longitude": "-90.01163220827345",
    "latitude": "29.95747889088699",
    "geocoded_column": {
      "latitude": "29.95747889088699",
      "longitude": "-90.01163220827345"
    }
  },
  {
    "service_request": "2022-899425",
    "request_type": "Trash/Recycling",
    "request_reason": "Missed Trash Pick-Up",
    "date_created": "2022-07-12T16:22:57.000",
    "date_modified": "2022-07-12T16:22:58.000",
    "request_status": "Pending",
    "responsible_agency": "Department of Sanitation",
    "final_address": "2232 St Nick Dr",
    "address_councildis": "C",
    "status": "Assigned to Contractor",
    "contractor": "Richards Disposal",
    "rowid": "899425",
    "final_x": "3699803.17674",
    "final_y": "522732.02873",
    "longitude": "-90.01059617709042",
    "latitude": "29.930763417459477",
    "geocoded_column": {
      "latitude": "29.930763417459477",
      "longitude": "-90.01059617709042"
    }
  },
  {
    "service_request": "2022-899424",
    "request_type": "Trash/Recycling",
    "request_reason": "Missed Trash Pick-Up",
    "date_created": "2022-07-12T16:22:38.000",
    "date_modified": "2022-07-12T16:22:40.000",
    "request_status": "Pending",
    "responsible_agency": "Department of Sanitation",
    "final_address": "1724 Josephine St, New Orleans, Louisiana, 70113",
    "address_councildis": "B",
    "status": "Assigned to Contractor",
    "contractor": "Richards Disposal",
    "rowid": "899424",
    "final_x": "3677537.44053",
    "final_y": "524373.990332",
    "longitude": "-90.0808293141306",
    "latitude": "29.935966247436124",
    "geocoded_column": {
      "latitude": "29.935966247436124",
      "longitude": "-90.0808293141306"
    }
  },
  {
    "service_request": "2022-899423",
    "request_type": "Traffic Signals/Signs/Striping/Streetlights",
    "request_reason": "Street Light Outage/Malfunction",
    "date_created": "2022-07-12T16:21:54.000",
    "date_modified": "2022-07-12T16:21:56.000",
    "request_status": "Pending",
    "responsible_agency": "Department of Public Works",
    "final_address": "TERPSICHORE ST & S ROBERTSON ST",
    "address_councildis": "B",
    "status": "Pending",
    "contractor": "Royal Engineering",
    "rowid": "899423",
    "final_x": "3675980.3",
    "final_y": "527200.98",
    "longitude": "-90.08564806457636",
    "latitude": "29.943786250062107",
    "geocoded_column": {
      "latitude": "29.943786250062107",
      "longitude": "-90.08564806457636"
    }
  },
  {
    "service_request": "2022-899422",
    "request_type": "Trash/Recycling",
    "request_reason": "MIssed Recycling Pick-Up",
    "date_created": "2022-07-12T16:16:39.000",
    "date_modified": "2022-07-12T16:16:40.000",
    "request_status": "Pending",
    "responsible_agency": "Department of Sanitation",
    "final_address": "415 Eliza St",
    "address_councildis": "C",
    "status": "Assigned to Contractor",
    "contractor": "Richards Disposal",
    "rowid": "899422",
    "final_x": "3686776.83874",
    "final_y": "529719.959681",
    "longitude": "-90.05147158936096",
    "latitude": "29.95038491610313",
    "geocoded_column": {
      "latitude": "29.95038491610313",
      "longitude": "-90.05147158936096"
    }
  },
  {
    "service_request": "2022-899421",
    "request_type": "Trash/Recycling",
    "request_reason": "Request a Large Item Pick Up",
    "date_created": "2022-07-12T16:09:31.000",
    "date_modified": "2022-07-12T16:09:31.000",
    "request_status": "Pending",
    "responsible_agency": "Department of Sanitation",
    "final_address": "7 Gull St",
    "address_councildis": "D",
    "status": "Assigned to Contractor",
    "contractor": "Metro Disposal",
    "rowid": "899421",
    "final_x": "3674848.82952",
    "final_y": "555041.351385",
    "longitude": "-90.08826531089083",
    "latitude": "30.0203715156003",
    "geocoded_column": {
      "latitude": "30.0203715156003",
      "longitude": "-90.08826531089083"
    }
  },
  {
    "service_request": "2022-899420",
    "request_type": "Trash/Recycling",
    "request_reason": "Start Trash Service",
    "date_created": "2022-07-12T16:04:08.000",
    "date_modified": "2022-07-12T16:04:08.000",
    "request_status": "Pending",
    "responsible_agency": "Department of Sanitation",
    "final_address": "7604 Willow St",
    "address_councildis": "A",
    "status": "Assigned to Contractor",
    "contractor": "Richards Disposal",
    "rowid": "899420",
    "final_x": "3663687.29504",
    "final_y": "527695.232383",
    "longitude": "-90.12444410929535",
    "latitude": "29.94550762171038",
    "geocoded_column": {
      "latitude": "29.94550762171038",
      "longitude": "-90.12444410929535"
    }
  },
  {
    "service_request": "2022-899419",
    "request_type": "Trash/Recycling",
    "request_reason": "Replace Trash Cart",
    "date_created": "2022-07-12T15:57:43.000",
    "date_modified": "2022-07-12T15:57:44.000",
    "request_status": "Pending",
    "responsible_agency": "Department of Sanitation",
    "final_address": "1919 N Rampart St",
    "address_councildis": "C",
    "status": "Assigned to Contractor",
    "contractor": "Metro Disposal",
    "rowid": "899419",
    "final_x": "3684061.78485",
    "final_y": "535893.855815",
    "longitude": "-90.05982764125154",
    "latitude": "29.967444253204583",
    "geocoded_column": {
      "latitude": "29.967444253204583",
      "longitude": "-90.05982764125154"
    }
  },
  {
    "service_request": "2022-899418",
    "request_type": "Traffic Signals/Signs/Striping/Streetlights",
    "request_reason": "Street Light Outage/Malfunction",
    "date_created": "2022-07-12T15:57:37.000",
    "date_modified": "2022-07-12T15:57:38.000",
    "request_status": "Pending",
    "responsible_agency": "Department of Public Works",
    "final_address": "1006 Frenchmen St",
    "address_councildis": "C",
    "status": "Pending",
    "contractor": "Royal Engineering",
    "rowid": "899418",
    "final_x": "3684579.75042",
    "final_y": "535984.170311",
    "longitude": "-90.05818872532905",
    "latitude": "29.96767674752624",
    "geocoded_column": {
      "latitude": "29.96767674752624",
      "longitude": "-90.05818872532905"
    }
  },
  {
    "service_request": "2022-899417",
    "request_type": "Traffic Signals/Signs/Striping/Streetlights",
    "request_reason": "Traffic Sign Missing/Damaged",
    "date_created": "2022-07-12T15:57:19.000",
    "date_modified": "2022-07-12T15:57:20.000",
    "request_status": "Pending",
    "responsible_agency": "Department of Public Works",
    "final_address": "11250 Ivy Ln",
    "address_councildis": "E",
    "status": "Pending",
    "rowid": "899417",
    "final_x": "3716471.62232",
    "final_y": "560075.516189",
    "longitude": "-89.95656042915107",
    "latitude": "30.032904199847607",
    "geocoded_column": {
      "latitude": "30.032904199847607",
      "longitude": "-89.95656042915107"
    }
  },
  {
    "service_request": "2022-899416",
    "request_type": "Trash/Recycling",
    "request_reason": "Illegal Dumping",
    "date_created": "2022-07-12T15:57:18.000",
    "date_modified": "2022-07-12T15:57:18.000",
    "request_status": "Pending",
    "responsible_agency": "Department of Sanitation",
    "final_address": "2020 Philip St",
    "address_councildis": "B",
    "status": "Pending",
    "rowid": "899416",
    "final_x": "3676239.07854",
    "final_y": "524657.234812",
    "longitude": "-90.08491853269489",
    "latitude": "29.936784037096935",
    "geocoded_column": {
      "latitude": "29.936784037096935",
      "longitude": "-90.08491853269489"
    }
  },
  {
    "service_request": "2022-899415",
    "request_type": "Traffic Signals/Signs/Striping/Streetlights",
    "request_reason": "Street Name Sign Damaged or Missing",
    "date_created": "2022-07-12T15:56:04.000",
    "date_modified": "2022-07-12T15:56:04.000",
    "request_status": "Pending",
    "responsible_agency": "Department of Public Works",
    "final_address": "WRIGHT RD & WOODVINE LN",
    "address_councildis": "E",
    "status": "Pending",
    "rowid": "899415",
    "final_x": "3715888.8",
    "final_y": "559485.08",
    "longitude": "-89.95842456764444",
    "latitude": "30.03129997935142",
    "geocoded_column": {
      "latitude": "30.03129997935142",
      "longitude": "-89.95842456764444"
    }
  },
  {
    "service_request": "2022-899414",
    "request_type": "Traffic Signals/Signs/Striping/Streetlights",
    "request_reason": "Street Name Sign Damaged or Missing",
    "date_created": "2022-07-12T15:55:39.000",
    "date_modified": "2022-07-12T15:55:39.000",
    "request_status": "Pending",
    "responsible_agency": "Department of Public Works",
    "final_address": "WRIGHT RD & N IDLEWOOD CT",
    "address_councildis": "E",
    "status": "Pending",
    "rowid": "899414",
    "final_x": "3715729.5",
    "final_y": "559995.38",
    "longitude": "-89.95890861369881",
    "latitude": "30.032708354665623",
    "geocoded_column": {
      "latitude": "30.032708354665623",
      "longitude": "-89.95890861369881"
    }
  },
  {
    "service_request": "2022-899413",
    "request_type": "Traffic Signals/Signs/Striping/Streetlights",
    "request_reason": "Street Name Sign Damaged or Missing",
    "date_created": "2022-07-12T15:55:07.000",
    "date_modified": "2022-07-12T15:55:08.000",
    "request_status": "Pending",
    "responsible_agency": "Department of Public Works",
    "final_address": "WRIGHT RD & IVY LN",
    "address_councildis": "E",
    "status": "Pending",
    "rowid": "899413",
    "final_x": "3715896.9",
    "final_y": "559783.78",
    "longitude": "-89.95838764532883",
    "latitude": "30.03212101738671",
    "geocoded_column": {
      "latitude": "30.03212101738671",
      "longitude": "-89.95838764532883"
    }
  },
  {
    "service_request": "2022-899412",
    "request_type": "Traffic Signals/Signs/Striping/Streetlights",
    "request_reason": "Street Light Outage/Malfunction",
    "date_created": "2022-07-12T15:54:31.000",
    "date_modified": "2022-07-12T15:54:32.000",
    "request_status": "Pending",
    "responsible_agency": "Department of Public Works",
    "final_address": "3748 Silver Maple Ct",
    "address_councildis": "C",
    "status": "Pending",
    "contractor": "Royal Engineering",
    "rowid": "899412",
    "final_x": "3703492.23799",
    "final_y": "512692.723441",
    "longitude": "-89.99931939625145",
    "latitude": "29.90304116728575",
    "geocoded_column": {
      "latitude": "29.90304116728575",
      "longitude": "-89.99931939625145"
    }
  },
  {
    "service_request": "2022-899411",
    "request_type": "Traffic Signals/Signs/Striping/Streetlights",
    "request_reason": "Street Light Outage/Malfunction",
    "date_created": "2022-07-12T15:53:20.000",
    "date_modified": "2022-07-12T15:53:21.000",
    "request_status": "Pending",
    "responsible_agency": "Department of Public Works",
    "final_address": "3772 Silver Maple Ct",
    "address_councildis": "C",
    "status": "Pending",
    "contractor": "Royal Engineering",
    "rowid": "899411",
    "final_x": "3703629.24273",
    "final_y": "512674.552113",
    "longitude": "-89.99888768305408",
    "latitude": "29.902986815742096",
    "geocoded_column": {
      "latitude": "29.902986815742096",
      "longitude": "-89.99888768305408"
    }
  },
  {
    "service_request": "2022-899410",
    "request_type": "Trash/Recycling",
    "request_reason": "Request a Large Item Pick Up",
    "date_created": "2022-07-12T15:52:11.000",
    "date_modified": "2022-07-12T15:52:12.000",
    "request_status": "Pending",
    "responsible_agency": "Department of Sanitation",
    "final_address": "4315 Elba St",
    "address_councildis": "B",
    "status": "Assigned to Contractor",
    "contractor": "Richards Disposal",
    "rowid": "899410",
    "final_x": "3669963.6793",
    "final_y": "530365.386178",
    "longitude": "-90.1045370675992",
    "latitude": "29.952666103020764",
    "geocoded_column": {
      "latitude": "29.952666103020764",
      "longitude": "-90.1045370675992"
    }
  },
  {
    "service_request": "2022-899409",
    "request_type": "Traffic Signals/Signs/Striping/Streetlights",
    "request_reason": "Street Light Outage/Malfunction",
    "date_created": "2022-07-12T15:52:06.000",
    "date_modified": "2022-07-12T15:52:07.000",
    "request_status": "Pending",
    "responsible_agency": "Department of Public Works",
    "final_address": "3731 Tall Pines Dr",
    "address_councildis": "C",
    "status": "Pending",
    "contractor": "Royal Engineering",
    "rowid": "899409",
    "final_x": "3703859.33329",
    "final_y": "513441.793842",
    "longitude": "-89.99813331210304",
    "latitude": "29.905089099748448",
    "geocoded_column": {
      "latitude": "29.905089099748448",
      "longitude": "-89.99813331210304"
    }
  },
  {
    "service_request": "2022-899408",
    "request_type": "Trash/Recycling",
    "request_reason": "Request a Large Item Pick Up",
    "date_created": "2022-07-12T15:51:35.000",
    "date_modified": "2022-07-12T15:51:36.000",
    "request_status": "Pending",
    "responsible_agency": "Department of Sanitation",
    "final_address": "732 Constantinople St",
    "address_councildis": "B",
    "status": "Assigned to Contractor",
    "contractor": "Richards Disposal",
    "rowid": "899408",
    "final_x": "3672525.73108",
    "final_y": "518462.961654",
    "longitude": "-90.09685279794452",
    "latitude": "29.91986250073912",
    "geocoded_column": {
      "latitude": "29.91986250073912",
      "longitude": "-90.09685279794452"
    }
  },
  {
    "service_request": "2022-899406",
    "request_type": "Roads/Drainage",
    "request_reason": "Unpermitted work in ROW",
    "date_created": "2022-07-12T15:49:21.000",
    "date_modified": "2022-07-12T15:49:21.000",
    "request_status": "Pending",
    "responsible_agency": "Department of Public Works",
    "final_address": "14576 Tilbury Rd",
    "address_councildis": "E",
    "status": "Pending",
    "rowid": "899406",
    "final_x": "3721110.44217",
    "final_y": "573215.836457",
    "longitude": "-89.94139710490299",
    "latitude": "30.06888056399275",
    "geocoded_column": {
      "latitude": "30.06888056399275",
      "longitude": "-89.94139710490299"
    }
  },
  {
    "service_request": "2022-899405",
    "request_type": "Trash/Recycling",
    "request_reason": "Order Trash Cart",
    "date_created": "2022-07-12T15:49:03.000",
    "date_modified": "2022-07-12T15:49:04.000",
    "request_status": "Pending",
    "responsible_agency": "Department of Sanitation",
    "final_address": "3717 Pauger St",
    "address_councildis": "D",
    "status": "Assigned to Contractor",
    "contractor": "Metro Disposal",
    "rowid": "899405",
    "final_x": "3683355.22818",
    "final_y": "543732.953742",
    "longitude": "-90.06178423756695",
    "latitude": "29.989020605584887",
    "geocoded_column": {
      "latitude": "29.989020605584887",
      "longitude": "-90.06178423756695"
    }
  },
  {
    "service_request": "2022-899404",
    "request_type": "Roads/Drainage",
    "request_reason": "Debris in Roadway",
    "date_created": "2022-07-12T15:48:44.000",
    "date_modified": "2022-07-12T15:50:42.000",
    "request_status": "Pending",
    "responsible_agency": "Department of Public Works",
    "final_address": "7800 Briarwood Dr",
    "address_councildis": "E",
    "status": "Pending",
    "rowid": "899404",
    "final_x": "3716845.86124",
    "final_y": "571646.613864",
    "longitude": "-89.95493794651335",
    "latitude": "30.06470761101607",
    "geocoded_column": {
      "latitude": "30.06470761101607",
      "longitude": "-89.95493794651335"
    }
  },
  {
    "service_request": "2022-899403",
    "request_type": "Trash/Recycling",
    "request_reason": "Illegal Dumping",
    "date_created": "2022-07-12T15:48:23.000",
    "date_modified": "2022-07-12T15:48:23.000",
    "request_status": "Pending",
    "responsible_agency": "Department of Sanitation",
    "final_address": "2634 Myrtle St",
    "address_councildis": "D",
    "status": "Pending",
    "rowid": "899403",
    "final_x": "3687479.14396",
    "final_y": "546043.739216",
    "longitude": "-90.04867622015563",
    "latitude": "29.995247958828195",
    "geocoded_column": {
      "latitude": "29.995247958828195",
      "longitude": "-90.04867622015563"
    }
  },
  {
    "service_request": "2022-899402",
    "request_type": "Trash/Recycling",
    "request_reason": "Repair Trash Cart",
    "date_created": "2022-07-12T15:47:48.000",
    "date_modified": "2022-07-12T15:47:49.000",
    "request_status": "Pending",
    "responsible_agency": "Department of Sanitation",
    "final_address": "5804 Mandeville St",
    "address_councildis": "D",
    "status": "Assigned to Contractor",
    "contractor": "Metro Disposal",
    "rowid": "899402",
    "final_x": "3684284.46799",
    "final_y": "554343.97788",
    "longitude": "-90.05847614236919",
    "latitude": "30.018168706249824",
    "geocoded_column": {
      "latitude": "30.018168706249824",
      "longitude": "-90.05847614236919"
    }
  },
  {
    "service_request": "2022-899401",
    "request_type": "Trash/Recycling",
    "request_reason": "MIssed Recycling Pick-Up",
    "date_created": "2022-07-12T15:45:15.000",
    "date_modified": "2022-07-12T16:47:34.000",
    "request_status": "Pending",
    "responsible_agency": "Department of Sanitation",
    "final_address": "2821 Saint Peter St, New Orleans, Louisiana, 70119",
    "address_councildis": "A",
    "status": "Assigned to Contractor",
    "rowid": "899401",
    "final_x": "3676075.24507",
    "final_y": "537345.791304",
    "longitude": "-90.08499934779233",
    "latitude": "29.971678234926454",
    "geocoded_column": {
      "latitude": "29.971678234926454",
      "longitude": "-90.08499934779233"
    }
  },
  {
    "service_request": "2022-899400",
    "request_type": "Property Maintenance",
    "request_reason": "Property Maintenance",
    "date_created": "2022-07-12T15:39:55.000",
    "date_modified": "2022-07-12T15:39:55.000",
    "request_status": "Pending",
    "responsible_agency": "Department of Code Enforcement",
    "final_address": "4100 Fontainebleau Dr",
    "address_councildis": "B",
    "status": "Pending",
    "rowid": "899400",
    "final_x": "3669901.82292",
    "final_y": "528998.839104",
    "longitude": "-90.10477864703935",
    "latitude": "29.948910370252857",
    "geocoded_column": {
      "latitude": "29.948910370252857",
      "longitude": "-90.10477864703935"
    }
  },
  {
    "service_request": "2022-899399",
    "request_type": "Trash/Recycling",
    "request_reason": "Order Recycling Cart",
    "date_created": "2022-07-12T15:39:07.000",
    "date_modified": "2022-07-12T15:39:08.000",
    "request_status": "Pending",
    "responsible_agency": "Department of Sanitation",
    "final_address": "2338 Charbonnet St",
    "address_councildis": "E",
    "status": "Pending",
    "contractor": "Metro Disposal",
    "rowid": "899399",
    "final_x": "3699834.53578",
    "final_y": "538436.834505",
    "longitude": "-90.00992457496588",
    "latitude": "29.973945084088363",
    "geocoded_column": {
      "latitude": "29.973945084088363",
      "longitude": "-90.00992457496588"
    }
  },
  {
    "service_request": "2022-899398",
    "request_type": "Parks & Parkways",
    "request_reason": "Request Tree Service (Right of Way/Public Property)",
    "date_created": "2022-07-12T15:38:22.000",
    "date_modified": "2022-07-12T15:38:23.000",
    "request_status": "Pending",
    "responsible_agency": "Department of Parks & Parkway",
    "final_address": "BELLAIRE DR & ACADEMY DR",
    "address_councildis": "A",
    "status": "Pending",
    "rowid": "899398",
    "final_x": "3664152.2",
    "final_y": "545718.58",
    "longitude": "-90.12237485156511",
    "latitude": "29.995052372101675",
    "geocoded_column": {
      "latitude": "29.995052372101675",
      "longitude": "-90.12237485156511"
    }
  },
  {
    "service_request": "2022-899397",
    "request_type": "Trash/Recycling",
    "request_reason": "Request a Large Item Pick Up",
    "date_created": "2022-07-12T15:32:37.000",
    "date_modified": "2022-07-12T15:32:37.000",
    "request_status": "Pending",
    "responsible_agency": "Department of Sanitation",
    "final_address": "3014 Broadway St",
    "address_councildis": "B",
    "status": "Assigned to Contractor",
    "contractor": "Richards Disposal",
    "rowid": "899397",
    "final_x": "3667752.97018",
    "final_y": "531990.774083",
    "longitude": "-90.11146278890538",
    "latitude": "29.957200390127973",
    "geocoded_column": {
      "latitude": "29.957200390127973",
      "longitude": "-90.11146278890538"
    }
  },
  {
    "service_request": "2022-899396",
    "request_type": "Trash/Recycling",
    "request_reason": "Request a Large Item Pick Up",
    "date_created": "2022-07-12T15:31:56.000",
    "date_modified": "2022-07-12T15:31:57.000",
    "request_status": "Pending",
    "responsible_agency": "Department of Sanitation",
    "final_address": "6308 Patton St",
    "address_councildis": "A",
    "status": "Assigned to Contractor",
    "contractor": "Richards Disposal",
    "rowid": "899396",
    "final_x": "3663083.02304",
    "final_y": "519103.225783",
    "longitude": "-90.12663768627252",
    "latitude": "29.92189983370348",
    "geocoded_column": {
      "latitude": "29.92189983370348",
      "longitude": "-90.12663768627252"
    }
  },
  {
    "service_request": "2022-899395",
    "request_type": "Property Maintenance",
    "request_reason": "Property Maintenance",
    "date_created": "2022-07-12T15:30:03.000",
    "date_modified": "2022-07-12T15:30:03.000",
    "request_status": "Pending",
    "responsible_agency": "Department of Code Enforcement",
    "final_address": "2719 Allen St, New Orleans, Louisiana, 70119",
    "address_councildis": "D",
    "status": "Pending",
    "rowid": "899395",
    "final_x": "3682326.40783",
    "final_y": "542195.205965",
    "longitude": "-90.06508773206157",
    "latitude": "29.984823693226147",
    "geocoded_column": {
      "latitude": "29.984823693226147",
      "longitude": "-90.06508773206157"
    }
  },
  {
    "service_request": "2022-899394",
    "request_type": "Trash/Recycling",
    "request_reason": "Missed Trash Pick-Up",
    "date_created": "2022-07-12T15:29:57.000",
    "date_modified": "2022-07-12T15:29:58.000",
    "request_status": "Pending",
    "responsible_agency": "Department of Sanitation",
    "final_address": "5263 Constance St",
    "address_councildis": "B",
    "status": "Assigned to Contractor",
    "contractor": "Richards Disposal",
    "rowid": "899394",
    "final_x": "3667490.11757",
    "final_y": "518298.300278",
    "longitude": "-90.1127533687248",
    "latitude": "29.919558189457963",
    "geocoded_column": {
      "latitude": "29.919558189457963",
      "longitude": "-90.1127533687248"
    }
  },
  {
    "service_request": "2022-899393",
    "request_type": "Property Maintenance",
    "request_reason": "Property Maintenance",
    "date_created": "2022-07-12T15:29:02.000",
    "date_modified": "2022-07-12T15:29:02.000",
    "request_status": "Pending",
    "responsible_agency": "Department of Code Enforcement",
    "final_address": "22 Charlotte Dr",
    "address_councildis": "D",
    "status": "Pending",
    "rowid": "899393",
    "final_x": "3680034.85135",
    "final_y": "551720.595221",
    "longitude": "-90.07199457478698",
    "latitude": "30.011084674726764",
    "geocoded_column": {
      "latitude": "30.011084674726764",
      "longitude": "-90.07199457478698"
    }
  },
  {
    "service_request": "2022-899392",
    "request_type": "Mayor's Request",
    "request_reason": "Requests to the Mayor",
    "date_created": "2022-07-12T15:28:01.000",
    "date_modified": "2022-07-12T15:28:01.000",
    "request_status": "Pending",
    "responsible_agency": "Executive Office of the Mayor",
    "status": "Pending",
    "rowid": "899392",
    "longitude": "0.0",
    "latitude": "0.0",
    "geocoded_column": {
      "latitude": "0.0",
      "longitude": "0.0"
    }
  },
  {
    "service_request": "2022-899391",
    "request_type": "Property Maintenance",
    "request_reason": "Property Maintenance",
    "date_created": "2022-07-12T15:26:04.000",
    "date_modified": "2022-07-12T15:26:04.000",
    "request_status": "Pending",
    "responsible_agency": "Department of Code Enforcement",
    "final_address": "4774 Flake Ave",
    "address_councildis": "E",
    "status": "Pending",
    "rowid": "899391",
    "final_x": "3705999.94871",
    "final_y": "555703.811097",
    "longitude": "-89.98981357797443",
    "latitude": "30.02122551876965",
    "geocoded_column": {
      "latitude": "30.02122551876965",
      "longitude": "-89.98981357797443"
    }
  },
  {
    "service_request": "2022-899389",
    "request_type": "Trash/Recycling",
    "request_reason": "Request a Large Item Pick Up",
    "date_created": "2022-07-12T15:22:06.000",
    "date_modified": "2022-07-12T15:22:07.000",
    "request_status": "Pending",
    "responsible_agency": "Department of Sanitation",
    "final_address": "2023 St Philip St",
    "address_councildis": "D",
    "status": "Assigned to Contractor",
    "contractor": "Richards Disposal",
    "rowid": "899389",
    "final_x": "3679455.06159",
    "final_y": "536300.541959",
    "longitude": "-90.07436164394441",
    "latitude": "29.96870247887758",
    "geocoded_column": {
      "latitude": "29.96870247887758",
      "longitude": "-90.07436164394441"
    }
  },
  {
    "service_request": "2022-899388",
    "request_type": "Roads/Drainage",
    "request_reason": "Pothole",
    "date_created": "2022-07-12T15:21:36.000",
    "date_modified": "2022-07-12T17:50:13.000",
    "request_status": "Pending",
    "responsible_agency": "Department of Public Works",
    "final_address": "1901 Poydras St, New Orleans, Louisiana, 70112",
    "address_councildis": "B",
    "rowid": "899388",
    "final_x": "3676746.55534",
    "final_y": "530971.736258",
    "longitude": "-90.08309888873029",
    "latitude": "29.954131611045042",
    "geocoded_column": {
      "latitude": "29.954131611045042",
      "longitude": "-90.08309888873029"
    }
  },
  {
    "service_request": "2022-899387",
    "request_type": "Roads/Drainage",
    "request_reason": "Pothole",
    "date_created": "2022-07-12T15:21:01.000",
    "date_modified": "2022-07-12T15:21:01.000",
    "request_status": "Pending",
    "responsible_agency": "Department of Public Works",
    "final_address": "3036 Saint Ann St, New Orleans, Louisiana, 70119",
    "status": "Pending",
    "rowid": "899387",
    "longitude": "0.0",
    "latitude": "0.0",
    "geocoded_column": {
      "latitude": "0.0",
      "longitude": "0.0"
    }
  },
  {
    "service_request": "2022-899386",
    "request_type": "Roads/Drainage",
    "request_reason": "Pothole",
    "date_created": "2022-07-12T15:20:04.000",
    "date_modified": "2022-07-12T15:20:04.000",
    "request_status": "Pending",
    "responsible_agency": "Department of Public Works",
    "final_address": "70119, New Orleans, Louisiana",
    "address_councildis": "B",
    "status": "Pending",
    "rowid": "899386",
    "final_x": "3672187.92769",
    "final_y": "534175.720965",
    "longitude": "-90.09738410181727",
    "latitude": "29.963077482958436",
    "geocoded_column": {
      "latitude": "29.963077482958436",
      "longitude": "-90.09738410181727"
    }
  },
  {
    "service_request": "2022-899385",
    "request_type": "Trash/Recycling",
    "request_reason": "Return Recycling Cart",
    "date_created": "2022-07-12T15:15:43.000",
    "date_modified": "2022-07-12T15:15:43.000",
    "request_status": "Pending",
    "responsible_agency": "Department of Sanitation",
    "final_address": "4125 General Pershing St",
    "address_councildis": "B",
    "status": "Pending",
    "rowid": "899385",
    "final_x": "3670070.14977",
    "final_y": "529465.291585",
    "longitude": "-90.10423136695813",
    "latitude": "29.950187998251064",
    "geocoded_column": {
      "latitude": "29.950187998251064",
      "longitude": "-90.10423136695813"
    }
  },
  {
    "service_request": "2022-899384",
    "request_type": "Trash/Recycling",
    "request_reason": "Change Size of Trash Cart",
    "date_created": "2022-07-12T15:14:14.000",
    "date_modified": "2022-07-12T15:14:14.000",
    "request_status": "Pending",
    "responsible_agency": "Department of Sanitation",
    "final_address": "4125 General Pershing St",
    "address_councildis": "B",
    "status": "Assigned to Contractor",
    "contractor": "Richards Disposal",
    "rowid": "899384",
    "final_x": "3670070.14977",
    "final_y": "529465.291585",
    "longitude": "-90.10423136695813",
    "latitude": "29.950187998251064",
    "geocoded_column": {
      "latitude": "29.950187998251064",
      "longitude": "-90.10423136695813"
    }
  },
  {
    "service_request": "2022-899382",
    "request_type": "Mosquito, Termite & Rodent Control",
    "request_reason": "Rodent Complaint (Rats)",
    "date_created": "2022-07-12T15:11:20.000",
    "date_modified": "2022-07-12T15:11:20.000",
    "request_status": "Pending",
    "responsible_agency": "Mosquito, Termite & Rodent Control Board",
    "final_address": "1608 Rev. John Raphael, Jr. Way",
    "address_councildis": "B",
    "status": "Pending",
    "rowid": "899382",
    "final_x": "3676455.58325",
    "final_y": "526784.699518",
    "longitude": "-90.08416179438245",
    "latitude": "29.942627377363983",
    "geocoded_column": {
      "latitude": "29.942627377363983",
      "longitude": "-90.08416179438245"
    }
  },
  {
    "service_request": "2022-899381",
    "request_type": "Property Maintenance",
    "request_reason": "Property Maintenance",
    "date_created": "2022-07-12T15:11:10.000",
    "date_modified": "2022-07-12T15:11:10.000",
    "request_status": "Pending",
    "responsible_agency": "Department of Code Enforcement",
    "final_address": "4620 St Charles Ave",
    "address_councildis": "B",
    "status": "Pending",
    "rowid": "899381",
    "final_x": "3669951.12647",
    "final_y": "520645.277241",
    "longitude": "-90.10490574279112",
    "latitude": "29.925939317940642",
    "geocoded_column": {
      "latitude": "29.925939317940642",
      "longitude": "-90.10490574279112"
    }
  },