[
  {
    "service_request": "2022-867605",
    "request_type": "EMS",
    "request_reason": "EMS Complaint",
    "date_created": "2022-03-16T22:35:03.000",
    "date_modified": "2022-03-16T22:35:03.000",
    "request_status": "Pending",
    "responsible_agency": "Emergency Medical Services",
    "status": "Pending",
    "rowid": "867605",
    "longitude": "0.0",
    "latitude": "0.0",
    "geocoded_column": {
      "latitude": "0.0",
      "longitude": "0.0"
    }
  },
  {
    "service_request": "2022-867604",
    "request_type": "Roads/Drainage",
    "request_reason": "Pothole",
    "date_created": "2022-03-16T21:40:53.000",
    "date_modified": "2022-03-16T21:40:53.000",
    "request_status": "Pending",
    "responsible_agency": "Department of Public Works",
    "final_address": "2638 Lapeyrouse St",
    "address_councildis": "D",
    "status": "Pending",
    "rowid": "867604",
    "final_x": "3678799.96034",
    "final_y": "540326.247435",
    "longitude": "-90.07629101954583",
    "latitude": "29.979791558650504",
    "geocoded_column": {
      "latitude": "29.979791558650504",
      "longitude": "-90.07629101954583"
    }
  },
  {
    "service_request": "2022-867603",
    "request_type": "Trash/Recycling",
    "request_reason": "Order Recycling Cart",
    "date_created": "2022-03-16T21:23:10.000",
    "date_modified": "2022-03-16T21:23:10.000",
    "request_status": "Pending",
    "responsible_agency": "Department of Sanitation",
    "final_address": "1711 Frenchmen St",
    "address_councildis": "D",
    "status": "Pending",
    "rowid": "867603",
    "final_x": "3684440.80341",
    "final_y": "538593.068617",
    "longitude": "-90.0585358607564",
    "latitude": "29.974854561718004",
    "geocoded_column": {
      "latitude": "29.974854561718004",
      "longitude": "-90.0585358607564"
    }
  },
  {
    "service_request": "2022-867602",
    "request_type": "Abandoned Vehicles",
    "request_reason": "Abandoned/Junk Vehicles",
    "date_created": "2022-03-16T21:19:11.000",
    "date_modified": "2022-03-16T21:19:11.000",
    "request_status": "Pending",
    "responsible_agency": "Department of Public Works",
    "final_address": "1631 Second St",
    "address_councildis": "B",
    "status": "Pending",
    "rowid": "867602",
    "final_x": "3676552.69006",
    "final_y": "523322.062011",
    "longitude": "-90.08397440548256",
    "latitude": "29.93310334989885",
    "geocoded_column": {
      "latitude": "29.93310334989885",
      "longitude": "-90.08397440548256"
    }
  },
  {
    "service_request": "2022-867601",
    "request_type": "Safety & Permits",
    "request_reason": "Construction permit",
    "date_created": "2022-03-16T21:06:34.000",
    "date_modified": "2022-03-16T21:06:34.000",
    "request_status": "Pending",
    "responsible_agency": "Department of Code Enforcement",
    "final_address": "1667 N Rocheblave St",
    "address_councildis": "D",
    "status": "Pending",
    "rowid": "867601",
    "final_x": "3680268.60181",
    "final_y": "540001.248139",
    "longitude": "-90.07166375327496",
    "latitude": "29.978853540153157",
    "geocoded_column": {
      "latitude": "29.978853540153157",
      "longitude": "-90.07166375327496"
    }
  },
  {
    "service_request": "2022-867600",
    "request_type": "Abandoned Vehicles",
    "request_reason": "Abandoned/Junk Vehicles",
    "date_created": "2022-03-16T20:59:27.000",
    "date_modified": "2022-03-16T20:59:27.000",
    "request_status": "Pending",
    "responsible_agency": "Department of Public Works",
    "final_address": "2415 Annunciation St",
    "address_councildis": "B",
    "status": "Pending",
    "rowid": "867600",
    "final_x": "3678562.71394",
    "final_y": "520551.9966",
    "longitude": "-90.07772472283656",
    "latitude": "29.92542616019187",
    "geocoded_column": {
      "latitude": "29.92542616019187",
      "longitude": "-90.07772472283656"
    }
  },
  {
    "service_request": "2022-867599",
    "request_type": "Abandoned Vehicles",
    "request_reason": "Abandoned/Junk Vehicles",
    "date_created": "2022-03-16T20:58:05.000",
    "date_modified": "2022-03-16T20:58:05.000",
    "request_status": "Pending",
    "responsible_agency": "Department of Public Works",
    "final_address": "817 First St",
    "address_councildis": "B",
    "status": "Pending",
    "rowid": "867599",
    "final_x": "3678675.04571",
    "final_y": "520758.529465",
    "longitude": "-90.07736298012802",
    "latitude": "29.92599067317677",
    "geocoded_column": {
      "latitude": "29.92599067317677",
      "longitude": "-90.07736298012802"
    }
  },
  {
    "service_request": "2022-867597",
    "request_type": "Trash/Recycling",
    "request_reason": "Order Recycling Cart",
    "date_created": "2022-03-16T20:31:22.000",
    "date_modified": "2022-03-16T20:31:22.000",
    "request_status": "Pending",
    "responsible_agency": "Department of Sanitation",
    "final_address": "1320 Spain St",
    "address_councildis": "C",
    "status": "Pending",
    "rowid": "867597",
    "final_x": "3686029.03644",
    "final_y": "537305.913608",
    "longitude": "-90.05356523315157",
    "latitude": "29.971266654245923",
    "geocoded_column": {
      "latitude": "29.971266654245923",
      "longitude": "-90.05356523315157"
    }
  },
  {
    "service_request": "2022-867596",
    "request_type": "Roads/Drainage",
    "request_reason": "Catch Basin - Clogged",
    "date_created": "2022-03-16T20:29:41.000",
    "date_modified": "2022-03-16T20:29:41.000",
    "request_status": "Pending",
    "responsible_agency": "Department of Public Works",
    "final_address": "1200 N Rendon St",
    "address_councildis": "A",
    "status": "Pending",
    "rowid": "867596",
    "final_x": "3675971.91029",
    "final_y": "539587.768202",
    "longitude": "-90.08524857199555",
    "latitude": "29.977845999680213",
    "geocoded_column": {
      "latitude": "29.977845999680213",
      "longitude": "-90.08524857199555"
    }
  },
  {
    "service_request": "2022-867595",
    "request_type": "Traffic Signals/Signs/Striping/Streetlights",
    "request_reason": "Street Light Outage/Malfunction",
    "date_created": "2022-03-16T20:26:26.000",
    "date_modified": "2022-03-16T20:26:27.000",
    "request_status": "Pending",
    "responsible_agency": "Department of Public Works",
    "final_address": "65 Yosemite Dr",
    "address_councildis": "C",
    "status": "Pending",
    "contractor": "Royal Engineering",
    "rowid": "867595",
    "final_x": "3699578.57252",
    "final_y": "516511.424757",
    "longitude": "-90.01153174771811",
    "latitude": "29.913666013012058",
    "geocoded_column": {
      "latitude": "29.913666013012058",
      "longitude": "-90.01153174771811"
    }
  },
  {
    "service_request": "2022-867594",
    "request_type": "Traffic Signals/Signs/Striping/Streetlights",
    "request_reason": "Street Light Outage/Malfunction",
    "date_created": "2022-03-16T20:23:34.000",
    "date_modified": "2022-03-16T20:23:35.000",
    "request_status": "Pending",
    "responsible_agency": "Department of Public Works",
    "final_address": "67 Park Timbers Dr",
    "address_councildis": "C",
    "status": "Pending",
    "contractor": "Royal Engineering",
    "rowid": "867594",
    "final_x": "3699388.22474",
    "final_y": "516678.547125",
    "longitude": "-90.01212645967472",
    "latitude": "29.914131579161598",
    "geocoded_column": {
      "latitude": "29.914131579161598",
      "longitude": "-90.01212645967472"
    }
  },
  {
    "service_request": "2022-867593",
    "request_type": "Traffic Signals/Signs/Striping/Streetlights",
    "request_reason": "Street Light Outage/Malfunction",
    "date_created": "2022-03-16T20:18:37.000",
    "date_modified": "2022-03-16T20:18:38.000",
    "request_status": "Pending",
    "responsible_agency": "Department of Public Works",
    "final_address": "23 Grand Canyon Dr",
    "address_councildis": "C",
    "status": "Pending",
    "contractor": "Royal Engineering",
    "rowid": "867593",
    "final_x": "3699642.3905",
    "final_y": "517191.741621",
    "longitude": "-90.01130554458591",
    "latitude": "29.9155346289227",
    "geocoded_column": {
      "latitude": "29.9155346289227",
      "longitude": "-90.01130554458591"
    }
  },
  {
    "service_request": "2022-867592",
    "request_type": "Traffic Signals/Signs/Striping/Streetlights",
    "request_reason": "Street Light Outage/Malfunction",
    "date_created": "2022-03-16T20:15:29.000",
    "date_modified": "2022-03-16T20:15:30.000",
    "request_status": "Pending",
    "responsible_agency": "Department of Public Works",
    "final_address": "6 Grand Canyon Ct",
    "address_councildis": "C",
    "status": "Pending",
    "contractor": "Royal Engineering",
    "rowid": "867592",
    "final_x": "3699643.03639",
    "final_y": "517289.823797",
    "longitude": "-90.01129993405287",
    "latitude": "29.915804301068224",
    "geocoded_column": {
      "latitude": "29.915804301068224",
      "longitude": "-90.01129993405287"
    }
  },
  {
    "service_request": "2022-867591",
    "request_type": "Trash/Recycling",
    "request_reason": "Return Trash Cart",
    "date_created": "2022-03-16T20:11:40.000",
    "date_modified": "2022-03-16T20:11:41.000",
    "request_status": "Pending",
    "responsible_agency": "Department of Sanitation",
    "final_address": "7802 Sycamore St",
    "address_councildis": "A",
    "status": "Assigned to Contractor",
    "contractor": "Richards Disposal",
    "rowid": "867591",
    "final_x": "3665106.94279",
    "final_y": "530216.040961",
    "longitude": "-90.11987751600891",
    "latitude": "29.95239777081363",
    "geocoded_column": {
      "latitude": "29.95239777081363",
      "longitude": "-90.11987751600891"
    }
  },
  {
    "service_request": "2022-867590",
    "request_type": "Trash/Recycling",
    "request_reason": "Missed Trash Pick-Up",
    "date_created": "2022-03-16T19:44:31.000",
    "date_modified": "2022-03-16T19:44:31.000",
    "request_status": "Pending",
    "responsible_agency": "Department of Sanitation",
    "final_address": "7022 St Charles Ave",
    "address_councildis": "A",
    "status": "Assigned to Contractor",
    "contractor": "Richards Disposal",
    "rowid": "867590",
    "final_x": "3663233.22074",
    "final_y": "524364.585148",
    "longitude": "-90.12598857977886",
    "latitude": "29.936362567912056",
    "geocoded_column": {
      "latitude": "29.936362567912056",
      "longitude": "-90.12598857977886"
    }
  },
  {
    "service_request": "2022-867586",
    "request_type": "Traffic Signals/Signs/Striping/Streetlights",
    "request_reason": "Street Light Outage/Malfunction",
    "date_created": "2022-03-16T19:05:37.000",
    "date_modified": "2022-03-16T19:05:38.000",
    "request_status": "Pending",
    "responsible_agency": "Department of Public Works",
    "final_address": "3810 Franklin Ave",
    "address_councildis": "D",
    "status": "Pending",
    "contractor": "Royal Engineering",
    "rowid": "867586",
    "final_x": "3687009.1999",
    "final_y": "547006.371281",
    "longitude": "-90.05012666806385",
    "latitude": "29.997909329156474",
    "geocoded_column": {
      "latitude": "29.997909329156474",
      "longitude": "-90.05012666806385"
    }
  },
  {
    "service_request": "2022-867585",
    "request_type": "Trash/Recycling",
    "request_reason": "Missed Trash Pick-Up",
    "date_created": "2022-03-16T18:54:58.000",
    "date_modified": "2022-03-16T18:54:59.000",
    "request_status": "Pending",
    "responsible_agency": "Department of Sanitation",
    "final_address": "3101 Somerset Dr, New Orleans, Louisiana, 70131",
    "address_councildis": "C",
    "status": "Assigned to Contractor",
    "contractor": "Richards Disposal",
    "rowid": "867585",
    "final_x": "3702514.49719",
    "final_y": "519766.43756",
    "longitude": "-90.00214574946591",
    "latitude": "29.922522728820613",
    "geocoded_column": {
      "latitude": "29.922522728820613",
      "longitude": "-90.00214574946591"
    }
  },
  {
    "service_request": "2022-867584",
    "request_type": "Trash/Recycling",
    "request_reason": "Request a Large Item Pick Up",
    "date_created": "2022-03-16T18:42:16.000",
    "date_modified": "2022-03-16T18:42:17.000",
    "request_status": "Pending",
    "responsible_agency": "Department of Sanitation",
    "final_address": "1712 Cambronne St",
    "address_councildis": "A",
    "status": "Assigned to Contractor",
    "contractor": "Richards Disposal",
    "rowid": "867584",
    "final_x": "3662400.06951",
    "final_y": "530521.705986",
    "longitude": "-90.12841447516294",
    "latitude": "29.95331679556777",
    "geocoded_column": {
      "latitude": "29.95331679556777",
      "longitude": "-90.12841447516294"
    }
  },
  {
    "service_request": "2022-867583",
    "request_type": "Trash/Recycling",
    "request_reason": "Missed Trash Pick-Up",
    "date_created": "2022-03-16T18:27:08.000",
    "date_modified": "2022-03-16T18:27:09.000",
    "request_status": "Pending",
    "responsible_agency": "Department of Sanitation",
    "final_address": "1810 Moss St",
    "address_councildis": "A",
    "status": "Assigned to Contractor",
    "contractor": "Metro Disposal",
    "rowid": "867583",
    "final_x": "3675364.91233",
    "final_y": "543036.295885",
    "longitude": "-90.08704722026397",
    "latitude": "29.987346427830513",
    "geocoded_column": {
      "latitude": "29.987346427830513",
      "longitude": "-90.08704722026397"
    }
  },
  {
    "service_request": "2022-867582",
    "request_type": "Trash/Recycling",
    "request_reason": "Illegal Dumping",
    "date_created": "2022-03-16T18:21:04.000",
    "date_modified": "2022-03-16T18:21:09.000",
    "request_status": "Pending",
    "responsible_agency": "Department of Sanitation",
    "final_address": "3442 S Liberty St",
    "address_councildis": "B",
    "status": "Pending",
    "rowid": "867582",
    "final_x": "3672926.46088",
    "final_y": "523592.880507",
    "longitude": "-90.095412947734",
    "latitude": "29.933956232441236",
    "geocoded_column": {
      "latitude": "29.933956232441236",
      "longitude": "-90.095412947734"
    }
  },
  {
    "service_request": "2022-867580",
    "request_type": "Abandoned Vehicles",
    "request_reason": "Abandoned/Junk Vehicles",
    "date_created": "2022-03-16T18:13:48.000",
    "date_modified": "2022-03-16T18:13:48.000",
    "request_status": "Pending",
    "responsible_agency": "Department of Public Works",
    "final_address": "331 S Olympia St",
    "address_councildis": "A",
    "status": "Pending",
    "rowid": "867580",
    "final_x": "3668729.77146",
    "final_y": "538805.803145",
    "longitude": "-90.10814824040823",
    "latitude": "29.975910774518923",
    "geocoded_column": {
      "latitude": "29.975910774518923",
      "longitude": "-90.10814824040823"
    }
  },
  {
    "service_request": "2022-867579",
    "request_type": "Abandoned Vehicles",
    "request_reason": "Abandoned/Junk Vehicles",
    "date_created": "2022-03-16T18:12:39.000",
    "date_modified": "2022-03-16T18:12:39.000",
    "request_status": "Pending",
    "responsible_agency": "Department of Public Works",
    "final_address": "624 S Scott St",
    "address_councildis": "B",
    "status": "Pending",
    "rowid": "867579",
    "final_x": "3670467.19457",
    "final_y": "536047.910855",
    "longitude": "-90.10275449061004",
    "latitude": "29.968276302925755",
    "geocoded_column": {
      "latitude": "29.968276302925755",
      "longitude": "-90.10275449061004"
    }
  },
  {
    "service_request": "2022-867578",
    "request_type": "Trash/Recycling",
    "request_reason": "Missed Trash Pick-Up",
    "date_created": "2022-03-16T18:06:32.000",
    "date_modified": "2022-03-16T18:06:33.000",
    "request_status": "Pending",
    "responsible_agency": "Department of Sanitation",
    "final_address": "7324 Green St",
    "address_councildis": "A",
    "status": "Assigned to Contractor",
    "contractor": "Richards Disposal",
    "rowid": "867578",
    "final_x": "3664682.21965",
    "final_y": "528192.384832",
    "longitude": "-90.12128619280756",
    "latitude": "29.94684573102767",
    "geocoded_column": {
      "latitude": "29.94684573102767",
      "longitude": "-90.12128619280756"
    }
  },
  {
    "service_request": "2022-867577",
    "request_type": "Roads/Drainage",
    "request_reason": "Catch Basin - Clogged",
    "date_created": "2022-03-16T18:03:03.000",
    "date_modified": "2022-03-16T18:03:03.000",
    "request_status": "Pending",
    "responsible_agency": "Department of Public Works",
    "final_address": "3814 Delachaise St",
    "address_councildis": "B",
    "status": "Pending",
    "rowid": "867577",
    "final_x": "3671034.61755",
    "final_y": "528724.340416",
    "longitude": "-90.10121123652989",
    "latitude": "29.94812214366166",
    "geocoded_column": {
      "latitude": "29.94812214366166",
      "longitude": "-90.10121123652989"
    }
  },
  {
    "service_request": "2022-867576",
    "request_type": "Roads/Drainage",
    "request_reason": "Catch Basin - Clogged",
    "date_created": "2022-03-16T18:01:56.000",
    "date_modified": "2022-03-16T18:01:56.000",
    "request_status": "Pending",
    "responsible_agency": "Department of Public Works",
    "final_address": "3814 Delachaise St",
    "address_councildis": "B",
    "status": "Pending",
    "rowid": "867576",
    "final_x": "3671034.61755",
    "final_y": "528724.340416",
    "longitude": "-90.10121123652989",
    "latitude": "29.94812214366166",
    "geocoded_column": {
      "latitude": "29.94812214366166",
      "longitude": "-90.10121123652989"
    }
  },
  {
    "service_request": "2022-867575",
    "request_type": "Trash/Recycling",
    "request_reason": "Illegal Dumping",
    "date_created": "2022-03-16T18:00:31.000",
    "date_modified": "2022-03-16T18:00:31.000",
    "request_status": "Pending",
    "responsible_agency": "Department of Sanitation",
    "final_address": "3814 Delachaise St",
    "address_councildis": "B",
    "status": "Pending",
    "rowid": "867575",
    "final_x": "3671034.61755",
    "final_y": "528724.340416",
    "longitude": "-90.10121123652989",
    "latitude": "29.94812214366166",
    "geocoded_column": {
      "latitude": "29.94812214366166",
      "longitude": "-90.10121123652989"
    }
  },
  {
    "service_request": "2022-867574",
    "request_type": "Trash/Recycling",
    "request_reason": "Illegal Dumping",
    "date_created": "2022-03-16T17:57:10.000",
    "date_modified": "2022-03-16T17:57:15.000",
    "request_status": "Pending",
    "responsible_agency": "Department of Sanitation",
    "final_address": "3822 Delachaise St",
    "address_councildis": "B",
    "status": "Pending",
    "rowid": "867574",
    "final_x": "3671018.88513",
    "final_y": "528775.718208",
    "longitude": "-90.10125916600734",
    "latitude": "29.94826388090951",
    "geocoded_column": {
      "latitude": "29.94826388090951",
      "longitude": "-90.10125916600734"
    }
  },
  {
    "service_request": "2022-867573",
    "request_type": "Trash/Recycling",
    "request_reason": "Order Trash Cart",
    "date_created": "2022-03-16T17:42:13.000",
    "date_modified": "2022-03-16T17:44:08.000",
    "request_status": "Pending",
    "responsible_agency": "Department of Sanitation",
    "final_address": "2310 Prentiss Ave, New Orleans, Louisiana, 70122",
    "address_councildis": "D",
    "status": "Assigned to Contractor",
    "contractor": "Metro Disposal",
    "rowid": "867573",
    "final_x": "3684477.65346",
    "final_y": "553804.777495",
    "longitude": "-90.05788471361342",
    "latitude": "30.016680191632204",
    "geocoded_column": {
      "latitude": "30.016680191632204",
      "longitude": "-90.05788471361342"
    }
  },
  {
    "service_request": "2022-867572",
    "request_type": "Trash/Recycling",
    "request_reason": "Replace Trash Cart",
    "date_created": "2022-03-16T17:35:45.000",
    "date_modified": "2022-03-16T17:35:54.000",
    "request_status": "Pending",
    "responsible_agency": "Department of Sanitation",
    "final_address": "517 Cherokee St",
    "address_councildis": "A",
    "status": "Assigned to Contractor",
    "contractor": "Richards Disposal",
    "rowid": "867572",
    "final_x": "3662015.94752",
    "final_y": "525196.034237",
    "longitude": "-90.12980400229264",
    "latitude": "29.93868400132635",
    "geocoded_column": {
      "latitude": "29.93868400132635",
      "longitude": "-90.12980400229264"
    }
  },
  {
    "service_request": "2022-867571",
    "request_type": "Roads/Drainage",
    "request_reason": "Catch Basin - Clogged",
    "date_created": "2022-03-16T17:29:23.000",
    "date_modified": "2022-03-16T17:29:23.000",
    "request_status": "Pending",
    "responsible_agency": "Department of Public Works",
    "final_address": "2604 Chippewa St",
    "address_councildis": "B",
    "status": "Pending",
    "rowid": "867571",
    "final_x": "3678359.4733",
    "final_y": "519853.957432",
    "longitude": "-90.07839042344962",
    "latitude": "29.923512901577627",
    "geocoded_column": {
      "latitude": "29.923512901577627",
      "longitude": "-90.07839042344962"
    }
  },
  {
    "service_request": "2022-867570",
    "request_type": "Trash/Recycling",
    "request_reason": "Request a Large Item Pick Up",
    "date_created": "2022-03-16T17:25:38.000",
    "date_modified": "2022-03-16T17:25:39.000",
    "request_status": "Pending",
    "responsible_agency": "Department of Sanitation",
    "final_address": "2810 St Andrew St",
    "address_councildis": "B",
    "status": "Assigned to Contractor",
    "contractor": "Richards Disposal",
    "rowid": "867570",
    "final_x": "3675371.33256",
    "final_y": "527443.706495",
    "longitude": "-90.08756240920526",
    "latitude": "29.94447188672847",
    "geocoded_column": {
      "latitude": "29.94447188672847",
      "longitude": "-90.08756240920526"
    }
  },
  {
    "service_request": "2022-867569",
    "request_type": "Trash/Recycling",
    "request_reason": "Request a Large Item Pick Up",
    "date_created": "2022-03-16T17:24:45.000",
    "date_modified": "2022-03-16T17:24:45.000",
    "request_status": "Pending",
    "responsible_agency": "Department of Sanitation",
    "final_address": "2518 Willow St",
    "address_councildis": "B",
    "status": "Assigned to Contractor",
    "contractor": "Richards Disposal",
    "rowid": "867569",
    "final_x": "3674063.3611",
    "final_y": "526739.28979",
    "longitude": "-90.09171616179373",
    "latitude": "29.942574008734486",
    "geocoded_column": {
      "latitude": "29.942574008734486",
      "longitude": "-90.09171616179373"
    }
  },
  {
    "service_request": "2022-867568",
    "request_type": "Trash/Recycling",
    "request_reason": "Request a Large Item Pick Up",
    "date_created": "2022-03-16T17:24:43.000",
    "date_modified": "2022-03-16T17:24:43.000",
    "request_status": "Pending",
    "responsible_agency": "Department of Sanitation",
    "final_address": "2518 Willow St",
    "address_councildis": "B",
    "status": "Assigned to Contractor",
    "contractor": "Richards Disposal",
    "rowid": "867568",
    "final_x": "3674063.3611",
    "final_y": "526739.28979",
    "longitude": "-90.09171616179373",
    "latitude": "29.942574008734486",
    "geocoded_column": {
      "latitude": "29.942574008734486",
      "longitude": "-90.09171616179373"
    }
  },
  {
    "service_request": "2022-867566",
    "request_type": "Trash/Recycling",
    "request_reason": "Order Trash Cart",
    "date_created": "2022-03-16T17:06:14.000",
    "date_modified": "2022-03-16T17:06:21.000",
    "request_status": "Pending",
    "responsible_agency": "Department of Sanitation",
    "final_address": "3528 Hamilton St",
    "address_councildis": "A",
    "status": "Assigned to Contractor",
    "contractor": "Richards Disposal",
    "rowid": "867566",
    "final_x": "3665011.62765",
    "final_y": "537017.824456",
    "longitude": "-90.11995104972398",
    "latitude": "29.971103219648956",
    "geocoded_column": {
      "latitude": "29.971103219648956",
      "longitude": "-90.11995104972398"
    }
  },
  {
    "service_request": "2022-867565",
    "request_type": "Trash/Recycling",
    "request_reason": "Illegal Dumping",
    "date_created": "2022-03-16T16:56:39.000",
    "date_modified": "2022-03-16T16:56:39.000",
    "request_status": "Pending",
    "responsible_agency": "Department of Sanitation",
    "final_address": "2022 Joliet St",
    "address_councildis": "A",
    "status": "Pending",
    "rowid": "867565",
    "final_x": "3662889.21184",
    "final_y": "531570.445699",
    "longitude": "-90.12683509832124",
    "latitude": "29.956186338111042",
    "geocoded_column": {
      "latitude": "29.956186338111042",
      "longitude": "-90.12683509832124"
    }
  },
  {
    "service_request": "2022-867564",
    "request_type": "Trash/Recycling",
    "request_reason": "MIssed Recycling Pick-Up",
    "date_created": "2022-03-16T16:56:21.000",
    "date_modified": "2022-03-16T16:56:27.000",
    "request_status": "Pending",
    "responsible_agency": "Department of Sanitation",
    "final_address": "2927 Constance St",
    "address_councildis": "B",
    "status": "Assigned to Contractor",
    "contractor": "Richards Disposal",
    "rowid": "867564",
    "final_x": "3676605.36225",
    "final_y": "520131.955192",
    "longitude": "-90.08391793571015",
    "latitude": "29.924330013841793",
    "geocoded_column": {
      "latitude": "29.924330013841793",
      "longitude": "-90.08391793571015"
    }
  },
  {
    "service_request": "2022-867563",
    "request_type": "Property Maintenance",
    "request_reason": "Property Maintenance",
    "date_created": "2022-03-16T16:56:04.000",
    "date_modified": "2022-03-16T16:56:04.000",
    "request_status": "Pending",
    "responsible_agency": "Department of Code Enforcement",
    "final_address": "2611 Toulouse St",
    "address_councildis": "D",
    "status": "Pending",
    "rowid": "867563",
    "final_x": "3676822.66574",
    "final_y": "536341.590983",
    "longitude": "-90.08267349332466",
    "latitude": "29.96889461544767",
    "geocoded_column": {
      "latitude": "29.96889461544767",
      "longitude": "-90.08267349332466"
    }
  },
  {
    "service_request": "2022-867562",
    "request_type": "Traffic Signals/Signs/Striping/Streetlights",
    "request_reason": "Traffic Signal Malfunctioning/Damaged",
    "date_created": "2022-03-16T16:55:57.000",
    "date_modified": "2022-03-16T18:33:14.000",
    "request_status": "Pending",
    "responsible_agency": "Department of Public Works",
    "final_address": "New Orleans,LA",
    "address_councildis": "D",
    "rowid": "867562",
    "final_x": "3679885.0",
    "final_y": "537689.48",
    "longitude": "-90.07295562584758",
    "latitude": "29.972508585194987",
    "geocoded_column": {
      "latitude": "29.972508585194987",
      "longitude": "-90.07295562584758"
    }
  },
  {
    "service_request": "2022-867561",
    "request_type": "Abandoned Vehicles",
    "request_reason": "Abandoned/Junk Vehicles",
    "date_created": "2022-03-16T16:52:33.000",
    "date_modified": "2022-03-16T16:52:33.000",
    "request_status": "Pending",
    "responsible_agency": "Department of Public Works",
    "final_address": "EARHART BLVD & STATE STREET DR",
    "address_councildis": "B",
    "status": "Pending",
    "rowid": "867561",
    "final_x": "3668786.1",
    "final_y": "532053.78",
    "longitude": "-90.1081983438693",
    "latitude": "29.95734330266896",
    "geocoded_column": {
      "latitude": "29.95734330266896",
      "longitude": "-90.1081983438693"
    }
  },
  {
    "service_request": "2022-867560",
    "request_type": "Traffic Signals/Signs/Striping/Streetlights",
    "request_reason": "Striping/Road Surface Markings",
    "date_created": "2022-03-16T16:39:47.000",
    "date_modified": "2022-03-16T16:39:47.000",
    "request_status": "Pending",
    "responsible_agency": "Department of Public Works",
    "final_address": "2934 Palmer Ave",
    "address_councildis": "A",
    "status": "Pending",
    "rowid": "867560",
    "final_x": "3667053.76436",
    "final_y": "527412.580479",
    "longitude": "-90.1138245347555",
    "latitude": "29.944632330796722",
    "geocoded_column": {
      "latitude": "29.944632330796722",
      "longitude": "-90.1138245347555"
    }
  },
  {
    "service_request": "2022-867559",
    "request_type": "Trash/Recycling",
    "request_reason": "Missed Trash Pick-Up",
    "date_created": "2022-03-16T16:38:00.000",
    "date_modified": "2022-03-16T16:38:15.000",
    "request_status": "Pending",
    "responsible_agency": "Department of Sanitation",
    "final_address": "1208 Ursulines Ave",
    "address_councildis": "C",
    "status": "Assigned to Contractor",
    "contractor": "Richards Disposal",
    "rowid": "867559",
    "final_x": "3681859.63612",
    "final_y": "534805.921478",
    "longitude": "-90.06682003646813",
    "latitude": "29.964519921653324",
    "geocoded_column": {
      "latitude": "29.964519921653324",
      "longitude": "-90.06682003646813"
    }
  },
  {
    "service_request": "2022-867558",
    "request_type": "Abandoned Vehicles",
    "request_reason": "Abandoned/Junk Vehicles",
    "date_created": "2022-03-16T16:35:28.000",
    "date_modified": "2022-03-16T16:35:28.000",
    "request_status": "Pending",
    "responsible_agency": "Department of Public Works",
    "final_address": "943 Louisiana Ave",
    "address_councildis": "B",
    "status": "Pending",
    "rowid": "867558",
    "final_x": "3675266.23464",
    "final_y": "519273.335223",
    "longitude": "-90.08817455633056",
    "latitude": "29.92200916750127",
    "geocoded_column": {
      "latitude": "29.92200916750127",
      "longitude": "-90.08817455633056"
    }
  },
  {
    "service_request": "2022-867557",
    "request_type": "Trash/Recycling",
    "request_reason": "MIssed Recycling Pick-Up",
    "date_created": "2022-03-16T16:27:58.000",
    "date_modified": "2022-03-16T16:28:51.000",
    "request_status": "Pending",
    "responsible_agency": "Department of Sanitation",
    "final_address": "2824 Calhoun St",
    "address_councildis": "A",
    "status": "Assigned to Contractor",
    "contractor": "Richards Disposal",
    "rowid": "867557",
    "final_x": "3666618.59533",
    "final_y": "527138.943231",
    "longitude": "-90.11520768200867",
    "latitude": "29.943892644482503",
    "geocoded_column": {
      "latitude": "29.943892644482503",
      "longitude": "-90.11520768200867"
    }
  },
  {
    "service_request": "2022-867556",
    "request_type": "Traffic Signals/Signs/Striping/Streetlights",
    "request_reason": "Traffic Signal Malfunctioning/Damaged",
    "date_created": "2022-03-16T16:21:13.000",
    "date_modified": "2022-03-16T16:21:13.000",
    "request_status": "Pending",
    "responsible_agency": "Department of Public Works",
    "final_address": "1533 Esplanade Ave",
    "address_councildis": "C",
    "status": "Pending",
    "rowid": "867556",
    "final_x": "3681429.45404",
    "final_y": "536549.216455",
    "longitude": "-90.06811773116182",
    "latitude": "29.96932645132342",
    "geocoded_column": {
      "latitude": "29.96932645132342",
      "longitude": "-90.06811773116182"
    }
  },
  {
    "service_request": "2022-867554",
    "request_type": "Trash/Recycling",
    "request_reason": "Missed Trash Pick-Up",
    "date_created": "2022-03-16T16:13:54.000",
    "date_modified": "2022-03-16T16:14:02.000",
    "request_status": "Pending",
    "responsible_agency": "Department of Sanitation",
    "final_address": "221 Adams St",
    "address_councildis": "A",
    "status": "Assigned to Contractor",
    "contractor": "Richards Disposal",
    "rowid": "867554",
    "final_x": "3660843.6471",
    "final_y": "524897.354108",
    "longitude": "-90.13351497535376",
    "latitude": "29.937896530555854",
    "geocoded_column": {
      "latitude": "29.937896530555854",
      "longitude": "-90.13351497535376"
    }
  },
  {
    "service_request": "2022-867553",
    "request_type": "Property Maintenance",
    "request_reason": "Property Maintenance",
    "date_created": "2022-03-16T16:11:49.000",
    "date_modified": "2022-03-16T16:11:49.000",
    "request_status": "Pending",
    "responsible_agency": "Department of Code Enforcement",
    "final_address": "207 West Robert E Lee Blvd",
    "address_councildis": "A",
    "status": "Pending",
    "rowid": "867553",
    "final_x": "3666118.67469",
    "final_y": "554967.901336",
    "longitude": "-90.11585250237677",
    "latitude": "30.020427499855096",
    "geocoded_column": {
      "latitude": "30.020427499855096",
      "longitude": "-90.11585250237677"
    }
  },
  {
    "service_request": "2022-867552",
    "request_type": "Trash/Recycling",
    "request_reason": "Replace Trash Cart",
    "date_created": "2022-03-16T16:08:25.000",
    "date_modified": "2022-03-16T16:08:26.000",
    "request_status": "Pending",
    "responsible_agency": "Department of Sanitation",
    "final_address": "4720 N Villere St, New Orleans, Louisiana, 70117",
    "address_councildis": "E",
    "status": "Assigned to Contractor",
    "contractor": "Metro Disposal",
    "rowid": "867552",
    "final_x": "3695138.11664",
    "final_y": "535618.53895",
    "longitude": "-90.02485848599206",
    "latitude": "29.966344086920873",
    "geocoded_column": {
      "latitude": "29.966344086920873",
      "longitude": "-90.02485848599206"
    }
  },
  {
    "service_request": "2022-867551",
    "request_type": "Traffic Signals/Signs/Striping/Streetlights",
    "request_reason": "Street Light Outage/Malfunction",
    "date_created": "2022-03-16T16:03:07.000",
    "date_modified": "2022-03-16T16:03:13.000",
    "request_status": "Pending",
    "responsible_agency": "Department of Public Works",
    "final_address": "13611 Dwyer Blvd",
    "address_councildis": "E",
    "status": "Pending",
    "contractor": "Royal Engineering",
    "rowid": "867551",
    "final_x": "3726406.50688",
    "final_y": "562271.818783",
    "longitude": "-89.92508046493339",
    "latitude": "30.03861115798485",
    "geocoded_column": {
      "latitude": "30.03861115798485",
      "longitude": "-89.92508046493339"
    }
  },
  {
    "service_request": "2022-867550",
    "request_type": "Trash/Recycling",
    "request_reason": "Request a Large Item Pick Up",
    "date_created": "2022-03-16T16:01:54.000",
    "date_modified": "2022-03-16T16:02:07.000",
    "request_status": "Pending",
    "responsible_agency": "Department of Sanitation",
    "final_address": "8919 Nelson St, New Orleans, Louisiana, 70118",
    "address_councildis": "A",
    "status": "Assigned to Contractor",
    "contractor": "Richards Disposal",
    "rowid": "867550",
    "final_x": "3662934.21792",
    "final_y": "533881.626629",
    "longitude": "-90.12661612698331",
    "latitude": "29.96254003051835",
    "geocoded_column": {
      "latitude": "29.96254003051835",
      "longitude": "-90.12661612698331"
    }
  },
  {
    "service_request": "2022-867549",
    "request_type": "Traffic Signals/Signs/Striping/Streetlights",
    "request_reason": "Request for Stop Sign",
    "date_created": "2022-03-16T15:59:16.000",
    "date_modified": "2022-03-16T15:59:16.000",
    "request_status": "Pending",
    "responsible_agency": "Department of Public Works",
    "final_address": "Hollygrove St & Belfast St, New Orleans, Louisiana, 70118",
    "address_councildis": "A",
    "status": "Pending",
    "rowid": "867549",
    "final_x": "3663244.4",
    "final_y": "534502.18",
    "longitude": "-90.12561595541573",
    "latitude": "29.964237363500295",
    "geocoded_column": {
      "latitude": "29.964237363500295",
      "longitude": "-90.12561595541573"
    }
  },
  {
    "service_request": "2022-867548",
    "request_type": "Roads/Drainage",
    "request_reason": "Damaged Sidewalk",
    "date_created": "2022-03-16T15:57:48.000",
    "date_modified": "2022-03-16T15:57:49.000",
    "request_status": "Pending",
    "responsible_agency": "Department of Public Works",
    "final_address": "REPUBLIC ST & GENTILLY BLVD",
    "address_councildis": "D",
    "status": "Pending",
    "rowid": "867548",
    "final_x": "3680555.28",
    "final_y": "544398.78",
    "longitude": "-90.07060525623797",
    "latitude": "29.99093653136114",
    "geocoded_column": {
      "latitude": "29.99093653136114",
      "longitude": "-90.07060525623797"
    }
  },
  {
    "service_request": "2022-867547",
    "request_type": "Roads/Drainage",
    "request_reason": "Catch Basin - Broken/Damage",
    "date_created": "2022-03-16T15:49:45.000",
    "date_modified": "2022-03-16T15:49:45.000",
    "request_status": "Pending",
    "responsible_agency": "Department of Public Works",
    "final_address": "REPUBLIC ST & GENTILLY BLVD",
    "address_councildis": "D",
    "status": "Pending",
    "rowid": "867547",
    "final_x": "3680555.28",
    "final_y": "544398.78",
    "longitude": "-90.07060525623797",
    "latitude": "29.99093653136114",
    "geocoded_column": {
      "latitude": "29.99093653136114",
      "longitude": "-90.07060525623797"
    }
  },
  {
    "service_request": "2022-867546",
    "request_type": "Trash/Recycling",
    "request_reason": "Start Trash Service",
    "date_created": "2022-03-16T15:48:35.000",
    "date_modified": "2022-03-16T15:48:49.000",
    "request_status": "Pending",
    "responsible_agency": "Department of Sanitation",
    "final_address": "2503 Carondelet St, New Orleans, Louisiana, 70130",
    "address_councildis": "B",
    "status": "Assigned to Contractor",
    "contractor": "Richards Disposal",
    "rowid": "867546",
    "final_x": "3676419.17857",
    "final_y": "523362.954683",
    "longitude": "-90.0843944853614",
    "latitude": "29.933219793507785",
    "geocoded_column": {
      "latitude": "29.933219793507785",
      "longitude": "-90.0843944853614"
    }
  },
  {
    "service_request": "2022-867545",
    "request_type": "Roads/Drainage",
    "request_reason": "Catch Basin - Broken/Damage",
    "date_created": "2022-03-16T15:46:46.000",
    "date_modified": "2022-03-16T15:46:56.000",
    "request_status": "Pending",
    "responsible_agency": "Department of Public Works",
    "final_address": "REPUBLIC ST & GENTILLY BLVD",
    "address_councildis": "D",
    "status": "Pending",
    "rowid": "867545",
    "final_x": "3680555.28",
    "final_y": "544398.78",
    "longitude": "-90.07060525623797",
    "latitude": "29.99093653136114",
    "geocoded_column": {
      "latitude": "29.99093653136114",
      "longitude": "-90.07060525623797"
    }
  },
  {
    "service_request": "2022-867544",
    "request_type": "Abandoned Vehicles",
    "request_reason": "Abandoned/Junk Vehicles",
    "date_created": "2022-03-16T15:43:48.000",
    "date_modified": "2022-03-16T15:43:48.000",
    "request_status": "Pending",
    "responsible_agency": "Department of Public Works",
    "final_address": "323 N White St",
    "address_councildis": "B",
    "status": "Pending",
    "rowid": "867544",
    "final_x": "3675423.84187",
    "final_y": "536333.938823",
    "longitude": "-90.08709133638091",
    "latitude": "29.96891548185293",
    "geocoded_column": {
      "latitude": "29.96891548185293",
      "longitude": "-90.08709133638091"
    }
  },
  {
    "service_request": "2022-867543",
    "request_type": "Trash/Recycling",
    "request_reason": "Missed Trash Pick-Up",
    "date_created": "2022-03-16T15:41:44.000",
    "date_modified": "2022-03-16T15:42:23.000",
    "request_status": "Pending",
    "responsible_agency": "Department of Sanitation",
    "final_address": "533 Audubon St",
    "address_councildis": "A",
    "status": "Assigned to Contractor",
    "contractor": "Richards Disposal",
    "rowid": "867543",
    "final_x": "3662867.04141",
    "final_y": "523907.024124",
    "longitude": "-90.12715983218942",
    "latitude": "29.93511502400341",
    "geocoded_column": {
      "latitude": "29.93511502400341",
      "longitude": "-90.12715983218942"
    }
  },
  {
    "service_request": "2022-867541",
    "request_type": "Trash/Recycling",
    "request_reason": "Dead Animal Pick Up",
    "date_created": "2022-03-16T15:41:33.000",
    "date_modified": "2022-03-16T15:41:42.000",
    "request_status": "Pending",
    "responsible_agency": "Department of Sanitation",
    "final_address": "328 Polk St",
    "address_councildis": "A",
    "status": "Assigned to Contractor",
    "contractor": "Metro Disposal",
    "rowid": "867541",
    "final_x": "3667342.8578",
    "final_y": "547318.916049",
    "longitude": "-90.11224199955984",
    "latitude": "29.999359641910093",
    "geocoded_column": {
      "latitude": "29.999359641910093",
      "longitude": "-90.11224199955984"
    }
  },
  {
    "service_request": "2022-867540",
    "request_type": "Abandoned Vehicles",
    "request_reason": "Abandoned/Junk Vehicles",
    "date_created": "2022-03-16T15:41:00.000",
    "date_modified": "2022-03-16T15:41:00.000",
    "request_status": "Pending",
    "responsible_agency": "Department of Public Works",
    "final_address": "323 N White St",
    "address_councildis": "B",
    "status": "Pending",
    "rowid": "867540",
    "final_x": "3675423.84187",
    "final_y": "536333.938823",
    "longitude": "-90.08709133638091",
    "latitude": "29.96891548185293",
    "geocoded_column": {
      "latitude": "29.96891548185293",
      "longitude": "-90.08709133638091"
    }
  },
  {
    "service_request": "2022-867539",
    "request_type": "Roads/Drainage",
    "request_reason": "Damaged Sidewalk",
    "date_created": "2022-03-16T15:40:53.000",
    "date_modified": "2022-03-16T15:40:53.000",
    "request_status": "Pending",
    "responsible_agency": "Department of Public Works",
    "final_address": "REPUBLIC ST & GENTILLY BLVD",
    "address_councildis": "D",
    "status": "Pending",
    "rowid": "867539",
    "final_x": "3680555.28",
    "final_y": "544398.78",
    "longitude": "-90.07060525623797",
    "latitude": "29.99093653136114",
    "geocoded_column": {
      "latitude": "29.99093653136114",
      "longitude": "-90.07060525623797"
    }
  },
  {
    "service_request": "2022-867538",
    "request_type": "Roads/Drainage",
    "request_reason": "Damaged Sidewalk",
    "date_created": "2022-03-16T15:38:30.000",
    "date_modified": "2022-03-16T15:38:43.000",
    "request_status": "Pending",
    "responsible_agency": "Department of Public Works",
    "final_address": "REPUBLIC ST & GENTILLY BLVD",
    "address_councildis": "D",
    "status": "Pending",
    "rowid": "867538",
    "final_x": "3680555.28",
    "final_y": "544398.78",
    "longitude": "-90.07060525623797",
    "latitude": "29.99093653136114",
    "geocoded_column": {
      "latitude": "29.99093653136114",
      "longitude": "-90.07060525623797"
    }
  },
  {
    "service_request": "2022-867537",
    "request_type": "Roads/Drainage",
    "request_reason": "Catch Basin - Clogged",
    "date_created": "2022-03-16T15:37:18.000",
    "date_modified": "2022-03-16T15:37:18.000",
    "request_status": "Pending",
    "responsible_agency": "Department of Public Works",
    "final_address": "6320 Caldwell Dr",
    "address_councildis": "D",
    "status": "Pending",
    "rowid": "867537",
    "final_x": "3679080.04271",
    "final_y": "556809.51881",
    "longitude": "-90.07483460988873",
    "latitude": "30.0251062343487",
    "geocoded_column": {
      "latitude": "30.0251062343487",
      "longitude": "-90.07483460988873"
    }
  },
  {
    "service_request": "2022-867536",
    "request_type": "Trash/Recycling",
    "request_reason": "Illegal Dumping",
    "date_created": "2022-03-16T15:33:41.000",
    "date_modified": "2022-03-16T15:34:05.000",
    "request_status": "Pending",
    "responsible_agency": "Department of Sanitation",
    "final_address": "REPUBLIC ST & GENTILLY BLVD",
    "address_councildis": "D",
    "status": "Pending",
    "rowid": "867536",
    "final_x": "3680555.28",
    "final_y": "544398.78",
    "longitude": "-90.07060525623797",
    "latitude": "29.99093653136114",
    "geocoded_column": {
      "latitude": "29.99093653136114",
      "longitude": "-90.07060525623797"
    }
  },
  {
    "service_request": "2022-867535",
    "request_type": "Roads/Drainage",
    "request_reason": "Man hole cover issue",
    "date_created": "2022-03-16T15:33:08.000",
    "date_modified": "2022-03-16T15:33:08.000",
    "request_status": "Pending",
    "responsible_agency": "Department of Public Works",
    "final_address": "LAKE FOREST BLVD & CROWDER BLVD",
    "address_councildis": "E",
    "status": "Pending",
    "rowid": "867535",
    "final_x": "3705269.9",
    "final_y": "557836.38",
    "longitude": "-89.992041432524",
    "latitude": "30.02711277253483",
    "geocoded_column": {
      "latitude": "30.02711277253483",
      "longitude": "-89.992041432524"
    }
  },
  {
    "service_request": "2022-867534",
    "request_type": "Safety & Permits",
    "request_reason": "Licenses & Permits",
    "date_created": "2022-03-16T15:32:54.000",
    "date_modified": "2022-03-16T15:32:54.000",
    "request_status": "Pending",
    "responsible_agency": "Safety and Permits",
    "status": "Pending",
    "rowid": "867534",
    "longitude": "0.0",
    "latitude": "0.0",
    "geocoded_column": {
      "latitude": "0.0",
      "longitude": "0.0"
    }
  },
  {
    "service_request": "2022-867533",
    "request_type": "Trash/Recycling",
    "request_reason": "Order Trash Cart",
    "date_created": "2022-03-16T15:30:47.000",
    "date_modified": "2022-03-16T15:31:01.000",
    "request_status": "Pending",
    "responsible_agency": "Department of Sanitation",
    "final_address": "7000 Neptune Ct",
    "address_councildis": "E",
    "status": "Assigned to Contractor",
    "contractor": "Metro Disposal",
    "rowid": "867533",
    "final_x": "3701925.27306",
    "final_y": "558777.416348",
    "longitude": "-90.0025755350857",
    "latitude": "30.029807485930082",
    "geocoded_column": {
      "latitude": "30.029807485930082",
      "longitude": "-90.0025755350857"
    }
  },
  {
    "service_request": "2022-867530",
    "request_type": "Taxi Issues",
    "request_reason": "Taxi Complaint",
    "date_created": "2022-03-16T15:24:53.000",
    "date_modified": "2022-03-16T15:24:53.000",
    "request_status": "Pending",
    "responsible_agency": "Ground Transportation Bureau",
    "final_address": "620 Tchoupitoulas St",
    "address_councildis": "B",
    "status": "Pending",
    "rowid": "867530",
    "final_x": "3681812.75624",
    "final_y": "528441.010496",
    "longitude": "-90.06719018166646",
    "latitude": "29.947020001787692",
    "geocoded_column": {
      "latitude": "29.947020001787692",
      "longitude": "-90.06719018166646"
    }
  },
  {
    "service_request": "2022-867529",
    "request_type": "Trash/Recycling",
    "request_reason": "Request a Large Item Pick Up",
    "date_created": "2022-03-16T15:21:00.000",
    "date_modified": "2022-03-16T15:21:11.000",
    "request_status": "Pending",
    "responsible_agency": "Department of Sanitation",
    "final_address": "2004 Philip St",
    "address_councildis": "B",
    "status": "Assigned to Contractor",
    "contractor": "Richards Disposal",
    "rowid": "867529",
    "final_x": "3676287.13781",
    "final_y": "524582.833724",
    "longitude": "-90.08476936659471",
    "latitude": "29.9365780186295",
    "geocoded_column": {
      "latitude": "29.9365780186295",
      "longitude": "-90.08476936659471"
    }
  },
  {
    "service_request": "2022-867528",
    "request_type": "Trash/Recycling",
    "request_reason": "Illegal Dumping",
    "date_created": "2022-03-16T15:20:52.000",
    "date_modified": "2022-03-16T15:20:52.000",
    "request_status": "Pending",
    "responsible_agency": "Department of Sanitation",
    "final_address": "85 Versailles Blvd",
    "address_councildis": "B",
    "status": "Pending",
    "rowid": "867528",
    "final_x": "3668020.99252",
    "final_y": "530760.924674",
    "longitude": "-90.11065789260552",
    "latitude": "29.95381084619494",
    "geocoded_column": {
      "latitude": "29.95381084619494",
      "longitude": "-90.11065789260552"
    }
  },
  {
    "service_request": "2022-867527",
    "request_type": "Traffic Signals/Signs/Striping/Streetlights",
    "request_reason": "Request for Traffic Calming due to Speeding",
    "date_created": "2022-03-16T15:16:22.000",
    "date_modified": "2022-03-16T15:16:22.000",
    "request_status": "Pending",
    "responsible_agency": "Department of Public Works",
    "final_address": "ST BERNARD AVE & FILMORE AVE",
    "address_councildis": "D",
    "status": "Pending",
    "rowid": "867527",
    "final_x": "3676727.6",
    "final_y": "551656.68",
    "longitude": "-90.0824457162933",
    "latitude": "30.011008619936398",
    "geocoded_column": {
      "latitude": "30.011008619936398",
      "longitude": "-90.0824457162933"
    }
  },
  {
    "service_request": "2022-867526",
    "request_type": "Property Maintenance",
    "request_reason": "Property Maintenance",
    "date_created": "2022-03-16T15:13:22.000",
    "date_modified": "2022-03-16T15:13:22.000",
    "request_status": "Pending",
    "responsible_agency": "Department of Code Enforcement",
    "final_address": "7001 Lawrence Rd",
    "address_councildis": "E",
    "status": "Pending",
    "rowid": "867526",
    "final_x": "3704372.84279",
    "final_y": "559124.69238",
    "longitude": "-89.99482847374347",
    "latitude": "30.03068397272477",
    "geocoded_column": {
      "latitude": "30.03068397272477",
      "longitude": "-89.99482847374347"
    }
  },
  {
    "service_request": "2022-867525",
    "request_type": "Trash/Recycling",
    "request_reason": "Replace Trash Cart",
    "date_created": "2022-03-16T15:10:31.000",
    "date_modified": "2022-03-16T15:14:19.000",
    "request_status": "Pending",
    "responsible_agency": "Department of Sanitation",
    "final_address": "11117 Old Spanish Trl",
    "address_councildis": "E",
    "status": "Assigned to Contractor",
    "contractor": "Metro Disposal",
    "rowid": "867525",
    "final_x": "3716382.78021",
    "final_y": "556023.326553",
    "longitude": "-89.95699498648304",
    "latitude": "30.02176523120808",
    "geocoded_column": {
      "latitude": "30.02176523120808",
      "longitude": "-89.95699498648304"
    }
  },
  {
    "service_request": "2022-867524",
    "request_type": "Trash/Recycling",
    "request_reason": "Replace Trash Cart",
    "date_created": "2022-03-16T15:06:31.000",
    "date_modified": "2022-03-16T15:07:34.000",
    "request_status": "Pending",
    "responsible_agency": "Department of Sanitation",
    "final_address": "5837 W End Blvd, New Orleans, Louisiana, 70124",
    "status": "Assigned to Contractor",
    "rowid": "867524",
    "longitude": "0.0",
    "latitude": "0.0",
    "geocoded_column": {
      "latitude": "0.0",
      "longitude": "0.0"
    }
  },
  {
    "service_request": "2022-867523",
    "request_type": "Abandoned Vehicles",
    "request_reason": "Abandoned/Junk Vehicles",
    "date_created": "2022-03-16T15:06:11.000",
    "date_modified": "2022-03-16T15:06:11.000",
    "request_status": "Pending",
    "responsible_agency": "Department of Public Works",
    "final_address": "10200 Almonaster Ave",
    "address_councildis": "E",
    "status": "Pending",
    "rowid": "867523",
    "final_x": "3713684.56383",
    "final_y": "551626.395989",
    "longitude": "-89.96568637555853",
    "latitude": "30.00976423388402",
    "geocoded_column": {
      "latitude": "30.00976423388402",
      "longitude": "-89.96568637555853"
    }
  },
  {
    "service_request": "2022-867522",
    "request_type": "Abandoned Vehicles",
    "request_reason": "Abandoned/Junk Vehicles",
    "date_created": "2022-03-16T15:03:18.000",
    "date_modified": "2022-03-16T15:03:18.000",
    "request_status": "Pending",
    "responsible_agency": "Department of Public Works",
    "final_address": "10200 Almonaster Ave",
    "address_councildis": "E",
    "status": "Pending",
    "rowid": "867522",
    "final_x": "3713684.56383",
    "final_y": "551626.395989",
    "longitude": "-89.96568637555853",
    "latitude": "30.00976423388402",
    "geocoded_column": {
      "latitude": "30.00976423388402",
      "longitude": "-89.96568637555853"
    }
  },
  {
    "service_request": "2022-867521",
    "request_type": "Abandoned Vehicles",
    "request_reason": "Abandoned/Junk Vehicles",
    "date_created": "2022-03-16T15:00:13.000",
    "date_modified": "2022-03-16T15:00:13.000",
    "request_status": "Pending",
    "responsible_agency": "Department of Public Works",
    "final_address": "3327 Sullen Pl",
    "address_councildis": "C",
    "status": "Pending",
    "rowid": "867521",
    "final_x": "3707662.5114",
    "final_y": "518516.564279",
    "longitude": "-89.98594208131568",
    "latitude": "29.91892055911089",
    "geocoded_column": {
      "latitude": "29.91892055911089",
      "longitude": "-89.98594208131568"
    }
  },
  {
    "service_request": "2022-867520",
    "request_type": "Trash/Recycling",
    "request_reason": "Repair Trash Cart",
    "date_created": "2022-03-16T14:57:36.000",
    "date_modified": "2022-03-16T14:58:55.000",
    "request_status": "Pending",
    "responsible_agency": "Department of Sanitation",
    "final_address": "2357 Magazine St",
    "address_councildis": "B",
    "status": "Assigned to Contractor",
    "contractor": "Richards Disposal",
    "rowid": "867520",
    "final_x": "3678154.60411",
    "final_y": "521599.963257",
    "longitude": "-90.07897678498516",
    "latitude": "29.92832001759112",
    "geocoded_column": {
      "latitude": "29.92832001759112",
      "longitude": "-90.07897678498516"
    }
  },
  {
    "service_request": "2022-867519",
    "request_type": "Traffic Signals/Signs/Striping/Streetlights",
    "request_reason": "Additional signage",
    "date_created": "2022-03-16T14:57:35.000",
    "date_modified": "2022-03-16T14:57:35.000",
    "request_status": "Pending",
    "responsible_agency": "Department of Public Works",
    "final_address": "501 Loyola Ave",
    "address_councildis": "B",
    "status": "Pending",
    "rowid": "867519",
    "final_x": "3678906.89992",
    "final_y": "529539.620673",
    "longitude": "-90.07632699865432",
    "latitude": "29.950128782853657",
    "geocoded_column": {
      "latitude": "29.950128782853657",
      "longitude": "-90.07632699865432"
    }
  },
  {
    "service_request": "2022-867518",
    "request_type": "Traffic Signals/Signs/Striping/Streetlights",
    "request_reason": "Street Light Outage/Malfunction",
    "date_created": "2022-03-16T14:57:08.000",
    "date_modified": "2022-03-16T18:24:27.000",
    "request_status": "Pending",
    "responsible_agency": "Department of Public Works",
    "final_address": "New Orleans,LA",
    "address_councildis": "B",
    "status": "Pending",
    "contractor": "Royal Engineering",
    "rowid": "867518",
    "final_x": "3681589.68706",
    "final_y": "529065.294848",
    "longitude": "-90.06787272477939",
    "latitude": "29.948743349579406",
    "geocoded_column": {
      "latitude": "29.948743349579406",
      "longitude": "-90.06787272477939"
    }
  },
  {
    "service_request": "2022-867517",
    "request_type": "Trash/Recycling",
    "request_reason": "MIssed Recycling Pick-Up",
    "date_created": "2022-03-16T14:56:37.000",
    "date_modified": "2022-03-16T14:58:29.000",
    "request_status": "Pending",
    "responsible_agency": "Department of Sanitation",
    "final_address": "2357 Magazine St",
    "address_councildis": "B",
    "status": "Assigned to Contractor",
    "contractor": "Richards Disposal",
    "rowid": "867517",
    "final_x": "3678154.60411",
    "final_y": "521599.963257",
    "longitude": "-90.07897678498516",
    "latitude": "29.92832001759112",
    "geocoded_column": {
      "latitude": "29.92832001759112",
      "longitude": "-90.07897678498516"
    }
  },
  {
    "service_request": "2022-867516",
    "request_type": "Trash/Recycling",
    "request_reason": "Missed Trash Pick-Up",
    "date_created": "2022-03-16T14:55:42.000",
    "date_modified": "2022-03-16T14:57:29.000",
    "request_status": "Pending",
    "responsible_agency": "Department of Sanitation",
    "final_address": "2357 Magazine St",
    "address_councildis": "B",
    "status": "Assigned to Contractor",
    "contractor": "Richards Disposal",
    "rowid": "867516",
    "final_x": "3678154.60411",
    "final_y": "521599.963257",
    "longitude": "-90.07897678498516",
    "latitude": "29.92832001759112",
    "geocoded_column": {
      "latitude": "29.92832001759112",
      "longitude": "-90.07897678498516"
    }
  },
  {
    "service_request": "2022-867515",
    "request_type": "Property Maintenance",
    "request_reason": "Property Maintenance",
    "date_created": "2022-03-16T14:51:34.000",
    "date_modified": "2022-03-16T14:51:34.000",
    "request_status": "Pending",
    "responsible_agency": "Department of Code Enforcement",
    "final_address": "5769 Cameron Blvd",
    "address_councildis": "D",
    "status": "Pending",
    "rowid": "867515",
    "final_x": "3682530.48943",
    "final_y": "554648.600408",
    "longitude": "-90.06400738767712",
    "latitude": "30.019059848432168",
    "geocoded_column": {
      "latitude": "30.019059848432168",
      "longitude": "-90.06400738767712"
    }
  },
  {
    "service_request": "2022-867514",
    "request_type": "Traffic Signals/Signs/Striping/Streetlights",
    "request_reason": "Traffic Sign Missing/Damaged",
    "date_created": "2022-03-16T14:50:24.000",
    "date_modified": "2022-03-16T14:50:24.000",
    "request_status": "Pending",
    "responsible_agency": "Department of Public Works",
    "final_address": "OAK ST & HILLARY ST",
    "address_councildis": "A",
    "status": "Pending",
    "rowid": "867514",
    "final_x": "3663291.0",
    "final_y": "527157.98",
    "longitude": "-90.12571322440157",
    "latitude": "29.944041840096837",
    "geocoded_column": {
      "latitude": "29.944041840096837",
      "longitude": "-90.12571322440157"
    }
  },
  {
    "service_request": "2022-867513",
    "request_type": "Trash/Recycling",
    "request_reason": "Request a Large Item Pick Up",
    "date_created": "2022-03-16T14:49:39.000",
    "date_modified": "2022-03-16T14:54:40.000",
    "request_status": "Pending",
    "responsible_agency": "Department of Sanitation",
    "final_address": "3434 Cleveland Ave",
    "address_councildis": "B",
    "status": "Assigned to Contractor",
    "contractor": "Richards Disposal",
    "rowid": "867513",
    "final_x": "3672637.83988",
    "final_y": "536589.680327",
    "longitude": "-90.09588100570359",
    "latitude": "29.969701708593863",
    "geocoded_column": {
      "latitude": "29.969701708593863",
      "longitude": "-90.09588100570359"
    }
  },
  {
    "service_request": "2022-867512",
    "request_type": "Trash/Recycling",
    "request_reason": "Missed Trash Pick-Up",
    "date_created": "2022-03-16T14:48:39.000",
    "date_modified": "2022-03-16T14:54:01.000",
    "request_status": "Pending",
    "responsible_agency": "Department of Sanitation",
    "final_address": "3454 Parkview Pl",
    "address_councildis": "A",
    "status": "Assigned to Contractor",
    "contractor": "Metro Disposal",
    "rowid": "867512",
    "final_x": "3675415.86209",
    "final_y": "543329.78811",
    "longitude": "-90.08687620329555",
    "latitude": "29.98815190581197",
    "geocoded_column": {
      "latitude": "29.98815190581197",
      "longitude": "-90.08687620329555"
    }
  },
  {
    "service_request": "2022-867511",
    "request_type": "Abandoned Vehicles",
    "request_reason": "Abandoned/Junk Vehicles",
    "date_created": "2022-03-16T14:47:03.000",
    "date_modified": "2022-03-16T14:47:03.000",
    "request_status": "Pending",
    "responsible_agency": "Department of Public Works",
    "final_address": "5700 St Anthony Ave",
    "address_councildis": "D",
    "status": "Pending",
    "rowid": "867511",
    "final_x": "3682026.8372",
    "final_y": "553811.631063",
    "longitude": "-90.06562801019497",
    "latitude": "30.016773819730965",
    "geocoded_column": {
      "latitude": "30.016773819730965",
      "longitude": "-90.06562801019497"
    }
  },
  {
    "service_request": "2022-867510",
    "request_type": "Trash/Recycling",
    "request_reason": "Order Recycling Cart",
    "date_created": "2022-03-16T14:43:54.000",
    "date_modified": "2022-03-16T14:43:54.000",
    "request_status": "Pending",
    "responsible_agency": "Department of Sanitation",
    "final_address": "5706 Laurel St, New Orleans, Louisiana, 70115",
    "address_councildis": "A",
    "status": "Pending",
    "rowid": "867510",
    "final_x": "3665523.85965",
    "final_y": "517916.774262",
    "longitude": "-90.11897265645725",
    "latitude": "29.91856655807894",
    "geocoded_column": {
      "latitude": "29.91856655807894",
      "longitude": "-90.11897265645725"
    }
  },
  {
    "service_request": "2022-867509",
    "request_type": "Traffic Signals/Signs/Striping/Streetlights",
    "request_reason": "Striping/Road Surface Markings",
    "date_created": "2022-03-16T14:40:04.000",
    "date_modified": "2022-03-16T14:40:04.000",
    "request_status": "Pending",
    "responsible_agency": "Department of Public Works",
    "final_address": "1522 N Prieur St",
    "address_councildis": "D",
    "status": "Pending",
    "rowid": "867509",
    "final_x": "3681058.53448",
    "final_y": "537953.249481",
    "longitude": "-90.06924020679288",
    "latitude": "29.973198314296173",
    "geocoded_column": {
      "latitude": "29.973198314296173",
      "longitude": "-90.06924020679288"
    }
  },
  {
    "service_request": "2022-867508",
    "request_type": "Trash/Recycling",
    "request_reason": "Repair Trash Cart",
    "date_created": "2022-03-16T14:38:10.000",
    "date_modified": "2022-03-16T18:13:47.000",
    "request_status": "Pending",
    "responsible_agency": "Department of Sanitation",
    "final_address": "3638 Camp Street ",
    "address_councildis": "B",
    "status": "Assigned to Contractor",
    "contractor": "Richards Disposal",
    "rowid": "867508",
    "final_x": "3673730.03745",
    "final_y": "519489.833399",
    "longitude": "-90.09301629730145",
    "latitude": "29.92265028047606",
    "geocoded_column": {
      "latitude": "29.92265028047606",
      "longitude": "-90.09301629730145"
    }
  },
  {
    "service_request": "2022-867507",
    "request_type": "Traffic Signals/Signs/Striping/Streetlights",
    "request_reason": "Street Light Outage/Malfunction",
    "date_created": "2022-03-16T14:37:52.000",
    "date_modified": "2022-03-16T14:40:55.000",
    "request_status": "Pending",
    "responsible_agency": "Department of Public Works",
    "final_address": "912 Dublin St",
    "address_councildis": "A",
    "status": "Pending",
    "contractor": "Royal Engineering",
    "rowid": "867507",
    "final_x": "3661030.24454",
    "final_y": "527932.678975",
    "longitude": "-90.13282546876816",
    "latitude": "29.946237336911732",
    "geocoded_column": {
      "latitude": "29.946237336911732",
      "longitude": "-90.13282546876816"
    }
  },
  {
    "service_request": "2022-867506",
    "request_type": "Trash/Recycling",
    "request_reason": "Order Trash Cart",
    "date_created": "2022-03-16T14:36:45.000",
    "date_modified": "2022-03-16T14:38:24.000",
    "request_status": "Pending",
    "responsible_agency": "Department of Sanitation",
    "final_address": "1200 St Maurice Ave",
    "address_councildis": "E",
    "status": "Assigned to Contractor",
    "contractor": "Metro Disposal",
    "rowid": "867506",
    "final_x": "3699932.52599",
    "final_y": "533551.562373",
    "longitude": "-90.0097933166959",
    "latitude": "29.96050922931169",
    "geocoded_column": {
      "latitude": "29.96050922931169",
      "longitude": "-90.0097933166959"
    }
  },
  {
    "service_request": "2022-867505",
    "request_type": "Trash/Recycling",
    "request_reason": "Order Recycling Cart",
    "date_created": "2022-03-16T14:35:14.000",
    "date_modified": "2022-03-16T14:35:14.000",
    "request_status": "Pending",
    "responsible_agency": "Department of Sanitation",
    "final_address": "1039 Verret St, New Orleans, Louisiana, 70114",
    "address_councildis": "C",
    "status": "Pending",
    "rowid": "867505",
    "final_x": "3687217.75183",
    "final_y": "527655.095231",
    "longitude": "-90.05015243146471",
    "latitude": "29.944693672559524",
    "geocoded_column": {
      "latitude": "29.944693672559524",
      "longitude": "-90.05015243146471"
    }
  },
  {
    "service_request": "2022-867504",
    "request_type": "Roads/Drainage",
    "request_reason": "Pothole",
    "date_created": "2022-03-16T14:32:44.000",
    "date_modified": "2022-03-16T14:32:44.000",
    "request_status": "Pending",
    "responsible_agency": "Department of Public Works",
    "final_address": "1200 St Maurice Ave",
    "address_councildis": "E",
    "status": "Pending",
    "rowid": "867504",
    "final_x": "3699932.52599",
    "final_y": "533551.562373",
    "longitude": "-90.0097933166959",
    "latitude": "29.96050922931169",
    "geocoded_column": {
      "latitude": "29.96050922931169",
      "longitude": "-90.0097933166959"
    }
  },
  {
    "service_request": "2022-867503",
    "request_type": "Property Maintenance",
    "request_reason": "Property Maintenance",
    "date_created": "2022-03-16T14:30:59.000",
    "date_modified": "2022-03-16T14:30:59.000",
    "request_status": "Pending",
    "responsible_agency": "Department of Code Enforcement",
    "final_address": "1415 Columbus St",
    "address_councildis": "C",
    "status": "Pending",
    "rowid": "867503",
    "final_x": "3682195.45615",
    "final_y": "536866.221",
    "longitude": "-90.06568756380582",
    "latitude": "29.97017482541654",
    "geocoded_column": {
      "latitude": "29.97017482541654",
      "longitude": "-90.06568756380582"
    }
  },
  {
    "service_request": "2022-867502",
    "request_type": "Trash/Recycling",
    "request_reason": "Order Trash Cart",
    "date_created": "2022-03-16T14:28:07.000",
    "date_modified": "2022-03-16T14:28:27.000",
    "request_status": "Pending",
    "responsible_agency": "Department of Sanitation",
    "final_address": "1200 St Maurice Ave",
    "address_councildis": "E",
    "status": "Assigned to Contractor",
    "contractor": "Metro Disposal",
    "rowid": "867502",
    "final_x": "3699932.52599",
    "final_y": "533551.562373",
    "longitude": "-90.0097933166959",
    "latitude": "29.96050922931169",
    "geocoded_column": {
      "latitude": "29.96050922931169",
      "longitude": "-90.0097933166959"
    }
  },
  {
    "service_request": "2022-867501",
    "request_type": "Abandoned Vehicles",
    "request_reason": "Abandoned/Junk Vehicles",
    "date_created": "2022-03-16T14:26:29.000",
    "date_modified": "2022-03-16T14:26:29.000",
    "request_status": "Pending",
    "responsible_agency": "Department of Public Works",
    "final_address": "1709 Audubon St",
    "address_councildis": "A",
    "status": "Pending",
    "rowid": "867501",
    "final_x": "3665496.65786",
    "final_y": "527860.019839",
    "longitude": "-90.11872582640824",
    "latitude": "29.94590812104547",
    "geocoded_column": {
      "latitude": "29.94590812104547",
      "longitude": "-90.11872582640824"
    }
  },
  {
    "service_request": "2022-867499",
    "request_type": "Roads/Drainage",
    "request_reason": "Damaged Sidewalk",
    "date_created": "2022-03-16T14:21:13.000",
    "date_modified": "2022-03-16T14:21:13.000",
    "request_status": "Pending",
    "responsible_agency": "Department of Public Works",
    "final_address": "3322 Canal St",
    "address_councildis": "B",
    "status": "Pending",
    "rowid": "867499",
    "final_x": "3673337.84539",
    "final_y": "536487.876807",
    "longitude": "-90.09367380007224",
    "latitude": "29.969400978078298",
    "geocoded_column": {
      "latitude": "29.969400978078298",
      "longitude": "-90.09367380007224"
    }
  },
  {
    "service_request": "2022-867498",
    "request_type": "Trash/Recycling",
    "request_reason": "Missed Trash Pick-Up",
    "date_created": "2022-03-16T14:20:38.000",
    "date_modified": "2022-03-16T14:21:29.000",
    "request_status": "Pending",
    "responsible_agency": "Department of Sanitation",
    "final_address": "3421 Chestnut St",
    "address_councildis": "B",
    "status": "Assigned to Contractor",
    "contractor": "Richards Disposal",
    "rowid": "867498",
    "final_x": "3674540.20929",
    "final_y": "520265.839032",
    "longitude": "-90.0904323341557",
    "latitude": "29.92475990769322",
    "geocoded_column": {
      "latitude": "29.92475990769322",
      "longitude": "-90.0904323341557"
    }
  },
  {
    "service_request": "2022-867496",
    "request_type": "Property Maintenance",
    "request_reason": "Property Maintenance",
    "date_created": "2022-03-16T14:17:41.000",
    "date_modified": "2022-03-16T14:17:41.000",
    "request_status": "Pending",
    "responsible_agency": "Department of Code Enforcement",
    "final_address": "1862 Farragut St",
    "address_councildis": "C",
    "status": "Pending",
    "rowid": "867496",
    "final_x": "3692299.38717",
    "final_y": "524159.371644",
    "longitude": "-90.03423339055671",
    "latitude": "29.93492417536829",
    "geocoded_column": {
      "latitude": "29.93492417536829",
      "longitude": "-90.03423339055671"
    }
  },
  {
    "service_request": "2022-867495",
    "request_type": "Trash/Recycling",
    "request_reason": "Request a Large Item Pick Up",
    "date_created": "2022-03-16T14:16:21.000",
    "date_modified": "2022-03-16T14:16:35.000",
    "request_status": "Pending",
    "responsible_agency": "Department of Sanitation",
    "final_address": "3114 Nashville Ave",
    "address_councildis": "A",
    "status": "Assigned to Contractor",
    "contractor": "Richards Disposal",
    "rowid": "867495",
    "final_x": "3667726.03713",
    "final_y": "527299.566847",
    "longitude": "-90.11170576740327",
    "latitude": "29.944301889017364",
    "geocoded_column": {
      "latitude": "29.944301889017364",
      "longitude": "-90.11170576740327"
    }
  },
  {
    "service_request": "2022-867494",
    "request_type": "Roads/Drainage",
    "request_reason": "Pothole",
    "date_created": "2022-03-16T14:16:02.000",
    "date_modified": "2022-03-16T14:16:02.000",
    "request_status": "Pending",
    "responsible_agency": "Department of Public Works",
    "final_address": "1500 BLK General Ogden St",
    "address_councildis": "A",
    "status": "Pending",
    "rowid": "867494",
    "final_x": "3660696.6474",
    "final_y": "531186.618517",
    "longitude": "-90.13377120130252",
    "latitude": "29.955194234623463",
    "geocoded_column": {
      "latitude": "29.955194234623463",
      "longitude": "-90.13377120130252"
    }
  },
  {
    "service_request": "2022-867493",
    "request_type": "Roads/Drainage",
    "request_reason": "Pothole",
    "date_created": "2022-03-16T14:15:14.000",
    "date_modified": "2022-03-16T14:15:14.000",
    "request_status": "Pending",
    "responsible_agency": "Department of Public Works",
    "final_address": "1400 BLK General Ogden St",
    "address_councildis": "A",
    "status": "Pending",
    "rowid": "867493",
    "final_x": "3660459.37819",
    "final_y": "530927.246988",
    "longitude": "-90.13452898248828",
    "latitude": "29.95448787421515",
    "geocoded_column": {
      "latitude": "29.95448787421515",
      "longitude": "-90.13452898248828"
    }
  },
  {
    "service_request": "2022-867492",
    "request_type": "Roads/Drainage",
    "request_reason": "Pothole",
    "date_created": "2022-03-16T14:13:57.000",
    "date_modified": "2022-03-16T14:13:57.000",
    "request_status": "Pending",
    "responsible_agency": "Department of Public Works",
    "final_address": "GENERAL OGDEN ST & JEANNETTE ST",
    "address_councildis": "A",
    "status": "Pending",
    "rowid": "867492",
    "final_x": "3660583.3",
    "final_y": "531060.98",
    "longitude": "-90.13413326441648",
    "latitude": "29.95485203145204",
    "geocoded_column": {
      "latitude": "29.95485203145204",
      "longitude": "-90.13413326441648"
    }
  },
  {
    "service_request": "2022-867491",
    "request_type": "Trash/Recycling",
    "request_reason": "Missed Trash Pick-Up",
    "date_created": "2022-03-16T14:03:15.000",
    "date_modified": "2022-03-16T14:04:07.000",
    "request_status": "Pending",
    "responsible_agency": "Department of Sanitation",
    "final_address": "2245 Carondelet St",
    "address_councildis": "B",
    "status": "Assigned to Contractor",
    "contractor": "Richards Disposal",
    "rowid": "867491",
    "final_x": "3677047.03253",
    "final_y": "523835.806459",
    "longitude": "-90.08239609299831",
    "latitude": "29.934501148939773",
    "geocoded_column": {
      "latitude": "29.934501148939773",
      "longitude": "-90.08239609299831"
    }
  },
  {
    "service_request": "2022-867490",
    "request_type": "Trash/Recycling",
    "request_reason": "Start Trash Service",
    "date_created": "2022-03-16T14:01:20.000",
    "date_modified": "2022-03-16T14:01:21.000",
    "request_status": "Pending",
    "responsible_agency": "Department of Sanitation",
    "final_address": "1221 Port St",
    "address_councildis": "C",
    "status": "Assigned to Contractor",
    "contractor": "Metro Disposal",
    "rowid": "867490",
    "final_x": "3687579.68617",
    "final_y": "536916.814856",
    "longitude": "-90.04868185522332",
    "latitude": "29.970149056747733",
    "geocoded_column": {
      "latitude": "29.970149056747733",
      "longitude": "-90.04868185522332"
    }
  },
  {
    "service_request": "2022-867489",
    "request_type": "Traffic Signals/Signs/Striping/Streetlights",
    "request_reason": "Street Light Outage/Malfunction",
    "date_created": "2022-03-16T14:00:28.000",
    "date_modified": "2022-03-16T14:00:30.000",
    "request_status": "Pending",
    "responsible_agency": "Department of Public Works",
    "final_address": "3228 Erato St",
    "address_councildis": "B",
    "status": "Pending",
    "contractor": "Royal Engineering",
    "rowid": "867489",
    "final_x": "3674571.96731",
    "final_y": "529135.97888",
    "longitude": "-90.09002826680823",
    "latitude": "29.949148949847704",
    "geocoded_column": {
      "latitude": "29.949148949847704",
      "longitude": "-90.09002826680823"
    }
  },
  {
    "service_request": "2022-867488",
    "request_type": "Trash/Recycling",
    "request_reason": "Request a Large Item Pick Up",
    "date_created": "2022-03-16T13:56:57.000",
    "date_modified": "2022-03-16T13:56:58.000",
    "request_status": "Pending",
    "responsible_agency": "Department of Sanitation",
    "final_address": "855 Roosevelt Pl",
    "address_councildis": "A",
    "status": "Assigned to Contractor",
    "contractor": "Richards Disposal",
    "rowid": "867488",
    "final_x": "3673545.34395",
    "final_y": "540056.278027",
    "longitude": "-90.0928965053768",
    "latitude": "29.979206694431085",
    "geocoded_column": {
      "latitude": "29.979206694431085",
      "longitude": "-90.0928965053768"
    }
  },
  {
    "service_request": "2022-867486",
    "request_type": "Abandoned Vehicles",
    "request_reason": "Abandoned/Junk Vehicles",
    "date_created": "2022-03-16T13:54:28.000",
    "date_modified": "2022-03-16T13:55:03.000",
    "request_status": "Pending",
    "responsible_agency": "Department of Public Works",
    "final_address": "1136 Elysian Fields Ave",
    "address_councildis": "C",
    "status": "Pending",
    "rowid": "867486",
    "final_x": "3684893.95573",
    "final_y": "536598.484807",
    "longitude": "-90.05717485210334",
    "latitude": "29.96935628097388",
    "geocoded_column": {
      "latitude": "29.96935628097388",
      "longitude": "-90.05717485210334"
    }
  },
  {
    "service_request": "2022-867485",
    "request_type": "Trash/Recycling",
    "request_reason": "Missed Trash Pick-Up",
    "date_created": "2022-03-16T13:54:16.000",
    "date_modified": "2022-03-16T13:54:17.000",
    "request_status": "Pending",
    "responsible_agency": "Department of Sanitation",
    "final_address": "2619 St Charles Ave Unit A",
    "address_councildis": "B",
    "status": "Assigned to Contractor",
    "contractor": "Richards Disposal",
    "rowid": "867485",
    "final_x": "3676229.46171",
    "final_y": "522849.780923",
    "longitude": "-90.08501105925353",
    "latitude": "29.93181441762041",
    "geocoded_column": {
      "latitude": "29.93181441762041",
      "longitude": "-90.08501105925353"
    }
  },
  {
    "service_request": "2022-867484",
    "request_type": "Trash/Recycling",
    "request_reason": "MIssed Recycling Pick-Up",
    "date_created": "2022-03-16T13:53:01.000",
    "date_modified": "2022-03-16T13:53:02.000",
    "request_status": "Pending",
    "responsible_agency": "Department of Sanitation",
    "final_address": "2619 St Charles Ave",
    "address_councildis": "B",
    "status": "Assigned to Contractor",
    "contractor": "Richards Disposal",
    "rowid": "867484",
    "final_x": "3676239.41755",
    "final_y": "522838.518715",
    "longitude": "-90.08498001706973",
    "latitude": "29.93178315197769",
    "geocoded_column": {
      "latitude": "29.93178315197769",
      "longitude": "-90.08498001706973"
    }
  },
  {
    "service_request": "2022-867483",
    "request_type": "Abandoned Vehicles",
    "request_reason": "Abandoned/Junk Vehicles",
    "date_created": "2022-03-16T13:52:32.000",
    "date_modified": "2022-03-16T13:53:52.000",
    "request_status": "Pending",
    "responsible_agency": "Department of Public Works",
    "final_address": "8526 Birch St",
    "address_councildis": "A",
    "status": "Pending",
    "rowid": "867483",
    "final_x": "3661656.96979",
    "final_y": "530500.371138",
    "longitude": "-90.13076158446104",
    "latitude": "29.95327959695717",
    "geocoded_column": {
      "latitude": "29.95327959695717",
      "longitude": "-90.13076158446104"
    }
  },
  {
    "service_request": "2022-867482",
    "request_type": "Abandoned Vehicles",
    "request_reason": "Abandoned/Junk Vehicles",
    "date_created": "2022-03-16T13:51:21.000",
    "date_modified": "2022-03-16T13:51:21.000",
    "request_status": "Pending",
    "responsible_agency": "Department of Public Works",
    "final_address": "2652 Governor Nicholls St",
    "address_councildis": "D",
    "status": "Pending",
    "rowid": "867482",
    "final_x": "3677883.41371",
    "final_y": "538307.817801",
    "longitude": "-90.0792556218831",
    "latitude": "29.97426918836983",
    "geocoded_column": {
      "latitude": "29.97426918836983",
      "longitude": "-90.0792556218831"
    }
  },
  {
    "service_request": "2022-867481",
    "request_type": "Abandoned Vehicles",
    "request_reason": "Abandoned/Junk Vehicles",
    "date_created": "2022-03-16T13:45:19.000",
    "date_modified": "2022-03-16T13:47:20.000",
    "request_status": "Pending",
    "responsible_agency": "Department of Public Works",
    "final_address": "2131 Feliciana St",
    "address_councildis": "D",
    "status": "Pending",
    "rowid": "867481",
    "final_x": "3689767.62224",
    "final_y": "540069.295947",
    "longitude": "-90.04165991937296",
    "latitude": "29.978749635271978",
    "geocoded_column": {
      "latitude": "29.978749635271978",
      "longitude": "-90.04165991937296"
    }
  },
  {
    "service_request": "2022-867480",
    "request_type": "Trash/Recycling",
    "request_reason": "Order Trash Cart",
    "date_created": "2022-03-16T13:43:02.000",
    "date_modified": "2022-03-16T13:43:02.000",
    "request_status": "Pending",
    "responsible_agency": "Department of Sanitation",
    "final_address": "5209 Burgundy St",
    "address_councildis": "E",
    "status": "Assigned to Contractor",
    "contractor": "Metro Disposal",
    "rowid": "867480",
    "final_x": "3696443.77239",
    "final_y": "533364.057988",
    "longitude": "-90.02081682132263",
    "latitude": "29.960104002964606",
    "geocoded_column": {
      "latitude": "29.960104002964606",
      "longitude": "-90.02081682132263"
    }
  },
  {
    "service_request": "2022-867479",
    "request_type": "Safety & Permits",
    "request_reason": "Licenses & Permits",
    "date_created": "2022-03-16T13:39:52.000",
    "date_modified": "2022-03-16T13:39:52.000",
    "request_status": "Pending",
    "responsible_agency": "Safety and Permits",
    "final_address": "6123 Baccich St",
    "address_councildis": "D",
    "status": "Pending",
    "rowid": "867479",
    "final_x": "3687484.18396",
    "final_y": "555847.616985",
    "longitude": "-90.0483129879734",
    "latitude": "30.022204881556583",
    "geocoded_column": {
      "latitude": "30.022204881556583",
      "longitude": "-90.0483129879734"
    }
  },
  {
    "service_request": "2022-867477",
    "request_type": "Parks & Parkways",
    "request_reason": "Request Tree Service (Right of Way/Public Property)",
    "date_created": "2022-03-16T13:35:21.000",
    "date_modified": "2022-03-16T14:18:37.000",
    "request_status": "Pending",
    "responsible_agency": "Department of Parks & Parkway",
    "final_address": "3322 Canal St",
    "address_councildis": "B",
    "status": "Pending",
    "rowid": "867477",
    "final_x": "3673337.84539",
    "final_y": "536487.876807",
    "longitude": "-90.09367380007224",
    "latitude": "29.969400978078298",
    "geocoded_column": {
      "latitude": "29.969400978078298",
      "longitude": "-90.09367380007224"
    }
  },
  {
    "service_request": "2022-867476",
    "request_type": "Trash/Recycling",
    "request_reason": "Missed Trash Pick-Up",
    "date_created": "2022-03-16T13:33:18.000",
    "date_modified": "2022-03-16T13:33:19.000",
    "request_status": "Pending",
    "responsible_agency": "Department of Sanitation",
    "final_address": "2619 St Charles Ave",
    "address_councildis": "B",
    "status": "Assigned to Contractor",
    "contractor": "Richards Disposal",
    "rowid": "867476",
    "final_x": "3676239.41755",
    "final_y": "522838.518715",
    "longitude": "-90.08498001706973",
    "latitude": "29.93178315197769",
    "geocoded_column": {
      "latitude": "29.93178315197769",
      "longitude": "-90.08498001706973"
    }
  },
  {
    "service_request": "2022-867475",
    "request_type": "Trash/Recycling",
    "request_reason": "Missed Trash Pick-Up",
    "date_created": "2022-03-16T13:29:35.000",
    "date_modified": "2022-03-16T13:29:36.000",
    "request_status": "Pending",
    "responsible_agency": "Department of Sanitation",
    "final_address": "1031 Sixth St",
    "address_councildis": "B",
    "status": "Assigned to Contractor",
    "contractor": "Richards Disposal",
    "rowid": "867475",
    "final_x": "3676713.55835",
    "final_y": "520468.180728",
    "longitude": "-90.0835648216669",
    "latitude": "29.9252512808144",
    "geocoded_column": {
      "latitude": "29.9252512808144",
      "longitude": "-90.0835648216669"
    }
  },
  {
    "service_request": "2022-867474",
    "request_type": "Trash/Recycling",
    "request_reason": "MIssed Recycling Pick-Up",
    "date_created": "2022-03-16T13:29:34.000",
    "date_modified": "2022-03-16T13:29:35.000",
    "request_status": "Pending",
    "responsible_agency": "Department of Sanitation",
    "final_address": "2619 St Charles Ave",
    "address_councildis": "B",
    "status": "Assigned to Contractor",
    "contractor": "Richards Disposal",
    "rowid": "867474",
    "final_x": "3676239.41755",
    "final_y": "522838.518715",
    "longitude": "-90.08498001706973",
    "latitude": "29.93178315197769",
    "geocoded_column": {
      "latitude": "29.93178315197769",
      "longitude": "-90.08498001706973"
    }
  },
  {
    "service_request": "2022-867473",
    "request_type": "Traffic Signals/Signs/Striping/Streetlights",
    "request_reason": "Street Light Outage/Malfunction",
    "date_created": "2022-03-16T13:27:35.000",
    "date_modified": "2022-03-16T13:28:18.000",
    "request_status": "Pending",
    "responsible_agency": "Department of Public Works",
    "final_address": "3330 Florence Ave",
    "address_councildis": "C",
    "status": "Pending",
    "contractor": "Royal Engineering",
    "rowid": "867473",
    "final_x": "3692839.15561",
    "final_y": "521611.168505",
    "longitude": "-90.03262067413304",
    "latitude": "29.927900644384742",
    "geocoded_column": {
      "latitude": "29.927900644384742",
      "longitude": "-90.03262067413304"
    }
  },
  {
    "service_request": "2022-867472",
    "request_type": "Roads/Drainage",
    "request_reason": "Damaged Sidewalk",
    "date_created": "2022-03-16T13:26:59.000",
    "date_modified": "2022-03-16T17:06:59.000",
    "request_status": "Pending",
    "responsible_agency": "Department of Public Works",
    "final_address": "New Orleans,LA",
    "address_councildis": "B",
    "rowid": "867472",
    "final_x": "3667942.69498",
    "final_y": "530843.52493",
    "longitude": "-90.11090234218462",
    "latitude": "29.954040266915815",
    "geocoded_column": {
      "latitude": "29.954040266915815",
      "longitude": "-90.11090234218462"
    }
  },
  {
    "service_request": "2022-867471",
    "request_type": "Health Related Questions",
    "request_reason": "Noise Ordinance Complaint",
    "date_created": "2022-03-16T13:24:46.000",
    "date_modified": "2022-03-16T13:24:46.000",
    "request_status": "Pending",
    "responsible_agency": "Health Department",
    "final_address": "6123 Baccich St",
    "address_councildis": "D",
    "status": "Pending",
    "rowid": "867471",
    "final_x": "3687484.18396",
    "final_y": "555847.616985",
    "longitude": "-90.0483129879734",
    "latitude": "30.022204881556583",
    "geocoded_column": {
      "latitude": "30.022204881556583",
      "longitude": "-90.0483129879734"
    }
  },
  {
    "service_request": "2022-867470",
    "request_type": "Trash/Recycling",
    "request_reason": "Replace Trash Cart",
    "date_created": "2022-03-16T13:19:08.000",
    "date_modified": "2022-03-16T13:19:12.000",
    "request_status": "Pending",
    "responsible_agency": "Department of Sanitation",
    "final_address": "New Orleans,LA",
    "status": "Assigned to Contractor",
    "rowid": "867470",
    "longitude": "0.0",
    "latitude": "0.0",
    "geocoded_column": {
      "latitude": "0.0",
      "longitude": "0.0"
    }
  },
  {
    "service_request": "2022-867469",
    "request_type": "Property Maintenance",
    "request_reason": "Property Maintenance",
    "date_created": "2022-03-16T13:17:43.000",
    "date_modified": "2022-03-16T13:17:43.000",
    "request_status": "Pending",
    "responsible_agency": "Department of Code Enforcement",
    "final_address": "1907 Esplanade Ave HM",
    "address_councildis": "D",
    "status": "Pending",
    "rowid": "867469",
    "final_x": "3680414.98863",
    "final_y": "537325.125704",
    "longitude": "-90.07129450173258",
    "latitude": "29.97149069624261",
    "geocoded_column": {
      "latitude": "29.97149069624261",
      "longitude": "-90.07129450173258"
    }
  },
  {
    "service_request": "2022-867468",
    "request_type": "Roads/Drainage",
    "request_reason": "Pothole",
    "date_created": "2022-03-16T13:13:03.000",
    "date_modified": "2022-03-16T13:13:03.000",
    "request_status": "Pending",
    "responsible_agency": "Department of Public Works",
    "final_address": "13200 BLK Curran Rd",
    "address_councildis": "E",
    "status": "Pending",
    "rowid": "867468",
    "final_x": "3715960.20813",
    "final_y": "570037.077233",
    "longitude": "-89.95779862930829",
    "latitude": "30.060311317924437",
    "geocoded_column": {
      "latitude": "30.060311317924437",
      "longitude": "-89.95779862930829"
    }
  },
  {
    "service_request": "2022-867466",
    "request_type": "Trash/Recycling",
    "request_reason": "Illegal Dumping",
    "date_created": "2022-03-16T13:11:20.000",
    "date_modified": "2022-03-16T13:11:20.000",
    "request_status": "Pending",
    "responsible_agency": "Department of Sanitation",
    "final_address": "2701 New Orleans St",
    "address_councildis": "D",
    "status": "Pending",
    "rowid": "867466",
    "final_x": "3681932.15983",
    "final_y": "542393.870349",
    "longitude": "-90.06632605171168",
    "latitude": "29.985381943107488",
    "geocoded_column": {
      "latitude": "29.985381943107488",
      "longitude": "-90.06632605171168"
    }
  },
  {
    "service_request": "2022-867465",
    "request_type": "Abandoned Vehicles",
    "request_reason": "Abandoned/Junk Vehicles",
    "date_created": "2022-03-16T13:11:04.000",
    "date_modified": "2022-03-16T13:11:04.000",
    "request_status": "Pending",
    "responsible_agency": "Department of Public Works",
    "final_address": "8003 Brevard Ave",
    "address_councildis": "E",
    "status": "Pending",
    "rowid": "867465",
    "final_x": "3705904.38379",
    "final_y": "564343.053601",
    "longitude": "-89.9897954609799",
    "latitude": "30.0449831257996",
    "geocoded_column": {
      "latitude": "30.0449831257996",
      "longitude": "-89.9897954609799"
    }
  },
  {
    "service_request": "2022-867464",
    "request_type": "Trash/Recycling",
    "request_reason": "Repair Trash Cart",
    "date_created": "2022-03-16T13:07:10.000",
    "date_modified": "2022-03-16T13:07:12.000",
    "request_status": "Pending",
    "responsible_agency": "Department of Sanitation",
    "final_address": "2301 Franklin Ave",
    "address_councildis": "D",
    "status": "Assigned to Contractor",
    "contractor": "Metro Disposal",
    "rowid": "867464",
    "final_x": "3687636.89583",
    "final_y": "540994.393483",
    "longitude": "-90.04835677094921",
    "latitude": "29.981359198095657",
    "geocoded_column": {
      "latitude": "29.981359198095657",
      "longitude": "-90.04835677094921"
    }
  },
  {
    "service_request": "2022-867463",
    "request_type": "Roads/Drainage",
    "request_reason": "Road Shoulder Repair",
    "date_created": "2022-03-16T13:06:37.000",
    "date_modified": "2022-03-16T13:06:37.000",
    "request_status": "Pending",
    "responsible_agency": "Department of Public Works",
    "final_address": "7142 Foch Rd",
    "address_councildis": "D",
    "status": "Pending",
    "rowid": "867463",
    "final_x": "3696322.47421",
    "final_y": "557078.527834",
    "longitude": "-90.02034176245019",
    "latitude": "30.02531391840961",
    "geocoded_column": {
      "latitude": "30.02531391840961",
      "longitude": "-90.02034176245019"
    }
  },
  {
    "service_request": "2022-867461",
    "request_type": "Trash/Recycling",
    "request_reason": "Order Recycling Cart",
    "date_created": "2022-03-16T13:02:23.000",
    "date_modified": "2022-03-16T13:02:23.000",
    "request_status": "Pending",
    "responsible_agency": "Department of Sanitation",
    "final_address": "2220 Constance St",
    "address_councildis": "B",
    "status": "Pending",
    "rowid": "867461",
    "final_x": "3678918.11758",
    "final_y": "521625.454073",
    "longitude": "-90.07656565792918",
    "latitude": "29.92836710456454",
    "geocoded_column": {
      "latitude": "29.92836710456454",
      "longitude": "-90.07656565792918"
    }
  },
  {
    "service_request": "2022-867460",
    "request_type": "Trash/Recycling",
    "request_reason": "Repair Trash Cart",
    "date_created": "2022-03-16T13:01:54.000",
    "date_modified": "2022-03-16T13:01:55.000",
    "request_status": "Pending",
    "responsible_agency": "Department of Sanitation",
    "final_address": "3620 Rue Delphine",
    "address_councildis": "C",
    "status": "Assigned to Contractor",
    "contractor": "Richards Disposal",
    "rowid": "867460",
    "final_x": "3703090.70212",
    "final_y": "517277.205749",
    "longitude": "-90.00041831951722",
    "latitude": "29.915659779074407",
    "geocoded_column": {
      "latitude": "29.915659779074407",
      "longitude": "-90.00041831951722"
    }
  },
  {
    "service_request": "2022-867459",
    "request_type": "Trash/Recycling",
    "request_reason": "Request a Large Item Pick Up",
    "date_created": "2022-03-16T13:00:37.000",
    "date_modified": "2022-03-16T13:00:40.000",
    "request_status": "Pending",
    "responsible_agency": "Department of Sanitation",
    "final_address": "7463 Garfield St",
    "address_councildis": "A",
    "status": "Assigned to Contractor",
    "contractor": "Richards Disposal",
    "rowid": "867459",
    "final_x": "3661190.15232",
    "final_y": "524086.300092",
    "longitude": "-90.13244785950188",
    "latitude": "29.9356564067514",
    "geocoded_column": {
      "latitude": "29.9356564067514",
      "longitude": "-90.13244785950188"
    }
  },
  {
    "service_request": "2022-867458",
    "request_type": "Abandoned Vehicles",
    "request_reason": "Abandoned/Junk Vehicles",
    "date_created": "2022-03-16T12:59:37.000",
    "date_modified": "2022-03-16T12:59:37.000",
    "request_status": "Pending",
    "responsible_agency": "Department of Public Works",
    "final_address": "1809 Esplanade Ave",
    "address_councildis": "D",
    "status": "Pending",
    "rowid": "867458",
    "final_x": "3680660.82338",
    "final_y": "537147.358728",
    "longitude": "-90.07052430725913",
    "latitude": "29.97099445091746",
    "geocoded_column": {
      "latitude": "29.97099445091746",
      "longitude": "-90.07052430725913"
    }
  },
  {
    "service_request": "2022-867457",
    "request_type": "Abandoned Vehicles",
    "request_reason": "Abandoned/Junk Vehicles",
    "date_created": "2022-03-16T12:56:17.000",
    "date_modified": "2022-03-16T12:56:17.000",
    "request_status": "Pending",
    "responsible_agency": "Department of Public Works",
    "final_address": "3919 Mithra St",
    "address_councildis": "D",
    "status": "Pending",
    "rowid": "867457",
    "final_x": "3688550.33916",
    "final_y": "553073.399319",
    "longitude": "-90.0450427674266",
    "latitude": "30.014543892397224",
    "geocoded_column": {
      "latitude": "30.014543892397224",
      "longitude": "-90.0450427674266"
    }
  },
  {
    "service_request": "2022-867456",
    "request_type": "Property Maintenance",
    "request_reason": "Property Maintenance",
    "date_created": "2022-03-16T12:54:27.000",
    "date_modified": "2022-03-16T12:54:27.000",
    "request_status": "Pending",
    "responsible_agency": "Department of Code Enforcement",
    "final_address": "1244 Kerlerec St",
    "address_councildis": "C",
    "status": "Pending",
    "rowid": "867456",
    "final_x": "3682518.73877",
    "final_y": "536042.787527",
    "longitude": "-90.06469539632775",
    "latitude": "29.967900829557486",
    "geocoded_column": {
      "latitude": "29.967900829557486",
      "longitude": "-90.06469539632775"
    }
  },
  {
    "service_request": "2022-867455",
    "request_type": "Property Maintenance",
    "request_reason": "Property Maintenance",
    "date_created": "2022-03-16T12:53:05.000",
    "date_modified": "2022-03-16T12:53:05.000",
    "request_status": "Pending",
    "responsible_agency": "Department of Code Enforcement",
    "final_address": "1240 Kerlerec St",
    "address_councildis": "C",
    "status": "Pending",
    "rowid": "867455",
    "final_x": "3682543.26543",
    "final_y": "536025.416327",
    "longitude": "-90.06461854783367",
    "latitude": "29.967852318050607",
    "geocoded_column": {
      "latitude": "29.967852318050607",
      "longitude": "-90.06461854783367"
    }
  },
  {
    "service_request": "2022-867454",
    "request_type": "Roads/Drainage",
    "request_reason": "Service Cut",
    "date_created": "2022-03-16T12:48:40.000",
    "date_modified": "2022-03-16T12:48:40.000",
    "request_status": "Pending",
    "responsible_agency": "Department of Public Works",
    "final_address": "7916 Haney Dr",
    "address_councildis": "E",
    "status": "Reviewed",
    "rowid": "867454",
    "final_x": "3712001.46059",
    "final_y": "568082.376229",
    "longitude": "-89.97038543626766",
    "latitude": "30.055066765748965",
    "geocoded_column": {
      "latitude": "30.055066765748965",
      "longitude": "-89.97038543626766"
    }
  },
  {
    "service_request": "2022-867453",
    "request_type": "Trash/Recycling",
    "request_reason": "Missed Trash Pick-Up",
    "date_created": "2022-03-16T12:46:11.000",
    "date_modified": "2022-03-16T12:46:12.000",
    "request_status": "Pending",
    "responsible_agency": "Department of Sanitation",
    "final_address": "1820 Hillary St",
    "address_councildis": "A",
    "status": "Assigned to Contractor",
    "contractor": "Richards Disposal",
    "rowid": "867453",
    "final_x": "3664752.85479",
    "final_y": "528920.621952",
    "longitude": "-90.12103884419172",
    "latitude": "29.948846093639155",
    "geocoded_column": {
      "latitude": "29.948846093639155",
      "longitude": "-90.12103884419172"
    }
  },
  {
    "service_request": "2022-867452",
    "request_type": "Trash/Recycling",
    "request_reason": "Request a Large Item Pick Up",
    "date_created": "2022-03-16T12:42:13.000",
    "date_modified": "2022-03-16T12:42:14.000",
    "request_status": "Pending",
    "responsible_agency": "Department of Sanitation",
    "final_address": "7200 Farwood Dr",
    "address_councildis": "E",
    "status": "Assigned to Contractor",
    "contractor": "Metro Disposal",
    "rowid": "867452",
    "final_x": "3701017.8458",
    "final_y": "556696.840218",
    "longitude": "-90.00551916658465",
    "latitude": "30.024115649625013",
    "geocoded_column": {
      "latitude": "30.024115649625013",
      "longitude": "-90.00551916658465"
    }
  },
  {
    "service_request": "2022-867451",
    "request_type": "Trash/Recycling",
    "request_reason": "Order Recycling Cart",
    "date_created": "2022-03-16T12:38:25.000",
    "date_modified": "2022-03-16T12:38:26.000",
    "request_status": "Pending",
    "responsible_agency": "Department of Sanitation",
    "final_address": "5117 Tchoupitoulas St",
    "address_councildis": "B",
    "status": "Pending",
    "rowid": "867451",
    "final_x": "3668139.04346",
    "final_y": "517250.618293",
    "longitude": "-90.11074031061368",
    "latitude": "29.91665837014598",
    "geocoded_column": {
      "latitude": "29.91665837014598",
      "longitude": "-90.11074031061368"
    }
  },
  {
    "service_request": "2022-867450",
    "request_type": "Property Maintenance",
    "request_reason": "Property Maintenance",
    "date_created": "2022-03-16T12:37:13.000",
    "date_modified": "2022-03-16T12:37:13.000",
    "request_status": "Pending",
    "responsible_agency": "Department of Code Enforcement",
    "final_address": "1244 Kerlerec St",
    "address_councildis": "C",
    "status": "Pending",
    "rowid": "867450",
    "final_x": "3682518.73877",
    "final_y": "536042.787527",
    "longitude": "-90.06469539632775",
    "latitude": "29.967900829557486",
    "geocoded_column": {
      "latitude": "29.967900829557486",
      "longitude": "-90.06469539632775"
    }
  },