[
  {
    "service_request": "2022-922027",
    "request_type": "Trash/Recycling",
    "request_reason": "Missed Trash Pick-Up",
    "date_created": "2022-09-21T00:00:10.000",
    "date_modified": "2022-09-21T00:00:10.000",
    "request_status": "Pending",
    "responsible_agency": "Department of Sanitation",
    "final_address": "1511 Mandeville St",
    "address_councildis": "C",
    "status": "Assigned to Contractor",
    "contractor": "Metro Disposal",
    "rowid": "922027",
    "final_x": "3685687.31209",
    "final_y": "537949.941193",
    "longitude": "-90.05462174620324",
    "latitude": "29.97304799533134",
    "geocoded_column": {
      "latitude": "29.97304799533134",
      "longitude": "-90.05462174620324"
    }
  },
  {
    "service_request": "2022-922026",
    "request_type": "Trash/Recycling",
    "request_reason": "Missed Trash Pick-Up",
    "date_created": "2022-09-20T23:56:41.000",
    "date_modified": "2022-09-20T23:56:42.000",
    "request_status": "Pending",
    "responsible_agency": "Department of Sanitation",
    "final_address": "1503 Mandeville St",
    "address_councildis": "C",
    "status": "Assigned to Contractor",
    "contractor": "Metro Disposal",
    "rowid": "922026",
    "final_x": "3685689.10748",
    "final_y": "537892.205897",
    "longitude": "-90.05461811085982",
    "latitude": "29.972889188350138",
    "geocoded_column": {
      "latitude": "29.972889188350138",
      "longitude": "-90.05461811085982"
    }
  },
  {
    "service_request": "2022-922025",
    "request_type": "Trash/Recycling",
    "request_reason": "Missed Trash Pick-Up",
    "date_created": "2022-09-20T23:42:16.000",
    "date_modified": "2022-09-20T23:42:17.000",
    "request_status": "Pending",
    "responsible_agency": "Department of Sanitation",
    "final_address": "2700 Marengo St",
    "address_councildis": "B",
    "status": "Assigned to Contractor",
    "contractor": "Richards Disposal",
    "rowid": "922025",
    "final_x": "3671510.59201",
    "final_y": "524888.211452",
    "longitude": "-90.09983877599038",
    "latitude": "29.93755995796886",
    "geocoded_column": {
      "latitude": "29.93755995796886",
      "longitude": "-90.09983877599038"
    }
  },
  {
    "service_request": "2022-922024",
    "request_type": "Property Maintenance",
    "request_reason": "Property Maintenance",
    "date_created": "2022-09-20T23:42:08.000",
    "date_modified": "2022-09-20T23:42:08.000",
    "request_status": "Pending",
    "responsible_agency": "Department of Code Enforcement",
    "final_address": "2147 N Tonti St",
    "address_councildis": "D",
    "status": "Pending",
    "rowid": "922024",
    "final_x": "3683923.19061",
    "final_y": "540702.553675",
    "longitude": "-90.06009658028302",
    "latitude": "29.980670731788926",
    "geocoded_column": {
      "latitude": "29.980670731788926",
      "longitude": "-90.06009658028302"
    }
  },
  {
    "service_request": "2022-922023",
    "request_type": "Property Maintenance",
    "request_reason": "Property Maintenance",
    "date_created": "2022-09-20T23:12:41.000",
    "date_modified": "2022-09-20T23:12:41.000",
    "request_status": "Pending",
    "responsible_agency": "Department of Code Enforcement",
    "final_address": "9500 Morrison Rd",
    "address_councildis": "E",
    "status": "Pending",
    "rowid": "922023",
    "final_x": "3707382.40657",
    "final_y": "562232.983583",
    "longitude": "-89.98520271109204",
    "latitude": "30.039133538004673",
    "geocoded_column": {
      "latitude": "30.039133538004673",
      "longitude": "-89.98520271109204"
    }
  },
  {
    "service_request": "2022-922022",
    "request_type": "Traffic Signals/Signs/Striping/Streetlights",
    "request_reason": "Street Light Outage/Malfunction",
    "date_created": "2022-09-20T22:58:35.000",
    "date_modified": "2022-09-20T22:58:36.000",
    "request_status": "Pending",
    "responsible_agency": "Department of Public Works",
    "final_address": "4780 Francisco Verrett Dr",
    "address_councildis": "E",
    "status": "Pending",
    "contractor": "Legacy Professional Services",
    "rowid": "922022",
    "final_x": "3704107.02103",
    "final_y": "555512.056665",
    "longitude": "-89.99580172737626",
    "latitude": "30.020759159989943",
    "geocoded_column": {
      "latitude": "30.020759159989943",
      "longitude": "-89.99580172737626"
    }
  },
  {
    "service_request": "2022-922021",
    "request_type": "Traffic Signals/Signs/Striping/Streetlights",
    "request_reason": "Street Light Outage/Malfunction",
    "date_created": "2022-09-20T22:57:15.000",
    "date_modified": "2022-09-20T22:57:16.000",
    "request_status": "Pending",
    "responsible_agency": "Department of Public Works",
    "final_address": "4780 Francisco Verrett Dr",
    "address_councildis": "E",
    "status": "Pending",
    "contractor": "Legacy Professional Services",
    "rowid": "922021",
    "final_x": "3704107.02103",
    "final_y": "555512.056665",
    "longitude": "-89.99580172737626",
    "latitude": "30.020759159989943",
    "geocoded_column": {
      "latitude": "30.020759159989943",
      "longitude": "-89.99580172737626"
    }
  },
  {
    "service_request": "2022-922020",
    "request_type": "Traffic Signals/Signs/Striping/Streetlights",
    "request_reason": "Street Light Outage/Malfunction",
    "date_created": "2022-09-20T22:56:59.000",
    "date_modified": "2022-09-20T22:57:00.000",
    "request_status": "Pending",
    "responsible_agency": "Department of Public Works",
    "final_address": "5540 Rosemary Pl",
    "address_councildis": "A",
    "status": "Pending",
    "contractor": "Legacy Professional Services",
    "rowid": "922020",
    "final_x": "3667015.51597",
    "final_y": "544196.419278",
    "longitude": "-90.11338110613254",
    "latitude": "29.99078343460651",
    "geocoded_column": {
      "latitude": "29.99078343460651",
      "longitude": "-90.11338110613254"
    }
  },
  {
    "service_request": "2022-922019",
    "request_type": "Abandoned Vehicles",
    "request_reason": "Abandoned/Junk Vehicles",
    "date_created": "2022-09-20T22:54:50.000",
    "date_modified": "2022-09-20T22:54:50.000",
    "request_status": "Pending",
    "responsible_agency": "Department of Public Works",
    "final_address": "2229 Onzaga St",
    "address_councildis": "D",
    "status": "Pending",
    "rowid": "922019",
    "final_x": "3680500.17154",
    "final_y": "539577.39937",
    "longitude": "-90.07094711689835",
    "latitude": "29.97768109014188",
    "geocoded_column": {
      "latitude": "29.97768109014188",
      "longitude": "-90.07094711689835"
    }
  },
  {
    "service_request": "2022-922018",
    "request_type": "Trash/Recycling",
    "request_reason": "Missed Trash Pick-Up",
    "date_created": "2022-09-20T22:48:04.000",
    "date_modified": "2022-09-20T22:48:05.000",
    "request_status": "Pending",
    "responsible_agency": "Department of Sanitation",
    "final_address": "3001 Grand Route St John St",
    "address_councildis": "A",
    "status": "Assigned to Contractor",
    "contractor": "Metro Disposal",
    "rowid": "922018",
    "final_x": "3677107.58069",
    "final_y": "540392.499467",
    "longitude": "-90.08163396394826",
    "latitude": "29.98002467101905",
    "geocoded_column": {
      "latitude": "29.98002467101905",
      "longitude": "-90.08163396394826"
    }
  },
  {
    "service_request": "2022-922017",
    "request_type": "Trash/Recycling",
    "request_reason": "MIssed Recycling Pick-Up",
    "date_created": "2022-09-20T22:46:29.000",
    "date_modified": "2022-09-20T22:46:30.000",
    "request_status": "Pending",
    "responsible_agency": "Department of Sanitation",
    "final_address": "2320 Madrid St",
    "address_councildis": "D",
    "status": "Assigned to Contractor",
    "contractor": "Metro Disposal",
    "rowid": "922017",
    "final_x": "3684440.29852",
    "final_y": "555345.746713",
    "longitude": "-90.05794854666149",
    "latitude": "30.02091843392504",
    "geocoded_column": {
      "latitude": "30.02091843392504",
      "longitude": "-90.05794854666149"
    }
  },
  {
    "service_request": "2022-922016",
    "request_type": "Trash/Recycling",
    "request_reason": "Illegal Dumping",
    "date_created": "2022-09-20T22:33:15.000",
    "date_modified": "2022-09-20T22:33:15.000",
    "request_status": "Pending",
    "responsible_agency": "Department of Sanitation",
    "final_address": "4216 DHemecourt St",
    "address_councildis": "A",
    "status": "Pending",
    "rowid": "922016",
    "final_x": "3669237.63758",
    "final_y": "537211.775112",
    "longitude": "-90.1065981474003",
    "latitude": "29.971512791826598",
    "geocoded_column": {
      "latitude": "29.971512791826598",
      "longitude": "-90.1065981474003"
    }
  },
  {
    "service_request": "2022-922015",
    "request_type": "Trash/Recycling",
    "request_reason": "Request a Large Item Pick Up",
    "date_created": "2022-09-20T22:31:42.000",
    "date_modified": "2022-09-20T22:31:43.000",
    "request_status": "Pending",
    "responsible_agency": "Department of Sanitation",
    "final_address": "523 S Hennessey St",
    "address_councildis": "A",
    "status": "Assigned to Contractor",
    "contractor": "Richards Disposal",
    "rowid": "922015",
    "final_x": "3669172.47028",
    "final_y": "537536.384776",
    "longitude": "-90.10679298224643",
    "latitude": "29.972407277768127",
    "geocoded_column": {
      "latitude": "29.972407277768127",
      "longitude": "-90.10679298224643"
    }
  },
  {
    "service_request": "2022-922014",
    "request_type": "Trash/Recycling",
    "request_reason": "Illegal Dumping",
    "date_created": "2022-09-20T22:29:21.000",
    "date_modified": "2022-09-20T22:29:21.000",
    "request_status": "Pending",
    "responsible_agency": "Department of Sanitation",
    "final_address": "500 S Hennessey St",
    "address_councildis": "A",
    "status": "Pending",
    "rowid": "922014",
    "final_x": "3669328.40948",
    "final_y": "537625.285896",
    "longitude": "-90.10629749088581",
    "latitude": "29.972647135303404",
    "geocoded_column": {
      "latitude": "29.972647135303404",
      "longitude": "-90.10629749088581"
    }
  },
  {
    "service_request": "2022-922012",
    "request_type": "Property Maintenance",
    "request_reason": "Property Maintenance",
    "date_created": "2022-09-20T22:24:48.000",
    "date_modified": "2022-09-20T22:24:48.000",
    "request_status": "Pending",
    "responsible_agency": "Department of Code Enforcement",
    "final_address": "2717 S Rocheblave St",
    "address_councildis": "B",
    "status": "Pending",
    "rowid": "922012",
    "final_x": "3671791.92532",
    "final_y": "529058.413312",
    "longitude": "-90.09880873822918",
    "latitude": "29.949018321232273",
    "geocoded_column": {
      "latitude": "29.949018321232273",
      "longitude": "-90.09880873822918"
    }
  },
  {
    "service_request": "2022-922011",
    "request_type": "Trash/Recycling",
    "request_reason": "Missed Trash Pick-Up",
    "date_created": "2022-09-20T22:06:05.000",
    "date_modified": "2022-09-20T22:06:06.000",
    "request_status": "Pending",
    "responsible_agency": "Department of Sanitation",
    "final_address": "1604 Pauger St",
    "address_councildis": "C",
    "status": "Assigned to Contractor",
    "contractor": "Metro Disposal",
    "rowid": "922011",
    "final_x": "3683896.44636",
    "final_y": "535554.161862",
    "longitude": "-90.0603617002551",
    "latitude": "29.966515263945738",
    "geocoded_column": {
      "latitude": "29.966515263945738",
      "longitude": "-90.0603617002551"
    }
  },
  {
    "service_request": "2022-922010",
    "request_type": "Trash/Recycling",
    "request_reason": "Missed Trash Pick-Up",
    "date_created": "2022-09-20T21:55:03.000",
    "date_modified": "2022-09-20T21:55:04.000",
    "request_status": "Pending",
    "responsible_agency": "Department of Sanitation",
    "final_address": "4228 Fontainebleau Dr",
    "address_councildis": "A",
    "status": "Assigned to Contractor",
    "contractor": "Richards Disposal",
    "rowid": "922010",
    "final_x": "3669526.60762",
    "final_y": "529250.469313",
    "longitude": "-90.10595485666136",
    "latitude": "29.949613327686013",
    "geocoded_column": {
      "latitude": "29.949613327686013",
      "longitude": "-90.10595485666136"
    }
  },
  {
    "service_request": "2022-922008",
    "request_type": "Trash/Recycling",
    "request_reason": "Missed Trash Pick-Up",
    "date_created": "2022-09-20T21:47:06.000",
    "date_modified": "2022-09-20T21:47:07.000",
    "request_status": "Pending",
    "responsible_agency": "Department of Sanitation",
    "final_address": "6159 Canal Blvd, New Orleans, Louisiana, 70124",
    "address_councildis": "A",
    "status": "Assigned to Contractor",
    "contractor": "Metro Disposal",
    "rowid": "922008",
    "final_x": "3668739.79892",
    "final_y": "548363.839762",
    "longitude": "-90.10779370361752",
    "latitude": "30.002191812269",
    "geocoded_column": {
      "latitude": "30.002191812269",
      "longitude": "-90.10779370361752"
    }
  },
  {
    "service_request": "2022-922007",
    "request_type": "Trash/Recycling",
    "request_reason": "Missed Trash Pick-Up",
    "date_created": "2022-09-20T21:36:05.000",
    "date_modified": "2022-09-20T21:36:05.000",
    "request_status": "Pending",
    "responsible_agency": "Department of Sanitation",
    "final_address": "5914 General Diaz St, New Orleans, Louisiana, 70124",
    "address_councildis": "A",
    "status": "Assigned to Contractor",
    "contractor": "Metro Disposal",
    "rowid": "922007",
    "final_x": "3669362.60974",
    "final_y": "546680.300625",
    "longitude": "-90.10588313789094",
    "latitude": "29.99754433272243",
    "geocoded_column": {
      "latitude": "29.99754433272243",
      "longitude": "-90.10588313789094"
    }
  },
  {
    "service_request": "2022-922006",
    "request_type": "Trash/Recycling",
    "request_reason": "Request a Large Item Pick Up",
    "date_created": "2022-09-20T21:29:26.000",
    "date_modified": "2022-09-20T21:29:26.000",
    "request_status": "Pending",
    "responsible_agency": "Department of Sanitation",
    "final_address": "1462 Mandolin St",
    "address_councildis": "D",
    "status": "Assigned to Contractor",
    "contractor": "Metro Disposal",
    "rowid": "922006",
    "final_x": "3678396.22229",
    "final_y": "547955.558418",
    "longitude": "-90.07730205218793",
    "latitude": "30.000781663493235",
    "geocoded_column": {
      "latitude": "30.000781663493235",
      "longitude": "-90.07730205218793"
    }
  },
  {
    "service_request": "2022-922005",
    "request_type": "Traffic Signals/Signs/Striping/Streetlights",
    "request_reason": "Street Light Outage/Malfunction",
    "date_created": "2022-09-20T21:27:26.000",
    "date_modified": "2022-09-20T21:27:27.000",
    "request_status": "Pending",
    "responsible_agency": "Department of Public Works",
    "final_address": "4323 Vixen St",
    "address_councildis": "C",
    "status": "Pending",
    "contractor": "Legacy Professional Services",
    "rowid": "922005",
    "final_x": "3699517.86109",
    "final_y": "520650.359673",
    "longitude": "-90.01157267668405",
    "latitude": "29.925048597446466",
    "geocoded_column": {
      "latitude": "29.925048597446466",
      "longitude": "-90.01157267668405"
    }
  },
  {
    "service_request": "2022-922004",
    "request_type": "Trash/Recycling",
    "request_reason": "Missed Trash Pick-Up",
    "date_created": "2022-09-20T21:27:10.000",
    "date_modified": "2022-09-20T21:27:10.000",
    "request_status": "Pending",
    "responsible_agency": "Department of Sanitation",
    "final_address": "5926 General Diaz St, New Orleans, Louisiana, 70124",
    "address_councildis": "A",
    "status": "Assigned to Contractor",
    "contractor": "Metro Disposal",
    "rowid": "922004",
    "final_x": "3669369.39489",
    "final_y": "546754.755857",
    "longitude": "-90.10585918414851",
    "latitude": "29.99774885899321",
    "geocoded_column": {
      "latitude": "29.99774885899321",
      "longitude": "-90.10585918414851"
    }
  },
  {
    "service_request": "2022-922002",
    "request_type": "Trash/Recycling",
    "request_reason": "Missed Trash Pick-Up",
    "date_created": "2022-09-20T21:20:50.000",
    "date_modified": "2022-09-20T21:20:51.000",
    "request_status": "Pending",
    "responsible_agency": "Department of Sanitation",
    "final_address": "845 Navarre St",
    "address_councildis": "A",
    "status": "Assigned to Contractor",
    "contractor": "Metro Disposal",
    "rowid": "922002",
    "final_x": "3669014.061",
    "final_y": "543853.208974",
    "longitude": "-90.10707977110779",
    "latitude": "29.98978106514382",
    "geocoded_column": {
      "latitude": "29.98978106514382",
      "longitude": "-90.10707977110779"
    }
  },
  {
    "service_request": "2022-922001",
    "request_type": "Traffic Signals/Signs/Striping/Streetlights",
    "request_reason": "Street Light Outage/Malfunction",
    "date_created": "2022-09-20T21:19:34.000",
    "date_modified": "2022-09-20T21:19:34.000",
    "request_status": "Pending",
    "responsible_agency": "Department of Public Works",
    "final_address": "2118 Treasure St",
    "address_councildis": "D",
    "status": "Pending",
    "contractor": "Legacy Professional Services",
    "rowid": "922001",
    "final_x": "3683774.99849",
    "final_y": "543944.867726",
    "longitude": "-90.06045087462878",
    "latitude": "29.989590478767024",
    "geocoded_column": {
      "latitude": "29.989590478767024",
      "longitude": "-90.06045087462878"
    }
  },
  {
    "service_request": "2022-922000",
    "request_type": "Trash/Recycling",
    "request_reason": "Missed Trash Pick-Up",
    "date_created": "2022-09-20T21:17:01.000",
    "date_modified": "2022-09-20T21:17:01.000",
    "request_status": "Pending",
    "responsible_agency": "Department of Sanitation",
    "final_address": "7938 S Claiborne Ave",
    "address_councildis": "A",
    "status": "Assigned to Contractor",
    "contractor": "Richards Disposal",
    "rowid": "922000",
    "final_x": "3665155.04967",
    "final_y": "531119.175234",
    "longitude": "-90.11969541170811",
    "latitude": "29.954879695646213",
    "geocoded_column": {
      "latitude": "29.954879695646213",
      "longitude": "-90.11969541170811"
    }
  },
  {
    "service_request": "2022-921999",
    "request_type": "Trash/Recycling",
    "request_reason": "Missed Trash Pick-Up",
    "date_created": "2022-09-20T21:14:50.000",
    "date_modified": "2022-09-20T21:14:51.000",
    "request_status": "Pending",
    "responsible_agency": "Department of Sanitation",
    "final_address": "925 Polk St, New Orleans, Louisiana, 70124",
    "address_councildis": "A",
    "status": "Assigned to Contractor",
    "contractor": "Metro Disposal",
    "rowid": "921999",
    "final_x": "3670029.71553",
    "final_y": "547219.511761",
    "longitude": "-90.1037574859959",
    "latitude": "29.999007309988126",
    "geocoded_column": {
      "latitude": "29.999007309988126",
      "longitude": "-90.1037574859959"
    }
  },
  {
    "service_request": "2022-921998",
    "request_type": "Abandoned Vehicles",
    "request_reason": "Abandoned/Junk Vehicles",
    "date_created": "2022-09-20T21:14:27.000",
    "date_modified": "2022-09-20T21:14:27.000",
    "request_status": "Pending",
    "responsible_agency": "Department of Public Works",
    "final_address": "1620 Columbus St",
    "address_councildis": "D",
    "status": "Pending",
    "rowid": "921998",
    "final_x": "3681495.60136",
    "final_y": "537311.023944",
    "longitude": "-90.06788226308701",
    "latitude": "29.971419150714496",
    "geocoded_column": {
      "latitude": "29.971419150714496",
      "longitude": "-90.06788226308701"
    }
  },
  {
    "service_request": "2022-921997",
    "request_type": "Property Maintenance",
    "request_reason": "Property Maintenance",
    "date_created": "2022-09-20T21:14:12.000",
    "date_modified": "2022-09-20T21:14:12.000",
    "request_status": "Pending",
    "responsible_agency": "Department of Code Enforcement",
    "final_address": "400 N Galvez St",
    "address_councildis": "B",
    "status": "Pending",
    "rowid": "921997",
    "final_x": "3677786.69314",
    "final_y": "534821.61991",
    "longitude": "-90.07968154996631",
    "latitude": "29.964686244815574",
    "geocoded_column": {
      "latitude": "29.964686244815574",
      "longitude": "-90.07968154996631"
    }
  },
  {
    "service_request": "2022-921996",
    "request_type": "Trash/Recycling",
    "request_reason": "Missed Trash Pick-Up",
    "date_created": "2022-09-20T21:03:21.000",
    "date_modified": "2022-09-20T21:03:22.000",
    "request_status": "Pending",
    "responsible_agency": "Department of Sanitation",
    "final_address": "1821 Delachaise St",
    "address_councildis": "B",
    "status": "Assigned to Contractor",
    "contractor": "Richards Disposal",
    "rowid": "921996",
    "final_x": "3673543.1595",
    "final_y": "522281.719546",
    "longitude": "-90.09351084033159",
    "latitude": "29.930332630031966",
    "geocoded_column": {
      "latitude": "29.930332630031966",
      "longitude": "-90.09351084033159"
    }
  },
  {
    "service_request": "2022-921995",
    "request_type": "Trash/Recycling",
    "request_reason": "Missed Trash Pick-Up",
    "date_created": "2022-09-20T20:56:40.000",
    "date_modified": "2022-09-20T20:56:40.000",
    "request_status": "Pending",
    "responsible_agency": "Department of Sanitation",
    "final_address": "3138 Maurepas St",
    "address_councildis": "A",
    "status": "Assigned to Contractor",
    "contractor": "Metro Disposal",
    "rowid": "921995",
    "final_x": "3676289.42824",
    "final_y": "540718.469131",
    "longitude": "-90.08420680866847",
    "latitude": "29.980945524597498",
    "geocoded_column": {
      "latitude": "29.980945524597498",
      "longitude": "-90.08420680866847"
    }
  },
  {
    "service_request": "2022-921994",
    "request_type": "Property Maintenance",
    "request_reason": "Property Maintenance",
    "date_created": "2022-09-20T20:54:26.000",
    "date_modified": "2022-09-20T20:54:26.000",
    "request_status": "Pending",
    "responsible_agency": "Department of Code Enforcement",
    "final_address": "5927 Selma St",
    "address_councildis": "D",
    "status": "Pending",
    "rowid": "921994",
    "final_x": "3696339.29424",
    "final_y": "552464.757974",
    "longitude": "-90.02045565447266",
    "latitude": "30.012627264281395",
    "geocoded_column": {
      "latitude": "30.012627264281395",
      "longitude": "-90.02045565447266"
    }
  },
  {
    "service_request": "2022-921993",
    "request_type": "Property Maintenance",
    "request_reason": "Property Maintenance",
    "date_created": "2022-09-20T20:53:17.000",
    "date_modified": "2022-09-20T20:53:17.000",
    "request_status": "Pending",
    "responsible_agency": "Department of Code Enforcement",
    "final_address": "4107 Downman Rd",
    "address_councildis": "D",
    "status": "Pending",
    "rowid": "921993",
    "final_x": "3696217.63639",
    "final_y": "552459.27119",
    "longitude": "-90.02084022274396",
    "latitude": "30.012616009913486",
    "geocoded_column": {
      "latitude": "30.012616009913486",
      "longitude": "-90.02084022274396"
    }
  },
  {
    "service_request": "2022-921992",
    "request_type": "Property Maintenance",
    "request_reason": "Property Maintenance",
    "date_created": "2022-09-20T20:51:58.000",
    "date_modified": "2022-09-20T20:51:58.000",
    "request_status": "Pending",
    "responsible_agency": "Department of Code Enforcement",
    "final_address": "5911 Robin St",
    "address_councildis": "D",
    "status": "Pending",
    "rowid": "921992",
    "final_x": "3696271.44125",
    "final_y": "552932.533015",
    "longitude": "-90.02065310038655",
    "latitude": "30.013915607632757",
    "geocoded_column": {
      "latitude": "30.013915607632757",
      "longitude": "-90.02065310038655"
    }
  },
  {
    "service_request": "2022-921991",
    "request_type": "Property Maintenance",
    "request_reason": "Property Maintenance",
    "date_created": "2022-09-20T20:50:21.000",
    "date_modified": "2022-09-20T20:50:21.000",
    "request_status": "Pending",
    "responsible_agency": "Department of Code Enforcement",
    "final_address": "4307 Downman Rd",
    "address_councildis": "D",
    "status": "Pending",
    "rowid": "921991",
    "final_x": "3696173.36528",
    "final_y": "552950.800727",
    "longitude": "-90.02096230770594",
    "latitude": "30.013968926004914",
    "geocoded_column": {
      "latitude": "30.013968926004914",
      "longitude": "-90.02096230770594"
    }
  },
  {
    "service_request": "2022-921990",
    "request_type": "Property Maintenance",
    "request_reason": "Property Maintenance",
    "date_created": "2022-09-20T20:48:33.000",
    "date_modified": "2022-09-20T20:48:33.000",
    "request_status": "Pending",
    "responsible_agency": "Department of Code Enforcement",
    "final_address": "4517 Downman Rd",
    "address_councildis": "D",
    "status": "Pending",
    "rowid": "921990",
    "final_x": "3696123.73238",
    "final_y": "553475.141847",
    "longitude": "-90.02110014941566",
    "latitude": "30.015412230052704",
    "geocoded_column": {
      "latitude": "30.015412230052704",
      "longitude": "-90.02110014941566"
    }
  },
  {
    "service_request": "2022-921989",
    "request_type": "Property Maintenance",
    "request_reason": "Property Maintenance",
    "date_created": "2022-09-20T20:47:22.000",
    "date_modified": "2022-09-20T20:47:22.000",
    "request_status": "Pending",
    "responsible_agency": "Department of Code Enforcement",
    "final_address": "4523 Downman Rd",
    "address_councildis": "D",
    "status": "Pending",
    "rowid": "921989",
    "final_x": "3696119.50256",
    "final_y": "553518.980759",
    "longitude": "-90.02111192739069",
    "latitude": "30.015532903767966",
    "geocoded_column": {
      "latitude": "30.015532903767966",
      "longitude": "-90.02111192739069"
    }
  },
  {
    "service_request": "2022-921988",
    "request_type": "Property Maintenance",
    "request_reason": "Property Maintenance",
    "date_created": "2022-09-20T20:45:51.000",
    "date_modified": "2022-09-20T20:45:51.000",
    "request_status": "Pending",
    "responsible_agency": "Department of Code Enforcement",
    "final_address": "4546 Downman Rd",
    "address_councildis": "D",
    "status": "Pending",
    "rowid": "921988",
    "final_x": "3695905.11203",
    "final_y": "553671.712599",
    "longitude": "-90.02178377600903",
    "latitude": "30.01595960808724",
    "geocoded_column": {
      "latitude": "30.01595960808724",
      "longitude": "-90.02178377600903"
    }
  },
  {
    "service_request": "2022-921987",
    "request_type": "Trash/Recycling",
    "request_reason": "Missed Trash Pick-Up",
    "date_created": "2022-09-20T20:44:26.000",
    "date_modified": "2022-09-20T20:44:28.000",
    "request_status": "Pending",
    "responsible_agency": "Department of Sanitation",
    "final_address": "600 Verret St",
    "address_councildis": "C",
    "status": "Assigned to Contractor",
    "contractor": "Richards Disposal",
    "rowid": "921987",
    "final_x": "3687079.53295",
    "final_y": "529449.930689",
    "longitude": "-90.05052538655315",
    "latitude": "29.949633114079695",
    "geocoded_column": {
      "latitude": "29.949633114079695",
      "longitude": "-90.05052538655315"
    }
  },
  {
    "service_request": "2022-921986",
    "request_type": "Property Maintenance",
    "request_reason": "Property Maintenance",
    "date_created": "2022-09-20T20:42:43.000",
    "date_modified": "2022-09-20T20:42:43.000",
    "request_status": "Pending",
    "responsible_agency": "Department of Code Enforcement",
    "final_address": "4718 Downman Rd",
    "address_councildis": "D",
    "status": "Pending",
    "rowid": "921986",
    "final_x": "3695863.47824",
    "final_y": "554147.60732",
    "longitude": "-90.02189811042787",
    "latitude": "30.01726944974442",
    "geocoded_column": {
      "latitude": "30.01726944974442",
      "longitude": "-90.02189811042787"
    }
  },
  {
    "service_request": "2022-921985",
    "request_type": "Trash/Recycling",
    "request_reason": "Missed Trash Pick-Up",
    "date_created": "2022-09-20T20:40:40.000",
    "date_modified": "2022-09-20T20:40:40.000",
    "request_status": "Pending",
    "responsible_agency": "Department of Sanitation",
    "final_address": "3025 Serantine St",
    "address_councildis": "D",
    "status": "Assigned to Contractor",
    "contractor": "Metro Disposal",
    "rowid": "921985",
    "final_x": "3679165.83573",
    "final_y": "543021.065421",
    "longitude": "-90.07504196921981",
    "latitude": "29.987190328086964",
    "geocoded_column": {
      "latitude": "29.987190328086964",
      "longitude": "-90.07504196921981"
    }
  },
  {
    "service_request": "2022-921984",
    "request_type": "Trash/Recycling",
    "request_reason": "Missed Trash Pick-Up",
    "date_created": "2022-09-20T20:39:07.000",
    "date_modified": "2022-09-20T20:39:08.000",
    "request_status": "Pending",
    "responsible_agency": "Department of Sanitation",
    "final_address": "212 Filmore Ave",
    "address_councildis": "A",
    "status": "Assigned to Contractor",
    "contractor": "Metro Disposal",
    "rowid": "921984",
    "final_x": "3667204.64897",
    "final_y": "552072.498646",
    "longitude": "-90.11251861383882",
    "latitude": "30.01243439027857",
    "geocoded_column": {
      "latitude": "30.01243439027857",
      "longitude": "-90.11251861383882"
    }
  },
  {
    "service_request": "2022-921982",
    "request_type": "Property Maintenance",
    "request_reason": "Property Maintenance",
    "date_created": "2022-09-20T20:35:46.000",
    "date_modified": "2022-09-20T20:35:46.000",
    "request_status": "Pending",
    "responsible_agency": "Department of Code Enforcement",
    "final_address": "5800 Hayne Blvd",
    "address_councildis": "D",
    "status": "Pending",
    "rowid": "921982",
    "final_x": "3694342.9896",
    "final_y": "559694.785309",
    "longitude": "-90.02650232397151",
    "latitude": "30.032569850884197",
    "geocoded_column": {
      "latitude": "30.032569850884197",
      "longitude": "-90.02650232397151"
    }
  },
  {
    "service_request": "2022-921981",
    "request_type": "Property Maintenance",
    "request_reason": "Property Maintenance",
    "date_created": "2022-09-20T20:33:38.000",
    "date_modified": "2022-09-20T20:33:38.000",
    "request_status": "Pending",
    "responsible_agency": "Department of Code Enforcement",
    "final_address": "7757 Downman Rd",
    "address_councildis": "D",
    "status": "Pending",
    "rowid": "921981",
    "final_x": "3694524.90973",
    "final_y": "559139.733148",
    "longitude": "-90.02594745737413",
    "latitude": "30.031037963220697",
    "geocoded_column": {
      "latitude": "30.031037963220697",
      "longitude": "-90.02594745737413"
    }
  },
  {
    "service_request": "2022-921980",
    "request_type": "Abandoned Vehicles",
    "request_reason": "Abandoned/Junk Vehicles",
    "date_created": "2022-09-20T20:31:16.000",
    "date_modified": "2022-09-20T20:31:17.000",
    "request_status": "Pending",
    "responsible_agency": "Department of Public Works",
    "final_address": "RIDGEFIELD DR & KINGSWOOD DR",
    "address_councildis": "E",
    "status": "Pending",
    "rowid": "921980",
    "final_x": "3719894.2",
    "final_y": "568915.88",
    "longitude": "-89.9454065280311",
    "latitude": "30.057098053083294",
    "geocoded_column": {
      "latitude": "30.057098053083294",
      "longitude": "-89.9454065280311"
    }
  },
  {
    "service_request": "2022-921979",
    "request_type": "Property Maintenance",
    "request_reason": "Property Maintenance",
    "date_created": "2022-09-20T20:30:06.000",
    "date_modified": "2022-09-20T20:30:06.000",
    "request_status": "Pending",
    "responsible_agency": "Department of Code Enforcement",
    "final_address": "6128 Dorothea St",
    "address_councildis": "D",
    "status": "Pending",
    "rowid": "921979",
    "final_x": "3696267.13271",
    "final_y": "557360.185371",
    "longitude": "-90.02050643544302",
    "latitude": "30.02609011296759",
    "geocoded_column": {
      "latitude": "30.02609011296759",
      "longitude": "-90.02050643544302"
    }
  },
  {
    "service_request": "2022-921978",
    "request_type": "Property Maintenance",
    "request_reason": "Property Maintenance",
    "date_created": "2022-09-20T20:28:26.000",
    "date_modified": "2022-09-20T20:28:26.000",
    "request_status": "Pending",
    "responsible_agency": "Department of Code Enforcement",
    "final_address": "5929 Dorothea St",
    "address_councildis": "D",
    "status": "Pending",
    "rowid": "921978",
    "final_x": "3695333.35011",
    "final_y": "557214.532315",
    "longitude": "-90.02346231849678",
    "latitude": "30.02571900667303",
    "geocoded_column": {
      "latitude": "30.02571900667303",
      "longitude": "-90.02346231849678"
    }
  },
  {
    "service_request": "2022-921977",
    "request_type": "Property Maintenance",
    "request_reason": "Property Maintenance",
    "date_created": "2022-09-20T20:26:02.000",
    "date_modified": "2022-09-20T20:26:02.000",
    "request_status": "Pending",
    "responsible_agency": "Department of Code Enforcement",
    "final_address": "5911 Dorothea St",
    "address_councildis": "D",
    "status": "Pending",
    "rowid": "921977",
    "final_x": "3695216.49546",
    "final_y": "557173.304539",
    "longitude": "-90.02383305021256",
    "latitude": "30.025609318457587",
    "geocoded_column": {
      "latitude": "30.025609318457587",
      "longitude": "-90.02383305021256"
    }
  },
  {
    "service_request": "2022-921976",
    "request_type": "Property Maintenance",
    "request_reason": "Property Maintenance",
    "date_created": "2022-09-20T20:24:58.000",
    "date_modified": "2022-09-20T20:24:58.000",
    "request_status": "Pending",
    "responsible_agency": "Department of Code Enforcement",
    "final_address": "5901 Dorothea St",
    "address_councildis": "D",
    "status": "Pending",
    "rowid": "921976",
    "final_x": "3695160.1135",
    "final_y": "557153.489563",
    "longitude": "-90.02401192388692",
    "latitude": "30.025556606398702",
    "geocoded_column": {
      "latitude": "30.025556606398702",
      "longitude": "-90.02401192388692"
    }
  },
  {
    "service_request": "2022-921975",
    "request_type": "Property Maintenance",
    "request_reason": "Property Maintenance",
    "date_created": "2022-09-20T20:23:15.000",
    "date_modified": "2022-09-20T20:23:15.000",
    "request_status": "Pending",
    "responsible_agency": "Department of Code Enforcement",
    "final_address": "6971 Downman Rd",
    "address_councildis": "D",
    "status": "Pending",
    "rowid": "921975",
    "final_x": "3695417.79587",
    "final_y": "556470.011162",
    "longitude": "-90.02322238129702",
    "latitude": "30.023669201424166",
    "geocoded_column": {
      "latitude": "30.023669201424166",
      "longitude": "-90.02322238129702"
    }
  },
  {
    "service_request": "2022-921974",
    "request_type": "Property Maintenance",
    "request_reason": "Property Maintenance",
    "date_created": "2022-09-20T20:21:37.000",
    "date_modified": "2022-09-20T20:21:37.000",
    "request_status": "Pending",
    "responsible_agency": "Department of Code Enforcement",
    "final_address": "6963 Downman Rd",
    "address_councildis": "D",
    "status": "Pending",
    "rowid": "921974",
    "final_x": "3695436.68694",
    "final_y": "556409.545818",
    "longitude": "-90.02316487420363",
    "latitude": "30.023502350729505",
    "geocoded_column": {
      "latitude": "30.023502350729505",
      "longitude": "-90.02316487420363"
    }
  },
  {
    "service_request": "2022-921973",
    "request_type": "Property Maintenance",
    "request_reason": "Property Maintenance",
    "date_created": "2022-09-20T20:20:18.000",
    "date_modified": "2022-09-20T20:20:18.000",
    "request_status": "Pending",
    "responsible_agency": "Department of Code Enforcement",
    "final_address": "6955 Downman Rd",
    "address_councildis": "D",
    "status": "Pending",
    "rowid": "921973",
    "final_x": "3695455.72765",
    "final_y": "556352.32809",
    "longitude": "-90.02310677713491",
    "latitude": "30.02334442501389",
    "geocoded_column": {
      "latitude": "30.02334442501389",
      "longitude": "-90.02310677713491"
    }
  },
  {
    "service_request": "2022-921972",
    "request_type": "Property Maintenance",
    "request_reason": "Property Maintenance",
    "date_created": "2022-09-20T20:18:25.000",
    "date_modified": "2022-09-20T20:18:25.000",
    "request_status": "Pending",
    "responsible_agency": "Department of Code Enforcement",
    "final_address": "6794 Deanne St",
    "address_councildis": "D",
    "status": "Pending",
    "rowid": "921972",
    "final_x": "3695725.61309",
    "final_y": "555903.535129",
    "longitude": "-90.02227022634015",
    "latitude": "30.02210192617483",
    "geocoded_column": {
      "latitude": "30.02210192617483",
      "longitude": "-90.02227022634015"
    }
  },
  {
    "service_request": "2022-921971",
    "request_type": "Roads/Drainage",
    "request_reason": "Street Subsidence (Sinking)",
    "date_created": "2022-09-20T20:16:41.000",
    "date_modified": "2022-09-20T20:16:41.000",
    "request_status": "Pending",
    "responsible_agency": "Department of Public Works",
    "final_address": "7114 W Laverne St",
    "address_councildis": "D",
    "status": "Pending",
    "rowid": "921971",
    "final_x": "3695778.64861",
    "final_y": "556717.199002",
    "longitude": "-90.02207322699805",
    "latitude": "30.02433752466813",
    "geocoded_column": {
      "latitude": "30.02433752466813",
      "longitude": "-90.02207322699805"
    }
  },
  {
    "service_request": "2022-921970",
    "request_type": "Property Maintenance",
    "request_reason": "Property Maintenance",
    "date_created": "2022-09-20T20:13:17.000",
    "date_modified": "2022-09-20T20:13:17.000",
    "request_status": "Pending",
    "responsible_agency": "Department of Code Enforcement",
    "final_address": "6070 Pines Blvd",
    "address_councildis": "D",
    "status": "Pending",
    "rowid": "921970",
    "final_x": "3696309.55965",
    "final_y": "556098.662682",
    "longitude": "-90.02041804713278",
    "latitude": "30.02262006842333",
    "geocoded_column": {
      "latitude": "30.02262006842333",
      "longitude": "-90.02041804713278"
    }
  },
  {
    "service_request": "2022-921969",
    "request_type": "Trash/Recycling",
    "request_reason": "Missed Trash Pick-Up",
    "date_created": "2022-09-20T20:11:49.000",
    "date_modified": "2022-09-20T20:11:50.000",
    "request_status": "Pending",
    "responsible_agency": "Department of Sanitation",
    "final_address": "543 Elmira Ave",
    "address_councildis": "C",
    "status": "Assigned to Contractor",
    "contractor": "Richards Disposal",
    "rowid": "921969",
    "final_x": "3688149.04732",
    "final_y": "529557.660545",
    "longitude": "-90.04714463477274",
    "latitude": "29.94989636763845",
    "geocoded_column": {
      "latitude": "29.94989636763845",
      "longitude": "-90.04714463477274"
    }
  },
  {
    "service_request": "2022-921968",
    "request_type": "Property Maintenance",
    "request_reason": "Property Maintenance",
    "date_created": "2022-09-20T20:11:35.000",
    "date_modified": "2022-09-20T20:11:35.000",
    "request_status": "Pending",
    "responsible_agency": "Department of Code Enforcement",
    "final_address": "6046 Pines Blvd",
    "address_councildis": "D",
    "status": "Pending",
    "rowid": "921968",
    "final_x": "3696185.44323",
    "final_y": "556057.734681",
    "longitude": "-90.02081170516817",
    "latitude": "30.022511441711345",
    "geocoded_column": {
      "latitude": "30.022511441711345",
      "longitude": "-90.02081170516817"
    }
  },
  {
    "service_request": "2022-921967",
    "request_type": "Property Maintenance",
    "request_reason": "Property Maintenance",
    "date_created": "2022-09-20T20:10:10.000",
    "date_modified": "2022-09-20T20:10:10.000",
    "request_status": "Pending",
    "responsible_agency": "Department of Code Enforcement",
    "final_address": "6028 Pines Blvd",
    "address_councildis": "D",
    "status": "Pending",
    "rowid": "921967",
    "final_x": "3696011.59062",
    "final_y": "555998.394649",
    "longitude": "-90.02136318199365",
    "latitude": "30.02235375364511",
    "geocoded_column": {
      "latitude": "30.02235375364511",
      "longitude": "-90.02136318199365"
    }
  },
  {
    "service_request": "2022-921966",
    "request_type": "Property Maintenance",
    "request_reason": "Property Maintenance",
    "date_created": "2022-09-20T20:08:27.000",
    "date_modified": "2022-09-20T20:08:27.000",
    "request_status": "Pending",
    "responsible_agency": "Department of Code Enforcement",
    "final_address": "6045 Pines Blvd",
    "address_councildis": "D",
    "status": "Pending",
    "rowid": "921966",
    "final_x": "3696148.54659",
    "final_y": "556164.707098",
    "longitude": "-90.0209244177289",
    "latitude": "30.02280673734054",
    "geocoded_column": {
      "latitude": "30.02280673734054",
      "longitude": "-90.0209244177289"
    }
  },
  {
    "service_request": "2022-921965",
    "request_type": "Property Maintenance",
    "request_reason": "Property Maintenance",
    "date_created": "2022-09-20T20:06:22.000",
    "date_modified": "2022-09-20T20:06:22.000",
    "request_status": "Pending",
    "responsible_agency": "Department of Code Enforcement",
    "final_address": "6952 W Laverne St",
    "address_councildis": "D",
    "status": "Pending",
    "rowid": "921965",
    "final_x": "3695863.3224",
    "final_y": "556459.486682",
    "longitude": "-90.02181499513752",
    "latitude": "30.023626249002156",
    "geocoded_column": {
      "latitude": "30.023626249002156",
      "longitude": "-90.02181499513752"
    }
  },
  {
    "service_request": "2022-921964",
    "request_type": "Trash/Recycling",
    "request_reason": "Request a Large Item Pick Up",
    "date_created": "2022-09-20T20:03:20.000",
    "date_modified": "2022-09-20T20:03:21.000",
    "request_status": "Pending",
    "responsible_agency": "Department of Sanitation",
    "final_address": "1526 Second St",
    "address_councildis": "B",
    "status": "Assigned to Contractor",
    "contractor": "Richards Disposal",
    "rowid": "921964",
    "final_x": "3676829.54446",
    "final_y": "522783.31801",
    "longitude": "-90.08311895147843",
    "latitude": "29.93161367659194",
    "geocoded_column": {
      "latitude": "29.93161367659194",
      "longitude": "-90.08311895147843"
    }
  },
  {
    "service_request": "2022-921963",
    "request_type": "Property Maintenance",
    "request_reason": "Property Maintenance",
    "date_created": "2022-09-20T20:02:27.000",
    "date_modified": "2022-09-20T20:02:27.000",
    "request_status": "Pending",
    "responsible_agency": "Department of Code Enforcement",
    "final_address": "7119 Deanne St",
    "address_councildis": "D",
    "status": "Pending",
    "rowid": "921963",
    "final_x": "3695643.77194",
    "final_y": "556712.249882",
    "longitude": "-90.0224995896846",
    "latitude": "30.024328159780588",
    "geocoded_column": {
      "latitude": "30.024328159780588",
      "longitude": "-90.0224995896846"
    }
  },
  {
    "service_request": "2022-921962",
    "request_type": "Property Maintenance",
    "request_reason": "Property Maintenance",
    "date_created": "2022-09-20T20:00:41.000",
    "date_modified": "2022-09-20T20:00:41.000",
    "request_status": "Pending",
    "responsible_agency": "Department of Code Enforcement",
    "final_address": "7127 Deanne St",
    "address_councildis": "D",
    "status": "Pending",
    "rowid": "921962",
    "final_x": "3695623.7416",
    "final_y": "556772.283802",
    "longitude": "-90.02256071161062",
    "latitude": "30.024493860326423",
    "geocoded_column": {
      "latitude": "30.024493860326423",
      "longitude": "-90.02256071161062"
    }
  },
  {
    "service_request": "2022-921961",
    "request_type": "Property Maintenance",
    "request_reason": "Property Maintenance",
    "date_created": "2022-09-20T20:00:41.000",
    "date_modified": "2022-09-20T20:00:41.000",
    "request_status": "Pending",
    "responsible_agency": "Department of Code Enforcement",
    "final_address": "7127 Deanne St",
    "address_councildis": "D",
    "status": "Pending",
    "rowid": "921961",
    "final_x": "3695623.7416",
    "final_y": "556772.283802",
    "longitude": "-90.02256071161062",
    "latitude": "30.024493860326423",
    "geocoded_column": {
      "latitude": "30.024493860326423",
      "longitude": "-90.02256071161062"
    }
  },
  {
    "service_request": "2022-921960",
    "request_type": "Property Maintenance",
    "request_reason": "Property Maintenance",
    "date_created": "2022-09-20T19:57:22.000",
    "date_modified": "2022-09-20T19:57:22.000",
    "request_status": "Pending",
    "responsible_agency": "Department of Code Enforcement",
    "final_address": "7127 W Laverne St",
    "address_councildis": "D",
    "status": "Pending",
    "rowid": "921960",
    "final_x": "3695934.44925",
    "final_y": "556819.691418",
    "longitude": "-90.02157722011329",
    "latitude": "30.024614436568474",
    "geocoded_column": {
      "latitude": "30.024614436568474",
      "longitude": "-90.02157722011329"
    }
  },
  {
    "service_request": "2022-921959",
    "request_type": "Traffic Signals/Signs/Striping/Streetlights",
    "request_reason": "Street Light Outage/Malfunction",
    "date_created": "2022-09-20T19:56:07.000",
    "date_modified": "2022-09-20T19:56:07.000",
    "request_status": "Pending",
    "responsible_agency": "Department of Public Works",
    "final_address": "4385 Genoa St",
    "address_councildis": "E",
    "status": "Pending",
    "contractor": "Legacy Professional Services",
    "rowid": "921959",
    "final_x": "3760943.28656",
    "final_y": "574192.438826",
    "longitude": "-89.81543877696016",
    "latitude": "30.070175120410347",
    "geocoded_column": {
      "latitude": "30.070175120410347",
      "longitude": "-89.81543877696016"
    }
  },
  {
    "service_request": "2022-921958",
    "request_type": "Property Maintenance",
    "request_reason": "Property Maintenance",
    "date_created": "2022-09-20T19:55:06.000",
    "date_modified": "2022-09-20T19:55:06.000",
    "request_status": "Pending",
    "responsible_agency": "Department of Code Enforcement",
    "final_address": "7167 Dorian St",
    "address_councildis": "D",
    "status": "Pending",
    "rowid": "921958",
    "final_x": "3696134.9217",
    "final_y": "557214.011099",
    "longitude": "-90.0209294938823",
    "latitude": "30.025692353791865",
    "geocoded_column": {
      "latitude": "30.025692353791865",
      "longitude": "-90.0209294938823"
    }
  },
  {
    "service_request": "2022-921957",
    "request_type": "Property Maintenance",
    "request_reason": "Property Maintenance",
    "date_created": "2022-09-20T19:53:07.000",
    "date_modified": "2022-09-20T19:53:07.000",
    "request_status": "Pending",
    "responsible_agency": "Department of Code Enforcement",
    "final_address": "6100 Dorothea St",
    "address_councildis": "D",
    "status": "Pending",
    "rowid": "921957",
    "final_x": "3696072.1224",
    "final_y": "557291.667995",
    "longitude": "-90.02112511987666",
    "latitude": "30.02590785830894",
    "geocoded_column": {
      "latitude": "30.02590785830894",
      "longitude": "-90.02112511987666"
    }
  },
  {
    "service_request": "2022-921956",
    "request_type": "Trash/Recycling",
    "request_reason": "Missed Trash Pick-Up",
    "date_created": "2022-09-20T19:33:13.000",
    "date_modified": "2022-09-20T19:33:13.000",
    "request_status": "Pending",
    "responsible_agency": "Department of Sanitation",
    "final_address": "4328 Annunciation St",
    "address_councildis": "B",
    "status": "Assigned to Contractor",
    "contractor": "Richards Disposal",
    "rowid": "921956",
    "final_x": "3671332.16673",
    "final_y": "517732.263094",
    "longitude": "-90.10064512078982",
    "latitude": "29.917888672827747",
    "geocoded_column": {
      "latitude": "29.917888672827747",
      "longitude": "-90.10064512078982"
    }
  },
  {
    "service_request": "2022-921955",
    "request_type": "Trash/Recycling",
    "request_reason": "MIssed Recycling Pick-Up",
    "date_created": "2022-09-20T19:24:18.000",
    "date_modified": "2022-09-20T19:24:18.000",
    "request_status": "Pending",
    "responsible_agency": "Department of Sanitation",
    "final_address": "234 S Norman C Francis Pkwy, New Orleans, Louisiana, 70119",
    "status": "Assigned to Contractor",
    "rowid": "921955",
    "longitude": "0.0",
    "latitude": "0.0",
    "geocoded_column": {
      "latitude": "0.0",
      "longitude": "0.0"
    }
  },
  {
    "service_request": "2022-921954",
    "request_type": "Trash/Recycling",
    "request_reason": "Missed Trash Pick-Up",
    "date_created": "2022-09-20T19:11:16.000",
    "date_modified": "2022-09-20T19:11:17.000",
    "request_status": "Pending",
    "responsible_agency": "Department of Sanitation",
    "final_address": "6100 Milne Blvd",
    "address_councildis": "A",
    "status": "Assigned to Contractor",
    "contractor": "Metro Disposal",
    "rowid": "921954",
    "final_x": "3667011.81185",
    "final_y": "548081.70773",
    "longitude": "-90.11326212902844",
    "latitude": "30.001466751934892",
    "geocoded_column": {
      "latitude": "30.001466751934892",
      "longitude": "-90.11326212902844"
    }
  },
  {
    "service_request": "2022-921953",
    "request_type": "Parks & Parkways",
    "request_reason": "Request Grass Cutting Service (City Owned Property)",
    "date_created": "2022-09-20T19:08:36.000",
    "date_modified": "2022-09-20T19:08:36.000",
    "request_status": "Pending",
    "responsible_agency": "Department of Parks & Parkway",
    "final_address": "6402 Peoples Ave",
    "address_councildis": "D",
    "status": "Pending",
    "rowid": "921953",
    "final_x": "3687639.96771",
    "final_y": "556895.594202",
    "longitude": "-90.04778360032876",
    "latitude": "30.025081624007303",
    "geocoded_column": {
      "latitude": "30.025081624007303",
      "longitude": "-90.04778360032876"
    }
  },
  {
    "service_request": "2022-921952",
    "request_type": "Traffic Signals/Signs/Striping/Streetlights",
    "request_reason": "Street Light Outage/Malfunction",
    "date_created": "2022-09-20T19:05:20.000",
    "date_modified": "2022-09-20T19:05:21.000",
    "request_status": "Pending",
    "responsible_agency": "Department of Public Works",
    "final_address": "11300 Hayne Blvd",
    "address_councildis": "E",
    "status": "Pending",
    "contractor": "Legacy Professional Services",
    "rowid": "921952",
    "final_x": "3710445.70296",
    "final_y": "567586.383908",
    "longitude": "-89.97532139680018",
    "latitude": "30.053753779072142",
    "geocoded_column": {
      "latitude": "30.053753779072142",
      "longitude": "-89.97532139680018"
    }
  },
  {
    "service_request": "2022-921951",
    "request_type": "Trash/Recycling",
    "request_reason": "Request a Large Item Pick Up",
    "date_created": "2022-09-20T19:03:45.000",
    "date_modified": "2022-09-20T19:03:45.000",
    "request_status": "Pending",
    "responsible_agency": "Department of Sanitation",
    "final_address": "1109 Crete St",
    "address_councildis": "A",
    "status": "Assigned to Contractor",
    "contractor": "Richards Disposal",
    "rowid": "921951",
    "final_x": "3677603.51899",
    "final_y": "538796.782473",
    "longitude": "-90.08012270564458",
    "latitude": "29.97562209344113",
    "geocoded_column": {
      "latitude": "29.97562209344113",
      "longitude": "-90.08012270564458"
    }
  },
  {
    "service_request": "2022-921950",
    "request_type": "Trash/Recycling",
    "request_reason": "Request a Large Item Pick Up",
    "date_created": "2022-09-20T19:02:10.000",
    "date_modified": "2022-09-20T19:02:11.000",
    "request_status": "Pending",
    "responsible_agency": "Department of Sanitation",
    "final_address": "1138 Josephine St, New Orleans, Louisiana, 70130",
    "address_councildis": "B",
    "status": "Assigned to Contractor",
    "contractor": "Richards Disposal",
    "rowid": "921950",
    "final_x": "3678939.07432",
    "final_y": "522549.966266",
    "longitude": "-90.0764674893942",
    "latitude": "29.930908578442235",
    "geocoded_column": {
      "latitude": "29.930908578442235",
      "longitude": "-90.0764674893942"
    }
  },
  {
    "service_request": "2022-921949",
    "request_type": "Trash/Recycling",
    "request_reason": "Missed Trash Pick-Up",
    "date_created": "2022-09-20T18:59:02.000",
    "date_modified": "2022-09-20T18:59:03.000",
    "request_status": "Pending",
    "responsible_agency": "Department of Sanitation",
    "final_address": "108 Winthrop Pl",
    "address_councildis": "D",
    "status": "Assigned to Contractor",
    "contractor": "Metro Disposal",
    "rowid": "921949",
    "final_x": "3677848.4573",
    "final_y": "543964.153678",
    "longitude": "-90.07917049428103",
    "latitude": "29.98982320393432",
    "geocoded_column": {
      "latitude": "29.98982320393432",
      "longitude": "-90.07917049428103"
    }
  },
  {
    "service_request": "2022-921948",
    "request_type": "Abandoned Vehicles",
    "request_reason": "Abandoned/Junk Vehicles",
    "date_created": "2022-09-20T18:58:35.000",
    "date_modified": "2022-09-20T18:58:35.000",
    "request_status": "Pending",
    "responsible_agency": "Department of Public Works",
    "final_address": "5900 S Front St",
    "address_councildis": "A",
    "status": "Pending",
    "rowid": "921948",
    "final_x": "3664719.50714",
    "final_y": "516953.021685",
    "longitude": "-90.12154375493147",
    "latitude": "29.915939953717547",
    "geocoded_column": {
      "latitude": "29.915939953717547",
      "longitude": "-90.12154375493147"
    }
  },
  {
    "service_request": "2022-921947",
    "request_type": "Abandoned Vehicles",
    "request_reason": "Abandoned/Junk Vehicles",
    "date_created": "2022-09-20T18:56:55.000",
    "date_modified": "2022-09-20T18:56:55.000",
    "request_status": "Pending",
    "responsible_agency": "Department of Public Works",
    "final_address": "5900 S Front St",
    "address_councildis": "A",
    "status": "Pending",
    "rowid": "921947",
    "final_x": "3664719.50714",
    "final_y": "516953.021685",
    "longitude": "-90.12154375493147",
    "latitude": "29.915939953717547",
    "geocoded_column": {
      "latitude": "29.915939953717547",
      "longitude": "-90.12154375493147"
    }
  },
  {
    "service_request": "2022-921946",
    "request_type": "Property Maintenance",
    "request_reason": "Property Maintenance",
    "date_created": "2022-09-20T18:56:00.000",
    "date_modified": "2022-09-20T18:56:00.000",
    "request_status": "Pending",
    "responsible_agency": "Department of Code Enforcement",
    "final_address": "4343 Perlita St",
    "address_councildis": "D",
    "status": "Pending",
    "rowid": "921946",
    "final_x": "3678892.0637",
    "final_y": "548441.531538",
    "longitude": "-90.07571880278059",
    "latitude": "30.002102962547937",
    "geocoded_column": {
      "latitude": "30.002102962547937",
      "longitude": "-90.07571880278059"
    }
  },
  {
    "service_request": "2022-921945",
    "request_type": "Trash/Recycling",
    "request_reason": "Missed Trash Pick-Up",
    "date_created": "2022-09-20T18:53:08.000",
    "date_modified": "2022-09-20T18:53:08.000",
    "case_close_date": "2022-01-12T18:00:00.000",
    "request_status": "Pending",
    "responsible_agency": "Department of Sanitation",
    "final_address": "2518 N Rampart St",
    "address_councildis": "C",
    "status": "Assigned to Contractor",
    "contractor": "Metro Disposal",
    "rowid": "921945",
    "final_x": "3686698.81244",
    "final_y": "536042.087815",
    "longitude": "-90.05149464288847",
    "latitude": "29.967770988203572",
    "geocoded_column": {
      "latitude": "29.967770988203572",
      "longitude": "-90.05149464288847"
    }
  },
  {
    "service_request": "2022-921944",
    "request_type": "Trash/Recycling",
    "request_reason": "Missed Trash Pick-Up",
    "date_created": "2022-09-20T18:52:44.000",
    "date_modified": "2022-09-20T18:52:45.000",
    "request_status": "Pending",
    "responsible_agency": "Department of Sanitation",
    "final_address": "4007 Magnolia St",
    "address_councildis": "B",
    "status": "Assigned to Contractor",
    "contractor": "Richards Disposal",
    "rowid": "921944",
    "final_x": "3671617.66151",
    "final_y": "524887.450236",
    "longitude": "-90.09950077492587",
    "latitude": "29.937554695164096",
    "geocoded_column": {
      "latitude": "29.937554695164096",
      "longitude": "-90.09950077492587"
    }
  },
  {
    "service_request": "2022-921943",
    "request_type": "Trash/Recycling",
    "request_reason": "Missed Trash Pick-Up",
    "date_created": "2022-09-20T18:49:42.000",
    "date_modified": "2022-09-20T18:49:43.000",
    "request_status": "Pending",
    "responsible_agency": "Department of Sanitation",
    "final_address": "3339 Belfort St",
    "address_councildis": "A",
    "status": "Assigned to Contractor",
    "contractor": "Metro Disposal",
    "rowid": "921943",
    "final_x": "3677374.97806",
    "final_y": "542672.620109",
    "longitude": "-90.08071068435657",
    "latitude": "29.98628617809371",
    "geocoded_column": {
      "latitude": "29.98628617809371",
      "longitude": "-90.08071068435657"
    }
  },
  {
    "service_request": "2022-921942",
    "request_type": "Trash/Recycling",
    "request_reason": "Missed Trash Pick-Up",
    "date_created": "2022-09-20T18:49:24.000",
    "date_modified": "2022-09-20T18:49:25.000",
    "request_status": "Pending",
    "responsible_agency": "Department of Sanitation",
    "final_address": "6333 Argonne Blvd",
    "address_councildis": "A",
    "status": "Assigned to Contractor",
    "contractor": "Metro Disposal",
    "rowid": "921942",
    "final_x": "3670416.25882",
    "final_y": "549444.043475",
    "longitude": "-90.1024608975227",
    "latitude": "30.00511258558984",
    "geocoded_column": {
      "latitude": "30.00511258558984",
      "longitude": "-90.1024608975227"
    }
  },
  {
    "service_request": "2022-921941",
    "request_type": "Trash/Recycling",
    "request_reason": "Missed Trash Pick-Up",
    "date_created": "2022-09-20T18:48:57.000",
    "date_modified": "2022-09-20T18:48:57.000",
    "request_status": "Pending",
    "responsible_agency": "Department of Sanitation",
    "final_address": "2900 General Taylor St",
    "address_councildis": "B",
    "status": "Assigned to Contractor",
    "contractor": "Richards Disposal",
    "rowid": "921941",
    "final_x": "3671530.52206",
    "final_y": "525588.273021",
    "longitude": "-90.09975206138267",
    "latitude": "29.939484310192746",
    "geocoded_column": {
      "latitude": "29.939484310192746",
      "longitude": "-90.09975206138267"
    }
  },
  {
    "service_request": "2022-921940",
    "request_type": "Trash/Recycling",
    "request_reason": "Missed Trash Pick-Up",
    "date_created": "2022-09-20T18:48:18.000",
    "date_modified": "2022-09-20T18:48:19.000",
    "request_status": "Pending",
    "responsible_agency": "Department of Sanitation",
    "final_address": "6332 General Haig St",
    "address_councildis": "A",
    "status": "Assigned to Contractor",
    "contractor": "Metro Disposal",
    "rowid": "921940",
    "final_x": "3670671.99892",
    "final_y": "549377.968723",
    "longitude": "-90.10165520243415",
    "latitude": "30.004923346897353",
    "geocoded_column": {
      "latitude": "30.004923346897353",
      "longitude": "-90.10165520243415"
    }
  },
  {
    "service_request": "2022-921939",
    "request_type": "Trash/Recycling",
    "request_reason": "MIssed Recycling Pick-Up",
    "date_created": "2022-09-20T18:43:08.000",
    "date_modified": "2022-09-20T18:43:09.000",
    "request_status": "Pending",
    "responsible_agency": "Department of Sanitation",
    "final_address": "1119 N Dupre St",
    "address_councildis": "A",
    "status": "Assigned to Contractor",
    "contractor": "Richards Disposal",
    "rowid": "921939",
    "final_x": "3676815.89",
    "final_y": "539036.084426",
    "longitude": "-90.08260200817708",
    "latitude": "29.97630375461907",
    "geocoded_column": {
      "latitude": "29.97630375461907",
      "longitude": "-90.08260200817708"
    }
  },
  {
    "service_request": "2022-921938",
    "request_type": "Trash/Recycling",
    "request_reason": "Missed Trash Pick-Up",
    "date_created": "2022-09-20T18:32:11.000",
    "date_modified": "2022-09-20T18:32:12.000",
    "case_close_date": "2021-01-06T18:00:00.000",
    "request_status": "Pending",
    "responsible_agency": "Department of Sanitation",
    "final_address": "23 Heron St",
    "address_councildis": "D",
    "status": "Assigned to Contractor",
    "contractor": "Metro Disposal",
    "rowid": "921938",
    "final_x": "3675118.84699",
    "final_y": "555415.777753",
    "longitude": "-90.08739927307074",
    "latitude": "30.021392982868402",
    "geocoded_column": {
      "latitude": "30.021392982868402",
      "longitude": "-90.08739927307074"
    }
  },
  {
    "service_request": "2022-921936",
    "request_type": "Property Maintenance",
    "request_reason": "Property Maintenance",
    "date_created": "2022-09-20T18:27:30.000",
    "date_modified": "2022-09-20T18:27:30.000",
    "request_status": "Pending",
    "responsible_agency": "Department of Code Enforcement",
    "final_address": "6760 Cindy Pl",
    "address_councildis": "E",
    "status": "Pending",
    "rowid": "921936",
    "final_x": "3707044.9011",
    "final_y": "558931.99446",
    "longitude": "-89.98639194572553",
    "latitude": "30.030068033068194",
    "geocoded_column": {
      "latitude": "30.030068033068194",
      "longitude": "-89.98639194572553"
    }
  },
  {
    "service_request": "2022-921935",
    "request_type": "Trash/Recycling",
    "request_reason": "Request a Large Item Pick Up",
    "date_created": "2022-09-20T18:25:52.000",
    "date_modified": "2022-09-20T18:25:53.000",
    "request_status": "Pending",
    "responsible_agency": "Department of Sanitation",
    "final_address": "745 S Genois St",
    "address_councildis": "B",
    "status": "Assigned to Contractor",
    "contractor": "Richards Disposal",
    "rowid": "921935",
    "final_x": "3670907.48359",
    "final_y": "535033.38247",
    "longitude": "-90.1013984815006",
    "latitude": "29.965473680370117",
    "geocoded_column": {
      "latitude": "29.965473680370117",
      "longitude": "-90.1013984815006"
    }
  },
  {
    "service_request": "2022-921934",
    "request_type": "Property Maintenance",
    "request_reason": "Property Maintenance",
    "date_created": "2022-09-20T18:24:06.000",
    "date_modified": "2022-09-20T18:24:06.000",
    "request_status": "Pending",
    "responsible_agency": "Department of Code Enforcement",
    "final_address": "6766 Cindy Pl",
    "address_councildis": "E",
    "status": "Pending",
    "rowid": "921934",
    "final_x": "3707020.5651",
    "final_y": "558980.141084",
    "longitude": "-89.98646705849605",
    "latitude": "30.030201203971068",
    "geocoded_column": {
      "latitude": "30.030201203971068",
      "longitude": "-89.98646705849605"
    }
  },
  {
    "service_request": "2022-921933",
    "request_type": "Property Maintenance",
    "request_reason": "Property Maintenance",
    "date_created": "2022-09-20T18:21:16.000",
    "date_modified": "2022-09-20T18:21:16.000",
    "request_status": "Pending",
    "responsible_agency": "Department of Code Enforcement",
    "final_address": "6772 Cindy Pl",
    "address_councildis": "E",
    "status": "Pending",
    "rowid": "921933",
    "final_x": "3706996.35582",
    "final_y": "559028.30294",
    "longitude": "-89.98654177046855",
    "latitude": "30.03033441261486",
    "geocoded_column": {
      "latitude": "30.03033441261486",
      "longitude": "-89.98654177046855"
    }
  },
  {
    "service_request": "2022-921932",
    "request_type": "Trash/Recycling",
    "request_reason": "Missed Trash Pick-Up",
    "date_created": "2022-09-20T18:18:19.000",
    "date_modified": "2022-09-20T18:18:20.000",
    "request_status": "Pending",
    "responsible_agency": "Department of Sanitation",
    "final_address": "5430 Milne St",
    "address_councildis": "A",
    "status": "Assigned to Contractor",
    "contractor": "Metro Disposal",
    "rowid": "921932",
    "final_x": "3666594.89543",
    "final_y": "543760.938446",
    "longitude": "-90.11472437851896",
    "latitude": "29.989598317607754",
    "geocoded_column": {
      "latitude": "29.989598317607754",
      "longitude": "-90.11472437851896"
    }
  },
  {
    "service_request": "2022-921931",
    "request_type": "Trash/Recycling",
    "request_reason": "Missed Trash Pick-Up",
    "date_created": "2022-09-20T18:15:37.000",
    "date_modified": "2022-09-20T18:15:38.000",
    "request_status": "Pending",
    "responsible_agency": "Department of Sanitation",
    "final_address": "2331 General Pershing St",
    "address_councildis": "B",
    "status": "Assigned to Contractor",
    "contractor": "Richards Disposal",
    "rowid": "921931",
    "final_x": "3671024.0459",
    "final_y": "523659.226235",
    "longitude": "-90.10141655576759",
    "latitude": "29.93419503855334",
    "geocoded_column": {
      "latitude": "29.93419503855334",
      "longitude": "-90.10141655576759"
    }
  },
  {
    "service_request": "2022-921930",
    "request_type": "Trash/Recycling",
    "request_reason": "Missed Trash Pick-Up",
    "date_created": "2022-09-20T18:12:59.000",
    "date_modified": "2022-09-20T18:13:00.000",
    "request_status": "Pending",
    "responsible_agency": "Department of Sanitation",
    "final_address": "2732 Milan St",
    "address_councildis": "B",
    "status": "Assigned to Contractor",
    "contractor": "Richards Disposal",
    "rowid": "921930",
    "final_x": "3671148.34311",
    "final_y": "525079.364093",
    "longitude": "-90.10097593429448",
    "latitude": "29.938096283469175",
    "geocoded_column": {
      "latitude": "29.938096283469175",
      "longitude": "-90.10097593429448"
    }
  },
  {
    "service_request": "2022-921929",
    "request_type": "Trash/Recycling",
    "request_reason": "Missed Trash Pick-Up",
    "date_created": "2022-09-20T18:10:34.000",
    "date_modified": "2022-09-20T18:10:34.000",
    "request_status": "Pending",
    "responsible_agency": "Department of Sanitation",
    "final_address": "1515 Jefferson Ave",
    "address_councildis": "B",
    "status": "Assigned to Contractor",
    "contractor": "Richards Disposal",
    "rowid": "921929",
    "final_x": "3667248.21767",
    "final_y": "520687.835257",
    "longitude": "-90.11343662860484",
    "latitude": "29.926135740304627",
    "geocoded_column": {
      "latitude": "29.926135740304627",
      "longitude": "-90.11343662860484"
    }
  },
  {
    "service_request": "2022-921928",
    "request_type": "Trash/Recycling",
    "request_reason": "Missed Trash Pick-Up",
    "date_created": "2022-09-20T18:08:22.000",
    "date_modified": "2022-09-20T18:08:23.000",
    "request_status": "Pending",
    "responsible_agency": "Department of Sanitation",
    "final_address": "2812 N Rampart St",
    "address_councildis": "C",
    "status": "Assigned to Contractor",
    "contractor": "Metro Disposal",
    "rowid": "921928",
    "final_x": "3687708.0726",
    "final_y": "535819.402567",
    "longitude": "-90.04831526561642",
    "latitude": "29.967127597951514",
    "geocoded_column": {
      "latitude": "29.967127597951514",
      "longitude": "-90.04831526561642"
    }
  },
  {
    "service_request": "2022-921927",
    "request_type": "Roads/Drainage",
    "request_reason": "Damaged Sidewalk",
    "date_created": "2022-09-20T18:02:19.000",
    "date_modified": "2022-09-20T18:02:19.000",
    "request_status": "Pending",
    "responsible_agency": "Department of Public Works",
    "final_address": "3631 Elysian Fields Ave",
    "address_councildis": "D",
    "status": "Pending",
    "rowid": "921927",
    "final_x": "3684385.09282",
    "final_y": "546120.371472",
    "longitude": "-90.0584473039898",
    "latitude": "29.995553689470114",
    "geocoded_column": {
      "latitude": "29.995553689470114",
      "longitude": "-90.0584473039898"
    }
  },
  {
    "service_request": "2022-921926",
    "request_type": "Property Maintenance",
    "request_reason": "Property Maintenance",
    "date_created": "2022-09-20T18:01:50.000",
    "date_modified": "2022-09-20T18:01:50.000",
    "request_status": "Pending",
    "responsible_agency": "Department of Code Enforcement",
    "final_address": "6752 Tara Ln",
    "address_councildis": "E",
    "status": "Pending",
    "rowid": "921926",
    "final_x": "3707381.08766",
    "final_y": "558973.74102",
    "longitude": "-89.98532805323637",
    "latitude": "30.030171949228535",
    "geocoded_column": {
      "latitude": "30.030171949228535",
      "longitude": "-89.98532805323637"
    }
  },
  {
    "service_request": "2022-921925",
    "request_type": "Property Maintenance",
    "request_reason": "Property Maintenance",
    "date_created": "2022-09-20T17:56:42.000",
    "date_modified": "2022-09-20T17:56:43.000",
    "request_status": "Pending",
    "responsible_agency": "Department of Code Enforcement",
    "final_address": "6200 Curran Rd",
    "address_councildis": "E",
    "status": "Pending",
    "rowid": "921925",
    "final_x": "3695991.78179",
    "final_y": "559027.281308",
    "longitude": "-90.0213161877052",
    "latitude": "30.030682662215277",
    "geocoded_column": {
      "latitude": "30.030682662215277",
      "longitude": "-90.0213161877052"
    }
  },
  {
    "service_request": "2022-921924",
    "request_type": "Trash/Recycling",
    "request_reason": "MIssed Recycling Pick-Up",
    "date_created": "2022-09-20T17:54:40.000",
    "date_modified": "2022-09-20T17:54:41.000",
    "request_status": "Pending",
    "responsible_agency": "Department of Sanitation",
    "final_address": "200 N Norman C Francis Pkwy, New Orleans, Louisiana, 70119",
    "status": "Assigned to Contractor",
    "rowid": "921924",
    "longitude": "0.0",
    "latitude": "0.0",
    "geocoded_column": {
      "latitude": "0.0",
      "longitude": "0.0"
    }
  },
  {
    "service_request": "2022-921923",
    "request_type": "Trash/Recycling",
    "request_reason": "Missed Trash Pick-Up",
    "date_created": "2022-09-20T17:51:04.000",
    "date_modified": "2022-09-20T17:51:04.000",
    "request_status": "Pending",
    "responsible_agency": "Department of Sanitation",
    "final_address": "6653 General Haig St",
    "address_councildis": "A",
    "status": "Assigned to Contractor",
    "contractor": "Metro Disposal",
    "rowid": "921923",
    "final_x": "3671041.47079",
    "final_y": "551588.293589",
    "longitude": "-90.10041282684844",
    "latitude": "30.01099003752552",
    "geocoded_column": {
      "latitude": "30.01099003752552",
      "longitude": "-90.10041282684844"
    }
  },
  {
    "service_request": "2022-921922",
    "request_type": "Abandoned Vehicles",
    "request_reason": "Abandoned/Junk Vehicles",
    "date_created": "2022-09-20T17:50:13.000",
    "date_modified": "2022-09-20T17:50:13.000",
    "request_status": "Pending",
    "responsible_agency": "Department of Public Works",
    "final_address": "4200 General Pershing St",
    "address_councildis": "B",
    "status": "Pending",
    "rowid": "921922",
    "final_x": "3669861.85332",
    "final_y": "529420.273217",
    "longitude": "-90.10489058291158",
    "latitude": "29.9500703544766",
    "geocoded_column": {
      "latitude": "29.9500703544766",
      "longitude": "-90.10489058291158"
    }
  },
  {
    "service_request": "2022-921921",
    "request_type": "Trash/Recycling",
    "request_reason": "MIssed Recycling Pick-Up",
    "date_created": "2022-09-20T17:47:36.000",
    "date_modified": "2022-09-20T17:48:05.000",
    "request_status": "Pending",
    "responsible_agency": "Department of Sanitation",
    "final_address": "3320 Baudin St",
    "address_councildis": "B",
    "status": "Assigned to Contractor",
    "contractor": "Richards Disposal",
    "rowid": "921921",
    "final_x": "3672463.6747",
    "final_y": "535230.030278",
    "longitude": "-90.0964773857281",
    "latitude": "29.965968299026393",
    "geocoded_column": {
      "latitude": "29.965968299026393",
      "longitude": "-90.0964773857281"
    }
  },
  {
    "service_request": "2022-921920",
    "request_type": "Abandoned Vehicles",
    "request_reason": "Abandoned/Junk Vehicles",
    "date_created": "2022-09-20T17:47:35.000",
    "date_modified": "2022-09-20T17:47:35.000",
    "request_status": "Pending",
    "responsible_agency": "Department of Public Works",
    "final_address": "4200 General Pershing St",
    "address_councildis": "B",
    "status": "Pending",
    "rowid": "921920",
    "final_x": "3669861.85332",
    "final_y": "529420.273217",
    "longitude": "-90.10489058291158",
    "latitude": "29.9500703544766",
    "geocoded_column": {
      "latitude": "29.9500703544766",
      "longitude": "-90.10489058291158"
    }
  },
  {
    "service_request": "2022-921919",
    "request_type": "Trash/Recycling",
    "request_reason": "Missed Trash Pick-Up",
    "date_created": "2022-09-20T17:43:17.000",
    "date_modified": "2022-09-20T17:43:18.000",
    "request_status": "Pending",
    "responsible_agency": "Department of Sanitation",
    "final_address": "2113 Delachaise St",
    "address_councildis": "B",
    "status": "Assigned to Contractor",
    "contractor": "Richards Disposal",
    "rowid": "921919",
    "final_x": "3673111.51092",
    "final_y": "523160.130491",
    "longitude": "-90.09484351776075",
    "latitude": "29.932760811586213",
    "geocoded_column": {
      "latitude": "29.932760811586213",
      "longitude": "-90.09484351776075"
    }
  },
  {
    "service_request": "2022-921918",
    "request_type": "Trash/Recycling",
    "request_reason": "Missed Trash Pick-Up",
    "date_created": "2022-09-20T17:42:55.000",
    "date_modified": "2022-09-20T17:42:55.000",
    "request_status": "Pending",
    "responsible_agency": "Department of Sanitation",
    "final_address": "2620 Peniston St",
    "address_councildis": "B",
    "status": "Assigned to Contractor",
    "contractor": "Richards Disposal",
    "rowid": "921918",
    "final_x": "3671958.27796",
    "final_y": "524758.60038",
    "longitude": "-90.09842980589163",
    "latitude": "29.937190310401746",
    "geocoded_column": {
      "latitude": "29.937190310401746",
      "longitude": "-90.09842980589163"
    }
  },
  {
    "service_request": "2022-921917",
    "request_type": "Property Maintenance",
    "request_reason": "Property Maintenance",
    "date_created": "2022-09-20T17:37:42.000",
    "date_modified": "2022-09-20T17:37:42.000",
    "request_status": "Pending",
    "responsible_agency": "Department of Code Enforcement",
    "final_address": "2200 St Ann St",
    "address_councildis": "D",
    "status": "Pending",
    "rowid": "921917",
    "final_x": "3678503.4605",
    "final_y": "535940.056775",
    "longitude": "-90.0773793342123",
    "latitude": "29.967739982601476",
    "geocoded_column": {
      "latitude": "29.967739982601476",
      "longitude": "-90.0773793342123"
    }
  },
  {
    "service_request": "2022-921916",
    "request_type": "Property Maintenance",
    "request_reason": "Property Maintenance",
    "date_created": "2022-09-20T17:36:09.000",
    "date_modified": "2022-09-20T17:36:10.000",
    "request_status": "Pending",
    "responsible_agency": "Department of Code Enforcement",
    "final_address": "2139 St Ann St",
    "address_councildis": "D",
    "status": "Pending",
    "rowid": "921916",
    "final_x": "3678631.71195",
    "final_y": "535991.439943",
    "longitude": "-90.07697253334325",
    "latitude": "29.967877402778687",
    "geocoded_column": {
      "latitude": "29.967877402778687",
      "longitude": "-90.07697253334325"
    }
  },
  {
    "service_request": "2022-921915",
    "request_type": "Trash/Recycling",
    "request_reason": "Missed Trash Pick-Up",
    "date_created": "2022-09-20T17:29:01.000",
    "date_modified": "2022-09-20T17:29:01.000",
    "request_status": "Pending",
    "responsible_agency": "Department of Sanitation",
    "final_address": "4309 Baudin St",
    "address_councildis": "A",
    "status": "Assigned to Contractor",
    "contractor": "Richards Disposal",
    "rowid": "921915",
    "final_x": "3669261.43252",
    "final_y": "537763.413512",
    "longitude": "-90.10650434633183",
    "latitude": "29.973028911836995",
    "geocoded_column": {
      "latitude": "29.973028911836995",
      "longitude": "-90.10650434633183"
    }
  },
  {
    "service_request": "2022-921914",
    "request_type": "Traffic Signals/Signs/Striping/Streetlights",
    "request_reason": "Street Light Outage/Malfunction",
    "date_created": "2022-09-20T17:28:57.000",
    "date_modified": "2022-09-20T17:31:16.000",
    "request_status": "Pending",
    "responsible_agency": "Department of Public Works",
    "final_address": "4611 Sierra Madre Dr",
    "address_councildis": "E",
    "status": "Pending",
    "contractor": "Legacy Professional Services",
    "rowid": "921914",
    "final_x": "3714045.76351",
    "final_y": "555685.905561",
    "longitude": "-89.96439200340096",
    "latitude": "30.020914435164194",
    "geocoded_column": {
      "latitude": "30.020914435164194",
      "longitude": "-89.96439200340096"
    }
  },
  {
    "service_request": "2022-921913",
    "request_type": "Traffic Signals/Signs/Striping/Streetlights",
    "request_reason": "Street Light Outage/Malfunction",
    "date_created": "2022-09-20T17:25:57.000",
    "date_modified": "2022-09-20T17:25:58.000",
    "request_status": "Pending",
    "responsible_agency": "Department of Public Works",
    "final_address": "3761 Kent Dr",
    "address_councildis": "C",
    "status": "Pending",
    "contractor": "Legacy Professional Services",
    "rowid": "921913",
    "final_x": "3708476.39102",
    "final_y": "517071.393717",
    "longitude": "-89.98342684803002",
    "latitude": "29.914920502836914",
    "geocoded_column": {
      "latitude": "29.914920502836914",
      "longitude": "-89.98342684803002"
    }
  },
  {
    "service_request": "2022-921912",
    "request_type": "Abandoned Vehicles",
    "request_reason": "Abandoned/Junk Vehicles",
    "date_created": "2022-09-20T17:23:42.000",
    "date_modified": "2022-09-20T17:23:42.000",
    "request_status": "Pending",
    "responsible_agency": "Department of Public Works",
    "final_address": "2200 Royal St",
    "address_councildis": "C",
    "status": "Pending",
    "rowid": "921912",
    "final_x": "3685225.28021",
    "final_y": "534850.911046",
    "longitude": "-90.05619001924795",
    "latitude": "29.964540908372264",
    "geocoded_column": {
      "latitude": "29.964540908372264",
      "longitude": "-90.05619001924795"
    }
  },
  {
    "service_request": "2022-921911",
    "request_type": "Trash/Recycling",
    "request_reason": "Missed Trash Pick-Up",
    "date_created": "2022-09-20T17:23:25.000",
    "date_modified": "2022-09-20T17:23:26.000",
    "request_status": "Pending",
    "responsible_agency": "Department of Sanitation",
    "final_address": "2300 Mandeville St",
    "address_councildis": "D",
    "status": "Assigned to Contractor",
    "contractor": "Metro Disposal",
    "rowid": "921911",
    "final_x": "3685382.27477",
    "final_y": "540826.517515",
    "longitude": "-90.05548379766218",
    "latitude": "29.980966927695484",
    "geocoded_column": {
      "latitude": "29.980966927695484",
      "longitude": "-90.05548379766218"
    }
  },
  {
    "service_request": "2022-921910",
    "request_type": "Property Maintenance",
    "request_reason": "Property Maintenance",
    "date_created": "2022-09-20T17:22:37.000",
    "date_modified": "2022-09-20T17:22:37.000",
    "request_status": "Pending",
    "responsible_agency": "Department of Code Enforcement",
    "final_address": "5433 Law St",
    "address_councildis": "E",
    "status": "Pending",
    "rowid": "921910",
    "final_x": "3699026.06992",
    "final_y": "539555.805706",
    "longitude": "-90.01243713681218",
    "latitude": "29.977047500064092",
    "geocoded_column": {
      "latitude": "29.977047500064092",
      "longitude": "-90.01243713681218"
    }
  },
  {
    "service_request": "2022-921909",
    "request_type": "Abandoned Vehicles",
    "request_reason": "Abandoned/Junk Vehicles",
    "date_created": "2022-09-20T17:22:25.000",
    "date_modified": "2022-09-20T17:22:25.000",
    "request_status": "Pending",
    "responsible_agency": "Department of Public Works",
    "final_address": "2200 Royal St",
    "address_councildis": "C",
    "status": "Pending",
    "rowid": "921909",
    "final_x": "3685225.28021",
    "final_y": "534850.911046",
    "longitude": "-90.05619001924795",
    "latitude": "29.964540908372264",
    "geocoded_column": {
      "latitude": "29.964540908372264",
      "longitude": "-90.05619001924795"
    }
  },
  {
    "service_request": "2022-921908",
    "request_type": "Property Maintenance",
    "request_reason": "Property Maintenance",
    "date_created": "2022-09-20T17:21:26.000",
    "date_modified": "2022-09-20T17:21:26.000",
    "request_status": "Pending",
    "responsible_agency": "Department of Code Enforcement",
    "final_address": "5439 Law St",
    "address_councildis": "E",
    "status": "Pending",
    "rowid": "921908",
    "final_x": "3699055.74135",
    "final_y": "539542.89569",
    "longitude": "-90.01234389552451",
    "latitude": "29.977011061664104",
    "geocoded_column": {
      "latitude": "29.977011061664104",
      "longitude": "-90.01234389552451"
    }
  },
  {
    "service_request": "2022-921907",
    "request_type": "Property Maintenance",
    "request_reason": "Property Maintenance",
    "date_created": "2022-09-20T17:19:49.000",
    "date_modified": "2022-09-20T17:19:49.000",
    "request_status": "Pending",
    "responsible_agency": "Department of Code Enforcement",
    "final_address": "5429 Law St",
    "address_councildis": "E",
    "status": "Pending",
    "rowid": "921907",
    "final_x": "3698977.69693",
    "final_y": "539568.418122",
    "longitude": "-90.01258945420898",
    "latitude": "29.977083712838866",
    "geocoded_column": {
      "latitude": "29.977083712838866",
      "longitude": "-90.01258945420898"
    }
  },
  {
    "service_request": "2022-921906",
    "request_type": "Abandoned Vehicles",
    "request_reason": "Abandoned/Junk Vehicles",
    "date_created": "2022-09-20T17:19:42.000",
    "date_modified": "2022-09-20T17:19:42.000",
    "request_status": "Pending",
    "responsible_agency": "Department of Public Works",
    "final_address": "2200 Royal St",
    "address_councildis": "C",
    "status": "Pending",
    "rowid": "921906",
    "final_x": "3685225.28021",
    "final_y": "534850.911046",
    "longitude": "-90.05619001924795",
    "latitude": "29.964540908372264",
    "geocoded_column": {
      "latitude": "29.964540908372264",
      "longitude": "-90.05619001924795"
    }
  },
  {
    "service_request": "2022-921905",
    "request_type": "Property Maintenance",
    "request_reason": "Property Maintenance",
    "date_created": "2022-09-20T17:18:56.000",
    "date_modified": "2022-09-20T17:18:56.000",
    "request_status": "Pending",
    "responsible_agency": "Department of Code Enforcement",
    "final_address": "5433 Law St",
    "address_councildis": "E",
    "status": "Pending",
    "rowid": "921905",
    "final_x": "3699026.06992",
    "final_y": "539555.805706",
    "longitude": "-90.01243713681218",
    "latitude": "29.977047500064092",
    "geocoded_column": {
      "latitude": "29.977047500064092",
      "longitude": "-90.01243713681218"
    }
  },
  {
    "service_request": "2022-921904",
    "request_type": "Trash/Recycling",
    "request_reason": "Missed Trash Pick-Up",
    "date_created": "2022-09-20T17:17:35.000",
    "date_modified": "2022-09-20T17:17:35.000",
    "request_status": "Pending",
    "responsible_agency": "Department of Sanitation",
    "final_address": "600 Harrison Ave",
    "address_councildis": "A",
    "status": "Assigned to Contractor",
    "contractor": "Metro Disposal",
    "rowid": "921904",
    "final_x": "3668300.29761",
    "final_y": "549213.811219",
    "longitude": "-90.10915345724831",
    "latitude": "30.00454185636185",
    "geocoded_column": {
      "latitude": "30.00454185636185",
      "longitude": "-90.10915345724831"
    }
  },
  {
    "service_request": "2022-921903",
    "request_type": "Traffic Signals/Signs/Striping/Streetlights",
    "request_reason": "Street Light Outage/Malfunction",
    "date_created": "2022-09-20T17:17:06.000",
    "date_modified": "2022-09-20T17:17:07.000",
    "request_status": "Pending",
    "responsible_agency": "Department of Public Works",
    "final_address": "4500 S Galvez St",
    "address_councildis": "B",
    "status": "Pending",
    "contractor": "Legacy Professional Services",
    "rowid": "921903",
    "final_x": "3669743.88686",
    "final_y": "527344.754047",
    "longitude": "-90.10533329218238",
    "latitude": "29.944366830885695",
    "geocoded_column": {
      "latitude": "29.944366830885695",
      "longitude": "-90.10533329218238"
    }
  },
  {
    "service_request": "2022-921902",
    "request_type": "Trash/Recycling",
    "request_reason": "Missed Trash Pick-Up",
    "date_created": "2022-09-20T17:17:00.000",
    "date_modified": "2022-09-20T17:17:01.000",
    "request_status": "Pending",
    "responsible_agency": "Department of Sanitation",
    "final_address": "7500 General Haig St",
    "address_councildis": "D",
    "status": "Assigned to Contractor",
    "contractor": "Metro Disposal",
    "rowid": "921902",
    "final_x": "3671039.14836",
    "final_y": "556293.20137",
    "longitude": "-90.1002602010508",
    "latitude": "30.023926928628885",
    "geocoded_column": {
      "latitude": "30.023926928628885",
      "longitude": "-90.1002602010508"
    }
  },
  {
    "service_request": "2022-921901",
    "request_type": "Property Maintenance",
    "request_reason": "Property Maintenance",
    "date_created": "2022-09-20T17:17:00.000",
    "date_modified": "2022-09-20T17:17:00.000",
    "request_status": "Pending",
    "responsible_agency": "Department of Code Enforcement",
    "final_address": "5439 Law St",
    "address_councildis": "E",
    "status": "Pending",
    "rowid": "921901",
    "final_x": "3699055.74135",
    "final_y": "539542.89569",
    "longitude": "-90.01234389552451",
    "latitude": "29.977011061664104",
    "geocoded_column": {
      "latitude": "29.977011061664104",
      "longitude": "-90.01234389552451"
    }
  },
  {
    "service_request": "2022-921900",
    "request_type": "Property Maintenance",
    "request_reason": "Property Maintenance",
    "date_created": "2022-09-20T17:15:28.000",
    "date_modified": "2022-09-20T17:15:28.000",
    "request_status": "Pending",
    "responsible_agency": "Department of Code Enforcement",
    "final_address": "2602 Flood St",
    "address_councildis": "E",
    "status": "Pending",
    "rowid": "921900",
    "final_x": "3699208.32842",
    "final_y": "539541.969674",
    "longitude": "-90.01186201332513",
    "latitude": "29.977003677639832",
    "geocoded_column": {
      "latitude": "29.977003677639832",
      "longitude": "-90.01186201332513"
    }
  },
  {
    "service_request": "2022-921899",
    "request_type": "Property Maintenance",
    "request_reason": "Property Maintenance",
    "date_created": "2022-09-20T17:14:18.000",
    "date_modified": "2022-09-20T17:14:18.000",
    "request_status": "Pending",
    "responsible_agency": "Department of Code Enforcement",
    "final_address": "2602 Flood St",
    "address_councildis": "E",
    "status": "Pending",
    "rowid": "921899",
    "final_x": "3699208.32842",
    "final_y": "539541.969674",
    "longitude": "-90.01186201332513",
    "latitude": "29.977003677639832",
    "geocoded_column": {
      "latitude": "29.977003677639832",
      "longitude": "-90.01186201332513"
    }
  },
  {
    "service_request": "2022-921898",
    "request_type": "Trash/Recycling",
    "request_reason": "Missed Trash Pick-Up",
    "date_created": "2022-09-20T17:02:35.000",
    "date_modified": "2022-09-20T17:02:36.000",
    "request_status": "Pending",
    "responsible_agency": "Department of Sanitation",
    "final_address": "2537 N Rampart St",
    "address_councildis": "C",
    "status": "Assigned to Contractor",
    "contractor": "Metro Disposal",
    "rowid": "921898",
    "final_x": "3686818.35369",
    "final_y": "536115.635847",
    "longitude": "-90.05111452999934",
    "latitude": "29.96796954202887",
    "geocoded_column": {
      "latitude": "29.96796954202887",
      "longitude": "-90.05111452999934"
    }
  },
  {
    "service_request": "2022-921897",
    "request_type": "Property Maintenance",
    "request_reason": "Property Maintenance",
    "date_created": "2022-09-20T17:02:07.000",
    "date_modified": "2022-09-20T17:02:07.000",
    "request_status": "Pending",
    "responsible_agency": "Department of Code Enforcement",
    "final_address": "2168 Florida Ave",
    "address_councildis": "D",
    "status": "Pending",
    "rowid": "921897",
    "final_x": "3684409.60578",
    "final_y": "542354.894861",
    "longitude": "-90.0585022081231",
    "latitude": "29.985199217126496",
    "geocoded_column": {
      "latitude": "29.985199217126496",
      "longitude": "-90.0585022081231"
    }
  },
  {
    "service_request": "2022-921896",
    "request_type": "Trash/Recycling",
    "request_reason": "Missed Trash Pick-Up",
    "date_created": "2022-09-20T17:01:22.000",
    "date_modified": "2022-09-20T17:01:23.000",
    "request_status": "Pending",
    "responsible_agency": "Department of Sanitation",
    "final_address": "2535 N Rampart St",
    "address_councildis": "C",
    "status": "Assigned to Contractor",
    "contractor": "Metro Disposal",
    "rowid": "921896",
    "final_x": "3686805.8541",
    "final_y": "536113.760903",
    "longitude": "-90.05115407030247",
    "latitude": "29.967964771182665",
    "geocoded_column": {
      "latitude": "29.967964771182665",
      "longitude": "-90.05115407030247"
    }
  },
  {
    "service_request": "2022-921895",
    "request_type": "Property Maintenance",
    "request_reason": "Property Maintenance",
    "date_created": "2022-09-20T16:59:56.000",
    "date_modified": "2022-09-20T16:59:56.000",
    "request_status": "Pending",
    "responsible_agency": "Department of Code Enforcement",
    "final_address": "2164 Florida Ave",
    "address_councildis": "D",
    "status": "Pending",
    "rowid": "921895",
    "final_x": "3684358.35573",
    "final_y": "542374.478221",
    "longitude": "-90.05866339715226",
    "latitude": "29.985254632183466",
    "geocoded_column": {
      "latitude": "29.985254632183466",
      "longitude": "-90.05866339715226"
    }
  },
  {
    "service_request": "2022-921894",
    "request_type": "Property Maintenance",
    "request_reason": "Property Maintenance",
    "date_created": "2022-09-20T16:58:43.000",
    "date_modified": "2022-09-20T16:58:43.000",
    "request_status": "Pending",
    "responsible_agency": "Department of Code Enforcement",
    "final_address": "2160 Florida Ave",
    "address_councildis": "D",
    "status": "Pending",
    "rowid": "921894",
    "final_x": "3684317.93909",
    "final_y": "542389.894861",
    "longitude": "-90.05879051457502",
    "latitude": "29.985298258699665",
    "geocoded_column": {
      "latitude": "29.985298258699665",
      "longitude": "-90.05879051457502"
    }
  },
  {
    "service_request": "2022-921893",
    "request_type": "Trash/Recycling",
    "request_reason": "MIssed Recycling Pick-Up",
    "date_created": "2022-09-20T16:58:41.000",
    "date_modified": "2022-09-20T16:58:42.000",
    "request_status": "Pending",
    "responsible_agency": "Department of Sanitation",
    "final_address": "747 S Genois St",
    "address_councildis": "B",
    "status": "Assigned to Contractor",
    "contractor": "Richards Disposal",
    "rowid": "921893",
    "final_x": "3670901.85537",
    "final_y": "535018.57031",
    "longitude": "-90.10141675811427",
    "latitude": "29.965433118263814",
    "geocoded_column": {
      "latitude": "29.965433118263814",
      "longitude": "-90.10141675811427"
    }
  },
  {
    "service_request": "2022-921892",
    "request_type": "Roads/Drainage",
    "request_reason": "Pothole",
    "date_created": "2022-09-20T16:57:17.000",
    "date_modified": "2022-09-20T16:57:17.000",
    "request_status": "Pending",
    "responsible_agency": "Department of Public Works",
    "final_address": "2534 Elysian Fields Ave",
    "address_councildis": "D",
    "status": "Pending",
    "rowid": "921892",
    "final_x": "3684441.65314",
    "final_y": "541716.579852",
    "longitude": "-90.05842341685954",
    "latitude": "29.983443095717757",
    "geocoded_column": {
      "latitude": "29.983443095717757",
      "longitude": "-90.05842341685954"
    }
  },
  {
    "service_request": "2022-921891",
    "request_type": "Property Maintenance",
    "request_reason": "Property Maintenance",
    "date_created": "2022-09-20T16:56:49.000",
    "date_modified": "2022-09-20T16:56:49.000",
    "request_status": "Pending",
    "responsible_agency": "Department of Code Enforcement",
    "final_address": "2156 Florida Ave",
    "address_councildis": "D",
    "status": "Pending",
    "rowid": "921891",
    "final_x": "3684286.27241",
    "final_y": "542399.061517",
    "longitude": "-90.05889021423049",
    "latitude": "29.9853244322513",
    "geocoded_column": {
      "latitude": "29.9853244322513",
      "longitude": "-90.05889021423049"
    }
  },
  {
    "service_request": "2022-921890",
    "request_type": "Trash/Recycling",
    "request_reason": "Request a Large Item Pick Up",
    "date_created": "2022-09-20T16:55:44.000",
    "date_modified": "2022-09-20T16:55:45.000",
    "request_status": "Pending",
    "responsible_agency": "Department of Sanitation",
    "final_address": "7713 Oak St",
    "address_councildis": "A",
    "status": "Assigned to Contractor",
    "contractor": "Richards Disposal",
    "rowid": "921890",
    "final_x": "3662978.81139",
    "final_y": "527502.436671",
    "longitude": "-90.12668744263348",
    "latitude": "29.944998029084545",
    "geocoded_column": {
      "latitude": "29.944998029084545",
      "longitude": "-90.12668744263348"
    }
  },
  {
    "service_request": "2022-921889",
    "request_type": "Property Maintenance",
    "request_reason": "Property Maintenance",
    "date_created": "2022-09-20T16:55:33.000",
    "date_modified": "2022-09-20T16:55:33.000",
    "request_status": "Pending",
    "responsible_agency": "Department of Code Enforcement",
    "final_address": "2152 Florida Ave",
    "address_councildis": "D",
    "status": "Pending",
    "rowid": "921889",
    "final_x": "3684252.93909",
    "final_y": "542413.228173",
    "longitude": "-90.05899500251422",
    "latitude": "29.985364404927264",
    "geocoded_column": {
      "latitude": "29.985364404927264",
      "longitude": "-90.05899500251422"
    }
  },
  {
    "service_request": "2022-921888",
    "request_type": "Trash/Recycling",
    "request_reason": "Request a Large Item Pick Up",
    "date_created": "2022-09-20T16:54:52.000",
    "date_modified": "2022-09-20T16:54:53.000",
    "request_status": "Pending",
    "responsible_agency": "Department of Sanitation",
    "final_address": "936 N Rampart St",
    "address_councildis": "C",
    "status": "Assigned to Contractor",
    "contractor": "Empire Services",
    "rowid": "921888",
    "final_x": "3682056.74408",
    "final_y": "534152.878149",
    "longitude": "-90.0662203900141",
    "latitude": "29.962718284240946",
    "geocoded_column": {
      "latitude": "29.962718284240946",
      "longitude": "-90.0662203900141"
    }
  },
  {
    "service_request": "2022-921887",
    "request_type": "Trash/Recycling",
    "request_reason": "Request a Large Item Pick Up",
    "date_created": "2022-09-20T16:54:40.000",
    "date_modified": "2022-09-20T16:54:41.000",
    "request_status": "Pending",
    "responsible_agency": "Department of Sanitation",
    "final_address": "7711 Oak St",
    "address_councildis": "A",
    "status": "Assigned to Contractor",
    "contractor": "Richards Disposal",
    "rowid": "921887",
    "final_x": "3662989.33056",
    "final_y": "527492.776639",
    "longitude": "-90.12665455140784",
    "latitude": "29.944971162491683",
    "geocoded_column": {
      "latitude": "29.944971162491683",
      "longitude": "-90.12665455140784"
    }
  },
  {
    "service_request": "2022-921886",
    "request_type": "Property Maintenance",
    "request_reason": "Property Maintenance",
    "date_created": "2022-09-20T16:53:41.000",
    "date_modified": "2022-09-20T16:53:41.000",
    "request_status": "Pending",
    "responsible_agency": "Department of Code Enforcement",
    "final_address": "2148 Florida Ave",
    "address_councildis": "D",
    "status": "Pending",
    "rowid": "921886",
    "final_x": "3684221.27241",
    "final_y": "542421.561549",
    "longitude": "-90.05909473155859",
    "latitude": "29.9853882870981",
    "geocoded_column": {
      "latitude": "29.9853882870981",
      "longitude": "-90.05909473155859"
    }
  },
  {
    "service_request": "2022-921885",
    "request_type": "Trash/Recycling",
    "request_reason": "Start Trash Service",
    "date_created": "2022-09-20T16:53:08.000",
    "date_modified": "2022-09-20T16:53:09.000",
    "request_status": "Pending",
    "responsible_agency": "Department of Sanitation",
    "final_address": "1424 Spain St",
    "address_councildis": "C",
    "status": "Assigned to Contractor",
    "contractor": "Metro Disposal",
    "rowid": "921885",
    "final_x": "3685994.05692",
    "final_y": "537705.354504",
    "longitude": "-90.05366161483137",
    "latitude": "29.972366051400968",
    "geocoded_column": {
      "latitude": "29.972366051400968",
      "longitude": "-90.05366161483137"
    }
  },
  {
    "service_request": "2022-921884",
    "request_type": "Safety & Permits",
    "request_reason": "Licenses & Permits",
    "date_created": "2022-09-20T16:48:32.000",
    "date_modified": "2022-09-20T16:48:32.000",
    "request_status": "Pending",
    "responsible_agency": "Safety and Permits",
    "final_address": "4219 Duplessis St",
    "address_councildis": "D",
    "status": "Pending",
    "rowid": "921884",
    "final_x": "3678379.0525",
    "final_y": "547812.602706",
    "longitude": "-90.07736124296521",
    "latitude": "30.000389103477097",
    "geocoded_column": {
      "latitude": "30.000389103477097",
      "longitude": "-90.07736124296521"
    }
  },