[
  {
    "service_request": "2022-869603",
    "request_type": "Health Related Questions",
    "request_reason": "Noise Ordinance Complaint",
    "date_created": "2022-03-25T00:13:16.000",
    "date_modified": "2022-03-25T00:13:16.000",
    "request_status": "Pending",
    "responsible_agency": "Health Department",
    "final_address": "711 Bourbon St, New Orleans, Louisiana, 70116",
    "address_councildis": "C",
    "status": "Pending",
    "rowid": "869603",
    "final_x": "3682299.38447",
    "final_y": "532765.705988",
    "longitude": "-90.06550263299877",
    "latitude": "29.95889665479323",
    "geocoded_column": {
      "latitude": "29.95889665479323",
      "longitude": "-90.06550263299877"
    }
  },
  {
    "service_request": "2022-869602",
    "request_type": "Abandoned Vehicles",
    "request_reason": "Abandoned/Junk Vehicles",
    "date_created": "2022-03-25T00:02:41.000",
    "date_modified": "2022-03-25T00:02:41.000",
    "request_status": "Pending",
    "responsible_agency": "Department of Public Works",
    "final_address": "2337 N Galvez St",
    "address_councildis": "D",
    "status": "Pending",
    "rowid": "869602",
    "final_x": "3685772.93782",
    "final_y": "540099.417675",
    "longitude": "-90.05427554696168",
    "latitude": "29.97895567410009",
    "geocoded_column": {
      "latitude": "29.97895567410009",
      "longitude": "-90.05427554696168"
    }
  },
  {
    "service_request": "2022-869601",
    "request_type": "Property Maintenance",
    "request_reason": "Property Maintenance",
    "date_created": "2022-03-24T22:57:29.000",
    "date_modified": "2022-03-24T22:57:29.000",
    "request_status": "Pending",
    "responsible_agency": "Department of Code Enforcement",
    "final_address": "2254 N Galvez St",
    "address_councildis": "D",
    "status": "Pending",
    "rowid": "869601",
    "final_x": "3685274.00066",
    "final_y": "540001.373131",
    "longitude": "-90.05585483074861",
    "latitude": "29.978701390659094",
    "geocoded_column": {
      "latitude": "29.978701390659094",
      "longitude": "-90.05585483074861"
    }
  },
  {
    "service_request": "2022-869600",
    "request_type": "Property Maintenance",
    "request_reason": "Property Maintenance",
    "date_created": "2022-03-24T22:41:48.000",
    "date_modified": "2022-03-24T22:41:48.000",
    "request_status": "Pending",
    "responsible_agency": "Department of Code Enforcement",
    "final_address": "9711 Chef Menteur Hwy",
    "address_councildis": "E",
    "status": "Pending",
    "rowid": "869600",
    "final_x": "3711636.54379",
    "final_y": "554880.293272",
    "longitude": "-89.97203460545568",
    "latitude": "30.018778239566355",
    "geocoded_column": {
      "latitude": "30.018778239566355",
      "longitude": "-89.97203460545568"
    }
  },
  {
    "service_request": "2022-869599",
    "request_type": "Safety & Permits",
    "request_reason": "Short term Rental (Enforcement)",
    "date_created": "2022-03-24T22:38:49.000",
    "date_modified": "2022-03-24T22:38:49.000",
    "request_status": "Pending",
    "responsible_agency": "Safety and Permits",
    "status": "Pending",
    "rowid": "869599",
    "longitude": "0.0",
    "latitude": "0.0",
    "geocoded_column": {
      "latitude": "0.0",
      "longitude": "0.0"
    }
  },
  {
    "service_request": "2022-869598",
    "request_type": "Traffic Signals/Signs/Striping/Streetlights",
    "request_reason": "Street Name Sign Damaged or Missing",
    "date_created": "2022-03-24T22:21:35.000",
    "date_modified": "2022-03-24T22:21:35.000",
    "request_status": "Pending",
    "responsible_agency": "Department of Public Works",
    "final_address": "7621 Weaver Ave",
    "address_councildis": "E",
    "status": "Pending",
    "rowid": "869598",
    "final_x": "3707442.22641",
    "final_y": "564421.350497",
    "longitude": "-89.98493228053069",
    "latitude": "30.04514874093768",
    "geocoded_column": {
      "latitude": "30.04514874093768",
      "longitude": "-89.98493228053069"
    }
  },
  {
    "service_request": "2022-869597",
    "request_type": "Trash/Recycling",
    "request_reason": "Order Trash Cart",
    "date_created": "2022-03-24T22:19:51.000",
    "date_modified": "2022-03-24T22:19:52.000",
    "request_status": "Pending",
    "responsible_agency": "Department of Sanitation",
    "final_address": "7621 Weaver Ave",
    "address_councildis": "E",
    "status": "Assigned to Contractor",
    "contractor": "Metro Disposal",
    "rowid": "869597",
    "final_x": "3707442.22641",
    "final_y": "564421.350497",
    "longitude": "-89.98493228053069",
    "latitude": "30.04514874093768",
    "geocoded_column": {
      "latitude": "30.04514874093768",
      "longitude": "-89.98493228053069"
    }
  },
  {
    "service_request": "2022-869596",
    "request_type": "Traffic Signals/Signs/Striping/Streetlights",
    "request_reason": "Street Light Outage/Malfunction",
    "date_created": "2022-03-24T22:08:27.000",
    "date_modified": "2022-03-24T22:08:28.000",
    "request_status": "Pending",
    "responsible_agency": "Department of Public Works",
    "final_address": "ESPLANADE AVE & N JOHNSON ST",
    "address_councildis": "D",
    "status": "Pending",
    "contractor": "Royal Engineering",
    "rowid": "869596",
    "final_x": "3680159.2",
    "final_y": "537468.48",
    "longitude": "-90.07209733608087",
    "latitude": "29.97189261527131",
    "geocoded_column": {
      "latitude": "29.97189261527131",
      "longitude": "-90.07209733608087"
    }
  },
  {
    "service_request": "2022-869595",
    "request_type": "Trash/Recycling",
    "request_reason": "Order Trash Cart",
    "date_created": "2022-03-24T21:27:43.000",
    "date_modified": "2022-03-24T21:27:44.000",
    "request_status": "Pending",
    "responsible_agency": "Department of Sanitation",
    "final_address": "1923 Brutus St",
    "address_councildis": "D",
    "status": "Assigned to Contractor",
    "contractor": "Metro Disposal",
    "rowid": "869595",
    "final_x": "3681827.3748",
    "final_y": "550226.687892",
    "longitude": "-90.06638346819466",
    "latitude": "30.006922591094327",
    "geocoded_column": {
      "latitude": "30.006922591094327",
      "longitude": "-90.06638346819466"
    }
  },
  {
    "service_request": "2022-869593",
    "request_type": "Trash/Recycling",
    "request_reason": "Order Trash Cart",
    "date_created": "2022-03-24T20:16:25.000",
    "date_modified": "2022-03-24T20:16:27.000",
    "request_status": "Pending",
    "responsible_agency": "Department of Sanitation",
    "final_address": "7344 Amber St",
    "address_councildis": "D",
    "status": "Assigned to Contractor",
    "contractor": "Metro Disposal",
    "rowid": "869593",
    "final_x": "3669799.3321",
    "final_y": "555632.077721",
    "longitude": "-90.1042002005314",
    "latitude": "30.022145702241904",
    "geocoded_column": {
      "latitude": "30.022145702241904",
      "longitude": "-90.1042002005314"
    }
  },
  {
    "service_request": "2022-869592",
    "request_type": "Property Maintenance",
    "request_reason": "Property Maintenance",
    "date_created": "2022-03-24T20:03:05.000",
    "date_modified": "2022-03-24T20:03:05.000",
    "request_status": "Pending",
    "responsible_agency": "Department of Code Enforcement",
    "final_address": "1418 Hendee St",
    "address_councildis": "C",
    "status": "Pending",
    "rowid": "869592",
    "final_x": "3690763.69513",
    "final_y": "525981.665405",
    "longitude": "-90.03901655227057",
    "latitude": "29.939982648345435",
    "geocoded_column": {
      "latitude": "29.939982648345435",
      "longitude": "-90.03901655227057"
    }
  },
  {
    "service_request": "2022-869591",
    "request_type": "Property Maintenance",
    "request_reason": "Property Maintenance",
    "date_created": "2022-03-24T19:57:07.000",
    "date_modified": "2022-03-24T19:57:07.000",
    "request_status": "Pending",
    "responsible_agency": "Department of Code Enforcement",
    "final_address": "1416 Hendee St",
    "address_councildis": "C",
    "status": "Pending",
    "rowid": "869591",
    "final_x": "3690765.51356",
    "final_y": "526015.53555",
    "longitude": "-90.0390096033379",
    "latitude": "29.94007572321138",
    "geocoded_column": {
      "latitude": "29.94007572321138",
      "longitude": "-90.0390096033379"
    }
  },
  {
    "service_request": "2022-869590",
    "request_type": "Property Maintenance",
    "request_reason": "Property Maintenance",
    "date_created": "2022-03-24T19:55:07.000",
    "date_modified": "2022-03-24T19:55:07.000",
    "request_status": "Pending",
    "responsible_agency": "Department of Code Enforcement",
    "final_address": "1414 Hendee St",
    "address_councildis": "C",
    "status": "Pending",
    "rowid": "869590",
    "final_x": "3690767.33276",
    "final_y": "526049.406462",
    "longitude": "-90.03900265193391",
    "latitude": "29.94016880016084",
    "geocoded_column": {
      "latitude": "29.94016880016084",
      "longitude": "-90.03900265193391"
    }
  },
  {
    "service_request": "2022-869589",
    "request_type": "Trash/Recycling",
    "request_reason": "Request a Large Item Pick Up",
    "date_created": "2022-03-24T19:51:56.000",
    "date_modified": "2022-03-24T19:51:57.000",
    "request_status": "Pending",
    "responsible_agency": "Department of Sanitation",
    "final_address": "2015 Coliseum St, New Orleans, Louisiana, 70130",
    "address_councildis": "B",
    "status": "Assigned to Contractor",
    "contractor": "Richards Disposal",
    "rowid": "869589",
    "final_x": "3678764.14075",
    "final_y": "523377.540027",
    "longitude": "-90.07699108580572",
    "latitude": "29.9331894098128",
    "geocoded_column": {
      "latitude": "29.9331894098128",
      "longitude": "-90.07699108580572"
    }
  },
  {
    "service_request": "2022-869588",
    "request_type": "Trash/Recycling",
    "request_reason": "Order Recycling Cart",
    "date_created": "2022-03-24T19:50:33.000",
    "date_modified": "2022-03-24T19:50:33.000",
    "request_status": "Pending",
    "responsible_agency": "Department of Sanitation",
    "final_address": "2225 Saint Thomas St, New Orleans, Louisiana, 70130",
    "status": "Pending",
    "rowid": "869588",
    "longitude": "0.0",
    "latitude": "0.0",
    "geocoded_column": {
      "latitude": "0.0",
      "longitude": "0.0"
    }
  },
  {
    "service_request": "2022-869587",
    "request_type": "Trash/Recycling",
    "request_reason": "Missed Trash Pick-Up",
    "date_created": "2022-03-24T19:42:25.000",
    "date_modified": "2022-03-24T19:42:25.000",
    "request_status": "Pending",
    "responsible_agency": "Department of Sanitation",
    "final_address": "1128 Pauline St",
    "address_councildis": "C",
    "status": "Assigned to Contractor",
    "contractor": "Metro Disposal",
    "rowid": "869587",
    "final_x": "3691253.45635",
    "final_y": "535759.614599",
    "longitude": "-90.03712109271132",
    "latitude": "29.966853398999",
    "geocoded_column": {
      "latitude": "29.966853398999",
      "longitude": "-90.03712109271132"
    }
  },
  {
    "service_request": "2022-869586",
    "request_type": "Trash/Recycling",
    "request_reason": "Repair Trash Cart",
    "date_created": "2022-03-24T19:38:16.000",
    "date_modified": "2022-03-24T19:38:17.000",
    "request_status": "Pending",
    "responsible_agency": "Department of Sanitation",
    "final_address": "1231 Amelia St",
    "address_councildis": "B",
    "status": "Assigned to Contractor",
    "contractor": "Richards Disposal",
    "rowid": "869586",
    "final_x": "3673536.13883",
    "final_y": "519795.03788",
    "longitude": "-90.09361793553428",
    "latitude": "29.923495264738353",
    "geocoded_column": {
      "latitude": "29.923495264738353",
      "longitude": "-90.09361793553428"
    }
  },
  {
    "service_request": "2022-869585",
    "request_type": "Abandoned Vehicles",
    "request_reason": "Abandoned/Junk Vehicles",
    "date_created": "2022-03-24T19:21:06.000",
    "date_modified": "2022-03-24T19:21:06.000",
    "request_status": "Pending",
    "responsible_agency": "Department of Public Works",
    "final_address": "1723 New Orleans St",
    "address_councildis": "D",
    "status": "Pending",
    "rowid": "869585",
    "final_x": "3682253.73615",
    "final_y": "538511.562185",
    "longitude": "-90.06544601349256",
    "latitude": "29.97469717087304",
    "geocoded_column": {
      "latitude": "29.97469717087304",
      "longitude": "-90.06544601349256"
    }
  },
  {
    "service_request": "2022-869584",
    "request_type": "Trash/Recycling",
    "request_reason": "Missed Trash Pick-Up",
    "date_created": "2022-03-24T18:58:45.000",
    "date_modified": "2022-03-24T18:58:46.000",
    "request_status": "Pending",
    "responsible_agency": "Department of Sanitation",
    "final_address": "5524 Bellaire Dr",
    "address_councildis": "A",
    "status": "Assigned to Contractor",
    "contractor": "Metro Disposal",
    "rowid": "869584",
    "final_x": "3663992.25325",
    "final_y": "544461.104847",
    "longitude": "-90.12292206915266",
    "latitude": "29.991599389718942",
    "geocoded_column": {
      "latitude": "29.991599389718942",
      "longitude": "-90.12292206915266"
    }
  },
  {
    "service_request": "2022-869583",
    "request_type": "Trash/Recycling",
    "request_reason": "Replace Trash Cart",
    "date_created": "2022-03-24T18:53:18.000",
    "date_modified": "2022-03-24T18:53:19.000",
    "request_status": "Pending",
    "responsible_agency": "Department of Sanitation",
    "final_address": "1016 Fourth St",
    "address_councildis": "B",
    "status": "Assigned to Contractor",
    "contractor": "Richards Disposal",
    "rowid": "869583",
    "final_x": "3677413.46344",
    "final_y": "520779.263609",
    "longitude": "-90.08134471221992",
    "latitude": "29.92608564855006",
    "geocoded_column": {
      "latitude": "29.92608564855006",
      "longitude": "-90.08134471221992"
    }
  },
  {
    "service_request": "2022-869581",
    "request_type": "Trash/Recycling",
    "request_reason": "Replace Trash Cart",
    "date_created": "2022-03-24T18:48:43.000",
    "date_modified": "2022-03-24T18:48:44.000",
    "request_status": "Pending",
    "responsible_agency": "Department of Sanitation",
    "final_address": "900 Cherokee St",
    "address_councildis": "A",
    "status": "Assigned to Contractor",
    "contractor": "Richards Disposal",
    "rowid": "869581",
    "final_x": "3662828.32531",
    "final_y": "526215.45267",
    "longitude": "-90.12720534785579",
    "latitude": "29.941463590469013",
    "geocoded_column": {
      "latitude": "29.941463590469013",
      "longitude": "-90.12720534785579"
    }
  },
  {
    "service_request": "2022-869579",
    "request_type": "Trash/Recycling",
    "request_reason": "MIssed Recycling Pick-Up",
    "date_created": "2022-03-24T18:33:23.000",
    "date_modified": "2022-03-24T18:33:24.000",
    "request_status": "Pending",
    "responsible_agency": "Department of Sanitation",
    "final_address": "610 Soraparu St",
    "address_councildis": "B",
    "status": "Assigned to Contractor",
    "contractor": "Richards Disposal",
    "rowid": "869579",
    "final_x": "3679276.94274",
    "final_y": "520225.52908",
    "longitude": "-90.07548143784187",
    "latitude": "29.92450694127319",
    "geocoded_column": {
      "latitude": "29.92450694127319",
      "longitude": "-90.07548143784187"
    }
  },
  {
    "service_request": "2022-869577",
    "request_type": "Property Maintenance",
    "request_reason": "Property Maintenance",
    "date_created": "2022-03-24T18:24:43.000",
    "date_modified": "2022-03-24T18:24:43.000",
    "request_status": "Pending",
    "responsible_agency": "Department of Code Enforcement",
    "final_address": "2232 Harmony St",
    "address_councildis": "B",
    "status": "Pending",
    "rowid": "869577",
    "final_x": "3673732.65019",
    "final_y": "523964.126396",
    "longitude": "-90.09285514926971",
    "latitude": "29.934953064494678",
    "geocoded_column": {
      "latitude": "29.934953064494678",
      "longitude": "-90.09285514926971"
    }
  },
  {
    "service_request": "2022-869575",
    "request_type": "Trash/Recycling",
    "request_reason": "Request a Large Item Pick Up",
    "date_created": "2022-03-24T18:15:39.000",
    "date_modified": "2022-03-24T18:15:39.000",
    "request_status": "Pending",
    "responsible_agency": "Department of Sanitation",
    "final_address": "8630 Zimple St",
    "address_councildis": "A",
    "status": "Assigned to Contractor",
    "contractor": "Richards Disposal",
    "rowid": "869575",
    "final_x": "3660197.18554",
    "final_y": "529458.452289",
    "longitude": "-90.13540537590369",
    "latitude": "29.950456699719044",
    "geocoded_column": {
      "latitude": "29.950456699719044",
      "longitude": "-90.13540537590369"
    }
  },
  {
    "service_request": "2022-869574",
    "request_type": "Health Related Questions",
    "request_reason": "Noise Ordinance Complaint",
    "date_created": "2022-03-24T18:13:19.000",
    "date_modified": "2022-03-24T18:13:19.000",
    "request_status": "Pending",
    "responsible_agency": "Health Department",
    "final_address": "4014 Franklin Ave",
    "address_councildis": "D",
    "status": "Pending",
    "rowid": "869574",
    "final_x": "3686960.18588",
    "final_y": "547610.296594",
    "longitude": "-90.05026013936559",
    "latitude": "29.999571414909248",
    "geocoded_column": {
      "latitude": "29.999571414909248",
      "longitude": "-90.05026013936559"
    }
  },
  {
    "service_request": "2022-869573",
    "request_type": "Property Maintenance",
    "request_reason": "Property Maintenance",
    "date_created": "2022-03-24T18:10:06.000",
    "date_modified": "2022-03-24T18:10:06.000",
    "request_status": "Pending",
    "responsible_agency": "Department of Code Enforcement",
    "final_address": "8630 Zimple St, New Orleans, Louisiana, 70118",
    "address_councildis": "A",
    "status": "Pending",
    "rowid": "869573",
    "final_x": "3660197.18554",
    "final_y": "529458.452289",
    "longitude": "-90.13540537590369",
    "latitude": "29.950456699719044",
    "geocoded_column": {
      "latitude": "29.950456699719044",
      "longitude": "-90.13540537590369"
    }
  },
  {
    "service_request": "2022-869572",
    "request_type": "Abandoned Vehicles",
    "request_reason": "Abandoned/Junk Vehicles",
    "date_created": "2022-03-24T18:02:13.000",
    "date_modified": "2022-03-24T18:02:57.000",
    "request_status": "Pending",
    "responsible_agency": "Department of Public Works",
    "final_address": "1700 BLK Saint Andrew St",
    "address_councildis": "B",
    "status": "Pending",
    "rowid": "869572",
    "final_x": "3677819.46388",
    "final_y": "524599.29967",
    "longitude": "-90.07993117903274",
    "latitude": "29.936577294439694",
    "geocoded_column": {
      "latitude": "29.936577294439694",
      "longitude": "-90.07993117903274"
    }
  },
  {
    "service_request": "2022-869571",
    "request_type": "Abandoned Vehicles",
    "request_reason": "Abandoned/Junk Vehicles",
    "date_created": "2022-03-24T18:01:26.000",
    "date_modified": "2022-03-24T18:02:06.000",
    "request_status": "Pending",
    "responsible_agency": "Department of Public Works",
    "final_address": "1700 BLK Saint Andrew St",
    "address_councildis": "B",
    "status": "Pending",
    "rowid": "869571",
    "final_x": "3677819.46388",
    "final_y": "524599.29967",
    "longitude": "-90.07993117903274",
    "latitude": "29.936577294439694",
    "geocoded_column": {
      "latitude": "29.936577294439694",
      "longitude": "-90.07993117903274"
    }
  },
  {
    "service_request": "2022-869570",
    "request_type": "Trash/Recycling",
    "request_reason": "Missed Trash Pick-Up",
    "date_created": "2022-03-24T18:00:48.000",
    "date_modified": "2022-03-24T18:00:49.000",
    "request_status": "Pending",
    "responsible_agency": "Department of Sanitation",
    "final_address": "1722 St Andrew St",
    "address_councildis": "B",
    "status": "Assigned to Contractor",
    "contractor": "Richards Disposal",
    "rowid": "869570",
    "final_x": "3677679.05307",
    "final_y": "524699.978748",
    "longitude": "-90.08037098635016",
    "latitude": "29.9368583513051",
    "geocoded_column": {
      "latitude": "29.9368583513051",
      "longitude": "-90.08037098635016"
    }
  },
  {
    "service_request": "2022-869569",
    "request_type": "Trash/Recycling",
    "request_reason": "Missed Trash Pick-Up",
    "date_created": "2022-03-24T17:57:31.000",
    "date_modified": "2022-03-24T17:57:31.000",
    "request_status": "Pending",
    "responsible_agency": "Department of Sanitation",
    "final_address": "2922 Annunciation St",
    "address_councildis": "B",
    "status": "Assigned to Contractor",
    "contractor": "Richards Disposal",
    "rowid": "869569",
    "final_x": "3677081.44315",
    "final_y": "519477.096311",
    "longitude": "-90.0824376789126",
    "latitude": "29.922515081239972",
    "geocoded_column": {
      "latitude": "29.922515081239972",
      "longitude": "-90.0824376789126"
    }
  },
  {
    "service_request": "2022-869568",
    "request_type": "Property Maintenance",
    "request_reason": "Property Maintenance",
    "date_created": "2022-03-24T17:51:24.000",
    "date_modified": "2022-03-24T17:51:24.000",
    "request_status": "Pending",
    "responsible_agency": "Department of Code Enforcement",
    "final_address": "2118 N Rampart St",
    "address_councildis": "C",
    "status": "Pending",
    "rowid": "869568",
    "final_x": "3684786.20751",
    "final_y": "535895.472007",
    "longitude": "-90.05753984850514",
    "latitude": "29.96742653883603",
    "geocoded_column": {
      "latitude": "29.96742653883603",
      "longitude": "-90.05753984850514"
    }
  },
  {
    "service_request": "2022-869567",
    "request_type": "Abandoned Vehicles",
    "request_reason": "Abandoned/Junk Vehicles",
    "date_created": "2022-03-24T17:48:05.000",
    "date_modified": "2022-03-24T17:50:46.000",
    "request_status": "Pending",
    "responsible_agency": "Department of Public Works",
    "final_address": "MELPOMENE ST & ANNUNCIATION ST",
    "address_councildis": "B",
    "status": "Pending",
    "rowid": "869567",
    "final_x": "3681272.5",
    "final_y": "524691.68",
    "longitude": "-90.06902658979406",
    "latitude": "29.936726998127217",
    "geocoded_column": {
      "latitude": "29.936726998127217",
      "longitude": "-90.06902658979406"
    }
  },
  {
    "service_request": "2022-869565",
    "request_type": "Trash/Recycling",
    "request_reason": "Stop Trash Service",
    "date_created": "2022-03-24T17:38:58.000",
    "date_modified": "2022-03-24T17:38:59.000",
    "request_status": "Pending",
    "responsible_agency": "Department of Sanitation",
    "final_address": "1519 Pace Blvd",
    "address_councildis": "C",
    "status": "Assigned to Contractor",
    "contractor": "Richards Disposal",
    "rowid": "869565",
    "final_x": "3694296.49482",
    "final_y": "525542.714941",
    "longitude": "-90.02787881739245",
    "latitude": "29.93866548529403",
    "geocoded_column": {
      "latitude": "29.93866548529403",
      "longitude": "-90.02787881739245"
    }
  },
  {
    "service_request": "2022-869564",
    "request_type": "Trash/Recycling",
    "request_reason": "Repair Trash Cart",
    "date_created": "2022-03-24T17:24:01.000",
    "date_modified": "2022-03-24T17:24:01.000",
    "request_status": "Pending",
    "responsible_agency": "Department of Sanitation",
    "final_address": "6112 Stratford Pl",
    "address_councildis": "C",
    "status": "Assigned to Contractor",
    "contractor": "Richards Disposal",
    "rowid": "869564",
    "final_x": "3706480.31639",
    "final_y": "516240.199924",
    "longitude": "-89.98975788035776",
    "latitude": "29.912699516260176",
    "geocoded_column": {
      "latitude": "29.912699516260176",
      "longitude": "-89.98975788035776"
    }
  },
  {
    "service_request": "2022-869563",
    "request_type": "Property Maintenance",
    "request_reason": "Property Maintenance",
    "date_created": "2022-03-24T17:21:59.000",
    "date_modified": "2022-03-24T17:21:59.000",
    "request_status": "Pending",
    "responsible_agency": "Department of Code Enforcement",
    "final_address": "2317 Harmony St",
    "address_councildis": "B",
    "status": "Pending",
    "rowid": "869563",
    "final_x": "3673676.7682",
    "final_y": "524218.074812",
    "longitude": "-90.09302289033769",
    "latitude": "29.93565300345886",
    "geocoded_column": {
      "latitude": "29.93565300345886",
      "longitude": "-90.09302289033769"
    }
  },
  {
    "service_request": "2022-869562",
    "request_type": "Trash/Recycling",
    "request_reason": "Replace Trash Cart",
    "date_created": "2022-03-24T17:21:48.000",
    "date_modified": "2022-03-24T17:21:49.000",
    "request_status": "Pending",
    "responsible_agency": "Department of Sanitation",
    "final_address": "1700 N Dorgenois St",
    "address_councildis": "D",
    "status": "Assigned to Contractor",
    "contractor": "Metro Disposal",
    "rowid": "869562",
    "final_x": "3680057.35912",
    "final_y": "540385.571979",
    "longitude": "-90.07231757910152",
    "latitude": "29.97991669115447",
    "geocoded_column": {
      "latitude": "29.97991669115447",
      "longitude": "-90.07231757910152"
    }
  },
  {
    "service_request": "2022-869561",
    "request_type": "Trash/Recycling",
    "request_reason": "Missed Trash Pick-Up",
    "date_created": "2022-03-24T17:17:10.000",
    "date_modified": "2022-03-24T17:17:11.000",
    "request_status": "Pending",
    "responsible_agency": "Department of Sanitation",
    "final_address": "2419 Carondelet St",
    "address_councildis": "B",
    "status": "Assigned to Contractor",
    "contractor": "Richards Disposal",
    "rowid": "869561",
    "final_x": "3676554.22427",
    "final_y": "523452.236411",
    "longitude": "-90.08396508126619",
    "latitude": "29.93346124097848",
    "geocoded_column": {
      "latitude": "29.93346124097848",
      "longitude": "-90.08396508126619"
    }
  },
  {
    "service_request": "2022-869560",
    "request_type": "Traffic Signals/Signs/Striping/Streetlights",
    "request_reason": "Additional signage",
    "date_created": "2022-03-24T17:14:41.000",
    "date_modified": "2022-03-24T17:14:41.000",
    "request_status": "Pending",
    "responsible_agency": "Department of Public Works",
    "final_address": "BELFAST ST & DANTE ST",
    "address_councildis": "A",
    "status": "Pending",
    "rowid": "869560",
    "final_x": "3665057.1",
    "final_y": "532850.08",
    "longitude": "-90.119946823525",
    "latitude": "29.959641971270994",
    "geocoded_column": {
      "latitude": "29.959641971270994",
      "longitude": "-90.119946823525"
    }
  },
  {
    "service_request": "2022-869559",
    "request_type": "Trash/Recycling",
    "request_reason": "Missed Trash Pick-Up",
    "date_created": "2022-03-24T17:10:11.000",
    "date_modified": "2022-03-24T17:10:12.000",
    "request_status": "Pending",
    "responsible_agency": "Department of Sanitation",
    "final_address": "3317 Dryades St",
    "address_councildis": "B",
    "status": "Assigned to Contractor",
    "contractor": "Richards Disposal",
    "rowid": "869559",
    "final_x": "3673973.95508",
    "final_y": "522678.133242",
    "longitude": "-90.0921373282073",
    "latitude": "29.931409815322414",
    "geocoded_column": {
      "latitude": "29.931409815322414",
      "longitude": "-90.0921373282073"
    }
  },
  {
    "service_request": "2022-869558",
    "request_type": "Trash/Recycling",
    "request_reason": "Repair Trash Cart",
    "date_created": "2022-03-24T17:06:18.000",
    "date_modified": "2022-03-24T17:06:19.000",
    "request_status": "Pending",
    "responsible_agency": "Department of Sanitation",
    "final_address": "1441 Eleonore St",
    "address_councildis": "A",
    "status": "Assigned to Contractor",
    "contractor": "Richards Disposal",
    "rowid": "869558",
    "final_x": "3665781.33408",
    "final_y": "521342.836601",
    "longitude": "-90.11804524522694",
    "latitude": "29.927979647159326",
    "geocoded_column": {
      "latitude": "29.927979647159326",
      "longitude": "-90.11804524522694"
    }
  },
  {
    "service_request": "2022-869557",
    "request_type": "Trash/Recycling",
    "request_reason": "Request a Large Item Pick Up",
    "date_created": "2022-03-24T16:58:07.000",
    "date_modified": "2022-03-24T16:58:08.000",
    "request_status": "Pending",
    "responsible_agency": "Department of Sanitation",
    "final_address": "638 Eleonore St",
    "address_councildis": "A",
    "status": "Assigned to Contractor",
    "contractor": "Richards Disposal",
    "rowid": "869557",
    "final_x": "3665107.16839",
    "final_y": "518715.468727",
    "longitude": "-90.120261246377",
    "latitude": "29.920774854551194",
    "geocoded_column": {
      "latitude": "29.920774854551194",
      "longitude": "-90.120261246377"
    }
  },
  {
    "service_request": "2022-869556",
    "request_type": "Traffic Signals/Signs/Striping/Streetlights",
    "request_reason": "Street Name Sign Damaged or Missing",
    "date_created": "2022-03-24T16:53:15.000",
    "date_modified": "2022-03-24T16:53:15.000",
    "request_status": "Pending",
    "responsible_agency": "Department of Public Works",
    "final_address": "70131, New Orleans, Louisiana",
    "address_councildis": "C",
    "status": "Pending",
    "rowid": "869556",
    "final_x": "3702250.41796",
    "final_y": "522701.175738",
    "longitude": "-90.0028717714998",
    "latitude": "29.930600676170442",
    "geocoded_column": {
      "latitude": "29.930600676170442",
      "longitude": "-90.0028717714998"
    }
  },
  {
    "service_request": "2022-869555",
    "request_type": "Property Maintenance",
    "request_reason": "Property Maintenance",
    "date_created": "2022-03-24T16:53:11.000",
    "date_modified": "2022-03-24T16:53:11.000",
    "request_status": "Pending",
    "responsible_agency": "Department of Code Enforcement",
    "final_address": "3665 General De Gaulle Dr",
    "address_councildis": "C",
    "status": "Pending",
    "rowid": "869555",
    "final_x": "3696967.05667",
    "final_y": "520059.98028",
    "longitude": "-90.01964606392468",
    "latitude": "29.923505915850658",
    "geocoded_column": {
      "latitude": "29.923505915850658",
      "longitude": "-90.01964606392468"
    }
  },
  {
    "service_request": "2022-869554",
    "request_type": "Roads/Drainage",
    "request_reason": "Street Subsidence (Sinking)",
    "date_created": "2022-03-24T16:48:08.000",
    "date_modified": "2022-03-24T16:48:08.000",
    "request_status": "Pending",
    "responsible_agency": "Department of Public Works",
    "final_address": "GENERAL MEYER AVE & RIVER OAKS DR",
    "address_councildis": "C",
    "status": "Pending",
    "rowid": "869554",
    "final_x": "3701621.2",
    "final_y": "523454.78",
    "longitude": "-90.00483052329017",
    "latitude": "29.932692900104435",
    "geocoded_column": {
      "latitude": "29.932692900104435",
      "longitude": "-90.00483052329017"
    }
  },
  {
    "service_request": "2022-869553",
    "request_type": "Trash/Recycling",
    "request_reason": "Illegal Dumping",
    "date_created": "2022-03-24T16:47:20.000",
    "date_modified": "2022-03-24T16:47:20.000",
    "request_status": "Pending",
    "responsible_agency": "Department of Sanitation",
    "final_address": "GENERAL DE GAULLE DR & MARR AVE",
    "address_councildis": "C",
    "status": "Pending",
    "rowid": "869553",
    "final_x": "3691669.9",
    "final_y": "522537.68",
    "longitude": "-90.03627861998204",
    "latitude": "29.930484682291205",
    "geocoded_column": {
      "latitude": "29.930484682291205",
      "longitude": "-90.03627861998204"
    }
  },
  {
    "service_request": "2022-869552",
    "request_type": "Trash/Recycling",
    "request_reason": "Repair Trash Cart",
    "date_created": "2022-03-24T16:45:16.000",
    "date_modified": "2022-03-24T16:45:16.000",
    "request_status": "Pending",
    "responsible_agency": "Department of Sanitation",
    "final_address": "212 River Oaks Dr",
    "address_councildis": "C",
    "status": "Assigned to Contractor",
    "contractor": "Richards Disposal",
    "rowid": "869552",
    "final_x": "3701634.1393",
    "final_y": "523002.901691",
    "longitude": "-90.00480621505365",
    "latitude": "29.931449979315712",
    "geocoded_column": {
      "latitude": "29.931449979315712",
      "longitude": "-90.00480621505365"
    }
  },
  {
    "service_request": "2022-869551",
    "request_type": "Trash/Recycling",
    "request_reason": "Request a Large Item Pick Up",
    "date_created": "2022-03-24T16:45:09.000",
    "date_modified": "2022-03-24T16:45:10.000",
    "request_status": "Pending",
    "responsible_agency": "Department of Sanitation",
    "final_address": "4903 S Claiborne Ave",
    "address_councildis": "B",
    "status": "Assigned to Contractor",
    "contractor": "Richards Disposal",
    "rowid": "869551",
    "final_x": "3669159.13697",
    "final_y": "525958.340285",
    "longitude": "-90.10722636086832",
    "latitude": "29.94057186085598",
    "geocoded_column": {
      "latitude": "29.94057186085598",
      "longitude": "-90.10722636086832"
    }
  },
  {
    "service_request": "2022-869550",
    "request_type": "Abandoned Vehicles",
    "request_reason": "Abandoned/Junk Vehicles",
    "date_created": "2022-03-24T16:40:26.000",
    "date_modified": "2022-03-24T16:42:18.000",
    "request_status": "Pending",
    "responsible_agency": "Department of Public Works",
    "final_address": "1200 BLK N Derbigny St",
    "address_councildis": "D",
    "status": "Pending",
    "rowid": "869550",
    "final_x": "3680653.27908",
    "final_y": "536381.627484",
    "longitude": "-90.07057478345769",
    "latitude": "29.96888918202236",
    "geocoded_column": {
      "latitude": "29.96888918202236",
      "longitude": "-90.07057478345769"
    }
  },
  {
    "service_request": "2022-869549",
    "request_type": "Abandoned Vehicles",
    "request_reason": "Abandoned/Junk Vehicles",
    "date_created": "2022-03-24T16:38:28.000",
    "date_modified": "2022-03-24T16:38:28.000",
    "request_status": "Pending",
    "responsible_agency": "Department of Public Works",
    "final_address": "3668 Pin Oak Ave",
    "address_councildis": "C",
    "status": "Pending",
    "rowid": "869549",
    "final_x": "3704146.53297",
    "final_y": "514694.847475",
    "longitude": "-89.99718078865575",
    "latitude": "29.908525364860935",
    "geocoded_column": {
      "latitude": "29.908525364860935",
      "longitude": "-89.99718078865575"
    }
  },
  {
    "service_request": "2022-869548",
    "request_type": "Trash/Recycling",
    "request_reason": "MIssed Recycling Pick-Up",
    "date_created": "2022-03-24T16:38:00.000",
    "date_modified": "2022-03-24T16:38:01.000",
    "request_status": "Pending",
    "responsible_agency": "Department of Sanitation",
    "final_address": "6022 Pitt St",
    "address_councildis": "A",
    "status": "Assigned to Contractor",
    "contractor": "Richards Disposal",
    "rowid": "869548",
    "final_x": "3665083.62919",
    "final_y": "521135.197945",
    "longitude": "-90.12025468730062",
    "latitude": "29.927429035267803",
    "geocoded_column": {
      "latitude": "29.927429035267803",
      "longitude": "-90.12025468730062"
    }
  },
  {
    "service_request": "2022-869547",
    "request_type": "Abandoned Vehicles",
    "request_reason": "Abandoned/Junk Vehicles",
    "date_created": "2022-03-24T16:34:12.000",
    "date_modified": "2022-03-24T16:34:12.000",
    "request_status": "Pending",
    "responsible_agency": "Department of Public Works",
    "final_address": "3859 S Inwood Ave",
    "address_councildis": "C",
    "status": "Pending",
    "rowid": "869547",
    "final_x": "3704983.57604",
    "final_y": "514196.864499",
    "longitude": "-89.99455733621919",
    "latitude": "29.907129216790327",
    "geocoded_column": {
      "latitude": "29.907129216790327",
      "longitude": "-89.99455733621919"
    }
  },
  {
    "service_request": "2022-869546",
    "request_type": "Property Maintenance",
    "request_reason": "Property Maintenance",
    "date_created": "2022-03-24T16:32:56.000",
    "date_modified": "2022-03-24T16:32:56.000",
    "request_status": "Pending",
    "responsible_agency": "Department of Code Enforcement",
    "final_address": "6400 Pauline Dr",
    "address_councildis": "D",
    "status": "Pending",
    "rowid": "869546",
    "final_x": "3691109.19561",
    "final_y": "557172.768987",
    "longitude": "-90.03681151415633",
    "latitude": "30.02573627238461",
    "geocoded_column": {
      "latitude": "30.02573627238461",
      "longitude": "-90.03681151415633"
    }
  },
  {
    "service_request": "2022-869545",
    "request_type": "Abandoned Vehicles",
    "request_reason": "Abandoned/Junk Vehicles",
    "date_created": "2022-03-24T16:30:18.000",
    "date_modified": "2022-03-24T16:30:18.000",
    "request_status": "Pending",
    "responsible_agency": "Department of Public Works",
    "final_address": "3557 Red Oak Ct",
    "address_councildis": "C",
    "status": "Pending",
    "rowid": "869545",
    "final_x": "3703075.07511",
    "final_y": "513555.203634",
    "longitude": "-90.0006042853977",
    "latitude": "29.905426043154126",
    "geocoded_column": {
      "latitude": "29.905426043154126",
      "longitude": "-90.0006042853977"
    }
  },
  {
    "service_request": "2022-869544",
    "request_type": "Trash/Recycling",
    "request_reason": "Missed Trash Pick-Up",
    "date_created": "2022-03-24T16:24:51.000",
    "date_modified": "2022-03-24T16:24:51.000",
    "request_status": "Pending",
    "responsible_agency": "Department of Sanitation",
    "final_address": "5540 Bellaire Dr",
    "address_councildis": "A",
    "status": "Assigned to Contractor",
    "contractor": "Metro Disposal",
    "rowid": "869544",
    "final_x": "3663999.49901",
    "final_y": "544577.290639",
    "longitude": "-90.12289530430348",
    "latitude": "29.991918650774494",
    "geocoded_column": {
      "latitude": "29.991918650774494",
      "longitude": "-90.12289530430348"
    }
  },
  {
    "service_request": "2022-869543",
    "request_type": "Trash/Recycling",
    "request_reason": "Illegal Dumping",
    "date_created": "2022-03-24T16:24:19.000",
    "date_modified": "2022-03-24T16:24:19.000",
    "request_status": "Pending",
    "responsible_agency": "Department of Sanitation",
    "final_address": "2413 Burgundy St",
    "address_councildis": "C",
    "status": "Pending",
    "rowid": "869543",
    "final_x": "3685962.30934",
    "final_y": "535686.119367",
    "longitude": "-90.05383308864911",
    "latitude": "29.96681483299035",
    "geocoded_column": {
      "latitude": "29.96681483299035",
      "longitude": "-90.05383308864911"
    }
  },
  {
    "service_request": "2022-869542",
    "request_type": "Safety & Permits",
    "request_reason": "Licenses & Permits",
    "date_created": "2022-03-24T16:20:59.000",
    "date_modified": "2022-03-24T16:20:59.000",
    "request_status": "Pending",
    "responsible_agency": "Safety and Permits",
    "final_address": "2623 Banks St",
    "address_councildis": "B",
    "status": "Pending",
    "rowid": "869542",
    "final_x": "3674918.31573",
    "final_y": "534005.212741",
    "longitude": "-90.08876770176484",
    "latitude": "29.96252737980708",
    "geocoded_column": {
      "latitude": "29.96252737980708",
      "longitude": "-90.08876770176484"
    }
  },
  {
    "service_request": "2022-869541",
    "request_type": "Roads/Drainage",
    "request_reason": "Leaking Hydrant",
    "date_created": "2022-03-24T16:19:16.000",
    "date_modified": "2022-03-24T16:19:16.000",
    "request_status": "Pending",
    "responsible_agency": "Department of Public Works",
    "final_address": "ST JOSEPH ST & FULTON ST",
    "address_councildis": "B",
    "status": "Pending",
    "rowid": "869541",
    "final_x": "3682452.5",
    "final_y": "526924.58",
    "longitude": "-90.06522326318564",
    "latitude": "29.942830874061134",
    "geocoded_column": {
      "latitude": "29.942830874061134",
      "longitude": "-90.06522326318564"
    }
  },
  {
    "service_request": "2022-869540",
    "request_type": "Trash/Recycling",
    "request_reason": "MIssed Recycling Pick-Up",
    "date_created": "2022-03-24T16:15:58.000",
    "date_modified": "2022-03-24T16:15:59.000",
    "request_status": "Pending",
    "responsible_agency": "Department of Sanitation",
    "final_address": "5000 BLK Willow St",
    "address_councildis": "B",
    "status": "Assigned to Contractor",
    "contractor": "Richards Disposal",
    "rowid": "869540",
    "final_x": "3668710.25441",
    "final_y": "525317.926514",
    "longitude": "-90.10866517277418",
    "latitude": "29.93882412936591",
    "geocoded_column": {
      "latitude": "29.93882412936591",
      "longitude": "-90.10866517277418"
    }
  },
  {
    "service_request": "2022-869539",
    "request_type": "Trash/Recycling",
    "request_reason": "Missed Trash Pick-Up",
    "date_created": "2022-03-24T16:14:56.000",
    "date_modified": "2022-03-24T16:14:56.000",
    "request_status": "Pending",
    "responsible_agency": "Department of Sanitation",
    "final_address": "5000 BLK Willow St",
    "address_councildis": "B",
    "status": "Assigned to Contractor",
    "contractor": "Richards Disposal",
    "rowid": "869539",
    "final_x": "3668710.25441",
    "final_y": "525317.926514",
    "longitude": "-90.10866517277418",
    "latitude": "29.93882412936591",
    "geocoded_column": {
      "latitude": "29.93882412936591",
      "longitude": "-90.10866517277418"
    }
  },
  {
    "service_request": "2022-869538",
    "request_type": "Trash/Recycling",
    "request_reason": "Repair Trash Cart",
    "date_created": "2022-03-24T16:13:54.000",
    "date_modified": "2022-03-24T16:13:55.000",
    "request_status": "Pending",
    "responsible_agency": "Department of Sanitation",
    "final_address": "777 Walker St",
    "address_councildis": "A",
    "status": "Assigned to Contractor",
    "contractor": "Metro Disposal",
    "rowid": "869538",
    "final_x": "3669746.57594",
    "final_y": "553994.633496",
    "longitude": "-90.10442238744874",
    "latitude": "30.01764486917856",
    "geocoded_column": {
      "latitude": "30.01764486917856",
      "longitude": "-90.10442238744874"
    }
  },
  {
    "service_request": "2022-869537",
    "request_type": "Parks & Parkways",
    "request_reason": "Request Tree Service (Right of Way/Public Property)",
    "date_created": "2022-03-24T16:10:59.000",
    "date_modified": "2022-03-24T16:10:59.000",
    "request_status": "Pending",
    "responsible_agency": "Department of Parks & Parkway",
    "final_address": "7522 Oak St",
    "address_councildis": "A",
    "status": "Pending",
    "rowid": "869537",
    "final_x": "3663358.40135",
    "final_y": "527063.733502",
    "longitude": "-90.12550355524166",
    "latitude": "29.94378073896147",
    "geocoded_column": {
      "latitude": "29.94378073896147",
      "longitude": "-90.12550355524166"
    }
  },
  {
    "service_request": "2022-869536",
    "request_type": "Trash/Recycling",
    "request_reason": "Missed Trash Pick-Up",
    "date_created": "2022-03-24T16:09:14.000",
    "date_modified": "2022-03-24T16:09:15.000",
    "request_status": "Pending",
    "responsible_agency": "Department of Sanitation",
    "final_address": "5538 Bellaire Dr",
    "address_councildis": "A",
    "status": "Assigned to Contractor",
    "contractor": "Metro Disposal",
    "rowid": "869536",
    "final_x": "3663995.47341",
    "final_y": "544511.016591",
    "longitude": "-90.12291023185342",
    "latitude": "29.9917365365538",
    "geocoded_column": {
      "latitude": "29.9917365365538",
      "longitude": "-90.12291023185342"
    }
  },
  {
    "service_request": "2022-869535",
    "request_type": "Roads/Drainage",
    "request_reason": "Leaking Hydrant",
    "date_created": "2022-03-24T16:04:30.000",
    "date_modified": "2022-03-24T16:19:42.000",
    "request_status": "Pending",
    "responsible_agency": "Department of Public Works",
    "final_address": "MAGAZINE ST & ST JOSEPH ST",
    "address_councildis": "B",
    "status": "Pending",
    "rowid": "869535",
    "final_x": "3681047.5",
    "final_y": "527271.48",
    "longitude": "-90.06964710292928",
    "latitude": "29.943827413603504",
    "geocoded_column": {
      "latitude": "29.943827413603504",
      "longitude": "-90.06964710292928"
    }
  },
  {
    "service_request": "2022-869534",
    "request_type": "Trash/Recycling",
    "request_reason": "Missed Trash Pick-Up",
    "date_created": "2022-03-24T16:03:41.000",
    "date_modified": "2022-03-24T16:03:42.000",
    "request_status": "Pending",
    "responsible_agency": "Department of Sanitation",
    "final_address": "2617 Laurel St",
    "address_councildis": "B",
    "status": "Assigned to Contractor",
    "contractor": "Richards Disposal",
    "rowid": "869534",
    "final_x": "3677836.89307",
    "final_y": "520493.393464",
    "longitude": "-90.08001793779636",
    "latitude": "29.925286870251444",
    "geocoded_column": {
      "latitude": "29.925286870251444",
      "longitude": "-90.08001793779636"
    }
  },
  {
    "service_request": "2022-869533",
    "request_type": "Trash/Recycling",
    "request_reason": "MIssed Recycling Pick-Up",
    "date_created": "2022-03-24T15:58:40.000",
    "date_modified": "2022-03-24T15:58:41.000",
    "request_status": "Pending",
    "responsible_agency": "Department of Sanitation",
    "final_address": "8232 S Claiborne Ave",
    "address_councildis": "A",
    "status": "Assigned to Contractor",
    "contractor": "Richards Disposal",
    "rowid": "869533",
    "final_x": "3664366.44557",
    "final_y": "531833.990083",
    "longitude": "-90.12216167698732",
    "latitude": "29.956868147452884",
    "geocoded_column": {
      "latitude": "29.956868147452884",
      "longitude": "-90.12216167698732"
    }
  },
  {
    "service_request": "2022-869532",
    "request_type": "Trash/Recycling",
    "request_reason": "Missed Trash Pick-Up",
    "date_created": "2022-03-24T15:56:32.000",
    "date_modified": "2022-03-24T16:45:18.000",
    "request_status": "Pending",
    "responsible_agency": "Department of Sanitation",
    "final_address": "New Orleans,LA",
    "address_councildis": "B",
    "status": "Assigned to Contractor",
    "contractor": "Richards Disposal",
    "rowid": "869532",
    "final_x": "3676915.01384",
    "final_y": "524368.98246",
    "longitude": "-90.0827945028432",
    "latitude": "29.935971170604425",
    "geocoded_column": {
      "latitude": "29.935971170604425",
      "longitude": "-90.0827945028432"
    }
  },
  {
    "service_request": "2022-869531",
    "request_type": "Trash/Recycling",
    "request_reason": "Order Trash Cart",
    "date_created": "2022-03-24T15:52:57.000",
    "date_modified": "2022-03-24T15:52:58.000",
    "request_status": "Pending",
    "responsible_agency": "Department of Sanitation",
    "final_address": "887 Robert E Lee Blvd",
    "address_councildis": "D",
    "status": "Assigned to Contractor",
    "contractor": "Metro Disposal",
    "rowid": "869531",
    "final_x": "3670601.28999",
    "final_y": "554679.929048",
    "longitude": "-90.10169854557397",
    "latitude": "30.01950395498103",
    "geocoded_column": {
      "latitude": "30.01950395498103",
      "longitude": "-90.10169854557397"
    }
  },
  {
    "service_request": "2022-869530",
    "request_type": "Roads/Drainage",
    "request_reason": "Pothole",
    "date_created": "2022-03-24T15:49:13.000",
    "date_modified": "2022-03-24T15:49:13.000",
    "request_status": "Pending",
    "responsible_agency": "Department of Public Works",
    "final_address": "814 St Philip St",
    "address_councildis": "C",
    "status": "Pending",
    "rowid": "869530",
    "final_x": "3682810.28584",
    "final_y": "533615.960389",
    "longitude": "-90.06385959143638",
    "latitude": "29.961219010116395",
    "geocoded_column": {
      "latitude": "29.961219010116395",
      "longitude": "-90.06385959143638"
    }
  },
  {
    "service_request": "2022-869529",
    "request_type": "Abandoned Vehicles",
    "request_reason": "Abandoned/Junk Vehicles",
    "date_created": "2022-03-24T15:42:01.000",
    "date_modified": "2022-03-24T15:42:01.000",
    "request_status": "Pending",
    "responsible_agency": "Department of Public Works",
    "final_address": "5842 Whipple St",
    "address_councildis": "E",
    "status": "Pending",
    "rowid": "869529",
    "final_x": "3700506.71985",
    "final_y": "538889.150729",
    "longitude": "-90.0077851557829",
    "latitude": "29.975167425542114",
    "geocoded_column": {
      "latitude": "29.975167425542114",
      "longitude": "-90.0077851557829"
    }
  },
  {
    "service_request": "2022-869528",
    "request_type": "Trash/Recycling",
    "request_reason": "Replace Trash Cart",
    "date_created": "2022-03-24T15:37:54.000",
    "date_modified": "2022-03-24T15:37:55.000",
    "request_status": "Pending",
    "responsible_agency": "Department of Sanitation",
    "final_address": "1111 Teche St",
    "address_councildis": "C",
    "status": "Assigned to Contractor",
    "contractor": "Richards Disposal",
    "rowid": "869528",
    "final_x": "3686558.18889",
    "final_y": "527421.407487",
    "longitude": "-90.05224311274613",
    "latitude": "29.94407140355857",
    "geocoded_column": {
      "latitude": "29.94407140355857",
      "longitude": "-90.05224311274613"
    }
  },
  {
    "service_request": "2022-869527",
    "request_type": "Abandoned Vehicles",
    "request_reason": "Abandoned/Junk Vehicles",
    "date_created": "2022-03-24T15:36:39.000",
    "date_modified": "2022-03-24T15:36:39.000",
    "request_status": "Pending",
    "responsible_agency": "Department of Public Works",
    "final_address": "8201 Apple St",
    "address_councildis": "A",
    "status": "Pending",
    "rowid": "869527",
    "final_x": "3665095.90445",
    "final_y": "532390.880387",
    "longitude": "-90.11983964407767",
    "latitude": "29.95837819253992",
    "geocoded_column": {
      "latitude": "29.95837819253992",
      "longitude": "-90.11983964407767"
    }
  },
  {
    "service_request": "2022-869526",
    "request_type": "Trash/Recycling",
    "request_reason": "Missed Trash Pick-Up",
    "date_created": "2022-03-24T15:35:52.000",
    "date_modified": "2022-03-24T15:35:53.000",
    "request_status": "Pending",
    "responsible_agency": "Department of Sanitation",
    "final_address": "7210 Bunker Hill Rd",
    "address_councildis": "E",
    "status": "Assigned to Contractor",
    "contractor": "Metro Disposal",
    "rowid": "869526",
    "final_x": "3705550.75223",
    "final_y": "561043.548766",
    "longitude": "-89.99103525386946",
    "latitude": "30.035922188704774",
    "geocoded_column": {
      "latitude": "30.035922188704774",
      "longitude": "-89.99103525386946"
    }
  },
  {
    "service_request": "2022-869525",
    "request_type": "Trash/Recycling",
    "request_reason": "MIssed Recycling Pick-Up",
    "date_created": "2022-03-24T15:30:26.000",
    "date_modified": "2022-03-24T15:30:28.000",
    "request_status": "Pending",
    "responsible_agency": "Department of Sanitation",
    "final_address": "9015 Belfast St",
    "address_councildis": "A",
    "status": "Assigned to Contractor",
    "contractor": "Richards Disposal",
    "rowid": "869525",
    "final_x": "3663146.99898",
    "final_y": "534634.328198",
    "longitude": "-90.12591914378343",
    "latitude": "29.964603550230148",
    "geocoded_column": {
      "latitude": "29.964603550230148",
      "longitude": "-90.12591914378343"
    }
  },
  {
    "service_request": "2022-869524",
    "request_type": "Trash/Recycling",
    "request_reason": "Return Trash Cart",
    "date_created": "2022-03-24T15:28:10.000",
    "date_modified": "2022-03-24T16:00:42.000",
    "request_status": "Pending",
    "responsible_agency": "Department of Sanitation",
    "final_address": "New Orleans,LA",
    "address_councildis": "B",
    "status": "Assigned to Contractor",
    "contractor": "Richards Disposal",
    "rowid": "869524",
    "final_x": "3673285.2123",
    "final_y": "518601.182071",
    "longitude": "-90.09445076425051",
    "latitude": "29.920220005689924",
    "geocoded_column": {
      "latitude": "29.920220005689924",
      "longitude": "-90.09445076425051"
    }
  },
  {
    "service_request": "2022-869523",
    "request_type": "Traffic Signals/Signs/Striping/Streetlights",
    "request_reason": "Street Light Outage/Malfunction",
    "date_created": "2022-03-24T15:27:50.000",
    "date_modified": "2022-03-24T15:27:51.000",
    "request_status": "Pending",
    "responsible_agency": "Department of Public Works",
    "final_address": "3521 Bennett St",
    "address_councildis": "C",
    "status": "Pending",
    "contractor": "Royal Engineering",
    "rowid": "869523",
    "final_x": "3710325.93662",
    "final_y": "517704.28863",
    "longitude": "-89.97756544349701",
    "latitude": "29.916600699576616",
    "geocoded_column": {
      "latitude": "29.916600699576616",
      "longitude": "-89.97756544349701"
    }
  },
  {
    "service_request": "2022-869521",
    "request_type": "Traffic Signals/Signs/Striping/Streetlights",
    "request_reason": "Street Light Outage/Malfunction",
    "date_created": "2022-03-24T15:27:10.000",
    "date_modified": "2022-03-24T15:27:11.000",
    "request_status": "Pending",
    "responsible_agency": "Department of Public Works",
    "final_address": "BERKLEY DR & BENNETT ST",
    "address_councildis": "C",
    "status": "Pending",
    "contractor": "Royal Engineering",
    "rowid": "869521",
    "final_x": "3710399.6",
    "final_y": "517860.88",
    "longitude": "-89.97732708475743",
    "latitude": "29.91702887425745",
    "geocoded_column": {
      "latitude": "29.91702887425745",
      "longitude": "-89.97732708475743"
    }
  },
  {
    "service_request": "2022-869520",
    "request_type": "Traffic Signals/Signs/Striping/Streetlights",
    "request_reason": "Street Light Outage/Malfunction",
    "date_created": "2022-03-24T15:26:36.000",
    "date_modified": "2022-03-24T15:26:37.000",
    "request_status": "Pending",
    "responsible_agency": "Department of Public Works",
    "final_address": "TULLIS DR & BENNETT ST",
    "address_councildis": "C",
    "status": "Pending",
    "contractor": "Royal Engineering",
    "rowid": "869520",
    "final_x": "3710360.2",
    "final_y": "517467.18",
    "longitude": "-89.97746615118197",
    "latitude": "29.91594761898075",
    "geocoded_column": {
      "latitude": "29.91594761898075",
      "longitude": "-89.97746615118197"
    }
  },
  {
    "service_request": "2022-869519",
    "request_type": "Traffic Signals/Signs/Striping/Streetlights",
    "request_reason": "Street Light Outage/Malfunction",
    "date_created": "2022-03-24T15:26:04.000",
    "date_modified": "2022-03-24T15:26:05.000",
    "request_status": "Pending",
    "responsible_agency": "Department of Public Works",
    "final_address": "3620 Bennett St",
    "address_councildis": "C",
    "status": "Pending",
    "contractor": "Royal Engineering",
    "rowid": "869519",
    "final_x": "3710383.9651",
    "final_y": "517176.367285",
    "longitude": "-89.9774020021709",
    "latitude": "29.915147212384024",
    "geocoded_column": {
      "latitude": "29.915147212384024",
      "longitude": "-89.9774020021709"
    }
  },
  {
    "service_request": "2022-869518",
    "request_type": "Traffic Signals/Signs/Striping/Streetlights",
    "request_reason": "Street Light Outage/Malfunction",
    "date_created": "2022-03-24T15:22:53.000",
    "date_modified": "2022-03-24T15:22:54.000",
    "request_status": "Pending",
    "responsible_agency": "Department of Public Works",
    "final_address": "3601 Bennett St",
    "address_councildis": "C",
    "status": "Pending",
    "contractor": "Royal Engineering",
    "rowid": "869518",
    "final_x": "3710271.00318",
    "final_y": "516966.462005",
    "longitude": "-89.97776638561095",
    "latitude": "29.914573721244093",
    "geocoded_column": {
      "latitude": "29.914573721244093",
      "longitude": "-89.97776638561095"
    }
  },
  {
    "service_request": "2022-869517",
    "request_type": "Trash/Recycling",
    "request_reason": "Repair Trash Cart",
    "date_created": "2022-03-24T15:22:32.000",
    "date_modified": "2022-03-24T15:22:32.000",
    "request_status": "Pending",
    "responsible_agency": "Department of Sanitation",
    "final_address": "2619 S Carrollton Ave",
    "address_councildis": "A",
    "status": "Assigned to Contractor",
    "contractor": "Richards Disposal",
    "rowid": "869517",
    "final_x": "3665607.4016",
    "final_y": "532126.433795",
    "longitude": "-90.11823332234601",
    "latitude": "29.957636146114666",
    "geocoded_column": {
      "latitude": "29.957636146114666",
      "longitude": "-90.11823332234601"
    }
  },
  {
    "service_request": "2022-869516",
    "request_type": "Parks & Parkways",
    "request_reason": "Request Grass Cutting Service (City Owned Property)",
    "date_created": "2022-03-24T15:19:34.000",
    "date_modified": "2022-03-24T15:19:34.000",
    "request_status": "Pending",
    "responsible_agency": "Department of Parks & Parkway",
    "final_address": "3660 Bennett St",
    "address_councildis": "C",
    "status": "Pending",
    "rowid": "869516",
    "final_x": "3710363.15601",
    "final_y": "516947.060789",
    "longitude": "-89.97747624688263",
    "latitude": "29.914517376667195",
    "geocoded_column": {
      "latitude": "29.914517376667195",
      "longitude": "-89.97747624688263"
    }
  },
  {
    "service_request": "2022-869515",
    "request_type": "Trash/Recycling",
    "request_reason": "Replace Trash Cart",
    "date_created": "2022-03-24T15:14:15.000",
    "date_modified": "2022-03-24T15:14:16.000",
    "request_status": "Pending",
    "responsible_agency": "Department of Sanitation",
    "final_address": "1519 Eleonore St",
    "address_councildis": "A",
    "status": "Assigned to Contractor",
    "contractor": "Richards Disposal",
    "rowid": "869515",
    "final_x": "3665910.68672",
    "final_y": "521879.760122",
    "longitude": "-90.11761892409736",
    "latitude": "29.929452244010314",
    "geocoded_column": {
      "latitude": "29.929452244010314",
      "longitude": "-90.11761892409736"
    }
  },
  {
    "service_request": "2022-869514",
    "request_type": "Trash/Recycling",
    "request_reason": "Request a Large Item Pick Up",
    "date_created": "2022-03-24T15:12:46.000",
    "date_modified": "2022-03-24T15:12:46.000",
    "request_status": "Pending",
    "responsible_agency": "Department of Sanitation",
    "final_address": "4620 Carondelet St, New Orleans, Louisiana, 70115",
    "address_councildis": "B",
    "status": "Assigned to Contractor",
    "contractor": "Richards Disposal",
    "rowid": "869514",
    "final_x": "3669882.44385",
    "final_y": "521073.911545",
    "longitude": "-90.1051080505846",
    "latitude": "29.92711995013498",
    "geocoded_column": {
      "latitude": "29.92711995013498",
      "longitude": "-90.1051080505846"
    }
  },
  {
    "service_request": "2022-869513",
    "request_type": "Trash/Recycling",
    "request_reason": "Request a Large Item Pick Up",
    "date_created": "2022-03-24T15:11:38.000",
    "date_modified": "2022-03-24T15:11:39.000",
    "request_status": "Pending",
    "responsible_agency": "Department of Sanitation",
    "final_address": "1933 Chippewa St",
    "address_councildis": "B",
    "status": "Assigned to Contractor",
    "contractor": "Richards Disposal",
    "rowid": "869513",
    "final_x": "3680645.37877",
    "final_y": "521560.036281",
    "longitude": "-90.07111534852787",
    "latitude": "29.92813502224652",
    "geocoded_column": {
      "latitude": "29.92813502224652",
      "longitude": "-90.07111534852787"
    }
  },
  {
    "service_request": "2022-869512",
    "request_type": "Safety & Permits",
    "request_reason": "Licenses & Permits",
    "date_created": "2022-03-24T15:09:03.000",
    "date_modified": "2022-03-24T15:09:03.000",
    "request_status": "Pending",
    "responsible_agency": "Safety and Permits",
    "final_address": "421 Burgundy St",
    "address_councildis": "C",
    "status": "Pending",
    "rowid": "869512",
    "final_x": "3681117.04623",
    "final_y": "532398.014531",
    "longitude": "-90.06924896540603",
    "latitude": "29.957921546747915",
    "geocoded_column": {
      "latitude": "29.957921546747915",
      "longitude": "-90.06924896540603"
    }
  },
  {
    "service_request": "2022-869511",
    "request_type": "Abandoned Vehicles",
    "request_reason": "Abandoned/Junk Vehicles",
    "date_created": "2022-03-24T15:04:22.000",
    "date_modified": "2022-03-24T15:04:23.000",
    "request_status": "Pending",
    "responsible_agency": "Department of Public Works",
    "final_address": "1430 Urania St",
    "address_councildis": "B",
    "status": "Pending",
    "rowid": "869511",
    "final_x": "3679124.03253",
    "final_y": "524044.04134",
    "longitude": "-90.07583183965485",
    "latitude": "29.93501121400894",
    "geocoded_column": {
      "latitude": "29.93501121400894",
      "longitude": "-90.07583183965485"
    }
  },
  {
    "service_request": "2022-869510",
    "request_type": "Abandoned Vehicles",
    "request_reason": "Abandoned/Junk Vehicles",
    "date_created": "2022-03-24T15:01:54.000",
    "date_modified": "2022-03-24T15:01:54.000",
    "request_status": "Pending",
    "responsible_agency": "Department of Public Works",
    "final_address": "3124 Chippewa St",
    "address_councildis": "B",
    "status": "Pending",
    "rowid": "869510",
    "final_x": "3676770.05595",
    "final_y": "518801.543607",
    "longitude": "-90.08344386431206",
    "latitude": "29.920666872741098",
    "geocoded_column": {
      "latitude": "29.920666872741098",
      "longitude": "-90.08344386431206"
    }
  },
  {
    "service_request": "2022-869509",
    "request_type": "Roads/Drainage",
    "request_reason": "Damaged Sidewalk",
    "date_created": "2022-03-24T14:57:17.000",
    "date_modified": "2022-03-24T14:57:17.000",
    "request_status": "Pending",
    "responsible_agency": "Department of Public Works",
    "final_address": "2326 St Louis St",
    "address_councildis": "B",
    "status": "Pending",
    "rowid": "869509",
    "final_x": "3677394.09186",
    "final_y": "535367.795014",
    "longitude": "-90.08090250599537",
    "latitude": "29.966199845986555",
    "geocoded_column": {
      "latitude": "29.966199845986555",
      "longitude": "-90.08090250599537"
    }
  },
  {
    "service_request": "2022-869508",
    "request_type": "Property Maintenance",
    "request_reason": "Property Maintenance",
    "date_created": "2022-03-24T14:55:22.000",
    "date_modified": "2022-03-24T14:55:22.000",
    "request_status": "Pending",
    "responsible_agency": "Department of Code Enforcement",
    "final_address": "7112 E Tamaron Blvd",
    "address_councildis": "E",
    "status": "Pending",
    "rowid": "869508",
    "final_x": "3718546.12441",
    "final_y": "568851.699877",
    "longitude": "-89.94966999991338",
    "latitude": "30.05696641349656",
    "geocoded_column": {
      "latitude": "30.05696641349656",
      "longitude": "-89.94966999991338"
    }
  },
  {
    "service_request": "2022-869507",
    "request_type": "Taxi Issues",
    "request_reason": "Taxi Lost & Found Item",
    "date_created": "2022-03-24T14:54:58.000",
    "date_modified": "2022-03-24T14:55:18.000",
    "request_status": "Pending",
    "responsible_agency": "Ground Transportation Bureau",
    "status": "Pending",
    "rowid": "869507",
    "longitude": "0.0",
    "latitude": "0.0",
    "geocoded_column": {
      "latitude": "0.0",
      "longitude": "0.0"
    }
  },
  {
    "service_request": "2022-869506",
    "request_type": "Trash/Recycling",
    "request_reason": "Replace Trash Cart",
    "date_created": "2022-03-24T14:54:03.000",
    "date_modified": "2022-03-24T14:54:05.000",
    "request_status": "Pending",
    "responsible_agency": "Department of Sanitation",
    "final_address": "1009 Montegut St",
    "address_councildis": "C",
    "status": "Assigned to Contractor",
    "contractor": "Metro Disposal",
    "rowid": "869506",
    "final_x": "3688379.97321",
    "final_y": "535791.057735",
    "longitude": "-90.04619440959365",
    "latitude": "29.967028923476708",
    "geocoded_column": {
      "latitude": "29.967028923476708",
      "longitude": "-90.04619440959365"
    }
  },
  {
    "service_request": "2022-869505",
    "request_type": "Property Maintenance",
    "request_reason": "Property Maintenance",
    "date_created": "2022-03-24T14:50:34.000",
    "date_modified": "2022-03-24T14:50:34.000",
    "request_status": "Pending",
    "responsible_agency": "Department of Code Enforcement",
    "final_address": "7152 W Tamaron Blvd",
    "address_councildis": "E",
    "status": "Pending",
    "rowid": "869505",
    "final_x": "3718075.96089",
    "final_y": "568961.655334",
    "longitude": "-89.95115190733443",
    "latitude": "30.057284347881335",
    "geocoded_column": {
      "latitude": "30.057284347881335",
      "longitude": "-89.95115190733443"
    }
  },
  {
    "service_request": "2022-869504",
    "request_type": "Trash/Recycling",
    "request_reason": "Replace Trash Cart",
    "date_created": "2022-03-24T14:48:54.000",
    "date_modified": "2022-03-24T14:48:55.000",
    "request_status": "Pending",
    "responsible_agency": "Department of Sanitation",
    "final_address": "1531 8th St, New Orleans, Louisiana, 70115",
    "status": "Assigned to Contractor",
    "rowid": "869504",
    "longitude": "0.0",
    "latitude": "0.0",
    "geocoded_column": {
      "latitude": "0.0",
      "longitude": "0.0"
    }
  },
  {
    "service_request": "2022-869503",
    "request_type": "Property Maintenance",
    "request_reason": "Property Maintenance",
    "date_created": "2022-03-24T14:48:50.000",
    "date_modified": "2022-03-24T14:48:50.000",
    "request_status": "Pending",
    "responsible_agency": "Department of Code Enforcement",
    "final_address": "7160 W Tamaron Blvd",
    "address_councildis": "E",
    "status": "Pending",
    "rowid": "869503",
    "final_x": "3718035.55577",
    "final_y": "569015.57175",
    "longitude": "-89.95127756530097",
    "latitude": "30.057433935747817",
    "geocoded_column": {
      "latitude": "30.057433935747817",
      "longitude": "-89.95127756530097"
    }
  },
  {
    "service_request": "2022-869502",
    "request_type": "Trash/Recycling",
    "request_reason": "Order Trash Cart",
    "date_created": "2022-03-24T14:47:27.000",
    "date_modified": "2022-03-24T14:47:28.000",
    "request_status": "Pending",
    "responsible_agency": "Department of Sanitation",
    "final_address": "8409 Curran Rd",
    "address_councildis": "E",
    "status": "Assigned to Contractor",
    "contractor": "Metro Disposal",
    "rowid": "869502",
    "final_x": "3703437.70238",
    "final_y": "562272.324447",
    "longitude": "-89.99766757093363",
    "latitude": "30.03936873291937",
    "geocoded_column": {
      "latitude": "30.03936873291937",
      "longitude": "-89.99766757093363"
    }
  },
  {
    "service_request": "2022-869501",
    "request_type": "Trash/Recycling",
    "request_reason": "Repair Trash Cart",
    "date_created": "2022-03-24T14:46:53.000",
    "date_modified": "2022-03-24T15:14:44.000",
    "request_status": "Pending",
    "responsible_agency": "Department of Sanitation",
    "final_address": "New Orleans,LA",
    "address_councildis": "C",
    "status": "Assigned to Contractor",
    "contractor": "Richards Disposal",
    "rowid": "869501",
    "final_x": "3703428.56561",
    "final_y": "512963.322033",
    "longitude": "-89.99951040249738",
    "latitude": "29.903787259804012",
    "geocoded_column": {
      "latitude": "29.903787259804012",
      "longitude": "-89.99951040249738"
    }
  },
  {
    "service_request": "2022-869500",
    "request_type": "Trash/Recycling",
    "request_reason": "Order Recycling Cart",
    "date_created": "2022-03-24T14:46:11.000",
    "date_modified": "2022-03-24T14:46:11.000",
    "request_status": "Pending",
    "responsible_agency": "Department of Sanitation",
    "final_address": "327 Pelican Ave",
    "address_councildis": "C",
    "status": "Pending",
    "rowid": "869500",
    "final_x": "3686403.41225",
    "final_y": "530365.19053",
    "longitude": "-90.05262790186532",
    "latitude": "29.95217056210902",
    "geocoded_column": {
      "latitude": "29.95217056210902",
      "longitude": "-90.05262790186532"
    }
  },
  {
    "service_request": "2022-869499",
    "request_type": "Mosquito, Termite & Rodent Control",
    "request_reason": "Mosquito Complaint",
    "date_created": "2022-03-24T14:42:24.000",
    "date_modified": "2022-03-24T14:42:24.000",
    "request_status": "Pending",
    "responsible_agency": "Mosquito, Termite & Rodent Control Board",
    "final_address": "3631 Mansfield Ave",
    "address_councildis": "C",
    "status": "Pending",
    "rowid": "869499",
    "final_x": "3708953.87736",
    "final_y": "517445.390646",
    "longitude": "-89.98190582230932",
    "latitude": "29.915933388026193",
    "geocoded_column": {
      "latitude": "29.915933388026193",
      "longitude": "-89.98190582230932"
    }
  },
  {
    "service_request": "2022-869498",
    "request_type": "Trash/Recycling",
    "request_reason": "Request a Large Item Pick Up",
    "date_created": "2022-03-24T14:34:46.000",
    "date_modified": "2022-03-24T14:34:47.000",
    "request_status": "Pending",
    "responsible_agency": "Department of Sanitation",
    "final_address": "3305 Camp St, New Orleans, Louisiana, 70115",
    "address_councildis": "B",
    "status": "Assigned to Contractor",
    "contractor": "Richards Disposal",
    "rowid": "869498",
    "final_x": "3675166.31861",
    "final_y": "520138.678008",
    "longitude": "-90.08846027367184",
    "latitude": "29.924391566738844",
    "geocoded_column": {
      "latitude": "29.924391566738844",
      "longitude": "-90.08846027367184"
    }
  },
  {
    "service_request": "2022-869497",
    "request_type": "Roads/Drainage",
    "request_reason": "Street Subsidence (Sinking)",
    "date_created": "2022-03-24T14:33:55.000",
    "date_modified": "2022-03-24T14:33:55.000",
    "request_status": "Pending",
    "responsible_agency": "Department of Public Works",
    "final_address": "741 Barracks St",
    "address_councildis": "C",
    "status": "Pending",
    "rowid": "869497",
    "final_x": "3683633.43273",
    "final_y": "534421.635973",
    "longitude": "-90.06123199917997",
    "latitude": "29.963409239691398",
    "geocoded_column": {
      "latitude": "29.963409239691398",
      "longitude": "-90.06123199917997"
    }
  },
  {
    "service_request": "2022-869494",
    "request_type": "Parks & Parkways",
    "request_reason": "Request Tree Service (Right of Way/Public Property)",
    "date_created": "2022-03-24T14:28:12.000",
    "date_modified": "2022-03-24T14:50:59.000",
    "case_close_date": "2022-03-24T09:50:59.000",
    "request_status": "Closed",
    "responsible_agency": "Department of Parks & Parkway",
    "final_address": "4460 St Bernard Ave",
    "address_councildis": "D",
    "status": "Duplicate Case",
    "rowid": "869494",
    "final_x": "3676711.32251",
    "final_y": "548795.997267",
    "longitude": "-90.08259579771091",
    "latitude": "30.003143249371632",
    "geocoded_column": {
      "latitude": "30.003143249371632",
      "longitude": "-90.08259579771091"
    }
  },
  {
    "service_request": "2022-869493",
    "request_type": "Trash/Recycling",
    "request_reason": "Return Recycling Cart",
    "date_created": "2022-03-24T14:27:54.000",
    "date_modified": "2022-03-24T14:27:54.000",
    "request_status": "Pending",
    "responsible_agency": "Department of Sanitation",
    "final_address": "6575 Elysian Fields Ave",
    "address_councildis": "D",
    "status": "Pending",
    "rowid": "869493",
    "final_x": "3683458.35337",
    "final_y": "557510.886747",
    "longitude": "-90.06097523996857",
    "latitude": "30.026901786104368",
    "geocoded_column": {
      "latitude": "30.026901786104368",
      "longitude": "-90.06097523996857"
    }
  },
  {
    "service_request": "2022-869492",
    "request_type": "Roads/Drainage",
    "request_reason": "Street Subsidence (Sinking)",
    "date_created": "2022-03-24T14:26:47.000",
    "date_modified": "2022-03-24T14:26:47.000",
    "request_status": "Pending",
    "responsible_agency": "Department of Public Works",
    "final_address": "1523 Gordon St",
    "address_councildis": "E",
    "status": "Pending",
    "rowid": "869492",
    "final_x": "3699827.4744",
    "final_y": "535011.454598",
    "longitude": "-90.01007180782739",
    "latitude": "29.964526747145108",
    "geocoded_column": {
      "latitude": "29.964526747145108",
      "longitude": "-90.01007180782739"
    }
  },
  {
    "service_request": "2022-869490",
    "request_type": "Roads/Drainage",
    "request_reason": "Pothole",
    "date_created": "2022-03-24T14:20:29.000",
    "date_modified": "2022-03-24T14:22:25.000",
    "request_status": "Pending",
    "responsible_agency": "Department of Public Works",
    "final_address": "4202 Almonaster Ave",
    "address_councildis": "D",
    "status": "Pending",
    "rowid": "869490",
    "final_x": "3690294.49468",
    "final_y": "547691.952274",
    "longitude": "-90.03972406440684",
    "latitude": "29.9996928549843",
    "geocoded_column": {
      "latitude": "29.9996928549843",
      "longitude": "-90.03972406440684"
    }
  },
  {
    "service_request": "2022-869489",
    "request_type": "Trash/Recycling",
    "request_reason": "Replace Trash Cart",
    "date_created": "2022-03-24T14:19:17.000",
    "date_modified": "2022-03-24T14:19:18.000",
    "request_status": "Pending",
    "responsible_agency": "Department of Sanitation",
    "final_address": "1619 Farragut St",
    "address_councildis": "C",
    "status": "Assigned to Contractor",
    "contractor": "Richards Disposal",
    "rowid": "869489",
    "final_x": "3692226.0015",
    "final_y": "525237.085245",
    "longitude": "-90.03442649916113",
    "latitude": "29.937889807810247",
    "geocoded_column": {
      "latitude": "29.937889807810247",
      "longitude": "-90.03442649916113"
    }
  },
  {
    "service_request": "2022-869487",
    "request_type": "Property Maintenance",
    "request_reason": "Property Maintenance",
    "date_created": "2022-03-24T14:16:50.000",
    "date_modified": "2022-03-24T14:16:50.000",
    "request_status": "Pending",
    "responsible_agency": "Department of Code Enforcement",
    "final_address": "6617 Colbert St",
    "address_councildis": "A",
    "status": "Pending",
    "rowid": "869487",
    "final_x": "3667890.54983",
    "final_y": "551607.831381",
    "longitude": "-90.11036721123068",
    "latitude": "30.01113660660505",
    "geocoded_column": {
      "latitude": "30.01113660660505",
      "longitude": "-90.11036721123068"
    }
  },
  {
    "service_request": "2022-869486",
    "request_type": "Trash/Recycling",
    "request_reason": "Repair Trash Cart",
    "date_created": "2022-03-24T14:12:41.000",
    "date_modified": "2022-03-24T14:12:42.000",
    "request_status": "Pending",
    "responsible_agency": "Department of Sanitation",
    "final_address": "7700 Newcastle St",
    "address_councildis": "E",
    "status": "Assigned to Contractor",
    "contractor": "Metro Disposal",
    "rowid": "869486",
    "final_x": "3697054.71933",
    "final_y": "559556.100381",
    "longitude": "-90.0179381181258",
    "latitude": "30.03210320336371",
    "geocoded_column": {
      "latitude": "30.03210320336371",
      "longitude": "-90.0179381181258"
    }
  },
  {
    "service_request": "2022-869485",
    "request_type": "Trash/Recycling",
    "request_reason": "Order Trash Cart",
    "date_created": "2022-03-24T14:09:40.000",
    "date_modified": "2022-03-24T14:09:42.000",
    "request_status": "Pending",
    "responsible_agency": "Department of Sanitation",
    "final_address": "1109 Southlawn Blvd",
    "address_councildis": "C",
    "status": "Assigned to Contractor",
    "contractor": "Richards Disposal",
    "rowid": "869485",
    "final_x": "3695179.1567",
    "final_y": "528122.157759",
    "longitude": "-90.0249991885609",
    "latitude": "29.945730380776496",
    "geocoded_column": {
      "latitude": "29.945730380776496",
      "longitude": "-90.0249991885609"
    }
  },
  {
    "service_request": "2022-869484",
    "request_type": "Trash/Recycling",
    "request_reason": "Replace Trash Cart",
    "date_created": "2022-03-24T14:03:52.000",
    "date_modified": "2022-03-24T14:03:53.000",
    "request_status": "Pending",
    "responsible_agency": "Department of Sanitation",
    "final_address": "1315 S Telemachus St",
    "address_councildis": "B",
    "status": "Assigned to Contractor",
    "contractor": "Richards Disposal",
    "rowid": "869484",
    "final_x": "3669068.22734",
    "final_y": "532446.252356",
    "longitude": "-90.10729420761983",
    "latitude": "29.95841417481758",
    "geocoded_column": {
      "latitude": "29.95841417481758",
      "longitude": "-90.10729420761983"
    }
  },
  {
    "service_request": "2022-869483",
    "request_type": "Abandoned Vehicles",
    "request_reason": "Abandoned/Junk Vehicles",
    "date_created": "2022-03-24T13:59:54.000",
    "date_modified": "2022-03-24T13:59:54.000",
    "request_status": "Pending",
    "responsible_agency": "Department of Public Works",
    "final_address": "3411 Lancaster St",
    "address_councildis": "C",
    "status": "Pending",
    "rowid": "869483",
    "final_x": "3709850.91825",
    "final_y": "518183.83039",
    "longitude": "-89.97904689188947",
    "latitude": "29.917934717617022",
    "geocoded_column": {
      "latitude": "29.917934717617022",
      "longitude": "-89.97904689188947"
    }
  },
  {
    "service_request": "2022-869481",
    "request_type": "Trash/Recycling",
    "request_reason": "Repair Recycling Cart",
    "date_created": "2022-03-24T13:57:06.000",
    "date_modified": "2022-03-24T13:57:06.000",
    "request_status": "Pending",
    "responsible_agency": "Department of Sanitation",
    "final_address": "1233 Congress St",
    "address_councildis": "D",
    "status": "Pending",
    "rowid": "869481",
    "final_x": "3690910.27401",
    "final_y": "536197.314503",
    "longitude": "-90.03818923477971",
    "latitude": "29.968067590020496",
    "geocoded_column": {
      "latitude": "29.968067590020496",
      "longitude": "-90.03818923477971"
    }
  },
  {
    "service_request": "2022-869480",
    "request_type": "Trash/Recycling",
    "request_reason": "Illegal Dumping",
    "date_created": "2022-03-24T13:56:11.000",
    "date_modified": "2022-03-24T13:56:11.000",
    "request_status": "Pending",
    "responsible_agency": "Department of Code Enforcement",
    "final_address": "134 S Norman C Francis Prkwy",
    "address_councildis": "B",
    "status": "Pending",
    "rowid": "869480",
    "final_x": "3673087.56289",
    "final_y": "536345.388167",
    "longitude": "-90.09446907889595",
    "latitude": "29.969016625420135",
    "geocoded_column": {
      "latitude": "29.969016625420135",
      "longitude": "-90.09446907889595"
    }
  },
  {
    "service_request": "2022-869478",
    "request_type": "Trash/Recycling",
    "request_reason": "Request a Large Item Pick Up",
    "date_created": "2022-03-24T13:53:22.000",
    "date_modified": "2022-03-24T13:53:23.000",
    "request_status": "Pending",
    "responsible_agency": "Department of Sanitation",
    "final_address": "1434 Desire St",
    "address_councildis": "C",
    "status": "Assigned to Contractor",
    "contractor": "Metro Disposal",
    "rowid": "869478",
    "final_x": "3690495.2591",
    "final_y": "537105.85492",
    "longitude": "-90.03946746438807",
    "latitude": "29.970578648163116",
    "geocoded_column": {
      "latitude": "29.970578648163116",
      "longitude": "-90.03946746438807"
    }
  },
  {
    "service_request": "2022-869477",
    "request_type": "Trash/Recycling",
    "request_reason": "Order Trash Cart",
    "date_created": "2022-03-24T13:52:15.000",
    "date_modified": "2022-03-24T13:52:16.000",
    "request_status": "Pending",
    "responsible_agency": "Department of Sanitation",
    "final_address": "5890 Eastover Dr",
    "address_councildis": "E",
    "status": "Assigned to Contractor",
    "contractor": "Metro Disposal",
    "rowid": "869477",
    "final_x": "3719733.00479",
    "final_y": "564285.762849",
    "longitude": "-89.94609321986391",
    "latitude": "30.044372510769882",
    "geocoded_column": {
      "latitude": "30.044372510769882",
      "longitude": "-89.94609321986391"
    }
  },
  {
    "service_request": "2022-869476",
    "request_type": "Trash/Recycling",
    "request_reason": "Missed Trash Pick-Up",
    "date_created": "2022-03-24T13:47:35.000",
    "date_modified": "2022-03-24T13:47:36.000",
    "request_status": "Pending",
    "responsible_agency": "Department of Sanitation",
    "final_address": "923 Clouet St, New Orleans, Louisiana, 70117",
    "address_councildis": "D",
    "status": "Assigned to Contractor",
    "contractor": "Metro Disposal",
    "rowid": "869476",
    "final_x": "3689839.10179",
    "final_y": "539177.491082",
    "longitude": "-90.04146591691",
    "latitude": "29.976295272512164",
    "geocoded_column": {
      "latitude": "29.976295272512164",
      "longitude": "-90.04146591691"
    }
  },
  {
    "service_request": "2022-869475",
    "request_type": "Trash/Recycling",
    "request_reason": "Replace Trash Cart",
    "date_created": "2022-03-24T13:46:00.000",
    "date_modified": "2022-03-24T13:46:05.000",
    "request_status": "Pending",
    "responsible_agency": "Department of Sanitation",
    "final_address": "306 Audubon Blvd",
    "address_councildis": "A",
    "status": "Assigned to Contractor",
    "contractor": "Richards Disposal",
    "rowid": "869475",
    "final_x": "3666995.23917",
    "final_y": "529801.187777",
    "longitude": "-90.11392905955792",
    "latitude": "29.95120193885334",
    "geocoded_column": {
      "latitude": "29.95120193885334",
      "longitude": "-90.11392905955792"
    }
  },
  {
    "service_request": "2022-869474",
    "request_type": "Trash/Recycling",
    "request_reason": "Order Recycling Cart",
    "date_created": "2022-03-24T13:44:11.000",
    "date_modified": "2022-03-24T13:44:11.000",
    "request_status": "Pending",
    "responsible_agency": "Department of Sanitation",
    "final_address": "200 Cambridge Ct",
    "address_councildis": "C",
    "status": "Pending",
    "rowid": "869474",
    "final_x": "3706095.78468",
    "final_y": "518478.46559",
    "longitude": "-89.99088879500238",
    "latitude": "29.918866365392",
    "geocoded_column": {
      "latitude": "29.918866365392",
      "longitude": "-89.99088879500238"
    }
  },
  {
    "service_request": "2022-869473",
    "request_type": "Trash/Recycling",
    "request_reason": "Request a Large Item Pick Up",
    "date_created": "2022-03-24T13:43:30.000",
    "date_modified": "2022-03-24T13:43:30.000",
    "request_status": "Pending",
    "responsible_agency": "Department of Sanitation",
    "final_address": "1634 Washington Ave",
    "address_councildis": "B",
    "status": "Assigned to Contractor",
    "contractor": "Richards Disposal",
    "rowid": "869473",
    "final_x": "3675698.78638",
    "final_y": "522792.117178",
    "longitude": "-90.08668832560726",
    "latitude": "29.931671747318152",
    "geocoded_column": {
      "latitude": "29.931671747318152",
      "longitude": "-90.08668832560726"
    }
  },
  {
    "service_request": "2022-869472",
    "request_type": "Traffic Signals/Signs/Striping/Streetlights",
    "request_reason": "Traffic Sign Missing/Damaged",
    "date_created": "2022-03-24T13:42:10.000",
    "date_modified": "2022-03-24T13:42:10.000",
    "request_status": "Pending",
    "responsible_agency": "Department of Public Works",
    "final_address": "1130 Pauline St",
    "address_councildis": "C",
    "status": "Pending",
    "rowid": "869472",
    "final_x": "3691258.03964",
    "final_y": "535773.364615",
    "longitude": "-90.03710612752316",
    "latitude": "29.966891064142235",
    "geocoded_column": {
      "latitude": "29.966891064142235",
      "longitude": "-90.03710612752316"
    }
  },
  {
    "service_request": "2022-869471",
    "request_type": "Trash/Recycling",
    "request_reason": "Order Trash Cart",
    "date_created": "2022-03-24T13:41:55.000",
    "date_modified": "2022-03-24T13:41:55.000",
    "request_status": "Pending",
    "responsible_agency": "Department of Sanitation",
    "final_address": "4729 Dryades St, New Orleans, Louisiana, 70115",
    "address_councildis": "B",
    "status": "Assigned to Contractor",
    "contractor": "Richards Disposal",
    "rowid": "869471",
    "final_x": "3669398.14036",
    "final_y": "521894.02393",
    "longitude": "-90.10660916005331",
    "latitude": "29.929389262943385",
    "geocoded_column": {
      "latitude": "29.929389262943385",
      "longitude": "-90.10660916005331"
    }
  },
  {
    "service_request": "2022-869470",
    "request_type": "Traffic Signals/Signs/Striping/Streetlights",
    "request_reason": "Street Light Knocked Down/Leaning",
    "date_created": "2022-03-24T13:36:00.000",
    "date_modified": "2022-03-24T13:36:01.000",
    "request_status": "Pending",
    "responsible_agency": "Department of Public Works",
    "final_address": "7321 Bullard Ave",
    "address_councildis": "E",
    "status": "Pending",
    "contractor": "Royal Engineering",
    "rowid": "869470",
    "final_x": "3714108.00619",
    "final_y": "566271.796067",
    "longitude": "-89.96379555484573",
    "latitude": "30.05001934544544",
    "geocoded_column": {
      "latitude": "30.05001934544544",
      "longitude": "-89.96379555484573"
    }
  },
  {
    "service_request": "2022-869467",
    "request_type": "Abandoned Vehicles",
    "request_reason": "Abandoned/Junk Vehicles",
    "date_created": "2022-03-24T13:26:15.000",
    "date_modified": "2022-03-24T13:26:15.000",
    "request_status": "Pending",
    "responsible_agency": "Department of Public Works",
    "final_address": "5113 LaSalle St",
    "address_councildis": "B",
    "status": "Pending",
    "rowid": "869467",
    "final_x": "3668382.61498",
    "final_y": "523614.200891",
    "longitude": "-90.10975700835965",
    "latitude": "29.934149055783077",
    "geocoded_column": {
      "latitude": "29.934149055783077",
      "longitude": "-90.10975700835965"
    }
  },
  {
    "service_request": "2022-869466",
    "request_type": "Abandoned Vehicles",
    "request_reason": "Abandoned/Junk Vehicles",
    "date_created": "2022-03-24T13:22:05.000",
    "date_modified": "2022-03-24T13:22:05.000",
    "request_status": "Pending",
    "responsible_agency": "Department of Public Works",
    "final_address": "TOULOUSE ST & N LOPEZ ST",
    "address_councildis": "A",
    "status": "Pending",
    "rowid": "869466",
    "final_x": "3674972.4",
    "final_y": "537679.68",
    "longitude": "-90.08847084863419",
    "latitude": "29.97262930610931",
    "geocoded_column": {
      "latitude": "29.97262930610931",
      "longitude": "-90.08847084863419"
    }
  },
  {
    "service_request": "2022-869465",
    "request_type": "Trash/Recycling",
    "request_reason": "Request a Large Item Pick Up",
    "date_created": "2022-03-24T13:21:41.000",
    "date_modified": "2022-03-24T14:34:07.000",
    "request_status": "Pending",
    "responsible_agency": "Department of Sanitation",
    "final_address": "4400 Elba St",
    "address_councildis": "B",
    "status": "Assigned to Contractor",
    "contractor": "Richards Disposal",
    "rowid": "869465",
    "final_x": "3669750.1467",
    "final_y": "530370.129026",
    "longitude": "-90.10521114893392",
    "latitude": "29.95268543907863",
    "geocoded_column": {
      "latitude": "29.95268543907863",
      "longitude": "-90.10521114893392"
    }
  },
  {
    "service_request": "2022-869464",
    "request_type": "Trash/Recycling",
    "request_reason": "Replace Trash Cart",
    "date_created": "2022-03-24T13:21:27.000",
    "date_modified": "2022-03-24T13:21:28.000",
    "request_status": "Pending",
    "responsible_agency": "Department of Sanitation",
    "final_address": "351 Audubon St",
    "address_councildis": "A",
    "status": "Assigned to Contractor",
    "contractor": "Richards Disposal",
    "rowid": "869464",
    "final_x": "3661892.51463",
    "final_y": "522468.711802",
    "longitude": "-90.13028409890177",
    "latitude": "29.9311882890828",
    "geocoded_column": {
      "latitude": "29.9311882890828",
      "longitude": "-90.13028409890177"
    }
  },
  {
    "service_request": "2022-869462",
    "request_type": "Roads/Drainage",
    "request_reason": "Debris in Roadway",
    "date_created": "2022-03-24T13:13:52.000",
    "date_modified": "2022-03-24T13:50:12.000",
    "request_status": "Pending",
    "responsible_agency": "Department of Public Works",
    "final_address": "N ROBERTSON ST & POLAND AVE",
    "address_councildis": "D",
    "status": "Inspected",
    "rowid": "869462",
    "final_x": "3693387.9",
    "final_y": "536500.58",
    "longitude": "-90.03035394194877",
    "latitude": "29.968824227096107",
    "geocoded_column": {
      "latitude": "29.968824227096107",
      "longitude": "-90.03035394194877"
    }
  },
  {
    "service_request": "2022-869461",
    "request_type": "Mosquito, Termite & Rodent Control",
    "request_reason": "Mosquito Complaint",
    "date_created": "2022-03-24T13:11:36.000",
    "date_modified": "2022-03-24T16:42:39.000",
    "request_status": "Pending",
    "responsible_agency": "Mosquito, Termite & Rodent Control Board",
    "final_address": "New Orleans,LA",
    "address_councildis": "A",
    "rowid": "869461",
    "final_x": "3667895.09178",
    "final_y": "551657.501141",
    "longitude": "-90.1103511864217",
    "latitude": "30.01127304773982",
    "geocoded_column": {
      "latitude": "30.01127304773982",
      "longitude": "-90.1103511864217"
    }
  },
  {
    "service_request": "2022-869460",
    "request_type": "Trash/Recycling",
    "request_reason": "Request a Large Item Pick Up",
    "date_created": "2022-03-24T13:09:15.000",
    "date_modified": "2022-03-24T13:09:16.000",
    "request_status": "Pending",
    "responsible_agency": "Department of Sanitation",
    "final_address": "4917 Danneel St",
    "address_councildis": "B",
    "status": "Assigned to Contractor",
    "contractor": "Richards Disposal",
    "rowid": "869460",
    "final_x": "3668964.03361",
    "final_y": "522396.826362",
    "longitude": "-90.10796258430955",
    "latitude": "29.93078458106297",
    "geocoded_column": {
      "latitude": "29.93078458106297",
      "longitude": "-90.10796258430955"
    }
  },
  {
    "service_request": "2022-869459",
    "request_type": "Roads/Drainage",
    "request_reason": "Debris in Roadway",
    "date_created": "2022-03-24T13:09:12.000",
    "date_modified": "2022-03-24T13:09:32.000",
    "case_close_date": "2022-03-24T08:09:32.000",
    "request_status": "Closed",
    "responsible_agency": "Department of Public Works",
    "final_address": "GENTILLY BLVD & ST BERNARD AVE",
    "address_councildis": "A",
    "status": "Resolved",
    "rowid": "869459",
    "final_x": "3679197.4",
    "final_y": "543495.48",
    "longitude": "-90.07492581176469",
    "latitude": "29.988493849016464",
    "geocoded_column": {
      "latitude": "29.988493849016464",
      "longitude": "-90.07492581176469"
    }
  },
  {
    "service_request": "2022-869458",
    "request_type": "Mosquito, Termite & Rodent Control",
    "request_reason": "Rodent Complaint (Rats)",
    "date_created": "2022-03-24T13:06:25.000",
    "date_modified": "2022-03-24T13:06:25.000",
    "request_status": "Pending",
    "responsible_agency": "Mosquito, Termite & Rodent Control Board",
    "final_address": "1839 Lauradale Dr",
    "address_councildis": "C",
    "status": "Pending",
    "rowid": "869458",
    "final_x": "3692689.98313",
    "final_y": "524395.213564",
    "longitude": "-90.03299183905474",
    "latitude": "29.935560477846938",
    "geocoded_column": {
      "latitude": "29.935560477846938",
      "longitude": "-90.03299183905474"
    }
  },
  {
    "service_request": "2022-869457",
    "request_type": "Roads/Drainage",
    "request_reason": "Debris in Roadway",
    "date_created": "2022-03-24T13:03:03.000",
    "date_modified": "2022-03-24T13:03:24.000",
    "case_close_date": "2022-03-24T08:03:24.000",
    "request_status": "Closed",
    "responsible_agency": "Department of Public Works",
    "final_address": "CITY PARK AVE & MARCONI DR",
    "address_councildis": "A",
    "status": "Resolved",
    "rowid": "869457",
    "final_x": "3670595.2",
    "final_y": "541788.38",
    "longitude": "-90.10215545455618",
    "latitude": "29.9840568710957",
    "geocoded_column": {
      "latitude": "29.9840568710957",
      "longitude": "-90.10215545455618"
    }
  },
  {
    "service_request": "2022-869456",
    "request_type": "Trash/Recycling",
    "request_reason": "Request a Large Item Pick Up",
    "date_created": "2022-03-24T13:02:39.000",
    "date_modified": "2022-03-24T13:02:42.000",
    "request_status": "Pending",
    "responsible_agency": "Department of Sanitation",
    "final_address": "5324 Warrington Dr",
    "address_councildis": "D",
    "status": "Assigned to Contractor",
    "contractor": "Metro Disposal",
    "rowid": "869456",
    "final_x": "3680845.29595",
    "final_y": "552599.298774",
    "longitude": "-90.0694034347132",
    "latitude": "30.013476236298033",
    "geocoded_column": {
      "latitude": "30.013476236298033",
      "longitude": "-90.0694034347132"
    }
  },
  {
    "service_request": "2022-869455",
    "request_type": "Abandoned Vehicles",
    "request_reason": "Abandoned/Junk Vehicles",
    "date_created": "2022-03-24T12:58:30.000",
    "date_modified": "2022-03-24T12:59:06.000",
    "request_status": "Pending",
    "responsible_agency": "Department of Public Works",
    "final_address": "1853 Murl St",
    "address_councildis": "C",
    "status": "Pending",
    "rowid": "869455",
    "final_x": "3695328.29149",
    "final_y": "524227.800828",
    "longitude": "-90.02466875282647",
    "latitude": "29.935017560291218",
    "geocoded_column": {
      "latitude": "29.935017560291218",
      "longitude": "-90.02466875282647"
    }
  },
  {
    "service_request": "2022-869454",
    "request_type": "Trash/Recycling",
    "request_reason": "Missed Trash Pick-Up",
    "date_created": "2022-03-24T12:55:30.000",
    "date_modified": "2022-03-24T12:55:30.000",
    "request_status": "Pending",
    "responsible_agency": "Department of Sanitation",
    "final_address": "7015 Jeannette St",
    "address_councildis": "A",
    "status": "Assigned to Contractor",
    "contractor": "Richards Disposal",
    "rowid": "869454",
    "final_x": "3665124.02164",
    "final_y": "527173.250943",
    "longitude": "-90.11992533156736",
    "latitude": "29.944030583429733",
    "geocoded_column": {
      "latitude": "29.944030583429733",
      "longitude": "-90.11992533156736"
    }
  },
  {
    "service_request": "2022-869453",
    "request_type": "Trash/Recycling",
    "request_reason": "Replace Trash Cart",
    "date_created": "2022-03-24T12:54:00.000",
    "date_modified": "2022-03-24T12:54:02.000",
    "request_status": "Pending",
    "responsible_agency": "Department of Sanitation",
    "final_address": "4702 Saint Anthony Ave, New Orleans, Louisiana, 70122",
    "status": "Assigned to Contractor",
    "rowid": "869453",
    "longitude": "0.0",
    "latitude": "0.0",
    "geocoded_column": {
      "latitude": "0.0",
      "longitude": "0.0"
    }
  },
  {
    "service_request": "2022-869452",
    "request_type": "Trash/Recycling",
    "request_reason": "Repair Recycling Cart",
    "date_created": "2022-03-24T12:52:36.000",
    "date_modified": "2022-03-24T12:52:36.000",
    "request_status": "Pending",
    "responsible_agency": "Department of Sanitation",
    "final_address": "2516 State St",
    "address_councildis": "A",
    "status": "Pending",
    "rowid": "869452",
    "final_x": "3666799.27373",
    "final_y": "525933.104573",
    "longitude": "-90.11467771991566",
    "latitude": "29.940571693745248",
    "geocoded_column": {
      "latitude": "29.940571693745248",
      "longitude": "-90.11467771991566"
    }
  },
  {
    "service_request": "2022-869451",
    "request_type": "Trash/Recycling",
    "request_reason": "Replace Trash Cart",
    "date_created": "2022-03-24T12:50:40.000",
    "date_modified": "2022-03-24T12:50:43.000",
    "request_status": "Pending",
    "responsible_agency": "Department of Sanitation",
    "final_address": "6571 Bellaire Dr",
    "address_councildis": "A",
    "status": "Assigned to Contractor",
    "contractor": "Metro Disposal",
    "rowid": "869451",
    "final_x": "3664613.48948",
    "final_y": "551871.183446",
    "longitude": "-90.12071200003939",
    "latitude": "30.01195649858027",
    "geocoded_column": {
      "latitude": "30.01195649858027",
      "longitude": "-90.12071200003939"
    }
  },
  {
    "service_request": "2022-869450",
    "request_type": "Trash/Recycling",
    "request_reason": "Request a Large Item Pick Up",
    "date_created": "2022-03-24T12:47:32.000",
    "date_modified": "2022-03-24T12:47:33.000",
    "request_status": "Pending",
    "responsible_agency": "Department of Sanitation",
    "final_address": "6758 Louis Xiv St",
    "address_councildis": "A",
    "status": "Assigned to Contractor",
    "contractor": "Metro Disposal",
    "rowid": "869450",
    "final_x": "3668455.69966",
    "final_y": "552517.967318",
    "longitude": "-90.10855093438978",
    "latitude": "30.013622562856565",
    "geocoded_column": {
      "latitude": "30.013622562856565",
      "longitude": "-90.10855093438978"
    }
  },
  {
    "service_request": "2022-869449",
    "request_type": "Roads/Drainage",
    "request_reason": "Pothole",
    "date_created": "2022-03-24T12:45:26.000",
    "date_modified": "2022-03-24T12:51:25.000",
    "request_status": "Pending",
    "responsible_agency": "Department of Public Works",
    "final_address": "6050 Dover Pl",
    "address_councildis": "C",
    "status": "Inspected",
    "rowid": "869449",
    "final_x": "3706493.00791",
    "final_y": "519146.605303",
    "longitude": "-89.98961024624047",
    "latitude": "29.920690715081847",
    "geocoded_column": {
      "latitude": "29.920690715081847",
      "longitude": "-89.98961024624047"
    }
  },