[
  {
    "service_request": "2023-958322",
    "request_type": "Health Related Request",
    "request_reason": "Noise Ordinance Complaint",
    "date_created": "2023-01-02T00:18:13.000",
    "date_modified": "2023-01-02T00:18:13.000",
    "request_status": "Pending",
    "responsible_agency": "Health Department",
    "final_address": "1009 N Claiborne Ave, New Orleans, Louisiana, 70116",
    "address_councildis": "D",
    "status": "Pending",
    "rowid": "958322",
    "final_x": "3680417.66101",
    "final_y": "535635.218886",
    "longitude": "-90.07134484150656",
    "latitude": "29.966843952035386",
    "geocoded_column": {
      "latitude": "29.966843952035386",
      "longitude": "-90.07134484150656"
    }
  },
  {
    "service_request": "2023-958321",
    "request_type": "Health Related Request",
    "request_reason": "Noise Ordinance Complaint",
    "date_created": "2023-01-01T23:57:10.000",
    "date_modified": "2023-01-01T23:57:10.000",
    "request_status": "Pending",
    "responsible_agency": "Health Department",
    "final_address": "1009 N Claiborne Ave, New Orleans, Louisiana, 70116",
    "address_councildis": "D",
    "status": "Pending",
    "rowid": "958321",
    "final_x": "3680417.66101",
    "final_y": "535635.218886",
    "longitude": "-90.07134484150656",
    "latitude": "29.966843952035386",
    "geocoded_column": {
      "latitude": "29.966843952035386",
      "longitude": "-90.07134484150656"
    }
  },
  {
    "service_request": "2023-958320",
    "request_type": "Trash/Recycling",
    "request_reason": "Missed Trash Pick-Up",
    "date_created": "2023-01-01T23:33:19.000",
    "date_modified": "2023-01-01T23:33:19.000",
    "request_status": "Pending",
    "responsible_agency": "Department of Sanitation",
    "final_address": "2237 Octavia St",
    "address_councildis": "A",
    "status": "Assigned to Contractor",
    "contractor": "Richards Disposal",
    "rowid": "958320",
    "final_x": "3667624.30241",
    "final_y": "524006.437692",
    "longitude": "-90.11213778543795",
    "latitude": "29.93524982542993",
    "geocoded_column": {
      "latitude": "29.93524982542993",
      "longitude": "-90.11213778543795"
    }
  },
  {
    "service_request": "2023-958319",
    "request_type": "Trash/Recycling",
    "request_reason": "Missed Trash Pick-Up",
    "date_created": "2023-01-01T23:13:32.000",
    "date_modified": "2023-01-01T23:13:33.000",
    "request_status": "Pending",
    "responsible_agency": "Department of Sanitation",
    "final_address": "3328 Vincennes Pl",
    "address_councildis": "A",
    "status": "Assigned to Contractor",
    "contractor": "Richards Disposal",
    "rowid": "958319",
    "final_x": "3667881.42829",
    "final_y": "528404.954944",
    "longitude": "-90.11117792673241",
    "latitude": "29.947336791641188",
    "geocoded_column": {
      "latitude": "29.947336791641188",
      "longitude": "-90.11117792673241"
    }
  },
  {
    "service_request": "2023-958318",
    "request_type": "Trash/Recycling",
    "request_reason": "Replace Trash Cart",
    "date_created": "2023-01-01T22:34:41.000",
    "date_modified": "2023-01-01T22:34:42.000",
    "request_status": "Pending",
    "responsible_agency": "Department of Sanitation",
    "final_address": "2615 Orleans Ave",
    "address_councildis": "D",
    "status": "Assigned to Contractor",
    "contractor": "Richards Disposal",
    "rowid": "958318",
    "final_x": "3677143.9595",
    "final_y": "536815.478024",
    "longitude": "-90.08164247830935",
    "latitude": "29.970187996699345",
    "geocoded_column": {
      "latitude": "29.970187996699345",
      "longitude": "-90.08164247830935"
    }
  },
  {
    "service_request": "2023-958317",
    "request_type": "Trash/Recycling",
    "request_reason": "Replace Recycling Cart",
    "date_created": "2023-01-01T22:33:29.000",
    "date_modified": "2023-01-01T22:33:29.000",
    "request_status": "Pending",
    "responsible_agency": "Department of Sanitation",
    "final_address": "2615 Orleans Ave",
    "address_councildis": "D",
    "status": "Pending",
    "rowid": "958317",
    "final_x": "3677143.9595",
    "final_y": "536815.478024",
    "longitude": "-90.08164247830935",
    "latitude": "29.970187996699345",
    "geocoded_column": {
      "latitude": "29.970187996699345",
      "longitude": "-90.08164247830935"
    }
  },
  {
    "service_request": "2023-958316",
    "request_type": "Roads/Drainage",
    "request_reason": "Pothole",
    "date_created": "2023-01-01T22:13:51.000",
    "date_modified": "2023-01-01T22:13:51.000",
    "request_status": "Pending",
    "responsible_agency": "Department of Public Works",
    "final_address": "3130 St Philip St",
    "address_councildis": "A",
    "status": "Pending",
    "rowid": "958316",
    "final_x": "3675731.14651",
    "final_y": "539100.696842",
    "longitude": "-90.0860257340666",
    "latitude": "29.976513929106797",
    "geocoded_column": {
      "latitude": "29.976513929106797",
      "longitude": "-90.0860257340666"
    }
  },
  {
    "service_request": "2023-958315",
    "request_type": "Health Related Request",
    "request_reason": "Noise Ordinance Complaint",
    "date_created": "2023-01-01T21:55:23.000",
    "date_modified": "2023-01-01T21:55:23.000",
    "request_status": "Pending",
    "responsible_agency": "Health Department",
    "final_address": "511 Bourbon St",
    "address_councildis": "C",
    "status": "Pending",
    "rowid": "958315",
    "final_x": "3681860.54223",
    "final_y": "532196.480579",
    "longitude": "-90.06690825117376",
    "latitude": "29.95734482271665",
    "geocoded_column": {
      "latitude": "29.95734482271665",
      "longitude": "-90.06690825117376"
    }
  },
  {
    "service_request": "2023-958314",
    "request_type": "Trash/Recycling",
    "request_reason": "Request a Large Item Pick Up",
    "date_created": "2023-01-01T21:49:20.000",
    "date_modified": "2023-01-01T21:49:21.000",
    "request_status": "Pending",
    "responsible_agency": "Department of Sanitation",
    "final_address": "7608 Willow St",
    "address_councildis": "A",
    "status": "Assigned to Contractor",
    "contractor": "Richards Disposal",
    "rowid": "958314",
    "final_x": "3663649.92634",
    "final_y": "527726.555327",
    "longitude": "-90.12456105164493",
    "latitude": "29.945594833762172",
    "geocoded_column": {
      "latitude": "29.945594833762172",
      "longitude": "-90.12456105164493"
    }
  },
  {
    "service_request": "2023-958312",
    "request_type": "Roads/Drainage",
    "request_reason": "Catch Basin - Clogged",
    "date_created": "2023-01-01T21:17:59.000",
    "date_modified": "2023-01-01T21:17:59.000",
    "request_status": "Pending",
    "responsible_agency": "Department of Public Works",
    "final_address": "6559 Canal Blvd",
    "address_councildis": "A",
    "status": "Pending",
    "rowid": "958312",
    "final_x": "3668992.20487",
    "final_y": "551144.049877",
    "longitude": "-90.10690231339277",
    "latitude": "30.009828993811674",
    "geocoded_column": {
      "latitude": "30.009828993811674",
      "longitude": "-90.10690231339277"
    }
  },
  {
    "service_request": "2023-958311",
    "request_type": "Trash/Recycling",
    "request_reason": "Missed Trash Pick-Up",
    "date_created": "2023-01-01T21:14:55.000",
    "date_modified": "2023-01-01T21:14:56.000",
    "request_status": "Pending",
    "responsible_agency": "Department of Sanitation",
    "final_address": "2231 Wirth Pl",
    "address_councildis": "A",
    "status": "Assigned to Contractor",
    "contractor": "Richards Disposal",
    "rowid": "958311",
    "final_x": "3667151.38125",
    "final_y": "524461.921532",
    "longitude": "-90.11361549587174",
    "latitude": "29.936516110759136",
    "geocoded_column": {
      "latitude": "29.936516110759136",
      "longitude": "-90.11361549587174"
    }
  },
  {
    "service_request": "2023-958310",
    "request_type": "Trash/Recycling",
    "request_reason": "Missed Trash Pick-Up",
    "date_created": "2023-01-01T21:11:08.000",
    "date_modified": "2023-01-01T21:11:09.000",
    "request_status": "Pending",
    "responsible_agency": "Department of Sanitation",
    "final_address": "5630 Laurel St",
    "address_councildis": "A",
    "status": "Assigned to Contractor",
    "contractor": "Richards Disposal",
    "rowid": "958310",
    "final_x": "3665632.88378",
    "final_y": "517893.720694",
    "longitude": "-90.11862929488395",
    "latitude": "29.918499990439347",
    "geocoded_column": {
      "latitude": "29.918499990439347",
      "longitude": "-90.11862929488395"
    }
  },
  {
    "service_request": "2023-958309",
    "request_type": "Trash/Recycling",
    "request_reason": "Order Recycling Cart",
    "date_created": "2023-01-01T21:01:53.000",
    "date_modified": "2023-01-01T21:01:53.000",
    "request_status": "Pending",
    "responsible_agency": "Department of Sanitation",
    "final_address": "5405 West End Blvd",
    "address_councildis": "A",
    "status": "Pending",
    "rowid": "958309",
    "final_x": "3666304.29639",
    "final_y": "543491.74683",
    "longitude": "-90.11565133898686",
    "latitude": "29.98886662690304",
    "geocoded_column": {
      "latitude": "29.98886662690304",
      "longitude": "-90.11565133898686"
    }
  },
  {
    "service_request": "2023-958308",
    "request_type": "Trash/Recycling",
    "request_reason": "Replace Trash Cart",
    "date_created": "2023-01-01T20:43:10.000",
    "date_modified": "2023-01-01T20:43:11.000",
    "request_status": "Pending",
    "responsible_agency": "Department of Sanitation",
    "final_address": "5331 Magazine St",
    "address_councildis": "B",
    "status": "Assigned to Contractor",
    "contractor": "Richards Disposal",
    "rowid": "958308",
    "final_x": "3667256.96436",
    "final_y": "518747.601015",
    "longitude": "-90.1134742218522",
    "latitude": "29.920800452309216",
    "geocoded_column": {
      "latitude": "29.920800452309216",
      "longitude": "-90.1134742218522"
    }
  },
  {
    "service_request": "2023-958307",
    "request_type": "Traffic Signals/Signs/Striping/Streetlights",
    "request_reason": "Traffic Sign Missing/Damaged",
    "date_created": "2023-01-01T20:42:48.000",
    "date_modified": "2023-01-01T20:42:48.000",
    "request_status": "Pending",
    "responsible_agency": "Department of Public Works",
    "final_address": "1407 S Claiborne Ave",
    "address_councildis": "B",
    "status": "Pending",
    "rowid": "958307",
    "final_x": "3675118.46401",
    "final_y": "528396.179072",
    "longitude": "-90.08832811491355",
    "latitude": "29.947098428908404",
    "geocoded_column": {
      "latitude": "29.947098428908404",
      "longitude": "-90.08832811491355"
    }
  },
  {
    "service_request": "2023-958306",
    "request_type": "Trash/Recycling",
    "request_reason": "Missed Trash Pick-Up",
    "date_created": "2023-01-01T20:39:29.000",
    "date_modified": "2023-01-01T20:39:29.000",
    "request_status": "Pending",
    "responsible_agency": "Department of Sanitation",
    "final_address": "900 BLK Ninth St",
    "address_councildis": "B",
    "status": "Assigned to Contractor",
    "contractor": "Richards Disposal",
    "rowid": "958306",
    "final_x": "3676167.57971",
    "final_y": "519580.367451",
    "longitude": "-90.08531882934125",
    "latitude": "29.92282644407673",
    "geocoded_column": {
      "latitude": "29.92282644407673",
      "longitude": "-90.08531882934125"
    }
  },
  {
    "service_request": "2023-958305",
    "request_type": "Roads/Drainage",
    "request_reason": "Street Subsidence (Sinking)",
    "date_created": "2023-01-01T20:36:51.000",
    "date_modified": "2023-01-01T20:36:51.000",
    "request_status": "Pending",
    "responsible_agency": "Department of Public Works",
    "final_address": "510 N Lopez St",
    "address_councildis": "A",
    "status": "Pending",
    "rowid": "958305",
    "final_x": "3674890.87265",
    "final_y": "537506.933832",
    "longitude": "-90.08873425304412",
    "latitude": "29.972156748111644",
    "geocoded_column": {
      "latitude": "29.972156748111644",
      "longitude": "-90.08873425304412"
    }
  },
  {
    "service_request": "2023-958304",
    "request_type": "Traffic Signals/Signs/Striping/Streetlights",
    "request_reason": "Street Light Outage/Malfunction",
    "date_created": "2023-01-01T20:35:25.000",
    "date_modified": "2023-01-01T20:35:25.000",
    "request_status": "Pending",
    "responsible_agency": "Department of Public Works",
    "final_address": "4490 Baccich St",
    "address_councildis": "D",
    "status": "Assigned to Contractor",
    "contractor": "Legacy Professional Services",
    "rowid": "958304",
    "final_x": "3687758.75619",
    "final_y": "549582.855315",
    "longitude": "-90.04766751649184",
    "latitude": "30.00497062313949",
    "geocoded_column": {
      "latitude": "30.00497062313949",
      "longitude": "-90.04766751649184"
    }
  },
  {
    "service_request": "2023-958303",
    "request_type": "Trash/Recycling",
    "request_reason": "Request a Large Item Pick Up",
    "date_created": "2023-01-01T20:32:22.000",
    "date_modified": "2023-01-01T20:32:23.000",
    "request_status": "Pending",
    "responsible_agency": "Department of Sanitation",
    "final_address": "4516 S Miro St",
    "address_councildis": "B",
    "status": "Assigned to Contractor",
    "contractor": "Richards Disposal",
    "rowid": "958303",
    "final_x": "3669595.28154",
    "final_y": "527722.034239",
    "longitude": "-90.1057897220994",
    "latitude": "29.94540860700847",
    "geocoded_column": {
      "latitude": "29.94540860700847",
      "longitude": "-90.1057897220994"
    }
  },
  {
    "service_request": "2023-958302",
    "request_type": "Trash/Recycling",
    "request_reason": "MIssed Recycling Pick-Up",
    "date_created": "2023-01-01T20:29:51.000",
    "date_modified": "2023-01-01T20:29:52.000",
    "request_status": "Pending",
    "responsible_agency": "Department of Sanitation",
    "final_address": "4516 S Miro St",
    "address_councildis": "B",
    "status": "Assigned to Contractor",
    "contractor": "Richards Disposal",
    "rowid": "958302",
    "final_x": "3669595.28154",
    "final_y": "527722.034239",
    "longitude": "-90.1057897220994",
    "latitude": "29.94540860700847",
    "geocoded_column": {
      "latitude": "29.94540860700847",
      "longitude": "-90.1057897220994"
    }
  },
  {
    "service_request": "2023-958301",
    "request_type": "Trash/Recycling",
    "request_reason": "MIssed Recycling Pick-Up",
    "date_created": "2023-01-01T20:20:28.000",
    "date_modified": "2023-01-01T20:20:29.000",
    "request_status": "Pending",
    "responsible_agency": "Department of Sanitation",
    "final_address": "815 Pleasant St",
    "address_councildis": "B",
    "status": "Assigned to Contractor",
    "contractor": "Richards Disposal",
    "rowid": "958301",
    "final_x": "3676017.31675",
    "final_y": "519018.452215",
    "longitude": "-90.08581246229882",
    "latitude": "29.921285857532276",
    "geocoded_column": {
      "latitude": "29.921285857532276",
      "longitude": "-90.08581246229882"
    }
  },
  {
    "service_request": "2023-958300",
    "request_type": "Trash/Recycling",
    "request_reason": "Missed Trash Pick-Up",
    "date_created": "2023-01-01T20:18:21.000",
    "date_modified": "2023-01-01T20:18:21.000",
    "request_status": "Pending",
    "responsible_agency": "Department of Sanitation",
    "final_address": "815 Pleasant St",
    "address_councildis": "B",
    "status": "Assigned to Contractor",
    "contractor": "Richards Disposal",
    "rowid": "958300",
    "final_x": "3676017.31675",
    "final_y": "519018.452215",
    "longitude": "-90.08581246229882",
    "latitude": "29.921285857532276",
    "geocoded_column": {
      "latitude": "29.921285857532276",
      "longitude": "-90.08581246229882"
    }
  },
  {
    "service_request": "2023-958299",
    "request_type": "Traffic Signals/Signs/Striping/Streetlights",
    "request_reason": "Street Light Outage/Malfunction",
    "date_created": "2023-01-01T20:15:42.000",
    "date_modified": "2023-01-01T20:15:43.000",
    "request_status": "Pending",
    "responsible_agency": "Department of Public Works",
    "final_address": "2815 New Orleans St",
    "address_councildis": "D",
    "status": "Assigned to Contractor",
    "contractor": "Legacy Professional Services",
    "rowid": "958299",
    "final_x": "3681918.72565",
    "final_y": "542861.257229",
    "longitude": "-90.06635216111907",
    "latitude": "29.986667501177145",
    "geocoded_column": {
      "latitude": "29.986667501177145",
      "longitude": "-90.06635216111907"
    }
  },
  {
    "service_request": "2023-958298",
    "request_type": "Trash/Recycling",
    "request_reason": "Order Recycling Cart",
    "date_created": "2023-01-01T20:01:21.000",
    "date_modified": "2023-01-01T20:01:21.000",
    "request_status": "Pending",
    "responsible_agency": "Department of Sanitation",
    "final_address": "2028 Royal St",
    "address_councildis": "C",
    "status": "Pending",
    "rowid": "958298",
    "final_x": "3684458.93417",
    "final_y": "534789.492358",
    "longitude": "-90.05861223726966",
    "latitude": "29.964395492459893",
    "geocoded_column": {
      "latitude": "29.964395492459893",
      "longitude": "-90.05861223726966"
    }
  },
  {
    "service_request": "2023-958297",
    "request_type": "Traffic Signals/Signs/Striping/Streetlights",
    "request_reason": "Street Light Outage/Malfunction",
    "date_created": "2023-01-01T19:59:18.000",
    "date_modified": "2023-01-01T19:59:19.000",
    "request_status": "Pending",
    "responsible_agency": "Department of Public Works",
    "final_address": "2028 Royal St",
    "address_councildis": "C",
    "status": "Assigned to Contractor",
    "contractor": "Legacy Professional Services",
    "rowid": "958297",
    "final_x": "3684458.93417",
    "final_y": "534789.492358",
    "longitude": "-90.05861223726966",
    "latitude": "29.964395492459893",
    "geocoded_column": {
      "latitude": "29.964395492459893",
      "longitude": "-90.05861223726966"
    }
  },
  {
    "service_request": "2023-958296",
    "request_type": "Trash/Recycling",
    "request_reason": "MIssed Recycling Pick-Up",
    "date_created": "2023-01-01T19:54:51.000",
    "date_modified": "2023-01-01T19:54:52.000",
    "request_status": "Pending",
    "responsible_agency": "Department of Sanitation",
    "final_address": "2110 Audubon St",
    "address_councildis": "A",
    "status": "Assigned to Contractor",
    "contractor": "Richards Disposal",
    "rowid": "958296",
    "final_x": "3666219.75687",
    "final_y": "529093.805184",
    "longitude": "-90.11640137896445",
    "latitude": "29.949279535667205",
    "geocoded_column": {
      "latitude": "29.949279535667205",
      "longitude": "-90.11640137896445"
    }
  },
  {
    "service_request": "2023-958295",
    "request_type": "Roads/Drainage",
    "request_reason": "Street Subsidence (Sinking)",
    "date_created": "2023-01-01T19:36:49.000",
    "date_modified": "2023-01-01T19:36:49.000",
    "request_status": "Pending",
    "responsible_agency": "Department of Public Works",
    "final_address": "7925 Belfast St",
    "address_councildis": "A",
    "status": "Pending",
    "rowid": "958295",
    "final_x": "3666024.33383",
    "final_y": "532020.702403",
    "longitude": "-90.11692031142124",
    "latitude": "29.957333255599167",
    "geocoded_column": {
      "latitude": "29.957333255599167",
      "longitude": "-90.11692031142124"
    }
  },
  {
    "service_request": "2023-958294",
    "request_type": "Trash/Recycling",
    "request_reason": "Replace Trash Cart",
    "date_created": "2023-01-01T19:25:10.000",
    "date_modified": "2023-01-01T19:25:11.000",
    "request_status": "Pending",
    "responsible_agency": "Department of Sanitation",
    "final_address": "837 Montegut St",
    "address_councildis": "C",
    "status": "Assigned to Contractor",
    "contractor": "IV Waste",
    "rowid": "958294",
    "final_x": "3688252.28739",
    "final_y": "535282.912582",
    "longitude": "-90.04661566110596",
    "latitude": "29.965635644889634",
    "geocoded_column": {
      "latitude": "29.965635644889634",
      "longitude": "-90.04661566110596"
    }
  },
  {
    "service_request": "2023-958293",
    "request_type": "Trash/Recycling",
    "request_reason": "Order Trash Cart",
    "date_created": "2023-01-01T19:16:10.000",
    "date_modified": "2023-01-01T19:16:11.000",
    "request_status": "Pending",
    "responsible_agency": "Department of Sanitation",
    "final_address": "5928 General Haig St",
    "address_councildis": "A",
    "status": "Assigned to Contractor",
    "contractor": "IV Waste",
    "rowid": "958293",
    "final_x": "3670435.13147",
    "final_y": "546685.038481",
    "longitude": "-90.10249490325195",
    "latitude": "29.997525725609407",
    "geocoded_column": {
      "latitude": "29.997525725609407",
      "longitude": "-90.10249490325195"
    }
  },
  {
    "service_request": "2023-958292",
    "request_type": "Trash/Recycling",
    "request_reason": "Missed Trash Pick-Up",
    "date_created": "2023-01-01T18:50:53.000",
    "date_modified": "2023-01-01T18:50:54.000",
    "request_status": "Pending",
    "responsible_agency": "Department of Sanitation",
    "final_address": "6026 Benjamin St",
    "address_councildis": "A",
    "status": "Assigned to Contractor",
    "contractor": "Richards Disposal",
    "rowid": "958292",
    "final_x": "3665368.24487",
    "final_y": "522189.506042",
    "longitude": "-90.11932096041569",
    "latitude": "29.93031976110733",
    "geocoded_column": {
      "latitude": "29.93031976110733",
      "longitude": "-90.11932096041569"
    }
  },
  {
    "service_request": "2023-958291",
    "request_type": "Trash/Recycling",
    "request_reason": "Missed Trash Pick-Up",
    "date_created": "2023-01-01T18:24:20.000",
    "date_modified": "2023-01-01T18:24:21.000",
    "request_status": "Pending",
    "responsible_agency": "Department of Sanitation",
    "final_address": "1127 Octavia St",
    "address_councildis": "A",
    "status": "Assigned to Contractor",
    "contractor": "Richards Disposal",
    "rowid": "958291",
    "final_x": "3666760.63681",
    "final_y": "520087.331512",
    "longitude": "-90.11499594181214",
    "latitude": "29.924498809034915",
    "geocoded_column": {
      "latitude": "29.924498809034915",
      "longitude": "-90.11499594181214"
    }
  },
  {
    "service_request": "2023-958290",
    "request_type": "Trash/Recycling",
    "request_reason": "Order Recycling Cart",
    "date_created": "2023-01-01T18:23:00.000",
    "date_modified": "2023-01-01T18:23:00.000",
    "request_status": "Pending",
    "responsible_agency": "Department of Sanitation",
    "final_address": "4911 Treves St",
    "address_councildis": "E",
    "status": "Pending",
    "rowid": "958290",
    "final_x": "3729970.93638",
    "final_y": "562778.035168",
    "longitude": "-89.91379626367993",
    "latitude": "30.039882106946997",
    "geocoded_column": {
      "latitude": "30.039882106946997",
      "longitude": "-89.91379626367993"
    }
  },
  {
    "service_request": "2023-958289",
    "request_type": "Trash/Recycling",
    "request_reason": "MIssed Recycling Pick-Up",
    "date_created": "2023-01-01T18:21:16.000",
    "date_modified": "2023-01-01T18:21:17.000",
    "request_status": "Pending",
    "responsible_agency": "Department of Sanitation",
    "final_address": "1233 Fern St",
    "address_councildis": "A",
    "status": "Assigned to Contractor",
    "contractor": "Richards Disposal",
    "rowid": "958289",
    "final_x": "3662738.96365",
    "final_y": "528012.627967",
    "longitude": "-90.12742776672536",
    "latitude": "29.94640783468398",
    "geocoded_column": {
      "latitude": "29.94640783468398",
      "longitude": "-90.12742776672536"
    }
  },
  {
    "service_request": "2023-958288",
    "request_type": "Trash/Recycling",
    "request_reason": "Missed Trash Pick-Up",
    "date_created": "2023-01-01T18:20:19.000",
    "date_modified": "2023-01-01T18:20:20.000",
    "request_status": "Pending",
    "responsible_agency": "Department of Sanitation",
    "final_address": "615 S Hennessey St",
    "address_councildis": "A",
    "status": "Assigned to Contractor",
    "contractor": "Richards Disposal",
    "rowid": "958288",
    "final_x": "3668973.45268",
    "final_y": "537281.960072",
    "longitude": "-90.10743011322067",
    "latitude": "29.971713551332677",
    "geocoded_column": {
      "latitude": "29.971713551332677",
      "longitude": "-90.10743011322067"
    }
  },
  {
    "service_request": "2023-958287",
    "request_type": "Trash/Recycling",
    "request_reason": "Request a Large Item Pick Up",
    "date_created": "2023-01-01T18:15:36.000",
    "date_modified": "2023-01-01T18:15:37.000",
    "request_status": "Pending",
    "responsible_agency": "Department of Sanitation",
    "final_address": "500 N Rendon St, New Orleans, Louisiana, 70119",
    "address_councildis": "A",
    "status": "Assigned to Contractor",
    "contractor": "Richards Disposal",
    "rowid": "958287",
    "final_x": "3674584.32296",
    "final_y": "537633.055624",
    "longitude": "-90.08969806646476",
    "latitude": "29.97251269216576",
    "geocoded_column": {
      "latitude": "29.97251269216576",
      "longitude": "-90.08969806646476"
    }
  },
  {
    "service_request": "2023-958286",
    "request_type": "Trash/Recycling",
    "request_reason": "Missed Trash Pick-Up",
    "date_created": "2023-01-01T18:08:08.000",
    "date_modified": "2023-01-01T18:08:08.000",
    "request_status": "Pending",
    "responsible_agency": "Department of Sanitation",
    "final_address": "618 N Murat St",
    "address_councildis": "A",
    "status": "Assigned to Contractor",
    "contractor": "Richards Disposal",
    "rowid": "958286",
    "final_x": "3670921.97467",
    "final_y": "540941.244683",
    "longitude": "-90.10115209321637",
    "latitude": "29.98171787957974",
    "geocoded_column": {
      "latitude": "29.98171787957974",
      "longitude": "-90.10115209321637"
    }
  },
  {
    "service_request": "2023-958285",
    "request_type": "Traffic Signals/Signs/Striping/Streetlights",
    "request_reason": "Street Light Outage/Malfunction",
    "date_created": "2023-01-01T17:51:04.000",
    "date_modified": "2023-01-01T17:51:05.000",
    "request_status": "Pending",
    "responsible_agency": "Department of Public Works",
    "final_address": "5661 Catina St",
    "address_councildis": "A",
    "status": "Assigned to Contractor",
    "contractor": "Legacy Professional Services",
    "rowid": "958285",
    "final_x": "3666704.69473",
    "final_y": "545226.211919",
    "longitude": "-90.11432831278773",
    "latitude": "29.993624108255926",
    "geocoded_column": {
      "latitude": "29.993624108255926",
      "longitude": "-90.11432831278773"
    }
  },
  {
    "service_request": "2023-958284",
    "request_type": "Trash/Recycling",
    "request_reason": "Missed Trash Pick-Up",
    "date_created": "2023-01-01T17:45:25.000",
    "date_modified": "2023-01-01T17:45:25.000",
    "request_status": "Pending",
    "responsible_agency": "Department of Sanitation",
    "final_address": "417 Bellecastle St",
    "address_councildis": "B",
    "status": "Assigned to Contractor",
    "contractor": "Richards Disposal",
    "rowid": "958284",
    "final_x": "3667674.3778",
    "final_y": "517070.307317",
    "longitude": "-90.11221305697472",
    "latitude": "29.916176195949078",
    "geocoded_column": {
      "latitude": "29.916176195949078",
      "longitude": "-90.11221305697472"
    }
  },
  {
    "service_request": "2023-958283",
    "request_type": "Trash/Recycling",
    "request_reason": "Missed Trash Pick-Up",
    "date_created": "2023-01-01T17:44:57.000",
    "date_modified": "2023-01-01T17:44:58.000",
    "request_status": "Pending",
    "responsible_agency": "Department of Sanitation",
    "final_address": "1662 State St",
    "address_councildis": "A",
    "status": "Assigned to Contractor",
    "contractor": "Richards Disposal",
    "rowid": "958283",
    "final_x": "3665910.96052",
    "final_y": "523230.624891",
    "longitude": "-90.1175728131946",
    "latitude": "29.933166685542844",
    "geocoded_column": {
      "latitude": "29.933166685542844",
      "longitude": "-90.1175728131946"
    }
  },
  {
    "service_request": "2023-958282",
    "request_type": "Trash/Recycling",
    "request_reason": "Missed Trash Pick-Up",
    "date_created": "2023-01-01T17:43:48.000",
    "date_modified": "2023-01-01T17:43:49.000",
    "request_status": "Pending",
    "responsible_agency": "Department of Sanitation",
    "final_address": "5706 Constance St",
    "address_councildis": "A",
    "status": "Assigned to Contractor",
    "contractor": "Richards Disposal",
    "rowid": "958282",
    "final_x": "3665646.65012",
    "final_y": "518593.474423",
    "longitude": "-90.11856242540681",
    "latitude": "29.920423693007614",
    "geocoded_column": {
      "latitude": "29.920423693007614",
      "longitude": "-90.11856242540681"
    }
  },
  {
    "service_request": "2023-958281",
    "request_type": "Trash/Recycling",
    "request_reason": "Missed Trash Pick-Up",
    "date_created": "2023-01-01T17:25:17.000",
    "date_modified": "2023-01-01T17:25:18.000",
    "request_status": "Pending",
    "responsible_agency": "Department of Sanitation",
    "final_address": "1721 Nashville Ave",
    "address_councildis": "A",
    "status": "Assigned to Contractor",
    "contractor": "Richards Disposal",
    "rowid": "958281",
    "final_x": "3666512.55802",
    "final_y": "522764.596346",
    "longitude": "-90.11568923685391",
    "latitude": "29.93186769024428",
    "geocoded_column": {
      "latitude": "29.93186769024428",
      "longitude": "-90.11568923685391"
    }
  },
  {
    "service_request": "2023-958280",
    "request_type": "Trash/Recycling",
    "request_reason": "Missed Trash Pick-Up",
    "date_created": "2023-01-01T17:22:37.000",
    "date_modified": "2023-01-01T17:22:38.000",
    "request_status": "Pending",
    "responsible_agency": "Department of Sanitation",
    "final_address": "6030 Hurst St, New Orleans, Louisiana, 70118",
    "address_councildis": "A",
    "status": "Assigned to Contractor",
    "contractor": "Richards Disposal",
    "rowid": "958280",
    "final_x": "3665256.5074",
    "final_y": "521786.983866",
    "longitude": "-90.11968715854152",
    "latitude": "29.92921620713637",
    "geocoded_column": {
      "latitude": "29.92921620713637",
      "longitude": "-90.11968715854152"
    }
  },
  {
    "service_request": "2023-958279",
    "request_type": "Roads/Drainage",
    "request_reason": "Accessibility Ramps, Curbs and Sidewalk Repair",
    "date_created": "2023-01-01T17:20:34.000",
    "date_modified": "2023-01-01T17:20:34.000",
    "request_status": "Pending",
    "responsible_agency": "Department of Public Works",
    "final_address": "3050 St Peter St",
    "address_councildis": "A",
    "status": "Pending",
    "rowid": "958279",
    "final_x": "3675210.50638",
    "final_y": "537809.0626",
    "longitude": "-90.08771442246127",
    "latitude": "29.972977949139203",
    "geocoded_column": {
      "latitude": "29.972977949139203",
      "longitude": "-90.08771442246127"
    }
  },
  {
    "service_request": "2023-958277",
    "request_type": "Health Related Request",
    "request_reason": "Noise Ordinance Complaint",
    "date_created": "2023-01-01T17:07:05.000",
    "date_modified": "2023-01-01T17:07:05.000",
    "request_status": "Pending",
    "responsible_agency": "Health Department",
    "final_address": "2108 Third St",
    "address_councildis": "B",
    "status": "Pending",
    "rowid": "958277",
    "final_x": "3675385.15675",
    "final_y": "524412.670844",
    "longitude": "-90.08762280179653",
    "latitude": "29.93613712044748",
    "geocoded_column": {
      "latitude": "29.93613712044748",
      "longitude": "-90.08762280179653"
    }
  },
  {
    "service_request": "2023-958276",
    "request_type": "Trash/Recycling",
    "request_reason": "MIssed Recycling Pick-Up",
    "date_created": "2023-01-01T17:00:52.000",
    "date_modified": "2023-01-01T17:00:53.000",
    "request_status": "Pending",
    "responsible_agency": "Department of Sanitation",
    "final_address": "1103 Fern St",
    "address_councildis": "A",
    "status": "Assigned to Contractor",
    "contractor": "Richards Disposal",
    "rowid": "958276",
    "final_x": "3662359.43885",
    "final_y": "527601.759359",
    "longitude": "-90.12863970512942",
    "latitude": "29.945289054671083",
    "geocoded_column": {
      "latitude": "29.945289054671083",
      "longitude": "-90.12863970512942"
    }
  },
  {
    "service_request": "2023-958275",
    "request_type": "Traffic Signals/Signs/Striping/Streetlights",
    "request_reason": "Striping/Road Surface Markings",
    "date_created": "2023-01-01T16:55:20.000",
    "date_modified": "2023-01-01T16:55:20.000",
    "request_status": "Pending",
    "responsible_agency": "Department of Public Works",
    "final_address": "1200 Canal St",
    "address_councildis": "B",
    "status": "Pending",
    "rowid": "958275",
    "final_x": "3679661.38056",
    "final_y": "531734.515203",
    "longitude": "-90.07386857354199",
    "latitude": "29.956141223983263",
    "geocoded_column": {
      "latitude": "29.956141223983263",
      "longitude": "-90.07386857354199"
    }
  },
  {
    "service_request": "2023-958274",
    "request_type": "Trash/Recycling",
    "request_reason": "Missed Trash Pick-Up",
    "date_created": "2023-01-01T16:50:12.000",
    "date_modified": "2023-01-01T16:50:13.000",
    "request_status": "Pending",
    "responsible_agency": "Department of Sanitation",
    "final_address": "4137 General Ogden St, New Orleans, Louisiana, 70118",
    "address_councildis": "A",
    "status": "Assigned to Contractor",
    "contractor": "Richards Disposal",
    "rowid": "958274",
    "final_x": "3667022.69581",
    "final_y": "538069.887625",
    "longitude": "-90.11356443502756",
    "latitude": "29.973937331843185",
    "geocoded_column": {
      "latitude": "29.973937331843185",
      "longitude": "-90.11356443502756"
    }
  },
  {
    "service_request": "2023-958273",
    "request_type": "Trash/Recycling",
    "request_reason": "Missed Trash Pick-Up",
    "date_created": "2023-01-01T16:42:19.000",
    "date_modified": "2023-01-01T16:42:20.000",
    "request_status": "Pending",
    "responsible_agency": "Department of Sanitation",
    "final_address": "834 Webster St",
    "address_councildis": "A",
    "status": "Assigned to Contractor",
    "contractor": "Richards Disposal",
    "rowid": "958273",
    "final_x": "3664185.13658",
    "final_y": "519700.483064",
    "longitude": "-90.12313885249341",
    "latitude": "29.923510144348008",
    "geocoded_column": {
      "latitude": "29.923510144348008",
      "longitude": "-90.12313885249341"
    }
  },
  {
    "service_request": "2023-958272",
    "request_type": "Trash/Recycling",
    "request_reason": "Missed Trash Pick-Up",
    "date_created": "2023-01-01T16:41:02.000",
    "date_modified": "2023-01-01T16:41:03.000",
    "request_status": "Pending",
    "responsible_agency": "Department of Sanitation",
    "final_address": "612 Eighth St",
    "address_councildis": "B",
    "status": "Assigned to Contractor",
    "contractor": "Richards Disposal",
    "rowid": "958272",
    "final_x": "3677022.7835",
    "final_y": "518773.060663",
    "longitude": "-90.08264710094622",
    "latitude": "29.92058097119563",
    "geocoded_column": {
      "latitude": "29.92058097119563",
      "longitude": "-90.08264710094622"
    }
  },
  {
    "service_request": "2023-958271",
    "request_type": "Trash/Recycling",
    "request_reason": "Missed Trash Pick-Up",
    "date_created": "2023-01-01T16:33:23.000",
    "date_modified": "2023-01-01T16:33:24.000",
    "request_status": "Pending",
    "responsible_agency": "Department of Sanitation",
    "final_address": "3325 Vincennes Pl",
    "address_councildis": "A",
    "status": "Assigned to Contractor",
    "contractor": "Richards Disposal",
    "rowid": "958271",
    "final_x": "3667955.40333",
    "final_y": "528347.973056",
    "longitude": "-90.11094627783334",
    "latitude": "29.947177940209052",
    "geocoded_column": {
      "latitude": "29.947177940209052",
      "longitude": "-90.11094627783334"
    }
  },
  {
    "service_request": "2023-958270",
    "request_type": "Trash/Recycling",
    "request_reason": "Request a Large Item Pick Up",
    "date_created": "2023-01-01T16:32:09.000",
    "date_modified": "2023-01-01T16:32:09.000",
    "request_status": "Pending",
    "responsible_agency": "Department of Sanitation",
    "final_address": "2425 Laharpe St",
    "address_councildis": "D",
    "status": "Assigned to Contractor",
    "contractor": "IV Waste",
    "rowid": "958270",
    "final_x": "3679563.04283",
    "final_y": "539372.907594",
    "longitude": "-90.07391398831061",
    "latitude": "29.977147163937882",
    "geocoded_column": {
      "latitude": "29.977147163937882",
      "longitude": "-90.07391398831061"
    }
  },
  {
    "service_request": "2023-958269",
    "request_type": "Trash/Recycling",
    "request_reason": "Request a Large Item Pick Up",
    "date_created": "2023-01-01T16:30:43.000",
    "date_modified": "2023-01-01T16:30:43.000",
    "request_status": "Pending",
    "responsible_agency": "Department of Sanitation",
    "final_address": "412 S Alexander St, New Orleans, Louisiana, 70119",
    "address_councildis": "A",
    "status": "Assigned to Contractor",
    "contractor": "Richards Disposal",
    "rowid": "958269",
    "final_x": "3669193.39585",
    "final_y": "538059.347977",
    "longitude": "-90.10670921491145",
    "latitude": "29.97384463502483",
    "geocoded_column": {
      "latitude": "29.97384463502483",
      "longitude": "-90.10670921491145"
    }
  },
  {
    "service_request": "2023-958268",
    "request_type": "Trash/Recycling",
    "request_reason": "Missed Trash Pick-Up",
    "date_created": "2023-01-01T16:30:06.000",
    "date_modified": "2023-01-01T16:30:07.000",
    "request_status": "Pending",
    "responsible_agency": "Department of Sanitation",
    "final_address": "1444 Henry Clay Ave",
    "address_councildis": "A",
    "status": "Assigned to Contractor",
    "contractor": "Richards Disposal",
    "rowid": "958268",
    "final_x": "3664631.57056",
    "final_y": "521882.417978",
    "longitude": "-90.12165678729914",
    "latitude": "29.929496806635754",
    "geocoded_column": {
      "latitude": "29.929496806635754",
      "longitude": "-90.12165678729914"
    }
  },
  {
    "service_request": "2023-958267",
    "request_type": "Trash/Recycling",
    "request_reason": "Missed Trash Pick-Up",
    "date_created": "2023-01-01T16:08:14.000",
    "date_modified": "2023-01-01T16:08:15.000",
    "request_status": "Pending",
    "responsible_agency": "Department of Sanitation",
    "final_address": "517 S Murat St",
    "address_councildis": "A",
    "status": "Assigned to Contractor",
    "contractor": "Richards Disposal",
    "rowid": "958267",
    "final_x": "3668602.07079",
    "final_y": "538012.575561",
    "longitude": "-90.10857833471724",
    "latitude": "29.973733419064004",
    "geocoded_column": {
      "latitude": "29.973733419064004",
      "longitude": "-90.10857833471724"
    }
  },
  {
    "service_request": "2023-958266",
    "request_type": "Trash/Recycling",
    "request_reason": "Missed Trash Pick-Up",
    "date_created": "2023-01-01T15:59:28.000",
    "date_modified": "2023-01-01T15:59:29.000",
    "request_status": "Pending",
    "responsible_agency": "Department of Sanitation",
    "final_address": "6220 Freret St",
    "address_councildis": "A",
    "status": "Assigned to Contractor",
    "contractor": "Richards Disposal",
    "rowid": "958266",
    "final_x": "3665733.71892",
    "final_y": "524645.390204",
    "longitude": "-90.11808498670464",
    "latitude": "29.93706200929093",
    "geocoded_column": {
      "latitude": "29.93706200929093",
      "longitude": "-90.11808498670464"
    }
  },
  {
    "service_request": "2023-958265",
    "request_type": "Trash/Recycling",
    "request_reason": "Order Trash Cart",
    "date_created": "2023-01-01T15:51:09.000",
    "date_modified": "2023-01-01T15:51:10.000",
    "request_status": "Pending",
    "responsible_agency": "Department of Sanitation",
    "final_address": "8636 Oleander St",
    "address_councildis": "A",
    "status": "Assigned to Contractor",
    "contractor": "Richards Disposal",
    "rowid": "958265",
    "final_x": "3665222.25056",
    "final_y": "535024.675974",
    "longitude": "-90.11935256126934",
    "latitude": "29.965616586051677",
    "geocoded_column": {
      "latitude": "29.965616586051677",
      "longitude": "-90.11935256126934"
    }
  },
  {
    "service_request": "2023-958264",
    "request_type": "Abandoned Vehicles",
    "request_reason": "Abandoned/Junk Vehicles",
    "date_created": "2023-01-01T15:43:30.000",
    "date_modified": "2023-01-01T15:43:30.000",
    "request_status": "Pending",
    "responsible_agency": "Department of Public Works",
    "final_address": "2015 N Galvez St",
    "address_councildis": "D",
    "status": "Pending",
    "rowid": "958264",
    "final_x": "3683719.68309",
    "final_y": "539940.926218",
    "longitude": "-90.06076606099873",
    "latitude": "29.97858273950849",
    "geocoded_column": {
      "latitude": "29.97858273950849",
      "longitude": "-90.06076606099873"
    }
  },
  {
    "service_request": "2023-958263",
    "request_type": "Abandoned Vehicles",
    "request_reason": "Abandoned/Junk Vehicles",
    "date_created": "2023-01-01T15:41:41.000",
    "date_modified": "2023-01-01T15:41:41.000",
    "request_status": "Pending",
    "responsible_agency": "Department of Public Works",
    "final_address": "1767 N Roman St",
    "address_councildis": "D",
    "status": "Pending",
    "rowid": "958263",
    "final_x": "3682773.50152",
    "final_y": "538763.831433",
    "longitude": "-90.06379564017614",
    "latitude": "29.975374999321474",
    "geocoded_column": {
      "latitude": "29.975374999321474",
      "longitude": "-90.06379564017614"
    }
  },
  {
    "service_request": "2023-958262",
    "request_type": "Abandoned Vehicles",
    "request_reason": "Abandoned/Junk Vehicles",
    "date_created": "2023-01-01T15:39:31.000",
    "date_modified": "2023-01-01T15:39:31.000",
    "request_status": "Pending",
    "responsible_agency": "Department of Public Works",
    "final_address": "1816 Annette St",
    "address_councildis": "D",
    "status": "Pending",
    "rowid": "958262",
    "final_x": "3682849.69071",
    "final_y": "538881.104841",
    "longitude": "-90.06355091004589",
    "latitude": "29.975695139060434",
    "geocoded_column": {
      "latitude": "29.975695139060434",
      "longitude": "-90.06355091004589"
    }
  },
  {
    "service_request": "2023-958261",
    "request_type": "Trash/Recycling",
    "request_reason": "Missed Trash Pick-Up",
    "date_created": "2023-01-01T15:35:20.000",
    "date_modified": "2023-01-01T15:35:21.000",
    "request_status": "Pending",
    "responsible_agency": "Department of Sanitation",
    "final_address": "1525 State St",
    "address_councildis": "A",
    "status": "Assigned to Contractor",
    "contractor": "Richards Disposal",
    "rowid": "958261",
    "final_x": "3665660.08154",
    "final_y": "521961.670586",
    "longitude": "-90.11840730007484",
    "latitude": "29.92968478052464",
    "geocoded_column": {
      "latitude": "29.92968478052464",
      "longitude": "-90.11840730007484"
    }
  },
  {
    "service_request": "2023-958260",
    "request_type": "Trash/Recycling",
    "request_reason": "Illegal Dumping",
    "date_created": "2023-01-01T15:32:16.000",
    "date_modified": "2023-01-01T15:32:16.000",
    "request_status": "Pending",
    "responsible_agency": "Department of Sanitation",
    "final_address": "2305 Joliet St",
    "address_councildis": "A",
    "status": "Pending",
    "rowid": "958260",
    "final_x": "3663581.86259",
    "final_y": "532216.808771",
    "longitude": "-90.12462640162236",
    "latitude": "29.957943554488644",
    "geocoded_column": {
      "latitude": "29.957943554488644",
      "longitude": "-90.12462640162236"
    }
  },
  {
    "service_request": "2023-958259",
    "request_type": "Trash/Recycling",
    "request_reason": "Request a Large Item Pick Up",
    "date_created": "2023-01-01T15:24:42.000",
    "date_modified": "2023-01-01T15:24:43.000",
    "request_status": "Pending",
    "responsible_agency": "Department of Sanitation",
    "final_address": "1823 Joliet St",
    "address_councildis": "A",
    "status": "Assigned to Contractor",
    "contractor": "Richards Disposal",
    "rowid": "958259",
    "final_x": "3662485.03283",
    "final_y": "531012.741762",
    "longitude": "-90.12812988802978",
    "latitude": "29.95466452842551",
    "geocoded_column": {
      "latitude": "29.95466452842551",
      "longitude": "-90.12812988802978"
    }
  },
  {
    "service_request": "2023-958258",
    "request_type": "Trash/Recycling",
    "request_reason": "MIssed Recycling Pick-Up",
    "date_created": "2023-01-01T15:24:11.000",
    "date_modified": "2023-01-01T15:24:12.000",
    "request_status": "Pending",
    "responsible_agency": "Department of Sanitation",
    "final_address": "5839 Fontainebleau Dr",
    "address_councildis": "B",
    "status": "Assigned to Contractor",
    "contractor": "Richards Disposal",
    "rowid": "958258",
    "final_x": "3668254.00301",
    "final_y": "529987.325889",
    "longitude": "-90.10994821957856",
    "latitude": "29.951676863908414",
    "geocoded_column": {
      "latitude": "29.951676863908414",
      "longitude": "-90.10994821957856"
    }
  },
  {
    "service_request": "2023-958257",
    "request_type": "Trash/Recycling",
    "request_reason": "Missed Trash Pick-Up",
    "date_created": "2023-01-01T15:20:04.000",
    "date_modified": "2023-01-01T15:20:05.000",
    "request_status": "Pending",
    "responsible_agency": "Department of Sanitation",
    "final_address": "331 Calhoun St",
    "address_councildis": "A",
    "status": "Assigned to Contractor",
    "contractor": "Richards Disposal",
    "rowid": "958257",
    "final_x": "3662903.2377",
    "final_y": "518354.343094",
    "longitude": "-90.12723007766911",
    "latitude": "29.91984584415235",
    "geocoded_column": {
      "latitude": "29.91984584415235",
      "longitude": "-90.12723007766911"
    }
  },
  {
    "service_request": "2023-958256",
    "request_type": "Trash/Recycling",
    "request_reason": "Request a Large Item Pick Up",
    "date_created": "2023-01-01T15:18:53.000",
    "date_modified": "2023-01-01T15:18:54.000",
    "request_status": "Pending",
    "responsible_agency": "Department of Sanitation",
    "final_address": "2315 Joliet St",
    "address_councildis": "A",
    "status": "Assigned to Contractor",
    "contractor": "Richards Disposal",
    "rowid": "958256",
    "final_x": "3663642.94599",
    "final_y": "532284.778243",
    "longitude": "-90.12443125221093",
    "latitude": "29.958128676534663",
    "geocoded_column": {
      "latitude": "29.958128676534663",
      "longitude": "-90.12443125221093"
    }
  },
  {
    "service_request": "2023-958255",
    "request_type": "Roads/Drainage",
    "request_reason": "Pothole",
    "date_created": "2023-01-01T15:12:14.000",
    "date_modified": "2023-01-01T15:12:14.000",
    "request_status": "Pending",
    "responsible_agency": "Department of Public Works",
    "final_address": "1027 Independence St",
    "address_councildis": "C",
    "status": "Pending",
    "rowid": "958255",
    "final_x": "3690936.33948",
    "final_y": "535285.730246",
    "longitude": "-90.03813945983933",
    "latitude": "29.96556024357869",
    "geocoded_column": {
      "latitude": "29.96556024357869",
      "longitude": "-90.03813945983933"
    }
  },
  {
    "service_request": "2023-958254",
    "request_type": "Mosquito, Termite & Rodent Control",
    "request_reason": "Non-Rodent Complaint (Mice, Possums, Snakes)",
    "date_created": "2023-01-01T15:10:14.000",
    "date_modified": "2023-01-01T15:10:14.000",
    "request_status": "Pending",
    "responsible_agency": "Mosquito, Termite & Rodent Control Board",
    "final_address": "6044 Milne Blvd",
    "address_councildis": "A",
    "status": "Pending",
    "rowid": "958254",
    "final_x": "3667002.17914",
    "final_y": "547921.97205",
    "longitude": "-90.11329793274484",
    "latitude": "30.001027816036093",
    "geocoded_column": {
      "latitude": "30.001027816036093",
      "longitude": "-90.11329793274484"
    }
  },
  {
    "service_request": "2023-958253",
    "request_type": "Trash/Recycling",
    "request_reason": "Request a Large Item Pick Up",
    "date_created": "2023-01-01T15:09:36.000",
    "date_modified": "2023-01-01T15:09:37.000",
    "request_status": "Pending",
    "responsible_agency": "Department of Sanitation",
    "final_address": "1000 Lizardi St",
    "address_councildis": "E",
    "status": "Assigned to Contractor",
    "contractor": "Waste Pro",
    "rowid": "958253",
    "final_x": "3696375.46211",
    "final_y": "533740.974085",
    "longitude": "-90.02101889800849",
    "latitude": "29.96114254024358",
    "geocoded_column": {
      "latitude": "29.96114254024358",
      "longitude": "-90.02101889800849"
    }
  },
  {
    "service_request": "2023-958252",
    "request_type": "Trash/Recycling",
    "request_reason": "MIssed Recycling Pick-Up",
    "date_created": "2023-01-01T15:07:52.000",
    "date_modified": "2023-01-01T15:07:53.000",
    "request_status": "Pending",
    "responsible_agency": "Department of Sanitation",
    "final_address": "254 Hillary St",
    "address_councildis": "A",
    "status": "Assigned to Contractor",
    "contractor": "Richards Disposal",
    "rowid": "958252",
    "final_x": "3661053.46624",
    "final_y": "524756.941436",
    "longitude": "-90.13285719965295",
    "latitude": "29.93750439724881",
    "geocoded_column": {
      "latitude": "29.93750439724881",
      "longitude": "-90.13285719965295"
    }
  },
  {
    "service_request": "2023-958251",
    "request_type": "Trash/Recycling",
    "request_reason": "Missed Trash Pick-Up",
    "date_created": "2023-01-01T15:00:25.000",
    "date_modified": "2023-01-01T15:00:26.000",
    "request_status": "Pending",
    "responsible_agency": "Department of Sanitation",
    "final_address": "5531 Freret St",
    "address_councildis": "A",
    "status": "Assigned to Contractor",
    "contractor": "Richards Disposal",
    "rowid": "958251",
    "final_x": "3667399.82823",
    "final_y": "524165.411708",
    "longitude": "-90.11284110699744",
    "latitude": "29.935693529417932",
    "geocoded_column": {
      "latitude": "29.935693529417932",
      "longitude": "-90.11284110699744"
    }
  },
  {
    "service_request": "2023-958250",
    "request_type": "Trash/Recycling",
    "request_reason": "Request a Large Item Pick Up",
    "date_created": "2023-01-01T14:58:16.000",
    "date_modified": "2023-01-01T14:58:17.000",
    "request_status": "Pending",
    "responsible_agency": "Department of Sanitation",
    "final_address": "25 Heron St",
    "address_councildis": "D",
    "status": "Assigned to Contractor",
    "contractor": "IV Waste",
    "rowid": "958250",
    "final_x": "3675116.78497",
    "final_y": "555477.507865",
    "longitude": "-90.08740366761765",
    "latitude": "30.02156278004902",
    "geocoded_column": {
      "latitude": "30.02156278004902",
      "longitude": "-90.08740366761765"
    }
  },
  {
    "service_request": "2023-958249",
    "request_type": "Trash/Recycling",
    "request_reason": "Missed Trash Pick-Up",
    "date_created": "2023-01-01T14:57:39.000",
    "date_modified": "2023-01-01T14:57:40.000",
    "request_status": "Pending",
    "responsible_agency": "Department of Sanitation",
    "final_address": "901 Webster St, New Orleans, Louisiana, 70118",
    "address_councildis": "A",
    "status": "Assigned to Contractor",
    "contractor": "Richards Disposal",
    "rowid": "958249",
    "final_x": "3664299.37684",
    "final_y": "519797.805688",
    "longitude": "-90.12277499124255",
    "latitude": "29.923774432923828",
    "geocoded_column": {
      "latitude": "29.923774432923828",
      "longitude": "-90.12277499124255"
    }
  },
  {
    "service_request": "2023-958248",
    "request_type": "Trash/Recycling",
    "request_reason": "Missed Trash Pick-Up",
    "date_created": "2023-01-01T14:47:32.000",
    "date_modified": "2023-01-01T14:47:33.000",
    "request_status": "Pending",
    "responsible_agency": "Department of Sanitation",
    "final_address": "836 State St",
    "address_councildis": "A",
    "status": "Assigned to Contractor",
    "contractor": "Richards Disposal",
    "rowid": "958248",
    "final_x": "3664731.22759",
    "final_y": "519518.187959",
    "longitude": "-90.12142112501716",
    "latitude": "29.92299301957163",
    "geocoded_column": {
      "latitude": "29.92299301957163",
      "longitude": "-90.12142112501716"
    }
  },
  {
    "service_request": "2023-958247",
    "request_type": "Trash/Recycling",
    "request_reason": "Missed Trash Pick-Up",
    "date_created": "2023-01-01T14:44:52.000",
    "date_modified": "2023-01-01T14:44:53.000",
    "request_status": "Pending",
    "responsible_agency": "Department of Sanitation",
    "final_address": "535 Arabella St",
    "address_councildis": "A",
    "status": "Assigned to Contractor",
    "contractor": "Richards Disposal",
    "rowid": "958247",
    "final_x": "3665709.33741",
    "final_y": "518227.41503",
    "longitude": "-90.11837680203152",
    "latitude": "29.9194153167254",
    "geocoded_column": {
      "latitude": "29.9194153167254",
      "longitude": "-90.11837680203152"
    }
  },
  {
    "service_request": "2023-958246",
    "request_type": "Trash/Recycling",
    "request_reason": "Request a Large Item Pick Up",
    "date_created": "2023-01-01T14:43:34.000",
    "date_modified": "2023-01-01T14:43:34.000",
    "request_status": "Pending",
    "responsible_agency": "Department of Sanitation",
    "final_address": "1462 Mithra St",
    "address_councildis": "D",
    "status": "Assigned to Contractor",
    "contractor": "IV Waste",
    "rowid": "958246",
    "final_x": "3678009.07374",
    "final_y": "552040.541718",
    "longitude": "-90.07838374751596",
    "latitude": "30.012025573374146",
    "geocoded_column": {
      "latitude": "30.012025573374146",
      "longitude": "-90.07838374751596"
    }
  },
  {
    "service_request": "2023-958245",
    "request_type": "EMS",
    "request_reason": "EMS Lost & Found",
    "date_created": "2023-01-01T14:36:06.000",
    "date_modified": "2023-01-01T14:37:48.000",
    "request_status": "Pending",
    "responsible_agency": "Emergency Medical Services",
    "final_address": "812 Gravier St Apt 409",
    "address_councildis": "B",
    "status": "Pending",
    "rowid": "958245",
    "final_x": "3680434.98811",
    "final_y": "530198.840257",
    "longitude": "-90.0714791856033",
    "latitude": "29.951895232747503",
    "geocoded_column": {
      "latitude": "29.951895232747503",
      "longitude": "-90.0714791856033"
    }
  },
  {
    "service_request": "2023-958244",
    "request_type": "Roads/Drainage",
    "request_reason": "WaterMain Break",
    "date_created": "2023-01-01T14:32:44.000",
    "date_modified": "2023-01-01T14:32:44.000",
    "request_status": "Closed",
    "responsible_agency": "Department of Public Works",
    "final_address": "5915 Colbert St",
    "address_councildis": "A",
    "status": "Invalid Case",
    "rowid": "958244",
    "final_x": "3667419.15879",
    "final_y": "546906.822865",
    "longitude": "-90.11201483739568",
    "latitude": "29.9982242917632",
    "geocoded_column": {
      "latitude": "29.9982242917632",
      "longitude": "-90.11201483739568"
    }
  },
  {
    "service_request": "2023-958243",
    "request_type": "Trash/Recycling",
    "request_reason": "Missed Trash Pick-Up",
    "date_created": "2023-01-01T14:29:52.000",
    "date_modified": "2023-01-01T14:29:52.000",
    "request_status": "Pending",
    "responsible_agency": "Department of Sanitation",
    "final_address": "5 Cromwell Pl",
    "address_councildis": "A",
    "status": "Assigned to Contractor",
    "contractor": "Richards Disposal",
    "rowid": "958243",
    "final_x": "3665912.86765",
    "final_y": "523932.572156",
    "longitude": "-90.1175432796573",
    "latitude": "29.935096761450342",
    "geocoded_column": {
      "latitude": "29.935096761450342",
      "longitude": "-90.1175432796573"
    }
  },
  {
    "service_request": "2023-958242",
    "request_type": "Trash/Recycling",
    "request_reason": "Request a Large Item Pick Up",
    "date_created": "2023-01-01T14:28:47.000",
    "date_modified": "2023-01-01T14:28:48.000",
    "request_status": "Pending",
    "responsible_agency": "Department of Sanitation",
    "final_address": "215 S Olympia St",
    "address_councildis": "A",
    "status": "Assigned to Contractor",
    "contractor": "Richards Disposal",
    "rowid": "958242",
    "final_x": "3669009.0569",
    "final_y": "539236.004106",
    "longitude": "-90.10725163596516",
    "latitude": "29.977085468059922",
    "geocoded_column": {
      "latitude": "29.977085468059922",
      "longitude": "-90.10725163596516"
    }
  },
  {
    "service_request": "2023-958241",
    "request_type": "Trash/Recycling",
    "request_reason": "Request a Large Item Pick Up",
    "date_created": "2023-01-01T14:24:01.000",
    "date_modified": "2023-01-01T14:24:02.000",
    "request_status": "Pending",
    "responsible_agency": "Department of Sanitation",
    "final_address": "1224 Monroe St",
    "address_councildis": "A",
    "status": "Assigned to Contractor",
    "contractor": "Richards Disposal",
    "rowid": "958241",
    "final_x": "3660507.74022",
    "final_y": "530003.801409",
    "longitude": "-90.13440678306728",
    "latitude": "29.951947304045643",
    "geocoded_column": {
      "latitude": "29.951947304045643",
      "longitude": "-90.13440678306728"
    }
  },
  {
    "service_request": "2023-958240",
    "request_type": "Trash/Recycling",
    "request_reason": "Illegal Dumping",
    "date_created": "2023-01-01T14:19:31.000",
    "date_modified": "2023-01-01T14:19:31.000",
    "request_status": "Pending",
    "responsible_agency": "Department of Sanitation",
    "final_address": "2917 St Thomas St",
    "address_councildis": "B",
    "status": "Pending",
    "rowid": "958240",
    "final_x": "3677489.49717",
    "final_y": "518962.386871",
    "longitude": "-90.08116737120126",
    "latitude": "29.92108754151266",
    "geocoded_column": {
      "latitude": "29.92108754151266",
      "longitude": "-90.08116737120126"
    }
  },
  {
    "service_request": "2023-958239",
    "request_type": "Trash/Recycling",
    "request_reason": "Replace Trash Cart",
    "date_created": "2023-01-01T14:17:14.000",
    "date_modified": "2023-01-01T14:17:15.000",
    "request_status": "Pending",
    "responsible_agency": "Department of Sanitation",
    "final_address": "4909 Painters St",
    "address_councildis": "D",
    "status": "Assigned to Contractor",
    "contractor": "IV Waste",
    "rowid": "958239",
    "final_x": "3686225.92348",
    "final_y": "551002.261717",
    "longitude": "-90.05245991417189",
    "latitude": "30.00892067573563",
    "geocoded_column": {
      "latitude": "30.00892067573563",
      "longitude": "-90.05245991417189"
    }
  },
  {
    "service_request": "2023-958237",
    "request_type": "Trash/Recycling",
    "request_reason": "MIssed Recycling Pick-Up",
    "date_created": "2023-01-01T14:02:39.000",
    "date_modified": "2023-01-01T14:02:40.000",
    "request_status": "Pending",
    "responsible_agency": "Department of Sanitation",
    "final_address": "329 Lowerline St",
    "address_councildis": "A",
    "status": "Assigned to Contractor",
    "contractor": "Richards Disposal",
    "rowid": "958237",
    "final_x": "3661536.41658",
    "final_y": "523552.803195",
    "longitude": "-90.13137236076453",
    "latitude": "29.93417947531416",
    "geocoded_column": {
      "latitude": "29.93417947531416",
      "longitude": "-90.13137236076453"
    }
  },
  {
    "service_request": "2023-958236",
    "request_type": "Trash/Recycling",
    "request_reason": "Missed Trash Pick-Up",
    "date_created": "2023-01-01T14:02:32.000",
    "date_modified": "2023-01-01T14:02:33.000",
    "request_status": "Pending",
    "responsible_agency": "Department of Sanitation",
    "final_address": "1514 Nashville Ave, New Orleans, Louisiana, 70115",
    "address_councildis": "A",
    "status": "Assigned to Contractor",
    "contractor": "Richards Disposal",
    "rowid": "958236",
    "final_x": "3666072.36781",
    "final_y": "521798.699898",
    "longitude": "-90.11711124074353",
    "latitude": "29.929224636267374",
    "geocoded_column": {
      "latitude": "29.929224636267374",
      "longitude": "-90.11711124074353"
    }
  },
  {
    "service_request": "2023-958235",
    "request_type": "Trash/Recycling",
    "request_reason": "Replace Trash Cart",
    "date_created": "2023-01-01T13:59:03.000",
    "date_modified": "2023-01-01T13:59:04.000",
    "request_status": "Pending",
    "responsible_agency": "Department of Sanitation",
    "final_address": "9877 E Wheaton Cir",
    "address_councildis": "E",
    "status": "Assigned to Contractor",
    "contractor": "Waste Pro",
    "rowid": "958235",
    "final_x": "3709077.07716",
    "final_y": "562660.49424",
    "longitude": "-89.97983115431913",
    "latitude": "30.040254089796473",
    "geocoded_column": {
      "latitude": "30.040254089796473",
      "longitude": "-89.97983115431913"
    }
  },
  {
    "service_request": "2023-958234",
    "request_type": "Trash/Recycling",
    "request_reason": "Missed Trash Pick-Up",
    "date_created": "2023-01-01T13:55:15.000",
    "date_modified": "2023-01-01T13:55:16.000",
    "request_status": "Pending",
    "responsible_agency": "Department of Sanitation",
    "final_address": "4627 Bienville Ave",
    "address_councildis": "A",
    "status": "Assigned to Contractor",
    "contractor": "Richards Disposal",
    "rowid": "958234",
    "final_x": "3669747.26426",
    "final_y": "540436.706763",
    "longitude": "-90.10487947573098",
    "latitude": "29.98036525364617",
    "geocoded_column": {
      "latitude": "29.98036525364617",
      "longitude": "-90.10487947573098"
    }
  },
  {
    "service_request": "2023-958233",
    "request_type": "Trash/Recycling",
    "request_reason": "Replace Trash Cart",
    "date_created": "2023-01-01T13:53:20.000",
    "date_modified": "2023-01-01T13:53:20.000",
    "request_status": "Pending",
    "responsible_agency": "Department of Sanitation",
    "final_address": "4627 Bienville Ave",
    "address_councildis": "A",
    "status": "Assigned to Contractor",
    "contractor": "Richards Disposal",
    "rowid": "958233",
    "final_x": "3669747.26426",
    "final_y": "540436.706763",
    "longitude": "-90.10487947573098",
    "latitude": "29.98036525364617",
    "geocoded_column": {
      "latitude": "29.98036525364617",
      "longitude": "-90.10487947573098"
    }
  },
  {
    "service_request": "2023-958232",
    "request_type": "Trash/Recycling",
    "request_reason": "Missed Trash Pick-Up",
    "date_created": "2023-01-01T13:43:09.000",
    "date_modified": "2023-01-01T13:43:10.000",
    "request_status": "Pending",
    "responsible_agency": "Department of Sanitation",
    "final_address": "3033 Octavia St",
    "address_councildis": "A",
    "status": "Assigned to Contractor",
    "contractor": "Richards Disposal",
    "rowid": "958232",
    "final_x": "3668257.89978",
    "final_y": "526832.833214",
    "longitude": "-90.11004225173377",
    "latitude": "29.943002920147734",
    "geocoded_column": {
      "latitude": "29.943002920147734",
      "longitude": "-90.11004225173377"
    }
  },
  {
    "service_request": "2023-958231",
    "request_type": "Trash/Recycling",
    "request_reason": "Missed Trash Pick-Up",
    "date_created": "2023-01-01T13:37:26.000",
    "date_modified": "2023-01-01T13:37:26.000",
    "request_status": "Pending",
    "responsible_agency": "Department of Sanitation",
    "final_address": "136 N Alexander St",
    "address_councildis": "A",
    "status": "Assigned to Contractor",
    "contractor": "Richards Disposal",
    "rowid": "958231",
    "final_x": "3670260.14977",
    "final_y": "539439.866442",
    "longitude": "-90.10329335801617",
    "latitude": "29.97760915139891",
    "geocoded_column": {
      "latitude": "29.97760915139891",
      "longitude": "-90.10329335801617"
    }
  },
  {
    "service_request": "2023-958230",
    "request_type": "Property Maintenance",
    "request_reason": "Property Maintenance",
    "date_created": "2023-01-01T13:35:51.000",
    "date_modified": "2023-01-01T13:35:51.000",
    "request_status": "Pending",
    "responsible_agency": "Department of Code Enforcement",
    "final_address": "2601 Valence St",
    "address_councildis": "B",
    "status": "Pending",
    "rowid": "958230",
    "final_x": "3669432.54401",
    "final_y": "524327.925692",
    "longitude": "-90.10641828356368",
    "latitude": "29.936080699580955",
    "geocoded_column": {
      "latitude": "29.936080699580955",
      "longitude": "-90.10641828356368"
    }
  },
  {
    "service_request": "2023-958229",
    "request_type": "Trash/Recycling",
    "request_reason": "Return Recycling Cart",
    "date_created": "2023-01-01T13:34:56.000",
    "date_modified": "2023-01-01T13:34:56.000",
    "request_status": "Pending",
    "responsible_agency": "Department of Sanitation",
    "final_address": "384 Audubon St",
    "address_councildis": "A",
    "status": "Pending",
    "rowid": "958229",
    "final_x": "3661989.53728",
    "final_y": "522774.781434",
    "longitude": "-90.12996766203612",
    "latitude": "29.932027083027652",
    "geocoded_column": {
      "latitude": "29.932027083027652",
      "longitude": "-90.12996766203612"
    }
  },
  {
    "service_request": "2023-958228",
    "request_type": "Trash/Recycling",
    "request_reason": "Order Recycling Cart",
    "date_created": "2023-01-01T13:25:45.000",
    "date_modified": "2023-01-01T13:25:45.000",
    "request_status": "Pending",
    "responsible_agency": "Department of Sanitation",
    "final_address": "1450 N Roman St",
    "address_councildis": "D",
    "status": "Pending",
    "rowid": "958228",
    "final_x": "3681016.49608",
    "final_y": "537392.719496",
    "longitude": "-90.06939249964725",
    "latitude": "29.971658325517353",
    "geocoded_column": {
      "latitude": "29.971658325517353",
      "longitude": "-90.06939249964725"
    }
  },
  {
    "service_request": "2023-958227",
    "request_type": "Trash/Recycling",
    "request_reason": "Request a Large Item Pick Up",
    "date_created": "2023-01-01T13:24:32.000",
    "date_modified": "2023-01-01T13:24:33.000",
    "request_status": "Pending",
    "responsible_agency": "Department of Sanitation",
    "final_address": "1450 N Roman St",
    "address_councildis": "D",
    "status": "Assigned to Contractor",
    "contractor": "IV Waste",
    "rowid": "958227",
    "final_x": "3681016.49608",
    "final_y": "537392.719496",
    "longitude": "-90.06939249964725",
    "latitude": "29.971658325517353",
    "geocoded_column": {
      "latitude": "29.971658325517353",
      "longitude": "-90.06939249964725"
    }
  },
  {
    "service_request": "2023-958226",
    "request_type": "Trash/Recycling",
    "request_reason": "Order Recycling Cart",
    "date_created": "2023-01-01T13:21:01.000",
    "date_modified": "2023-01-01T13:21:02.000",
    "request_status": "Pending",
    "responsible_agency": "Department of Sanitation",
    "final_address": "7008 Chestnut St",
    "address_councildis": "A",
    "status": "Pending",
    "rowid": "958226",
    "final_x": "3661620.93606",
    "final_y": "521525.145209",
    "longitude": "-90.13117269319672",
    "latitude": "29.92860161417625",
    "geocoded_column": {
      "latitude": "29.92860161417625",
      "longitude": "-90.13117269319672"
    }
  },
  {
    "service_request": "2023-958225",
    "request_type": "Trash/Recycling",
    "request_reason": "Missed Trash Pick-Up",
    "date_created": "2023-01-01T13:18:44.000",
    "date_modified": "2023-01-01T13:18:44.000",
    "request_status": "Pending",
    "responsible_agency": "Department of Sanitation",
    "final_address": "3219 Second St",
    "address_councildis": "B",
    "status": "Assigned to Contractor",
    "contractor": "Richards Disposal",
    "rowid": "958225",
    "final_x": "3673477.42555",
    "final_y": "527989.727487",
    "longitude": "-90.09352338201789",
    "latitude": "29.946029746971845",
    "geocoded_column": {
      "latitude": "29.946029746971845",
      "longitude": "-90.09352338201789"
    }
  },
  {
    "service_request": "2023-958224",
    "request_type": "Trash/Recycling",
    "request_reason": "Missed Trash Pick-Up",
    "date_created": "2023-01-01T13:03:25.000",
    "date_modified": "2023-01-01T13:03:26.000",
    "request_status": "Pending",
    "responsible_agency": "Department of Sanitation",
    "final_address": "4619 Iberville St",
    "address_councildis": "A",
    "status": "Assigned to Contractor",
    "contractor": "Richards Disposal",
    "rowid": "958224",
    "final_x": "3669557.37274",
    "final_y": "540164.609483",
    "longitude": "-90.10548844501554",
    "latitude": "29.97962267478204",
    "geocoded_column": {
      "latitude": "29.97962267478204",
      "longitude": "-90.10548844501554"
    }
  },
  {
    "service_request": "2023-958223",
    "request_type": "Trash/Recycling",
    "request_reason": "MIssed Recycling Pick-Up",
    "date_created": "2023-01-01T12:57:24.000",
    "date_modified": "2023-01-01T12:57:25.000",
    "request_status": "Pending",
    "responsible_agency": "Department of Sanitation",
    "final_address": "540 Audubon St, New Orleans, Louisiana, 70118",
    "address_councildis": "A",
    "status": "Assigned to Contractor",
    "contractor": "Richards Disposal",
    "rowid": "958223",
    "final_x": "3662849.61095",
    "final_y": "524071.19782",
    "longitude": "-90.12720940469075",
    "latitude": "29.93556695424618",
    "geocoded_column": {
      "latitude": "29.93556695424618",
      "longitude": "-90.12720940469075"
    }
  },
  {
    "service_request": "2023-958222",
    "request_type": "Trash/Recycling",
    "request_reason": "Missed Trash Pick-Up",
    "date_created": "2023-01-01T12:55:50.000",
    "date_modified": "2023-01-01T12:55:51.000",
    "request_status": "Pending",
    "responsible_agency": "Department of Sanitation",
    "final_address": "540 Audubon St, New Orleans, Louisiana, 70118",
    "address_councildis": "A",
    "status": "Assigned to Contractor",
    "contractor": "Richards Disposal",
    "rowid": "958222",
    "final_x": "3662849.61095",
    "final_y": "524071.19782",
    "longitude": "-90.12720940469075",
    "latitude": "29.93556695424618",
    "geocoded_column": {
      "latitude": "29.93556695424618",
      "longitude": "-90.12720940469075"
    }
  },
  {
    "service_request": "2023-958221",
    "request_type": "Property Maintenance",
    "request_reason": "Property Maintenance",
    "date_created": "2023-01-01T12:53:50.000",
    "date_modified": "2023-01-01T12:53:50.000",
    "request_status": "Pending",
    "responsible_agency": "Department of Code Enforcement",
    "final_address": "2037 First St",
    "address_councildis": "B",
    "status": "Pending",
    "rowid": "958221",
    "final_x": "3676020.40193",
    "final_y": "524683.305148",
    "longitude": "-90.08560800966494",
    "latitude": "29.93686227132431",
    "geocoded_column": {
      "latitude": "29.93686227132431",
      "longitude": "-90.08560800966494"
    }
  },
  {
    "service_request": "2023-958220",
    "request_type": "Trash/Recycling",
    "request_reason": "Order Recycling Cart",
    "date_created": "2023-01-01T12:49:45.000",
    "date_modified": "2023-01-01T12:49:45.000",
    "request_status": "Pending",
    "responsible_agency": "Department of Sanitation",
    "final_address": "2520 Acacia St",
    "address_councildis": "D",
    "status": "Pending",
    "rowid": "958220",
    "final_x": "3686634.9677",
    "final_y": "546268.640976",
    "longitude": "-90.0513349323612",
    "latitude": "29.995892354742804",
    "geocoded_column": {
      "latitude": "29.995892354742804",
      "longitude": "-90.0513349323612"
    }
  },
  {
    "service_request": "2023-958219",
    "request_type": "Trash/Recycling",
    "request_reason": "Missed Trash Pick-Up",
    "date_created": "2023-01-01T12:47:49.000",
    "date_modified": "2023-01-01T12:47:50.000",
    "request_status": "Pending",
    "responsible_agency": "Department of Sanitation",
    "final_address": "5962 Patton St",
    "address_councildis": "A",
    "status": "Assigned to Contractor",
    "contractor": "Richards Disposal",
    "rowid": "958219",
    "final_x": "3664592.39008",
    "final_y": "518494.393271",
    "longitude": "-90.12189355047651",
    "latitude": "29.920181941337955",
    "geocoded_column": {
      "latitude": "29.920181941337955",
      "longitude": "-90.12189355047651"
    }
  },
  {
    "service_request": "2023-958218",
    "request_type": "Trash/Recycling",
    "request_reason": "Missed Trash Pick-Up",
    "date_created": "2023-01-01T12:40:25.000",
    "date_modified": "2023-01-01T12:40:25.000",
    "request_status": "Pending",
    "responsible_agency": "Department of Sanitation",
    "final_address": "3134 State Street Dr",
    "address_councildis": "A",
    "status": "Assigned to Contractor",
    "contractor": "Richards Disposal",
    "rowid": "958218",
    "final_x": "3667452.09844",
    "final_y": "527868.181503",
    "longitude": "-90.1125515461791",
    "latitude": "29.94587342309083",
    "geocoded_column": {
      "latitude": "29.94587342309083",
      "longitude": "-90.1125515461791"
    }
  },
  {
    "service_request": "2023-958217",
    "request_type": "Trash/Recycling",
    "request_reason": "MIssed Recycling Pick-Up",
    "date_created": "2023-01-01T12:32:33.000",
    "date_modified": "2023-01-01T12:32:33.000",
    "request_status": "Pending",
    "responsible_agency": "Department of Sanitation",
    "final_address": "1025 Milan St",
    "address_councildis": "B",
    "status": "Assigned to Contractor",
    "contractor": "Richards Disposal",
    "rowid": "958217",
    "final_x": "3671783.11982",
    "final_y": "519478.514871",
    "longitude": "-90.09916233789076",
    "latitude": "29.922676962477926",
    "geocoded_column": {
      "latitude": "29.922676962477926",
      "longitude": "-90.09916233789076"
    }
  },
  {
    "service_request": "2023-958216",
    "request_type": "Trash/Recycling",
    "request_reason": "Missed Trash Pick-Up",
    "date_created": "2023-01-01T12:25:06.000",
    "date_modified": "2023-01-01T12:25:06.000",
    "request_status": "Pending",
    "responsible_agency": "Department of Sanitation",
    "final_address": "3320 Nashville Ave",
    "address_councildis": "A",
    "status": "Assigned to Contractor",
    "contractor": "Richards Disposal",
    "rowid": "958216",
    "final_x": "3667943.22119",
    "final_y": "528027.657087",
    "longitude": "-90.11099553035372",
    "latitude": "29.946297532611254",
    "geocoded_column": {
      "latitude": "29.946297532611254",
      "longitude": "-90.11099553035372"
    }
  },
  {
    "service_request": "2023-958215",
    "request_type": "Trash/Recycling",
    "request_reason": "Missed Trash Pick-Up",
    "date_created": "2023-01-01T12:24:24.000",
    "date_modified": "2023-01-01T12:24:25.000",
    "request_status": "Pending",
    "responsible_agency": "Department of Sanitation",
    "final_address": "511 Passera Ct",
    "address_councildis": "A",
    "status": "Assigned to Contractor",
    "contractor": "Richards Disposal",
    "rowid": "958215",
    "final_x": "3670529.71937",
    "final_y": "540786.401931",
    "longitude": "-90.10239627683683",
    "latitude": "29.98130370725355",
    "geocoded_column": {
      "latitude": "29.98130370725355",
      "longitude": "-90.10239627683683"
    }
  },
  {
    "service_request": "2023-958214",
    "request_type": "Roads/Drainage",
    "request_reason": "WaterMain Break",
    "date_created": "2023-01-01T12:22:45.000",
    "date_modified": "2023-01-01T12:22:45.000",
    "request_status": "Closed",
    "responsible_agency": "Department of Public Works",
    "final_address": "4 Thrush St",
    "address_councildis": "D",
    "status": "Invalid Case",
    "rowid": "958214",
    "final_x": "3672287.48987",
    "final_y": "555027.746201",
    "longitude": "-90.09635884128336",
    "latitude": "30.020410383956925",
    "geocoded_column": {
      "latitude": "30.020410383956925",
      "longitude": "-90.09635884128336"
    }
  },
  {
    "service_request": "2023-958213",
    "request_type": "Traffic Signals/Signs/Striping/Streetlights",
    "request_reason": "Street Light Outage/Malfunction",
    "date_created": "2023-01-01T12:19:54.000",
    "date_modified": "2023-01-01T12:19:54.000",
    "request_status": "Pending",
    "responsible_agency": "Department of Public Works",
    "final_address": "6101 Argonne Blvd",
    "address_councildis": "A",
    "status": "Assigned to Contractor",
    "contractor": "Legacy Professional Services",
    "rowid": "958213",
    "final_x": "3670281.2923",
    "final_y": "547836.900178",
    "longitude": "-90.1029418059407",
    "latitude": "30.000697488116646",
    "geocoded_column": {
      "latitude": "30.000697488116646",
      "longitude": "-90.1029418059407"
    }
  },
  {
    "service_request": "2023-958212",
    "request_type": "Trash/Recycling",
    "request_reason": "MIssed Recycling Pick-Up",
    "date_created": "2023-01-01T12:19:33.000",
    "date_modified": "2023-01-01T12:19:34.000",
    "request_status": "Pending",
    "responsible_agency": "Department of Sanitation",
    "final_address": "225 Walnut St",
    "address_councildis": "A",
    "status": "Assigned to Contractor",
    "contractor": "Richards Disposal",
    "rowid": "958212",
    "final_x": "3661395.55418",
    "final_y": "521207.350969",
    "longitude": "-90.13189469890942",
    "latitude": "29.927734279295464",
    "geocoded_column": {
      "latitude": "29.927734279295464",
      "longitude": "-90.13189469890942"
    }
  },
  {
    "service_request": "2023-958211",
    "request_type": "Abandoned Vehicles",
    "request_reason": "Abandoned/Junk Vehicles",
    "date_created": "2023-01-01T12:13:20.000",
    "date_modified": "2023-01-01T12:13:20.000",
    "request_status": "Pending",
    "responsible_agency": "Department of Public Works",
    "final_address": "1240 General Ogden St",
    "address_councildis": "A",
    "status": "Pending",
    "rowid": "958211",
    "final_x": "3660057.2039",
    "final_y": "530530.355906",
    "longitude": "-90.13581199596352",
    "latitude": "29.95340811463674",
    "geocoded_column": {
      "latitude": "29.95340811463674",
      "longitude": "-90.13581199596352"
    }
  },
  {
    "service_request": "2023-958210",
    "request_type": "Abandoned Vehicles",
    "request_reason": "Abandoned/Junk Vehicles",
    "date_created": "2023-01-01T12:11:57.000",
    "date_modified": "2023-01-01T12:11:57.000",
    "request_status": "Pending",
    "responsible_agency": "Department of Public Works",
    "final_address": "1301 General Ogden St",
    "address_councildis": "A",
    "status": "Pending",
    "rowid": "958210",
    "final_x": "3660151.73862",
    "final_y": "530538.13965",
    "longitude": "-90.13551323699676",
    "latitude": "29.95342680046426",
    "geocoded_column": {
      "latitude": "29.95342680046426",
      "longitude": "-90.13551323699676"
    }
  },
  {
    "service_request": "2023-958209",
    "request_type": "Trash/Recycling",
    "request_reason": "Missed Trash Pick-Up",
    "date_created": "2023-01-01T12:02:08.000",
    "date_modified": "2023-01-01T12:02:09.000",
    "request_status": "Pending",
    "responsible_agency": "Department of Sanitation",
    "final_address": "2708 Octavia St",
    "address_councildis": "A",
    "status": "Assigned to Contractor",
    "contractor": "Richards Disposal",
    "rowid": "958209",
    "final_x": "3667854.99533",
    "final_y": "525457.428989",
    "longitude": "-90.11136063414558",
    "latitude": "29.93923282324112",
    "geocoded_column": {
      "latitude": "29.93923282324112",
      "longitude": "-90.11136063414558"
    }
  },
  {
    "service_request": "2023-958208",
    "request_type": "Roads/Drainage",
    "request_reason": "Alley Way",
    "date_created": "2023-01-01T11:59:54.000",
    "date_modified": "2023-01-01T11:59:54.000",
    "request_status": "Pending",
    "responsible_agency": "Department of Public Works",
    "final_address": "6354 Orleans Ave",
    "address_councildis": "A",
    "status": "Pending",
    "rowid": "958208",
    "final_x": "3671047.45876",
    "final_y": "549495.561939",
    "longitude": "-90.10046504789682",
    "latitude": "30.00523558448891",
    "geocoded_column": {
      "latitude": "30.00523558448891",
      "longitude": "-90.10046504789682"
    }
  },
  {
    "service_request": "2023-958207",
    "request_type": "Trash/Recycling",
    "request_reason": "Missed Trash Pick-Up",
    "date_created": "2023-01-01T11:57:32.000",
    "date_modified": "2023-01-01T11:57:32.000",
    "request_status": "Pending",
    "responsible_agency": "Department of Sanitation",
    "final_address": "8121 Zimple St",
    "address_councildis": "A",
    "status": "Assigned to Contractor",
    "contractor": "Richards Disposal",
    "rowid": "958207",
    "final_x": "3661617.28358",
    "final_y": "528270.96448",
    "longitude": "-90.1309607653579",
    "latitude": "29.947150589155818",
    "geocoded_column": {
      "latitude": "29.947150589155818",
      "longitude": "-90.1309607653579"
    }
  },
  {
    "service_request": "2023-958206",
    "request_type": "Roads/Drainage",
    "request_reason": "Pothole",
    "date_created": "2023-01-01T11:57:28.000",
    "date_modified": "2023-01-01T11:57:28.000",
    "request_status": "Pending",
    "responsible_agency": "Department of Public Works",
    "final_address": "6354 Orleans Ave",
    "address_councildis": "A",
    "status": "Pending",
    "rowid": "958206",
    "final_x": "3671047.45876",
    "final_y": "549495.561939",
    "longitude": "-90.10046504789682",
    "latitude": "30.00523558448891",
    "geocoded_column": {
      "latitude": "30.00523558448891",
      "longitude": "-90.10046504789682"
    }
  },
  {
    "service_request": "2023-958205",
    "request_type": "Trash/Recycling",
    "request_reason": "Damaged Caused By Contractor",
    "date_created": "2023-01-01T11:55:32.000",
    "date_modified": "2023-01-01T11:55:33.000",
    "request_status": "Pending",
    "responsible_agency": "Department of Sanitation",
    "final_address": "2306 Short St",
    "address_councildis": "A",
    "status": "Assigned to Contractor",
    "contractor": "Richards Disposal",
    "rowid": "958205",
    "final_x": "3664907.14823",
    "final_y": "530994.835778",
    "longitude": "-90.1204823494632",
    "latitude": "29.9545450200299",
    "geocoded_column": {
      "latitude": "29.9545450200299",
      "longitude": "-90.1204823494632"
    }
  },
  {
    "service_request": "2023-958204",
    "request_type": "Trash/Recycling",
    "request_reason": "Return Recycling Cart",
    "date_created": "2023-01-01T11:53:45.000",
    "date_modified": "2023-01-01T11:53:45.000",
    "request_status": "Pending",
    "responsible_agency": "Department of Sanitation",
    "final_address": "6354 Orleans Ave",
    "address_councildis": "A",
    "status": "Pending",
    "rowid": "958204",
    "final_x": "3671047.45876",
    "final_y": "549495.561939",
    "longitude": "-90.10046504789682",
    "latitude": "30.00523558448891",
    "geocoded_column": {
      "latitude": "30.00523558448891",
      "longitude": "-90.10046504789682"
    }
  },
  {
    "service_request": "2023-958203",
    "request_type": "Trash/Recycling",
    "request_reason": "Missed Trash Pick-Up",
    "date_created": "2023-01-01T11:34:37.000",
    "date_modified": "2023-01-01T11:34:37.000",
    "request_status": "Pending",
    "responsible_agency": "Department of Sanitation",
    "final_address": "2220 Joseph St, New Orleans, Louisiana, 70115",
    "address_councildis": "A",
    "status": "Assigned to Contractor",
    "contractor": "Richards Disposal",
    "rowid": "958203",
    "final_x": "3667239.26791",
    "final_y": "524326.86438",
    "longitude": "-90.11334257296191",
    "latitude": "29.936142174135835",
    "geocoded_column": {
      "latitude": "29.936142174135835",
      "longitude": "-90.11334257296191"
    }
  },
  {
    "service_request": "2023-958202",
    "request_type": "Trash/Recycling",
    "request_reason": "Missed Trash Pick-Up",
    "date_created": "2023-01-01T11:33:05.000",
    "date_modified": "2023-01-01T11:33:06.000",
    "request_status": "Pending",
    "responsible_agency": "Department of Sanitation",
    "final_address": "8402 Pritchard Pl",
    "address_councildis": "A",
    "status": "Assigned to Contractor",
    "contractor": "Richards Disposal",
    "rowid": "958202",
    "final_x": "3665191.42343",
    "final_y": "533625.713477",
    "longitude": "-90.11949671290695",
    "latitude": "29.961770797290477",
    "geocoded_column": {
      "latitude": "29.961770797290477",
      "longitude": "-90.11949671290695"
    }
  },
  {
    "service_request": "2023-958201",
    "request_type": "Trash/Recycling",
    "request_reason": "Missed Trash Pick-Up",
    "date_created": "2023-01-01T11:32:43.000",
    "date_modified": "2023-01-01T11:32:44.000",
    "request_status": "Pending",
    "responsible_agency": "Department of Sanitation",
    "final_address": "2220 Joseph St, New Orleans, Louisiana, 70115",
    "address_councildis": "A",
    "status": "Assigned to Contractor",
    "contractor": "Richards Disposal",
    "rowid": "958201",
    "final_x": "3667239.26791",
    "final_y": "524326.86438",
    "longitude": "-90.11334257296191",
    "latitude": "29.936142174135835",
    "geocoded_column": {
      "latitude": "29.936142174135835",
      "longitude": "-90.11334257296191"
    }
  },
  {
    "service_request": "2023-958200",
    "request_type": "Trash/Recycling",
    "request_reason": "Missed Trash Pick-Up",
    "date_created": "2023-01-01T11:28:42.000",
    "date_modified": "2023-01-01T11:28:43.000",
    "request_status": "Pending",
    "responsible_agency": "Department of Sanitation",
    "final_address": "5518 Magnolia St",
    "address_councildis": "A",
    "status": "Assigned to Contractor",
    "contractor": "Richards Disposal",
    "rowid": "958200",
    "final_x": "3667533.95405",
    "final_y": "524751.644092",
    "longitude": "-90.11239794812663",
    "latitude": "29.93730155162325",
    "geocoded_column": {
      "latitude": "29.93730155162325",
      "longitude": "-90.11239794812663"
    }
  },
  {
    "service_request": "2023-958199",
    "request_type": "Trash/Recycling",
    "request_reason": "Missed Trash Pick-Up",
    "date_created": "2023-01-01T11:25:46.000",
    "date_modified": "2023-01-01T11:25:47.000",
    "request_status": "Pending",
    "responsible_agency": "Department of Sanitation",
    "final_address": "2401 Joseph St",
    "address_councildis": "A",
    "status": "Assigned to Contractor",
    "contractor": "Richards Disposal",
    "rowid": "958199",
    "final_x": "3667474.23559",
    "final_y": "524859.426172",
    "longitude": "-90.1125828585947",
    "latitude": "29.9375996673123",
    "geocoded_column": {
      "latitude": "29.9375996673123",
      "longitude": "-90.1125828585947"
    }
  },
  {
    "service_request": "2023-958198",
    "request_type": "Trash/Recycling",
    "request_reason": "Missed Trash Pick-Up",
    "date_created": "2023-01-01T11:19:51.000",
    "date_modified": "2023-01-01T11:19:51.000",
    "request_status": "Pending",
    "responsible_agency": "Department of Sanitation",
    "final_address": "8407 Panola St",
    "address_councildis": "A",
    "status": "Assigned to Contractor",
    "contractor": "Richards Disposal",
    "rowid": "958198",
    "final_x": "3663248.46803",
    "final_y": "531527.940035",
    "longitude": "-90.12570209798855",
    "latitude": "29.956059055151336",
    "geocoded_column": {
      "latitude": "29.956059055151336",
      "longitude": "-90.12570209798855"
    }
  },
  {
    "service_request": "2023-958197",
    "request_type": "Trash/Recycling",
    "request_reason": "Order Recycling Cart",
    "date_created": "2023-01-01T11:19:24.000",
    "date_modified": "2023-01-01T11:19:24.000",
    "request_status": "Pending",
    "responsible_agency": "Department of Sanitation",
    "final_address": "2020 Sumpter St",
    "address_councildis": "D",
    "status": "Pending",
    "rowid": "958197",
    "final_x": "3682678.79663",
    "final_y": "549385.725395",
    "longitude": "-90.06372303939195",
    "latitude": "30.004584334349794",
    "geocoded_column": {
      "latitude": "30.004584334349794",
      "longitude": "-90.06372303939195"
    }
  },
  {
    "service_request": "2023-958196",
    "request_type": "Trash/Recycling",
    "request_reason": "Order Trash Cart",
    "date_created": "2023-01-01T11:18:49.000",
    "date_modified": "2023-01-01T11:18:50.000",
    "request_status": "Pending",
    "responsible_agency": "Department of Sanitation",
    "final_address": "2020 Sumpter St",
    "address_councildis": "D",
    "status": "Assigned to Contractor",
    "contractor": "IV Waste",
    "rowid": "958196",
    "final_x": "3682678.79663",
    "final_y": "549385.725395",
    "longitude": "-90.06372303939195",
    "latitude": "30.004584334349794",
    "geocoded_column": {
      "latitude": "30.004584334349794",
      "longitude": "-90.06372303939195"
    }
  },
  {
    "service_request": "2023-958195",
    "request_type": "Trash/Recycling",
    "request_reason": "MIssed Recycling Pick-Up",
    "date_created": "2023-01-01T11:13:35.000",
    "date_modified": "2023-01-01T11:13:36.000",
    "request_status": "Pending",
    "responsible_agency": "Department of Sanitation",
    "final_address": "4930 S Miro St",
    "address_councildis": "B",
    "status": "Assigned to Contractor",
    "contractor": "Richards Disposal",
    "rowid": "958195",
    "final_x": "3669014.17914",
    "final_y": "527670.004799",
    "longitude": "-90.10762621159833",
    "latitude": "29.9452826478831",
    "geocoded_column": {
      "latitude": "29.9452826478831",
      "longitude": "-90.10762621159833"
    }
  },
  {
    "service_request": "2023-958194",
    "request_type": "Trash/Recycling",
    "request_reason": "Missed Trash Pick-Up",
    "date_created": "2023-01-01T11:05:58.000",
    "date_modified": "2023-01-01T11:05:58.000",
    "request_status": "Pending",
    "responsible_agency": "Department of Sanitation",
    "final_address": "1618 Dublin St",
    "address_councildis": "A",
    "status": "Assigned to Contractor",
    "contractor": "Richards Disposal",
    "rowid": "958194",
    "final_x": "3662720.02336",
    "final_y": "529796.128769",
    "longitude": "-90.12742830486165",
    "latitude": "29.95131243708717",
    "geocoded_column": {
      "latitude": "29.95131243708717",
      "longitude": "-90.12742830486165"
    }
  },
  {
    "service_request": "2023-958193",
    "request_type": "Trash/Recycling",
    "request_reason": "MIssed Recycling Pick-Up",
    "date_created": "2023-01-01T11:01:18.000",
    "date_modified": "2023-01-01T11:01:19.000",
    "request_status": "Pending",
    "responsible_agency": "Department of Sanitation",
    "final_address": "7900 Jeannette St",
    "address_councildis": "A",
    "status": "Assigned to Contractor",
    "contractor": "Richards Disposal",
    "rowid": "958193",
    "final_x": "3663185.06631",
    "final_y": "528629.575168",
    "longitude": "-90.12599873211983",
    "latitude": "29.948091324565393",
    "geocoded_column": {
      "latitude": "29.948091324565393",
      "longitude": "-90.12599873211983"
    }
  },
  {
    "service_request": "2023-958192",
    "request_type": "Trash/Recycling",
    "request_reason": "Replace Trash Cart",
    "date_created": "2023-01-01T10:56:32.000",
    "date_modified": "2023-01-01T10:56:32.000",
    "request_status": "Pending",
    "responsible_agency": "Department of Sanitation",
    "final_address": "219 Audubon St",
    "address_councildis": "A",
    "status": "Assigned to Contractor",
    "contractor": "Richards Disposal",
    "rowid": "958192",
    "final_x": "3661099.39872",
    "final_y": "521312.704313",
    "longitude": "-90.13282611171032",
    "latitude": "29.928032503228074",
    "geocoded_column": {
      "latitude": "29.928032503228074",
      "longitude": "-90.13282611171032"
    }
  },
  {
    "service_request": "2023-958191",
    "request_type": "Trash/Recycling",
    "request_reason": "Missed Trash Pick-Up",
    "date_created": "2023-01-01T10:55:03.000",
    "date_modified": "2023-01-01T10:55:04.000",
    "request_status": "Pending",
    "responsible_agency": "Department of Sanitation",
    "final_address": "1115 Arabella St",
    "address_councildis": "A",
    "status": "Assigned to Contractor",
    "contractor": "Richards Disposal",
    "rowid": "958191",
    "final_x": "3666117.66861",
    "final_y": "520060.285368",
    "longitude": "-90.11702648760547",
    "latitude": "29.924443223132393",
    "geocoded_column": {
      "latitude": "29.924443223132393",
      "longitude": "-90.11702648760547"
    }
  },
  {
    "service_request": "2023-958190",
    "request_type": "Trash/Recycling",
    "request_reason": "Illegal Dumping",
    "date_created": "2023-01-01T10:54:04.000",
    "date_modified": "2023-01-01T10:54:04.000",
    "request_status": "Pending",
    "responsible_agency": "Department of Sanitation",
    "final_address": "411 Bienville St",
    "address_councildis": "C",
    "status": "Pending",
    "rowid": "958190",
    "final_x": "3682381.96456",
    "final_y": "530787.44333",
    "longitude": "-90.06531099576203",
    "latitude": "29.953454592579792",
    "geocoded_column": {
      "latitude": "29.953454592579792",
      "longitude": "-90.06531099576203"
    }
  },
  {
    "service_request": "2023-958189",
    "request_type": "Trash/Recycling",
    "request_reason": "Replace Trash Cart",
    "date_created": "2023-01-01T10:38:30.000",
    "date_modified": "2023-01-01T10:38:31.000",
    "request_status": "Pending",
    "responsible_agency": "Department of Sanitation",
    "final_address": "2812 Hudson Pl",
    "address_councildis": "C",
    "status": "Assigned to Contractor",
    "contractor": "Richards Disposal",
    "rowid": "958189",
    "final_x": "3703417.07249",
    "final_y": "520349.41868",
    "longitude": "-89.99927527941595",
    "latitude": "29.924096862061976",
    "geocoded_column": {
      "latitude": "29.924096862061976",
      "longitude": "-89.99927527941595"
    }
  },
  {
    "service_request": "2023-958188",
    "request_type": "Traffic Signals/Signs/Striping/Streetlights",
    "request_reason": "Traffic Sign Missing/Damaged",
    "date_created": "2023-01-01T10:26:48.000",
    "date_modified": "2023-01-01T10:26:48.000",
    "request_status": "Pending",
    "responsible_agency": "Department of Public Works",
    "final_address": "7915 Pearl St",
    "address_councildis": "A",
    "status": "Pending",
    "rowid": "958188",
    "final_x": "3660808.97242",
    "final_y": "526153.056574",
    "longitude": "-90.13358293798537",
    "latitude": "29.941350313539058",
    "geocoded_column": {
      "latitude": "29.941350313539058",
      "longitude": "-90.13358293798537"
    }
  },
  {
    "service_request": "2023-958187",
    "request_type": "Trash/Recycling",
    "request_reason": "Order Recycling Cart",
    "date_created": "2023-01-01T10:20:38.000",
    "date_modified": "2023-01-01T10:20:38.000",
    "request_status": "Pending",
    "responsible_agency": "Department of Sanitation",
    "final_address": "1567 Senate St",
    "address_councildis": "D",
    "status": "Pending",
    "rowid": "958187",
    "final_x": "3679320.78415",
    "final_y": "547431.416657",
    "longitude": "-90.07439948573987",
    "latitude": "29.99931256049286",
    "geocoded_column": {
      "latitude": "29.99931256049286",
      "longitude": "-90.07439948573987"
    }
  },
  {
    "service_request": "2023-958186",
    "request_type": "Trash/Recycling",
    "request_reason": "Order Recycling Cart",
    "date_created": "2023-01-01T10:19:30.000",
    "date_modified": "2023-01-01T10:19:30.000",
    "request_status": "Pending",
    "responsible_agency": "Department of Sanitation",
    "final_address": "2356 Rousseau St",
    "address_councildis": "B",
    "status": "Pending",
    "rowid": "958186",
    "final_x": "3679451.82946",
    "final_y": "519656.076088",
    "longitude": "-90.0749491212763",
    "latitude": "29.922935850911973",
    "geocoded_column": {
      "latitude": "29.922935850911973",
      "longitude": "-90.0749491212763"
    }
  },
  {
    "service_request": "2023-958185",
    "request_type": "Property Maintenance",
    "request_reason": "Property Maintenance",
    "date_created": "2023-01-01T10:15:10.000",
    "date_modified": "2023-01-01T10:15:10.000",
    "request_status": "Pending",
    "responsible_agency": "Department of Code Enforcement",
    "final_address": "1130 Marigny St",
    "address_councildis": "C",
    "status": "Pending",
    "rowid": "958185",
    "final_x": "3685354.87247",
    "final_y": "536620.930375",
    "longitude": "-90.05571845320657",
    "latitude": "29.96940387541849",
    "geocoded_column": {
      "latitude": "29.96940387541849",
      "longitude": "-90.05571845320657"
    }
  },
  {
    "service_request": "2023-958184",
    "request_type": "Trash/Recycling",
    "request_reason": "Missed Trash Pick-Up",
    "date_created": "2023-01-01T10:15:09.000",
    "date_modified": "2023-01-01T10:15:10.000",
    "request_status": "Pending",
    "responsible_agency": "Department of Sanitation",
    "final_address": "5419 Freret St",
    "address_councildis": "A",
    "status": "Assigned to Contractor",
    "contractor": "Richards Disposal",
    "rowid": "958184",
    "final_x": "3667761.82676",
    "final_y": "524116.028156",
    "longitude": "-90.11169993103742",
    "latitude": "29.93554713323735",
    "geocoded_column": {
      "latitude": "29.93554713323735",
      "longitude": "-90.11169993103742"
    }
  },
  {
    "service_request": "2023-958182",
    "request_type": "Trash/Recycling",
    "request_reason": "Missed Trash Pick-Up",
    "date_created": "2023-01-01T10:07:49.000",
    "date_modified": "2023-01-01T10:07:50.000",
    "request_status": "Pending",
    "responsible_agency": "Department of Sanitation",
    "final_address": "3443 Vincennes Pl",
    "address_councildis": "A",
    "status": "Assigned to Contractor",
    "contractor": "Richards Disposal",
    "rowid": "958182",
    "final_x": "3668103.78189",
    "final_y": "528828.946496",
    "longitude": "-90.11046158219004",
    "latitude": "29.94849610747294",
    "geocoded_column": {
      "latitude": "29.94849610747294",
      "longitude": "-90.11046158219004"
    }
  },