[
  {
    "service_request": "2025-1209845",
    "request_type": "Trash/Recycling",
    "request_reason": "Request a Large Item Pick Up",
    "date_created": "2025-07-15T23:09:34.000",
    "date_modified": "2025-07-15T23:09:37.000",
    "request_status": "Pending",
    "responsible_agency": "Department of Sanitation",
    "final_address": "5831 Abbey Dr",
    "address_councildis": "C",
    "status": "Assigned to Contractor",
    "contractor": "Richards Disposal",
    "rowid": "1209845",
    "final_x": "3705268.67102",
    "final_y": "520859.007097",
    "longitude": "-89.99341167409789",
    "latitude": "29.92543864712634",
    "geocoded_column": {
      "latitude": "29.92543864712634",
      "longitude": "-89.99341167409789"
    }
  },
  {
    "service_request": "2025-1209844",
    "request_type": "Streetlights",
    "request_reason": "Streetlight Outage/Malfunction",
    "date_created": "2025-07-15T22:32:19.000",
    "date_modified": "2025-07-15T22:32:21.000",
    "request_status": "Pending",
    "responsible_agency": "Department of Public Works",
    "final_address": "8421 Apricot St",
    "address_councildis": "A",
    "status": "Pending",
    "contractor": "Legacy Professional Services",
    "rowid": "1209844",
    "final_x": "3664906.2329",
    "final_y": "533515.472132",
    "longitude": "-90.12040098744437",
    "latitude": "29.961475973779407",
    "geocoded_column": {
      "latitude": "29.961475973779407",
      "longitude": "-90.12040098744437"
    }
  },
  {
    "service_request": "2025-1209843",
    "request_type": "Streetlights",
    "request_reason": "Streetlight Outage/Malfunction",
    "date_created": "2025-07-15T22:18:52.000",
    "date_modified": "2025-07-15T22:18:54.000",
    "request_status": "Pending",
    "responsible_agency": "Department of Public Works",
    "final_address": "2715 N Claiborne Ave",
    "address_councildis": "D",
    "status": "Pending",
    "contractor": "Legacy Professional Services",
    "rowid": "1209843",
    "final_x": "3688045.59855",
    "final_y": "538280.571209",
    "longitude": "-90.04716211621383",
    "latitude": "29.973884536799815",
    "geocoded_column": {
      "latitude": "29.973884536799815",
      "longitude": "-90.04716211621383"
    }
  },
  {
    "service_request": "2025-1209842",
    "request_type": "Streetlights",
    "request_reason": "Streetlight Outage/Malfunction",
    "date_created": "2025-07-15T22:18:22.000",
    "date_modified": "2025-07-15T22:18:24.000",
    "request_status": "Pending",
    "responsible_agency": "Department of Public Works",
    "final_address": "8421 Apricot St",
    "address_councildis": "A",
    "status": "Pending",
    "contractor": "Legacy Professional Services",
    "rowid": "1209842",
    "final_x": "3664906.2329",
    "final_y": "533515.472132",
    "longitude": "-90.12040098744437",
    "latitude": "29.961475973779407",
    "geocoded_column": {
      "latitude": "29.961475973779407",
      "longitude": "-90.12040098744437"
    }
  },
  {
    "service_request": "2025-1209841",
    "request_type": "Drainage",
    "request_reason": "Catch Basin Clogged",
    "date_created": "2025-07-15T22:13:59.000",
    "date_modified": "2025-07-15T22:14:00.000",
    "request_status": "Pending",
    "responsible_agency": "Sewerage & Water Board",
    "final_address": "7002 Yorktown Dr",
    "address_councildis": "E",
    "status": "Pending",
    "rowid": "1209841",
    "final_x": "3706202.81342",
    "final_y": "560354.916445",
    "longitude": "-89.98900016797683",
    "latitude": "30.03400770146764",
    "geocoded_column": {
      "latitude": "30.03400770146764",
      "longitude": "-89.98900016797683"
    }
  },
  {
    "service_request": "2025-1209840",
    "request_type": "Property Maintenance",
    "request_reason": "Property Maintenance",
    "date_created": "2025-07-15T22:11:44.000",
    "date_modified": "2025-07-15T22:11:46.000",
    "request_status": "Pending",
    "responsible_agency": "Department of Code Enforcement",
    "final_address": "1029 Hillary St",
    "address_councildis": "A",
    "status": "Pending",
    "rowid": "1209840",
    "final_x": "3663003.67763",
    "final_y": "526786.86515",
    "longitude": "-90.12663272470962",
    "latitude": "29.943029716065958",
    "geocoded_column": {
      "latitude": "29.943029716065958",
      "longitude": "-90.12663272470962"
    }
  },
  {
    "service_request": "2025-1209839",
    "request_type": "Streetlights",
    "request_reason": "Streetlight Outage/Malfunction",
    "date_created": "2025-07-15T21:55:41.000",
    "date_modified": "2025-07-15T21:55:42.000",
    "request_status": "Pending",
    "responsible_agency": "Department of Public Works",
    "final_address": "2220 Oriole St",
    "address_councildis": "D",
    "status": "Pending",
    "contractor": "Legacy Professional Services",
    "rowid": "1209839",
    "final_x": "3683827.62389",
    "final_y": "557984.700571",
    "longitude": "-90.05979174272741",
    "latitude": "30.028193318558753",
    "geocoded_column": {
      "latitude": "30.028193318558753",
      "longitude": "-90.05979174272741"
    }
  },
  {
    "service_request": "2025-1209838",
    "request_type": "Drainage",
    "request_reason": "Catch Basin Clogged",
    "date_created": "2025-07-15T21:52:40.000",
    "date_modified": "2025-07-15T21:52:42.000",
    "request_status": "Pending",
    "responsible_agency": "Sewerage & Water Board",
    "final_address": "3400 Touro St",
    "address_councildis": "D",
    "status": "Pending",
    "rowid": "1209838",
    "final_x": "3683473.27362",
    "final_y": "545123.721295",
    "longitude": "-90.06136260194431",
    "latitude": "29.992841120388324",
    "geocoded_column": {
      "latitude": "29.992841120388324",
      "longitude": "-90.06136260194431"
    }
  },
  {
    "service_request": "2025-1209837",
    "request_type": "Trash/Recycling",
    "request_reason": "Dead Animal Pick Up",
    "date_created": "2025-07-15T21:37:41.000",
    "date_modified": "2025-07-15T21:37:44.000",
    "request_status": "Pending",
    "responsible_agency": "Department of Sanitation",
    "final_address": "7273 Canal Blvd",
    "address_councildis": "D",
    "status": "Assigned to Contractor",
    "contractor": "IV Waste",
    "rowid": "1209837",
    "final_x": "3669370.15649",
    "final_y": "555353.780249",
    "longitude": "-90.10556571449084",
    "latitude": "30.021393134964946",
    "geocoded_column": {
      "latitude": "30.021393134964946",
      "longitude": "-90.10556571449084"
    }
  },
  {
    "service_request": "2025-1209836",
    "request_type": "COVID-19",
    "request_reason": "Sanitation Supplies",
    "date_created": "2025-07-15T21:31:55.000",
    "date_modified": "2025-07-15T21:31:58.000",
    "request_status": "Pending",
    "responsible_agency": "Safety and Permits",
    "final_address": "0 BLK Alice Ct",
    "address_councildis": "E",
    "status": "Pending",
    "rowid": "1209836",
    "final_x": "3696830.85368",
    "final_y": "533835.980016",
    "longitude": "-90.01957742212986",
    "latitude": "29.961389424106756",
    "geocoded_column": {
      "latitude": "29.961389424106756",
      "longitude": "-90.01957742212986"
    }
  },
  {
    "service_request": "2025-1209835",
    "request_type": "Abandoned Vehicles",
    "request_reason": "Abandoned/Junk Vehicles",
    "date_created": "2025-07-15T21:06:53.000",
    "date_modified": "2025-07-15T21:06:55.000",
    "request_status": "Pending",
    "responsible_agency": "Department of Public Works",
    "final_address": "2200 Soniat St",
    "address_councildis": "B",
    "status": "Pending",
    "rowid": "1209835",
    "final_x": "3668445.44948",
    "final_y": "523611.371195",
    "longitude": "-90.10955873683822",
    "latitude": "29.934139429919075",
    "geocoded_column": {
      "latitude": "29.934139429919075",
      "longitude": "-90.10955873683822"
    }
  },
  {
    "service_request": "2025-1209834",
    "request_type": "Trash/Recycling",
    "request_reason": "Damaged Caused By Contractor",
    "date_created": "2025-07-15T20:54:50.000",
    "date_modified": "2025-07-15T20:54:52.000",
    "request_status": "Pending",
    "responsible_agency": "Department of Sanitation",
    "final_address": "1831 Frenchmen St",
    "address_councildis": "D",
    "status": "Assigned to Contractor",
    "contractor": "IV Waste",
    "rowid": "1209834",
    "final_x": "3684401.18159",
    "final_y": "539120.86337",
    "longitude": "-90.05864245274189",
    "latitude": "29.976307024900024",
    "geocoded_column": {
      "latitude": "29.976307024900024",
      "longitude": "-90.05864245274189"
    }
  },
  {
    "service_request": "2025-1209833",
    "request_type": "Streetlights",
    "request_reason": "Streetlight Outage/Malfunction",
    "date_created": "2025-07-15T20:51:35.000",
    "date_modified": "2025-07-15T20:51:37.000",
    "request_status": "Pending",
    "responsible_agency": "Department of Public Works",
    "final_address": "2130 Painters St",
    "address_councildis": "D",
    "status": "Pending",
    "contractor": "Legacy Professional Services",
    "rowid": "1209833",
    "final_x": "3687210.0301",
    "final_y": "540460.367947",
    "longitude": "-90.04972390027345",
    "latitude": "29.97990397244672",
    "geocoded_column": {
      "latitude": "29.97990397244672",
      "longitude": "-90.04972390027345"
    }
  },
  {
    "service_request": "2025-1209832",
    "request_type": "Streetlights",
    "request_reason": "Streetlight Outage/Malfunction",
    "date_created": "2025-07-15T20:50:44.000",
    "date_modified": "2025-07-15T20:50:45.000",
    "request_status": "Pending",
    "responsible_agency": "Department of Public Works",
    "final_address": "21 Petit Bayou Ln",
    "address_councildis": "E",
    "status": "Pending",
    "contractor": "Legacy Professional Services",
    "rowid": "1209832",
    "final_x": "3724916.94502",
    "final_y": "564160.515809",
    "longitude": "-89.92971470100946",
    "latitude": "30.043854546814966",
    "geocoded_column": {
      "latitude": "30.043854546814966",
      "longitude": "-89.92971470100946"
    }
  },
  {
    "service_request": "2025-1209831",
    "request_type": "Abandoned Vehicles",
    "request_reason": "Abandoned/Junk Vehicles",
    "date_created": "2025-07-15T20:49:44.000",
    "date_modified": "2025-07-15T20:49:46.000",
    "request_status": "Pending",
    "responsible_agency": "Department of Public Works",
    "final_address": "820 Nunez St",
    "address_councildis": "C",
    "status": "Pending",
    "rowid": "1209831",
    "final_x": "3686986.41186",
    "final_y": "528510.747904",
    "longitude": "-90.05085260193374",
    "latitude": "29.94705354792499",
    "geocoded_column": {
      "latitude": "29.94705354792499",
      "longitude": "-90.05085260193374"
    }
  },
  {
    "service_request": "2025-1209830",
    "request_type": "Streetlights",
    "request_reason": "Streetlight Outage/Malfunction",
    "date_created": "2025-07-15T20:49:02.000",
    "date_modified": "2025-07-15T20:49:04.000",
    "request_status": "Pending",
    "responsible_agency": "Department of Public Works",
    "final_address": "925 Picheloup Pl",
    "address_councildis": "A",
    "status": "Pending",
    "contractor": "Legacy Professional Services",
    "rowid": "1209830",
    "final_x": "3673552.5099",
    "final_y": "540429.506443",
    "longitude": "-90.0928611109149",
    "latitude": "29.98023273161421",
    "geocoded_column": {
      "latitude": "29.98023273161421",
      "longitude": "-90.0928611109149"
    }
  },
  {
    "service_request": "2025-1209829",
    "request_type": "Streetlights",
    "request_reason": "Streetlight Outage/Malfunction",
    "date_created": "2025-07-15T20:43:02.000",
    "date_modified": "2025-07-15T20:43:04.000",
    "request_status": "Pending",
    "responsible_agency": "Department of Public Works",
    "final_address": "1001 Moss St",
    "address_councildis": "A",
    "status": "Pending",
    "contractor": "Legacy Professional Services",
    "rowid": "1209829",
    "final_x": "3674754.80488",
    "final_y": "539804.45889",
    "longitude": "-90.08908518705304",
    "latitude": "29.97847822116159",
    "geocoded_column": {
      "latitude": "29.97847822116159",
      "longitude": "-90.08908518705304"
    }
  },
  {
    "service_request": "2025-1209828",
    "request_type": "Trash/Recycling",
    "request_reason": "Request a Large Item Pick Up",
    "date_created": "2025-07-15T20:39:10.000",
    "date_modified": "2025-07-15T20:39:12.000",
    "request_status": "Pending",
    "responsible_agency": "Department of Sanitation",
    "final_address": "4700 Cardenas Dr",
    "address_councildis": "E",
    "status": "Assigned to Contractor",
    "contractor": "Waste Pro",
    "rowid": "1209828",
    "final_x": "3713644.22271",
    "final_y": "556044.230809",
    "longitude": "-89.965647228498",
    "latitude": "30.021912872819005",
    "geocoded_column": {
      "latitude": "30.021912872819005",
      "longitude": "-89.965647228498"
    }
  },
  {
    "service_request": "2025-1209827",
    "request_type": "Property Maintenance",
    "request_reason": "Property Maintenance",
    "date_created": "2025-07-15T20:25:35.000",
    "date_modified": "2025-07-15T20:25:39.000",
    "request_status": "Pending",
    "responsible_agency": "Department of Code Enforcement",
    "final_address": "9810 Lake Forest Blvd",
    "address_councildis": "E",
    "status": "Pending",
    "rowid": "1209827",
    "final_x": "3709376.13752",
    "final_y": "558735.81398",
    "longitude": "-89.97903263276832",
    "latitude": "30.029453057844687",
    "geocoded_column": {
      "latitude": "30.029453057844687",
      "longitude": "-89.97903263276832"
    }
  },
  {
    "service_request": "2025-1209826",
    "request_type": "Trash/Recycling",
    "request_reason": "Illegal Dumping",
    "date_created": "2025-07-15T20:20:41.000",
    "date_modified": "2025-07-15T20:20:44.000",
    "request_status": "Pending",
    "responsible_agency": "Department of Sanitation",
    "final_address": "9800 Lake Forest Blvd",
    "address_councildis": "E",
    "status": "Pending",
    "rowid": "1209826",
    "final_x": "3709262.43173",
    "final_y": "558711.11382",
    "longitude": "-89.97939285986347",
    "latitude": "30.029388836916183",
    "geocoded_column": {
      "latitude": "30.029388836916183",
      "longitude": "-89.97939285986347"
    }
  },
  {
    "service_request": "2025-1209825",
    "request_type": "Trash/Recycling",
    "request_reason": "Request a Large Item Pick Up",
    "date_created": "2025-07-15T20:17:30.000",
    "date_modified": "2025-07-15T20:17:32.000",
    "request_status": "Pending",
    "responsible_agency": "Department of Sanitation",
    "final_address": "1109 Valmont St",
    "address_councildis": "B",
    "status": "Assigned to Contractor",
    "contractor": "IV Waste",
    "rowid": "1209825",
    "final_x": "3667642.13114",
    "final_y": "519454.462775",
    "longitude": "-90.11223464447421",
    "latitude": "29.922732818703118",
    "geocoded_column": {
      "latitude": "29.922732818703118",
      "longitude": "-90.11223464447421"
    }
  },
  {
    "service_request": "2025-1209824",
    "request_type": "Property Maintenance",
    "request_reason": "Property Maintenance",
    "date_created": "2025-07-15T20:16:54.000",
    "date_modified": "2025-07-15T20:16:55.000",
    "request_status": "Pending",
    "responsible_agency": "Department of Code Enforcement",
    "final_address": "9846 Lake Forest Blvd",
    "address_councildis": "E",
    "status": "Pending",
    "rowid": "1209824",
    "final_x": "3710268.27921",
    "final_y": "558973.237404",
    "longitude": "-89.9762046229437",
    "latitude": "30.030076855017164",
    "geocoded_column": {
      "latitude": "30.030076855017164",
      "longitude": "-89.9762046229437"
    }
  },
  {
    "service_request": "2025-1209823",
    "request_type": "Property Maintenance",
    "request_reason": "Property Maintenance",
    "date_created": "2025-07-15T20:15:10.000",
    "date_modified": "2025-07-15T20:15:12.000",
    "request_status": "Pending",
    "responsible_agency": "Department of Code Enforcement",
    "final_address": "9740 Lake Forest Blvd",
    "address_councildis": "E",
    "status": "Pending",
    "rowid": "1209823",
    "final_x": "3709136.08805",
    "final_y": "558679.753244",
    "longitude": "-89.9797932701861",
    "latitude": "30.02930671196815",
    "geocoded_column": {
      "latitude": "30.02930671196815",
      "longitude": "-89.9797932701861"
    }
  },
  {
    "service_request": "2025-1209822",
    "request_type": "Drainage",
    "request_reason": "Catch Basin Clogged",
    "date_created": "2025-07-15T20:00:05.000",
    "date_modified": "2025-07-15T20:00:07.000",
    "request_status": "Pending",
    "responsible_agency": "Sewerage & Water Board",
    "final_address": "1100 BLK N Carrollton Ave",
    "address_councildis": "A",
    "status": "Pending",
    "rowid": "1209822",
    "final_x": "3674048.24078",
    "final_y": "541491.569035",
    "longitude": "-90.09125901908743",
    "latitude": "29.983138273280442",
    "geocoded_column": {
      "latitude": "29.983138273280442",
      "longitude": "-90.09125901908743"
    }
  },
  {
    "service_request": "2025-1209821",
    "request_type": "Trash/Recycling",
    "request_reason": "Order Recycling Cart",
    "date_created": "2025-07-15T20:00:00.000",
    "date_modified": "2025-07-15T20:00:01.000",
    "request_status": "Pending",
    "responsible_agency": "Department of Sanitation",
    "final_address": "1923 Arts St",
    "address_councildis": "D",
    "status": "Pending",
    "rowid": "1209821",
    "final_x": "3686992.75087",
    "final_y": "539625.509514",
    "longitude": "-90.05043967819564",
    "latitude": "29.977615097300866",
    "geocoded_column": {
      "latitude": "29.977615097300866",
      "longitude": "-90.05043967819564"
    }
  },
  {
    "service_request": "2025-1209820",
    "request_type": "Property Maintenance",
    "request_reason": "Property Maintenance",
    "date_created": "2025-07-15T19:53:50.000",
    "date_modified": "2025-07-15T19:53:53.000",
    "request_status": "Pending",
    "responsible_agency": "Department of Code Enforcement",
    "final_address": "7025 Louisville St",
    "address_councildis": "A",
    "status": "Pending",
    "rowid": "1209820",
    "final_x": "3668472.8219",
    "final_y": "554255.635288",
    "longitude": "-90.10843814770679",
    "latitude": "30.018400032993522",
    "geocoded_column": {
      "latitude": "30.018400032993522",
      "longitude": "-90.10843814770679"
    }
  },
  {
    "service_request": "2025-1209819",
    "request_type": "Abandoned Vehicles",
    "request_reason": "Abandoned/Junk Vehicles",
    "date_created": "2025-07-15T19:52:14.000",
    "date_modified": "2025-07-15T19:52:15.000",
    "request_status": "Pending",
    "responsible_agency": "Department of Public Works",
    "final_address": "2536 Dante St",
    "address_councildis": "A",
    "status": "Pending",
    "rowid": "1209819",
    "final_x": "3664730.87565",
    "final_y": "532551.363588",
    "longitude": "-90.12098695006492",
    "latitude": "29.95883009357473",
    "geocoded_column": {
      "latitude": "29.95883009357473",
      "longitude": "-90.12098695006492"
    }
  },
  {
    "service_request": "2025-1209818",
    "request_type": "Abandoned Vehicles",
    "request_reason": "Abandoned/Junk Vehicles",
    "date_created": "2025-07-15T19:39:51.000",
    "date_modified": "2025-07-15T19:39:53.000",
    "request_status": "Pending",
    "responsible_agency": "Department of Public Works",
    "final_address": "2627 Iberville St",
    "address_councildis": "B",
    "status": "Pending",
    "rowid": "1209818",
    "final_x": "3675931.0267",
    "final_y": "535321.721798",
    "longitude": "-90.08552442352735",
    "latitude": "29.96611705072427",
    "geocoded_column": {
      "latitude": "29.96611705072427",
      "longitude": "-90.08552442352735"
    }
  },
  {
    "service_request": "2025-1209817",
    "request_type": "Trash/Recycling",
    "request_reason": "Dead Animal Pick Up",
    "date_created": "2025-07-15T19:38:21.000",
    "date_modified": "2025-07-15T19:38:22.000",
    "request_status": "Pending",
    "responsible_agency": "Department of Sanitation",
    "final_address": "7273 Canal Blvd",
    "address_councildis": "D",
    "status": "Assigned to Contractor",
    "contractor": "IV Waste",
    "rowid": "1209817",
    "final_x": "3669370.15649",
    "final_y": "555353.780249",
    "longitude": "-90.10556571449084",
    "latitude": "30.021393134964946",
    "geocoded_column": {
      "latitude": "30.021393134964946",
      "longitude": "-90.10556571449084"
    }
  },
  {
    "service_request": "2025-1209816",
    "request_type": "Drainage",
    "request_reason": "Catch Basin Clogged",
    "date_created": "2025-07-15T19:38:05.000",
    "date_modified": "2025-07-15T19:38:06.000",
    "request_status": "Pending",
    "responsible_agency": "Sewerage & Water Board",
    "final_address": "6 Charlotte Dr",
    "address_councildis": "D",
    "status": "Pending",
    "rowid": "1209816",
    "final_x": "3680272.00021",
    "final_y": "551297.000277",
    "longitude": "-90.0712600675902",
    "latitude": "30.009912761147813",
    "geocoded_column": {
      "latitude": "30.009912761147813",
      "longitude": "-90.0712600675902"
    }
  },
  {
    "service_request": "2025-1209815",
    "request_type": "Abandoned Vehicles",
    "request_reason": "Abandoned/Junk Vehicles",
    "date_created": "2025-07-15T19:35:22.000",
    "date_modified": "2025-07-15T19:35:25.000",
    "request_status": "Pending",
    "responsible_agency": "Department of Public Works",
    "final_address": "2627 Iberville St",
    "address_councildis": "B",
    "status": "Pending",
    "rowid": "1209815",
    "final_x": "3675931.0267",
    "final_y": "535321.721798",
    "longitude": "-90.08552442352735",
    "latitude": "29.96611705072427",
    "geocoded_column": {
      "latitude": "29.96611705072427",
      "longitude": "-90.08552442352735"
    }
  },
  {
    "service_request": "2025-1209814",
    "request_type": "Trash/Recycling",
    "request_reason": "Missed Trash Pick-Up",
    "date_created": "2025-07-15T19:17:06.000",
    "date_modified": "2025-07-15T19:17:09.000",
    "request_status": "Pending",
    "responsible_agency": "Department of Sanitation",
    "final_address": "1106 Dante St",
    "address_councildis": "A",
    "status": "Assigned to Contractor",
    "contractor": "IV Waste",
    "rowid": "1209814",
    "final_x": "3661214.0368",
    "final_y": "528690.53632",
    "longitude": "-90.13222008727224",
    "latitude": "29.948315906467307",
    "geocoded_column": {
      "latitude": "29.948315906467307",
      "longitude": "-90.13222008727224"
    }
  },
  {
    "service_request": "2025-1209813",
    "request_type": "Drainage",
    "request_reason": "Catch Basin Clogged",
    "date_created": "2025-07-15T19:11:34.000",
    "date_modified": "2025-07-15T19:11:36.000",
    "request_status": "Pending",
    "responsible_agency": "Sewerage & Water Board",
    "final_address": "4041 Ulloa St",
    "address_councildis": "A",
    "status": "Pending",
    "rowid": "1209813",
    "final_x": "3669798.49921",
    "final_y": "536419.338823",
    "longitude": "-90.1048536903088",
    "latitude": "29.969317335226968",
    "geocoded_column": {
      "latitude": "29.969317335226968",
      "longitude": "-90.1048536903088"
    }
  },
  {
    "service_request": "2025-1209812",
    "request_type": "Trash/Recycling",
    "request_reason": "Repair Trash Cart",
    "date_created": "2025-07-15T19:05:47.000",
    "date_modified": "2025-07-15T19:05:49.000",
    "request_status": "Pending",
    "responsible_agency": "Department of Sanitation",
    "final_address": "3924 Cleveland Ave",
    "address_councildis": "A",
    "status": "Assigned to Contractor",
    "contractor": "IV Waste",
    "rowid": "1209812",
    "final_x": "3671319.7851",
    "final_y": "537593.238344",
    "longitude": "-90.10000943740957",
    "latitude": "29.97250022897969",
    "geocoded_column": {
      "latitude": "29.97250022897969",
      "longitude": "-90.10000943740957"
    }
  },
  {
    "service_request": "2025-1209811",
    "request_type": "Trash/Recycling",
    "request_reason": "Order Recycling Cart",
    "date_created": "2025-07-15T18:49:19.000",
    "date_modified": "2025-07-15T18:49:24.000",
    "request_status": "Pending",
    "responsible_agency": "Department of Sanitation",
    "final_address": "5858 Marshal Foch St",
    "address_councildis": "A",
    "status": "Pending",
    "rowid": "1209811",
    "final_x": "3669649.8098",
    "final_y": "546307.23176",
    "longitude": "-90.10498851237352",
    "latitude": "29.996510059841405",
    "geocoded_column": {
      "latitude": "29.996510059841405",
      "longitude": "-90.10498851237352"
    }
  },
  {
    "service_request": "2025-1209810",
    "request_type": "Trash/Recycling",
    "request_reason": "Replace Trash Cart",
    "date_created": "2025-07-15T18:15:55.000",
    "date_modified": "2025-07-15T18:15:57.000",
    "request_status": "Pending",
    "responsible_agency": "Department of Sanitation",
    "final_address": "7537 Forest Glen Rd",
    "address_councildis": "E",
    "status": "Assigned to Contractor",
    "contractor": "Waste Pro",
    "rowid": "1209810",
    "final_x": "3709936.8739",
    "final_y": "564626.653665",
    "longitude": "-89.97704039504991",
    "latitude": "30.045632287119147",
    "geocoded_column": {
      "latitude": "30.045632287119147",
      "longitude": "-89.97704039504991"
    }
  },
  {
    "service_request": "2025-1209809",
    "request_type": "Trash/Recycling",
    "request_reason": "Request a Large Item Pick Up",
    "date_created": "2025-07-15T18:11:46.000",
    "date_modified": "2025-07-15T18:11:47.000",
    "request_status": "Pending",
    "responsible_agency": "Department of Sanitation",
    "final_address": "4751 Music St",
    "address_councildis": "D",
    "status": "Assigned to Contractor",
    "contractor": "IV Waste",
    "rowid": "1209809",
    "final_x": "3685665.7133",
    "final_y": "550606.620756",
    "longitude": "-90.05424375337715",
    "latitude": "30.007850014259635",
    "geocoded_column": {
      "latitude": "30.007850014259635",
      "longitude": "-90.05424375337715"
    }
  },
  {
    "service_request": "2025-1209808",
    "request_type": "Trash/Recycling",
    "request_reason": "Request a Large Item Pick Up",
    "date_created": "2025-07-15T18:09:39.000",
    "date_modified": "2025-07-15T18:09:42.000",
    "request_status": "Pending",
    "responsible_agency": "Department of Sanitation",
    "final_address": "3845 Peach Tree Ct",
    "address_councildis": "C",
    "status": "Assigned to Contractor",
    "contractor": "Richards Disposal",
    "rowid": "1209808",
    "final_x": "3704136.70686",
    "final_y": "512398.590129",
    "longitude": "-89.99729630411032",
    "latitude": "29.90221175383216",
    "geocoded_column": {
      "latitude": "29.90221175383216",
      "longitude": "-89.99729630411032"
    }
  },
  {
    "service_request": "2025-1209807",
    "request_type": "Trash/Recycling",
    "request_reason": "Order Recycling Cart",
    "date_created": "2025-07-15T18:04:51.000",
    "date_modified": "2025-07-15T18:04:53.000",
    "request_status": "Pending",
    "responsible_agency": "Department of Sanitation",
    "final_address": "7331 Onyx St",
    "address_councildis": "D",
    "status": "Pending",
    "rowid": "1209807",
    "final_x": "3668991.75214",
    "final_y": "555814.788185",
    "longitude": "-90.10674577923042",
    "latitude": "30.022671885869734",
    "geocoded_column": {
      "latitude": "30.022671885869734",
      "longitude": "-90.10674577923042"
    }
  },
  {
    "service_request": "2025-1209806",
    "request_type": "Trash/Recycling",
    "request_reason": "Request a Large Item Pick Up",
    "date_created": "2025-07-15T18:04:06.000",
    "date_modified": "2025-07-15T18:04:07.000",
    "request_status": "Pending",
    "responsible_agency": "Department of Sanitation",
    "final_address": "4624 Charlene Dr",
    "address_councildis": "E",
    "status": "Assigned to Contractor",
    "contractor": "Waste Pro",
    "rowid": "1209806",
    "final_x": "3707930.75934",
    "final_y": "554674.717464",
    "longitude": "-89.98375110809992",
    "latitude": "30.018333520397995",
    "geocoded_column": {
      "latitude": "30.018333520397995",
      "longitude": "-89.98375110809992"
    }
  },
  {
    "service_request": "2025-1209805",
    "request_type": "Abandoned Vehicles",
    "request_reason": "Abandoned/Junk Vehicles",
    "date_created": "2025-07-15T17:57:55.000",
    "date_modified": "2025-07-15T17:57:57.000",
    "request_status": "Pending",
    "responsible_agency": "Department of Public Works",
    "final_address": "2212 Jefferson Ave",
    "address_councildis": "A",
    "status": "Pending",
    "rowid": "1209805",
    "final_x": "3667787.33505",
    "final_y": "523785.405563",
    "longitude": "-90.11163052971469",
    "latitude": "29.93463727914601",
    "geocoded_column": {
      "latitude": "29.93463727914601",
      "longitude": "-90.11163052971469"
    }
  },
  {
    "service_request": "2025-1209804",
    "request_type": "Abandoned Vehicles",
    "request_reason": "Abandoned/Junk Vehicles",
    "date_created": "2025-07-15T17:56:39.000",
    "date_modified": "2025-07-15T17:56:41.000",
    "request_status": "Pending",
    "responsible_agency": "Department of Public Works",
    "final_address": "2212 Jefferson Ave",
    "address_councildis": "A",
    "status": "Pending",
    "rowid": "1209804",
    "final_x": "3667787.33505",
    "final_y": "523785.405563",
    "longitude": "-90.11163052971469",
    "latitude": "29.93463727914601",
    "geocoded_column": {
      "latitude": "29.93463727914601",
      "longitude": "-90.11163052971469"
    }
  },
  {
    "service_request": "2025-1209803",
    "request_type": "Parks & Parkways",
    "request_reason": "Request Tree Service (Right of Way/Public Property)",
    "date_created": "2025-07-15T17:53:46.000",
    "date_modified": "2025-07-15T17:53:48.000",
    "request_status": "Pending",
    "responsible_agency": "Department of Parks & Parkway",
    "final_address": "6000 Canal Blvd",
    "address_councildis": "A",
    "status": "Pending",
    "rowid": "1209803",
    "final_x": "3668322.05159",
    "final_y": "547346.686673",
    "longitude": "-90.10914775122612",
    "latitude": "29.999407272585216",
    "geocoded_column": {
      "latitude": "29.999407272585216",
      "longitude": "-90.10914775122612"
    }
  },
  {
    "service_request": "2025-1209802",
    "request_type": "Abandoned Vehicles",
    "request_reason": "Abandoned/Junk Vehicles",
    "date_created": "2025-07-15T17:50:25.000",
    "date_modified": "2025-07-15T17:50:27.000",
    "request_status": "Pending",
    "responsible_agency": "Department of Public Works",
    "final_address": "2212 Jefferson Ave",
    "address_councildis": "A",
    "status": "Pending",
    "rowid": "1209802",
    "final_x": "3667787.33505",
    "final_y": "523785.405563",
    "longitude": "-90.11163052971469",
    "latitude": "29.93463727914601",
    "geocoded_column": {
      "latitude": "29.93463727914601",
      "longitude": "-90.11163052971469"
    }
  },
  {
    "service_request": "2025-1209801",
    "request_type": "General Services",
    "request_reason": "General Service Request",
    "date_created": "2025-07-15T17:49:38.000",
    "date_modified": "2025-07-15T17:49:40.000",
    "request_status": "Pending",
    "responsible_agency": "Orleans Parish Communication District",
    "final_address": "7741 Shaw Ave",
    "address_councildis": "E",
    "status": "Pending",
    "rowid": "1209801",
    "final_x": "3707017.09694",
    "final_y": "564659.707106",
    "longitude": "-89.98626702552673",
    "latitude": "30.045817875522456",
    "geocoded_column": {
      "latitude": "30.045817875522456",
      "longitude": "-89.98626702552673"
    }
  },
  {
    "service_request": "2025-1209800",
    "request_type": "Parks & Parkways",
    "request_reason": "Park Maintenance/Clean Up",
    "date_created": "2025-07-15T17:44:27.000",
    "date_modified": "2025-07-15T17:44:28.000",
    "request_status": "Pending",
    "responsible_agency": "Department of Parks & Parkway",
    "final_address": "1234 Gallier St",
    "address_councildis": "C",
    "status": "Pending",
    "rowid": "1209800",
    "final_x": "3690585.23529",
    "final_y": "536275.815879",
    "longitude": "-90.03921291582502",
    "latitude": "29.96829353918819",
    "geocoded_column": {
      "latitude": "29.96829353918819",
      "longitude": "-90.03921291582502"
    }
  },
  {
    "service_request": "2025-1209799",
    "request_type": "Streetlights",
    "request_reason": "Streetlight Outage/Malfunction",
    "date_created": "2025-07-15T17:39:07.000",
    "date_modified": "2025-07-15T17:39:10.000",
    "request_status": "Pending",
    "responsible_agency": "Department of Public Works",
    "final_address": "1000 BLK Seventh St",
    "address_councildis": "B",
    "status": "Pending",
    "contractor": "Legacy Professional Services",
    "rowid": "1209799",
    "final_x": "3676473.27399",
    "final_y": "520220.787758",
    "longitude": "-90.08433183640358",
    "latitude": "29.924578234309624",
    "geocoded_column": {
      "latitude": "29.924578234309624",
      "longitude": "-90.08433183640358"
    }
  },
  {
    "service_request": "2025-1209798",
    "request_type": "Drainage",
    "request_reason": "Catch Basin Clogged",
    "date_created": "2025-07-15T17:31:41.000",
    "date_modified": "2025-07-15T17:31:43.000",
    "request_status": "Pending",
    "responsible_agency": "Sewerage & Water Board",
    "final_address": "1640 Lauradale Dr",
    "address_councildis": "C",
    "status": "Pending",
    "rowid": "1209798",
    "final_x": "3692814.74749",
    "final_y": "525128.995325",
    "longitude": "-90.03257166088886",
    "latitude": "29.937574233284217",
    "geocoded_column": {
      "latitude": "29.937574233284217",
      "longitude": "-90.03257166088886"
    }
  },
  {
    "service_request": "2025-1209797",
    "request_type": "Drainage",
    "request_reason": "Catch Basin Clogged",
    "date_created": "2025-07-15T17:30:20.000",
    "date_modified": "2025-07-15T17:30:22.000",
    "request_status": "Pending",
    "responsible_agency": "Sewerage & Water Board",
    "final_address": "7732 Zimple St",
    "address_councildis": "A",
    "status": "Pending",
    "rowid": "1209797",
    "final_x": "3662600.86311",
    "final_y": "527261.876927",
    "longitude": "-90.1278887378588",
    "latitude": "29.944347505064332",
    "geocoded_column": {
      "latitude": "29.944347505064332",
      "longitude": "-90.1278887378588"
    }
  },
  {
    "service_request": "2025-1209796",
    "request_type": "Streetlights",
    "request_reason": "New Streetlight Request",
    "date_created": "2025-07-15T17:29:04.000",
    "date_modified": "2025-07-15T17:29:10.000",
    "request_status": "Pending",
    "responsible_agency": "Department of Public Works",
    "final_address": "0 BLK Blanc Pl",
    "address_councildis": "B",
    "status": "Pending",
    "contractor": "Legacy Professional Services",
    "rowid": "1209796",
    "final_x": "3667951.08401",
    "final_y": "520874.262829",
    "longitude": "-90.11121159835395",
    "latitude": "29.926627762655404",
    "geocoded_column": {
      "latitude": "29.926627762655404",
      "longitude": "-90.11121159835395"
    }
  },
  {
    "service_request": "2025-1209795",
    "request_type": "Trash/Recycling",
    "request_reason": "Return Trash Cart",
    "date_created": "2025-07-15T17:06:01.000",
    "date_modified": "2025-07-15T17:06:03.000",
    "request_status": "Pending",
    "responsible_agency": "Department of Sanitation",
    "final_address": "3722 Red Cypress Dr",
    "address_councildis": "C",
    "status": "Assigned to Contractor",
    "contractor": "Richards Disposal",
    "rowid": "1209795",
    "final_x": "3703129.14327",
    "final_y": "512292.060657",
    "longitude": "-90.00048001634853",
    "latitude": "29.901951098785116",
    "geocoded_column": {
      "latitude": "29.901951098785116",
      "longitude": "-90.00048001634853"
    }
  },
  {
    "service_request": "2025-1209794",
    "request_type": "Trash/Recycling",
    "request_reason": "Change Size of Trash Cart",
    "date_created": "2025-07-15T16:56:23.000",
    "date_modified": "2025-07-15T16:56:26.000",
    "request_status": "Pending",
    "responsible_agency": "Department of Sanitation",
    "final_address": "3124 Derby Pl",
    "address_councildis": "A",
    "status": "Assigned to Contractor",
    "contractor": "IV Waste",
    "rowid": "1209794",
    "final_x": "3678382.6237",
    "final_y": "542860.248781",
    "longitude": "-90.07752142423091",
    "latitude": "29.986771764259935",
    "geocoded_column": {
      "latitude": "29.986771764259935",
      "longitude": "-90.07752142423091"
    }
  },
  {
    "service_request": "2025-1209793",
    "request_type": "Trash/Recycling",
    "request_reason": "Request a Large Item Pick Up",
    "date_created": "2025-07-15T16:55:12.000",
    "date_modified": "2025-07-15T16:55:14.000",
    "request_status": "Pending",
    "responsible_agency": "Department of Sanitation",
    "final_address": "5824 Fontainebleau Dr",
    "address_councildis": "A",
    "status": "Assigned to Contractor",
    "contractor": "IV Waste",
    "rowid": "1209793",
    "final_x": "3668293.90209",
    "final_y": "529775.657985",
    "longitude": "-90.10982937351963",
    "latitude": "29.9510936749149",
    "geocoded_column": {
      "latitude": "29.9510936749149",
      "longitude": "-90.10982937351963"
    }
  },
  {
    "service_request": "2025-1209792",
    "request_type": "Trash/Recycling",
    "request_reason": "MIssed Recycling Pick-Up",
    "date_created": "2025-07-15T16:55:08.000",
    "date_modified": "2025-07-15T16:58:02.000",
    "case_close_date": "2025-07-15T11:57:59.000",
    "request_status": "Closed",
    "responsible_agency": "Department of Sanitation",
    "final_address": "6410 Louis Xiv St",
    "address_councildis": "A",
    "status": "Invalid Request",
    "contractor": "IV Waste",
    "contractor_action": "Invalid",
    "rowid": "1209792",
    "final_x": "3668296.12257",
    "final_y": "550198.134932",
    "longitude": "-90.10913342375032",
    "latitude": "30.00724852609579",
    "geocoded_column": {
      "latitude": "30.00724852609579",
      "longitude": "-90.10913342375032"
    }
  },
  {
    "service_request": "2025-1209791",
    "request_type": "Trash/Recycling",
    "request_reason": "Request a Large Item Pick Up",
    "date_created": "2025-07-15T16:53:41.000",
    "date_modified": "2025-07-15T16:53:43.000",
    "request_status": "Pending",
    "responsible_agency": "Department of Sanitation",
    "final_address": "3514 Baronne St",
    "address_councildis": "B",
    "status": "Assigned to Contractor",
    "contractor": "IV Waste",
    "rowid": "1209791",
    "final_x": "3673413.55425",
    "final_y": "521994.798458",
    "longitude": "-90.0939297818431",
    "latitude": "29.929547545059872",
    "geocoded_column": {
      "latitude": "29.929547545059872",
      "longitude": "-90.0939297818431"
    }
  },
  {
    "service_request": "2025-1209790",
    "request_type": "Trash/Recycling",
    "request_reason": "Replace Recycling Cart",
    "date_created": "2025-07-15T16:52:08.000",
    "date_modified": "2025-07-15T16:52:10.000",
    "request_status": "Pending",
    "responsible_agency": "Department of Sanitation",
    "final_address": "8405 Jeannette St",
    "address_councildis": "A",
    "status": "Pending",
    "rowid": "1209790",
    "final_x": "3661855.18957",
    "final_y": "529960.231105",
    "longitude": "-90.13015359725534",
    "latitude": "29.951788664018107",
    "geocoded_column": {
      "latitude": "29.951788664018107",
      "longitude": "-90.13015359725534"
    }
  },
  {
    "service_request": "2025-1209789",
    "request_type": "Trash/Recycling",
    "request_reason": "Missed Trash Pick-Up",
    "date_created": "2025-07-15T16:47:46.000",
    "date_modified": "2025-07-15T18:01:13.000",
    "case_close_date": "2025-07-15T13:01:12.000",
    "request_status": "Closed",
    "responsible_agency": "Department of Sanitation",
    "final_address": "13634 Lourdes St",
    "address_councildis": "E",
    "status": "Invalid Request",
    "contractor": "Waste Pro",
    "contractor_action": "Invalid",
    "rowid": "1209789",
    "final_x": "3727069.87789",
    "final_y": "561261.486174",
    "longitude": "-89.92302336294952",
    "latitude": "30.035810727092535",
    "geocoded_column": {
      "latitude": "30.035810727092535",
      "longitude": "-89.92302336294952"
    }
  },
  {
    "service_request": "2025-1209788",
    "request_type": "Roads and Streets",
    "request_reason": "Street Subsidence (Sinking)",
    "date_created": "2025-07-15T16:47:10.000",
    "date_modified": "2025-07-15T16:47:11.000",
    "request_status": "Pending",
    "responsible_agency": "Department of Public Works",
    "final_address": "1817 Hillary St",
    "address_councildis": "A",
    "status": "Pending",
    "rowid": "1209788",
    "final_x": "3664868.8329",
    "final_y": "528792.046144",
    "longitude": "-90.12067694634835",
    "latitude": "29.948489177205126",
    "geocoded_column": {
      "latitude": "29.948489177205126",
      "longitude": "-90.12067694634835"
    }
  },
  {
    "service_request": "2025-1209787",
    "request_type": "Streetlights",
    "request_reason": "Streetlight Outage/Malfunction",
    "date_created": "2025-07-15T16:46:11.000",
    "date_modified": "2025-07-15T16:46:13.000",
    "request_status": "Pending",
    "responsible_agency": "Department of Public Works",
    "final_address": "1201 Riviera Ave",
    "address_councildis": "D",
    "status": "Pending",
    "contractor": "Legacy Professional Services",
    "rowid": "1209787",
    "final_x": "3676821.97435",
    "final_y": "550909.154965",
    "longitude": "-90.0821733380724",
    "latitude": "30.008950360000725",
    "geocoded_column": {
      "latitude": "30.008950360000725",
      "longitude": "-90.0821733380724"
    }
  },
  {
    "service_request": "2025-1209786",
    "request_type": "Trash/Recycling",
    "request_reason": "Replace Trash Cart",
    "date_created": "2025-07-15T16:42:24.000",
    "date_modified": "2025-07-15T16:42:26.000",
    "request_status": "Pending",
    "responsible_agency": "Department of Sanitation",
    "final_address": "4415 Reynes St",
    "address_councildis": "E",
    "status": "Assigned to Contractor",
    "contractor": "Waste Pro",
    "rowid": "1209786",
    "final_x": "3699402.14692",
    "final_y": "553206.215255",
    "longitude": "-90.01075175015949",
    "latitude": "30.014569141665827",
    "geocoded_column": {
      "latitude": "30.014569141665827",
      "longitude": "-90.01075175015949"
    }
  },
  {
    "service_request": "2025-1209785",
    "request_type": "Trash/Recycling",
    "request_reason": "Order Second Trash Cart",
    "date_created": "2025-07-15T16:42:08.000",
    "date_modified": "2025-07-15T16:42:09.000",
    "request_status": "Pending",
    "responsible_agency": "Department of Sanitation",
    "final_address": "8141 Nelson St",
    "address_councildis": "A",
    "status": "Assigned to Contractor",
    "contractor": "IV Waste",
    "rowid": "1209785",
    "final_x": "3664940.81492",
    "final_y": "532088.041859",
    "longitude": "-90.12033950046951",
    "latitude": "29.957550000767903",
    "geocoded_column": {
      "latitude": "29.957550000767903",
      "longitude": "-90.12033950046951"
    }
  },
  {
    "service_request": "2025-1209784",
    "request_type": "Trash/Recycling",
    "request_reason": "Request a Large Item Pick Up",
    "date_created": "2025-07-15T16:40:42.000",
    "date_modified": "2025-07-15T16:40:44.000",
    "request_status": "Pending",
    "responsible_agency": "Department of Sanitation",
    "final_address": "2125 General Pershing St",
    "address_councildis": "B",
    "status": "Assigned to Contractor",
    "contractor": "IV Waste",
    "rowid": "1209784",
    "final_x": "3671094.55227",
    "final_y": "522895.400571",
    "longitude": "-90.1012198983236",
    "latitude": "29.93209267951338",
    "geocoded_column": {
      "latitude": "29.93209267951338",
      "longitude": "-90.1012198983236"
    }
  },
  {
    "service_request": "2025-1209783",
    "request_type": "Trash/Recycling",
    "request_reason": "Order Trash Cart",
    "date_created": "2025-07-15T16:38:53.000",
    "date_modified": "2025-07-15T16:38:55.000",
    "request_status": "Pending",
    "responsible_agency": "Department of Sanitation",
    "final_address": "419 Homer St",
    "address_councildis": "C",
    "status": "Assigned to Contractor",
    "contractor": "Richards Disposal",
    "rowid": "1209783",
    "final_x": "3686719.0399",
    "final_y": "528271.459392",
    "longitude": "-90.05170524350794",
    "latitude": "29.94640381173097",
    "geocoded_column": {
      "latitude": "29.94640381173097",
      "longitude": "-90.05170524350794"
    }
  },
  {
    "service_request": "2025-1209782",
    "request_type": "Trash/Recycling",
    "request_reason": "Damaged Caused By Contractor",
    "date_created": "2025-07-15T16:38:29.000",
    "date_modified": "2025-07-15T16:38:30.000",
    "request_status": "Pending",
    "responsible_agency": "Department of Sanitation",
    "final_address": "823 Red Allen Way",
    "address_councildis": "C",
    "status": "Assigned to Contractor",
    "contractor": "Richards Disposal",
    "rowid": "1209782",
    "final_x": "3687982.38019",
    "final_y": "528671.301632",
    "longitude": "-90.04770227933865",
    "latitude": "29.947464326778068",
    "geocoded_column": {
      "latitude": "29.947464326778068",
      "longitude": "-90.04770227933865"
    }
  },
  {
    "service_request": "2025-1209781",
    "request_type": "Drainage",
    "request_reason": "Catch Basin Clogged",
    "date_created": "2025-07-15T16:35:38.000",
    "date_modified": "2025-07-15T16:35:39.000",
    "request_status": "Pending",
    "responsible_agency": "Sewerage & Water Board",
    "final_address": "2438 Dumaine St",
    "address_councildis": "D",
    "status": "Pending",
    "rowid": "1209781",
    "final_x": "3677976.96546",
    "final_y": "536850.057416",
    "longitude": "-90.07901056172567",
    "latitude": "29.97025803120093",
    "geocoded_column": {
      "latitude": "29.97025803120093",
      "longitude": "-90.07901056172567"
    }
  },
  {
    "service_request": "2025-1209776",
    "request_type": "Drainage",
    "request_reason": "Catch Basin Clogged",
    "date_created": "2025-07-15T16:35:29.000",
    "date_modified": "2025-07-15T16:35:31.000",
    "request_status": "Pending",
    "responsible_agency": "Sewerage & Water Board",
    "final_address": "1201 Riviera Ave",
    "address_councildis": "D",
    "status": "Pending",
    "rowid": "1209776",
    "final_x": "3676821.97435",
    "final_y": "550909.154965",
    "longitude": "-90.0821733380724",
    "latitude": "30.008950360000725",
    "geocoded_column": {
      "latitude": "30.008950360000725",
      "longitude": "-90.0821733380724"
    }
  },
  {
    "service_request": "2025-1209780",
    "request_type": "Drainage",
    "request_reason": "Catch Basin Clogged",
    "date_created": "2025-07-15T16:35:29.000",
    "date_modified": "2025-07-15T16:35:31.000",
    "request_status": "Pending",
    "responsible_agency": "Sewerage & Water Board",
    "final_address": "1201 Riviera Ave",
    "address_councildis": "D",
    "status": "Pending",
    "rowid": "1209780",
    "final_x": "3676821.97435",
    "final_y": "550909.154965",
    "longitude": "-90.0821733380724",
    "latitude": "30.008950360000725",
    "geocoded_column": {
      "latitude": "30.008950360000725",
      "longitude": "-90.0821733380724"
    }
  },
  {
    "service_request": "2025-1209779",
    "request_type": "Drainage",
    "request_reason": "Catch Basin Clogged",
    "date_created": "2025-07-15T16:35:29.000",
    "date_modified": "2025-07-15T16:35:30.000",
    "request_status": "Pending",
    "responsible_agency": "Sewerage & Water Board",
    "final_address": "1201 Riviera Ave",
    "address_councildis": "D",
    "status": "Pending",
    "rowid": "1209779",
    "final_x": "3676821.97435",
    "final_y": "550909.154965",
    "longitude": "-90.0821733380724",
    "latitude": "30.008950360000725",
    "geocoded_column": {
      "latitude": "30.008950360000725",
      "longitude": "-90.0821733380724"
    }
  },
  {
    "service_request": "2025-1209778",
    "request_type": "Drainage",
    "request_reason": "Catch Basin Clogged",
    "date_created": "2025-07-15T16:35:29.000",
    "date_modified": "2025-07-15T16:35:30.000",
    "request_status": "Pending",
    "responsible_agency": "Sewerage & Water Board",
    "final_address": "1201 Riviera Ave",
    "address_councildis": "D",
    "status": "Pending",
    "rowid": "1209778",
    "final_x": "3676821.97435",
    "final_y": "550909.154965",
    "longitude": "-90.0821733380724",
    "latitude": "30.008950360000725",
    "geocoded_column": {
      "latitude": "30.008950360000725",
      "longitude": "-90.0821733380724"
    }
  },
  {
    "service_request": "2025-1209777",
    "request_type": "Drainage",
    "request_reason": "Catch Basin Clogged",
    "date_created": "2025-07-15T16:35:29.000",
    "date_modified": "2025-07-15T16:35:30.000",
    "request_status": "Pending",
    "responsible_agency": "Sewerage & Water Board",
    "final_address": "1201 Riviera Ave",
    "address_councildis": "D",
    "status": "Pending",
    "rowid": "1209777",
    "final_x": "3676821.97435",
    "final_y": "550909.154965",
    "longitude": "-90.0821733380724",
    "latitude": "30.008950360000725",
    "geocoded_column": {
      "latitude": "30.008950360000725",
      "longitude": "-90.0821733380724"
    }
  },
  {
    "service_request": "2025-1209775",
    "request_type": "Trash/Recycling",
    "request_reason": "Damaged Caused By Contractor",
    "date_created": "2025-07-15T16:34:45.000",
    "date_modified": "2025-07-15T16:34:46.000",
    "request_status": "Pending",
    "responsible_agency": "Department of Sanitation",
    "final_address": "7357 Hickman St",
    "address_councildis": "E",
    "status": "Assigned to Contractor",
    "contractor": "Waste Pro",
    "rowid": "1209775",
    "final_x": "3706504.93457",
    "final_y": "562818.23792",
    "longitude": "-89.98795403550827",
    "latitude": "30.04077111306028",
    "geocoded_column": {
      "latitude": "30.04077111306028",
      "longitude": "-89.98795403550827"
    }
  },
  {
    "service_request": "2025-1209774",
    "request_type": "Property Maintenance",
    "request_reason": "Property Maintenance",
    "date_created": "2025-07-15T16:32:05.000",
    "date_modified": "2025-07-15T16:32:07.000",
    "request_status": "Pending",
    "responsible_agency": "Department of Code Enforcement",
    "final_address": "1003 Independence St",
    "address_councildis": "C",
    "status": "Pending",
    "rowid": "1209774",
    "final_x": "3690950.48726",
    "final_y": "535111.616134",
    "longitude": "-90.03810099721828",
    "latitude": "29.96508105113699",
    "geocoded_column": {
      "latitude": "29.96508105113699",
      "longitude": "-90.03810099721828"
    }
  },
  {
    "service_request": "2025-1209773",
    "request_type": "Trash/Recycling",
    "request_reason": "Request a Large Item Pick Up",
    "date_created": "2025-07-15T16:28:47.000",
    "date_modified": "2025-07-15T16:28:50.000",
    "request_status": "Pending",
    "responsible_agency": "Department of Sanitation",
    "final_address": "6921 Salem Dr",
    "address_councildis": "E",
    "status": "Assigned to Contractor",
    "contractor": "Waste Pro",
    "rowid": "1209773",
    "final_x": "3706899.27447",
    "final_y": "560406.37315",
    "longitude": "-89.9867973714592",
    "latitude": "30.034126701362325",
    "geocoded_column": {
      "latitude": "30.034126701362325",
      "longitude": "-89.9867973714592"
    }
  },
  {
    "service_request": "2025-1209772",
    "request_type": "Trash/Recycling",
    "request_reason": "Request a Large Item Pick Up",
    "date_created": "2025-07-15T16:28:45.000",
    "date_modified": "2025-07-15T16:28:47.000",
    "request_status": "Pending",
    "responsible_agency": "Department of Sanitation",
    "final_address": "805 Royal St",
    "address_councildis": "C",
    "status": "Assigned to Contractor",
    "contractor": "IV Waste",
    "rowid": "1209772",
    "final_x": "3682798.4932",
    "final_y": "532823.755972",
    "longitude": "-90.06392454461718",
    "latitude": "29.959041078106733",
    "geocoded_column": {
      "latitude": "29.959041078106733",
      "longitude": "-90.06392454461718"
    }
  },
  {
    "service_request": "2025-1209771",
    "request_type": "Trash/Recycling",
    "request_reason": "Order Recycling Cart",
    "date_created": "2025-07-15T16:24:22.000",
    "date_modified": "2025-07-15T16:24:24.000",
    "request_status": "Pending",
    "responsible_agency": "Department of Sanitation",
    "final_address": "7607 Freret St",
    "address_councildis": "A",
    "status": "Pending",
    "rowid": "1209771",
    "final_x": "3662779.97402",
    "final_y": "526739.203262",
    "longitude": "-90.12734059916755",
    "latitude": "29.942905137010413",
    "geocoded_column": {
      "latitude": "29.942905137010413",
      "longitude": "-90.12734059916755"
    }
  },
  {
    "service_request": "2025-1209770",
    "request_type": "Trash/Recycling",
    "request_reason": "Request a Large Item Pick Up",
    "date_created": "2025-07-15T16:23:25.000",
    "date_modified": "2025-07-15T16:23:28.000",
    "request_status": "Pending",
    "responsible_agency": "Department of Sanitation",
    "final_address": "7900 Lucerne St",
    "address_councildis": "E",
    "status": "Assigned to Contractor",
    "contractor": "Waste Pro",
    "rowid": "1209770",
    "final_x": "3710191.88696",
    "final_y": "566749.288483",
    "longitude": "-89.97615497679551",
    "latitude": "30.05146037461606",
    "geocoded_column": {
      "latitude": "30.05146037461606",
      "longitude": "-89.97615497679551"
    }
  },
  {
    "service_request": "2025-1209769",
    "request_type": "Drainage",
    "request_reason": "Catch Basin Clogged",
    "date_created": "2025-07-15T16:22:38.000",
    "date_modified": "2025-07-15T16:22:41.000",
    "request_status": "Pending",
    "responsible_agency": "Sewerage & Water Board",
    "final_address": "4234 Vincennes Pl",
    "address_councildis": "B",
    "status": "Pending",
    "rowid": "1209769",
    "final_x": "3668774.73255",
    "final_y": "531530.766147",
    "longitude": "-90.10825189629162",
    "latitude": "29.955905520855342",
    "geocoded_column": {
      "latitude": "29.955905520855342",
      "longitude": "-90.10825189629162"
    }
  },
  {
    "service_request": "2025-1209768",
    "request_type": "Trash/Recycling",
    "request_reason": "Missed Trash Pick-Up",
    "date_created": "2025-07-15T16:18:47.000",
    "date_modified": "2025-07-15T16:19:18.000",
    "request_status": "Pending",
    "responsible_agency": "Department of Sanitation",
    "final_address": "4556 Knight Dr",
    "address_councildis": "E",
    "status": "Assigned to Contractor",
    "contractor": "Waste Pro",
    "rowid": "1209768",
    "final_x": "3708172.08472",
    "final_y": "554458.884952",
    "longitude": "-89.98299665281266",
    "latitude": "30.01773224705908",
    "geocoded_column": {
      "latitude": "30.01773224705908",
      "longitude": "-89.98299665281266"
    }
  },
  {
    "service_request": "2025-1209767",
    "request_type": "Trash/Recycling",
    "request_reason": "Damaged Caused By Contractor",
    "date_created": "2025-07-15T16:17:26.000",
    "date_modified": "2025-07-15T16:17:28.000",
    "request_status": "Pending",
    "responsible_agency": "Department of Sanitation",
    "final_address": "5761 E Louis Prima Dr",
    "address_councildis": "E",
    "status": "Assigned to Contractor",
    "contractor": "Waste Pro",
    "rowid": "1209767",
    "final_x": "3716080.08108",
    "final_y": "562488.682719",
    "longitude": "-89.95770616993272",
    "latitude": "30.039552365134035",
    "geocoded_column": {
      "latitude": "30.039552365134035",
      "longitude": "-89.95770616993272"
    }
  },
  {
    "service_request": "2025-1209766",
    "request_type": "Drainage",
    "request_reason": "Catch Basin Clogged",
    "date_created": "2025-07-15T16:15:15.000",
    "date_modified": "2025-07-15T16:15:17.000",
    "request_status": "Pending",
    "responsible_agency": "Sewerage & Water Board",
    "final_address": "1201 Riviera Ave",
    "address_councildis": "D",
    "status": "Pending",
    "rowid": "1209766",
    "final_x": "3676821.97435",
    "final_y": "550909.154965",
    "longitude": "-90.0821733380724",
    "latitude": "30.008950360000725",
    "geocoded_column": {
      "latitude": "30.008950360000725",
      "longitude": "-90.0821733380724"
    }
  },
  {
    "service_request": "2025-1209765",
    "request_type": "Streetlights",
    "request_reason": "Streetlight Outage/Malfunction",
    "date_created": "2025-07-15T16:14:04.000",
    "date_modified": "2025-07-15T16:14:05.000",
    "request_status": "Pending",
    "responsible_agency": "Department of Public Works",
    "final_address": "116 16Th St",
    "address_councildis": "A",
    "status": "Pending",
    "contractor": "Legacy Professional Services",
    "rowid": "1209765",
    "final_x": "3665957.69402",
    "final_y": "548337.25269",
    "longitude": "-90.11658362818703",
    "latitude": "30.002200232525087",
    "geocoded_column": {
      "latitude": "30.002200232525087",
      "longitude": "-90.11658362818703"
    }
  },
  {
    "service_request": "2025-1209764",
    "request_type": "Drainage",
    "request_reason": "Catch Basin Clogged",
    "date_created": "2025-07-15T16:13:22.000",
    "date_modified": "2025-07-15T16:13:24.000",
    "request_status": "Pending",
    "responsible_agency": "Sewerage & Water Board",
    "final_address": "4238 S Claiborne Ave",
    "address_councildis": "B",
    "status": "Pending",
    "rowid": "1209764",
    "final_x": "3670851.4347",
    "final_y": "525744.757693",
    "longitude": "-90.10189072658652",
    "latitude": "29.939934677312124",
    "geocoded_column": {
      "latitude": "29.939934677312124",
      "longitude": "-90.10189072658652"
    }
  },
  {
    "service_request": "2025-1209763",
    "request_type": "Trash/Recycling",
    "request_reason": "Repair Trash Cart",
    "date_created": "2025-07-15T16:11:55.000",
    "date_modified": "2025-07-15T16:11:58.000",
    "request_status": "Pending",
    "responsible_agency": "Department of Sanitation",
    "final_address": "722 Lowerline St",
    "address_councildis": "A",
    "status": "Assigned to Contractor",
    "contractor": "IV Waste",
    "rowid": "1209763",
    "final_x": "3662768.16384",
    "final_y": "525536.093821",
    "longitude": "-90.12741786358683",
    "latitude": "29.93959731090673",
    "geocoded_column": {
      "latitude": "29.93959731090673",
      "longitude": "-90.12741786358683"
    }
  },
  {
    "service_request": "2025-1209762",
    "request_type": "Roads and Streets",
    "request_reason": "Sidewalk Damaged or Missing",
    "date_created": "2025-07-15T16:11:32.000",
    "date_modified": "2025-07-15T16:11:33.000",
    "request_status": "Pending",
    "responsible_agency": "Department of Public Works",
    "final_address": "1401 Constance St",
    "address_councildis": "B",
    "status": "Pending",
    "rowid": "1209762",
    "final_x": "3680687.05519",
    "final_y": "524404.955964",
    "longitude": "-90.07088483844902",
    "latitude": "29.93595635113064",
    "geocoded_column": {
      "latitude": "29.93595635113064",
      "longitude": "-90.07088483844902"
    }
  },
  {
    "service_request": "2025-1209761",
    "request_type": "General Services",
    "request_reason": "General Service Request",
    "date_created": "2025-07-15T16:10:42.000",
    "date_modified": "2025-07-15T16:10:44.000",
    "request_status": "Pending",
    "responsible_agency": "Orleans Parish Communication District",
    "final_address": "722 Lowerline St",
    "address_councildis": "A",
    "status": "Pending",
    "rowid": "1209761",
    "final_x": "3662768.16384",
    "final_y": "525536.093821",
    "longitude": "-90.12741786358683",
    "latitude": "29.93959731090673",
    "geocoded_column": {
      "latitude": "29.93959731090673",
      "longitude": "-90.12741786358683"
    }
  },
  {
    "service_request": "2025-1209760",
    "request_type": "Drainage",
    "request_reason": "Catch Basin Clogged",
    "date_created": "2025-07-15T16:10:40.000",
    "date_modified": "2025-07-15T16:10:41.000",
    "request_status": "Pending",
    "responsible_agency": "Sewerage & Water Board",
    "final_address": "3001 Eagle St",
    "address_councildis": "A",
    "status": "Pending",
    "rowid": "1209760",
    "final_x": "3664522.29914",
    "final_y": "534811.789638",
    "longitude": "-90.12157009927543",
    "latitude": "29.96505159093508",
    "geocoded_column": {
      "latitude": "29.96505159093508",
      "longitude": "-90.12157009927543"
    }
  },
  {
    "service_request": "2025-1209759",
    "request_type": "Trash/Recycling",
    "request_reason": "Request a Large Item Pick Up",
    "date_created": "2025-07-15T16:09:48.000",
    "date_modified": "2025-07-15T16:09:50.000",
    "request_status": "Pending",
    "responsible_agency": "Department of Sanitation",
    "final_address": "5613 N Villere St",
    "address_councildis": "E",
    "status": "Assigned to Contractor",
    "contractor": "Waste Pro",
    "rowid": "1209759",
    "final_x": "3698479.05207",
    "final_y": "534893.31303",
    "longitude": "-90.01433429450884",
    "latitude": "29.964244649031198",
    "geocoded_column": {
      "latitude": "29.964244649031198",
      "longitude": "-90.01433429450884"
    }
  },
  {
    "service_request": "2025-1209758",
    "request_type": "Drainage",
    "request_reason": "Catch Basin Clogged",
    "date_created": "2025-07-15T16:07:21.000",
    "date_modified": "2025-07-15T16:07:23.000",
    "request_status": "Pending",
    "responsible_agency": "Sewerage & Water Board",
    "final_address": "4934 Haik Dr",
    "address_councildis": "D",
    "status": "Pending",
    "rowid": "1209758",
    "final_x": "3681925.375",
    "final_y": "550894.726549",
    "longitude": "-90.06605051759907",
    "latitude": "30.00875647664343",
    "geocoded_column": {
      "latitude": "30.00875647664343",
      "longitude": "-90.06605051759907"
    }
  },
  {
    "service_request": "2025-1209757",
    "request_type": "Drainage",
    "request_reason": "Catch Basin Clogged",
    "date_created": "2025-07-15T16:04:53.000",
    "date_modified": "2025-07-15T16:04:55.000",
    "request_status": "Pending",
    "responsible_agency": "Sewerage & Water Board",
    "final_address": "1500 BLK Bodenger Blvd",
    "address_councildis": "C",
    "status": "Pending",
    "rowid": "1209757",
    "final_x": "3688496.54357",
    "final_y": "526056.250825",
    "longitude": "-90.04617162229883",
    "latitude": "29.9402579551397",
    "geocoded_column": {
      "latitude": "29.9402579551397",
      "longitude": "-90.04617162229883"
    }
  },
  {
    "service_request": "2025-1209756",
    "request_type": "Drainage",
    "request_reason": "Drainage Manhole Cover Missing or Damaged",
    "date_created": "2025-07-15T16:04:22.000",
    "date_modified": "2025-07-15T16:04:24.000",
    "request_status": "Pending",
    "responsible_agency": "Sewerage & Water Board",
    "final_address": "LEAKE AVE & DANTE ST",
    "address_councildis": "A",
    "status": "Pending",
    "rowid": "1209756",
    "final_x": "3660331.7",
    "final_y": "527659.98",
    "longitude": "-90.1350400327709",
    "latitude": "29.94550760708223",
    "geocoded_column": {
      "latitude": "29.94550760708223",
      "longitude": "-90.1350400327709"
    }
  },
  {
    "service_request": "2025-1209755",
    "request_type": "Trash/Recycling",
    "request_reason": "Replace Trash Cart",
    "date_created": "2025-07-15T16:04:03.000",
    "date_modified": "2025-07-15T16:04:04.000",
    "request_status": "Pending",
    "responsible_agency": "Department of Sanitation",
    "final_address": "11 LaSalle Pl",
    "address_councildis": "A",
    "status": "Assigned to Contractor",
    "contractor": "IV Waste",
    "rowid": "1209755",
    "final_x": "3666025.94464",
    "final_y": "524283.902524",
    "longitude": "-90.11717452265087",
    "latitude": "29.936059508373813",
    "geocoded_column": {
      "latitude": "29.936059508373813",
      "longitude": "-90.11717452265087"
    }
  },
  {
    "service_request": "2025-1209754",
    "request_type": "Parks & Parkways",
    "request_reason": "Request Tree Service (Right of Way/Public Property)",
    "date_created": "2025-07-15T16:03:17.000",
    "date_modified": "2025-07-15T16:03:18.000",
    "request_status": "Pending",
    "responsible_agency": "Department of Parks & Parkway",
    "final_address": "1516 Bodenger Blvd",
    "address_councildis": "C",
    "status": "Pending",
    "rowid": "1209754",
    "final_x": "3688557.49468",
    "final_y": "525985.055741",
    "longitude": "-90.04598171590942",
    "latitude": "29.940060310017497",
    "geocoded_column": {
      "latitude": "29.940060310017497",
      "longitude": "-90.04598171590942"
    }
  },
  {
    "service_request": "2025-1209753",
    "request_type": "Trash/Recycling",
    "request_reason": "Request a Large Item Pick Up",
    "date_created": "2025-07-15T15:59:24.000",
    "date_modified": "2025-07-15T15:59:27.000",
    "request_status": "Pending",
    "responsible_agency": "Department of Sanitation",
    "final_address": "2601 Marengo St",
    "address_councildis": "B",
    "status": "Assigned to Contractor",
    "contractor": "IV Waste",
    "rowid": "1209753",
    "final_x": "3671662.21505",
    "final_y": "524544.716924",
    "longitude": "-90.09937176834697",
    "latitude": "29.936610970387107",
    "geocoded_column": {
      "latitude": "29.936610970387107",
      "longitude": "-90.09937176834697"
    }
  },
  {
    "service_request": "2025-1209752",
    "request_type": "Parks & Parkways",
    "request_reason": "Request Tree Service (Right of Way/Public Property)",
    "date_created": "2025-07-15T15:58:41.000",
    "date_modified": "2025-07-15T16:13:16.000",
    "request_status": "Pending",
    "responsible_agency": "Department of Parks & Parkway",
    "final_address": "5980 Vicksburg St",
    "address_councildis": "A",
    "status": "Pending",
    "rowid": "1209752",
    "final_x": "3668770.58542",
    "final_y": "547196.563089",
    "longitude": "-90.10773588756898",
    "latitude": "29.998981300707445",
    "geocoded_column": {
      "latitude": "29.998981300707445",
      "longitude": "-90.10773588756898"
    }
  },
  {
    "service_request": "2025-1209751",
    "request_type": "Drainage",
    "request_reason": "Catch Basin Clogged",
    "date_created": "2025-07-15T15:57:06.000",
    "date_modified": "2025-07-15T15:57:09.000",
    "request_status": "Pending",
    "responsible_agency": "Sewerage & Water Board",
    "final_address": "1468 Mandolin St",
    "address_councildis": "D",
    "status": "Pending",
    "rowid": "1209751",
    "final_x": "3678476.03797",
    "final_y": "547956.904786",
    "longitude": "-90.07704986190396",
    "latitude": "30.000782959587983",
    "geocoded_column": {
      "latitude": "30.000782959587983",
      "longitude": "-90.07704986190396"
    }
  },
  {
    "service_request": "2025-1209750",
    "request_type": "Street and Traffic Signs",
    "request_reason": "Stop Sign Missing or Damaged",
    "date_created": "2025-07-15T15:56:14.000",
    "date_modified": "2025-07-15T15:56:16.000",
    "request_status": "Pending",
    "responsible_agency": "Department of Public Works",
    "final_address": "CONTI ST & N HENNESSEY ST",
    "address_councildis": "A",
    "status": "Pending",
    "rowid": "1209750",
    "final_x": "3671000.3",
    "final_y": "539885.58",
    "longitude": "-90.10094056588518",
    "latitude": "29.97881284460186",
    "geocoded_column": {
      "latitude": "29.97881284460186",
      "longitude": "-90.10094056588518"
    }
  },
  {
    "service_request": "2025-1209749",
    "request_type": "Healthy Homes",
    "request_reason": "Healthy Homes",
    "date_created": "2025-07-15T15:53:31.000",
    "date_modified": "2025-07-15T15:53:33.000",
    "request_status": "Pending",
    "responsible_agency": "Department of Code Enforcement",
    "final_address": "1124 N Robertson St",
    "address_councildis": "C",
    "status": "Pending",
    "rowid": "1209749",
    "final_x": "3681112.77736",
    "final_y": "535681.666503",
    "longitude": "-90.06914804771814",
    "latitude": "29.96695059799113",
    "geocoded_column": {
      "latitude": "29.96695059799113",
      "longitude": "-90.06914804771814"
    }
  },
  {
    "service_request": "2025-1209748",
    "request_type": "Parks & Parkways",
    "request_reason": "Request Tree Service (Right of Way/Public Property)",
    "date_created": "2025-07-15T15:52:10.000",
    "date_modified": "2025-07-15T15:52:12.000",
    "request_status": "Pending",
    "responsible_agency": "Department of Parks & Parkway",
    "final_address": "Polk St, New Orleans, Louisiana, 70124 and Canal Blvd, New Orleans, Louisiana, 70124",
    "status": "Pending",
    "rowid": "1209748",
    "longitude": "0.0",
    "latitude": "0.0",
    "geocoded_column": {
      "latitude": "0.0",
      "longitude": "0.0"
    }
  },
  {
    "service_request": "2025-1209747",
    "request_type": "Trash/Recycling",
    "request_reason": "Repair Recycling Cart",
    "date_created": "2025-07-15T15:51:34.000",
    "date_modified": "2025-07-15T15:51:36.000",
    "request_status": "Pending",
    "responsible_agency": "Department of Sanitation",
    "final_address": "5839 Catina St",
    "address_councildis": "A",
    "status": "Pending",
    "rowid": "1209747",
    "final_x": "3666794.58855",
    "final_y": "546693.233617",
    "longitude": "-90.11399503744758",
    "latitude": "29.997655284755094",
    "geocoded_column": {
      "latitude": "29.997655284755094",
      "longitude": "-90.11399503744758"
    }
  },
  {
    "service_request": "2025-1209746",
    "request_type": "Trash/Recycling",
    "request_reason": "Replace Trash Cart",
    "date_created": "2025-07-15T15:50:23.000",
    "date_modified": "2025-07-15T15:52:36.000",
    "request_status": "Pending",
    "responsible_agency": "Department of Sanitation",
    "final_address": "4882 Alcee Fortier Blvd",
    "address_councildis": "E",
    "status": "Assigned to Contractor",
    "contractor": "Waste Pro",
    "rowid": "1209746",
    "final_x": "3730158.38061",
    "final_y": "562751.175392",
    "longitude": "-89.91320494315858",
    "latitude": "30.039801867371477",
    "geocoded_column": {
      "latitude": "30.039801867371477",
      "longitude": "-89.91320494315858"
    }
  },
  {
    "service_request": "2025-1209745",
    "request_type": "Street and Traffic Signs",
    "request_reason": "Street Name Sign Damaged or Missing",
    "date_created": "2025-07-15T15:45:12.000",
    "date_modified": "2025-07-15T15:45:13.000",
    "request_status": "Pending",
    "responsible_agency": "Department of Public Works",
    "final_address": "7300 Heather Ct",
    "address_councildis": "E",
    "status": "Pending",
    "rowid": "1209745",
    "final_x": "3705627.27518",
    "final_y": "561942.434655",
    "longitude": "-89.99076014548416",
    "latitude": "30.038391305659232",
    "geocoded_column": {
      "latitude": "30.038391305659232",
      "longitude": "-89.99076014548416"
    }
  },
  {
    "service_request": "2025-1209744",
    "request_type": "Mosquito, Termite & Rodent Control",
    "request_reason": "Rodent Complaint (Mice & Rats)",
    "date_created": "2025-07-15T15:44:42.000",
    "date_modified": "2025-07-15T15:44:44.000",
    "request_status": "Pending",
    "responsible_agency": "Mosquito, Termite & Rodent Control Board",
    "final_address": "3551 Piedmont Dr",
    "address_councildis": "D",
    "status": "Pending",
    "rowid": "1209744",
    "final_x": "3686202.26518",
    "final_y": "545913.046608",
    "longitude": "-90.05271435568064",
    "latitude": "29.994927902368865",
    "geocoded_column": {
      "latitude": "29.994927902368865",
      "longitude": "-90.05271435568064"
    }
  },
  {
    "service_request": "2025-1209743",
    "request_type": "Trash/Recycling",
    "request_reason": "MIssed Recycling Pick-Up",
    "date_created": "2025-07-15T15:42:53.000",
    "date_modified": "2025-07-15T16:21:26.000",
    "case_close_date": "2025-07-15T11:21:25.000",
    "request_status": "Closed",
    "responsible_agency": "Department of Sanitation",
    "final_address": "4617 Palmyra St",
    "address_councildis": "A",
    "status": "Invalid Request",
    "contractor": "IV Waste",
    "contractor_action": "Invalid",
    "rowid": "1209743",
    "final_x": "3668830.28692",
    "final_y": "539121.90881",
    "longitude": "-90.10782010514752",
    "latitude": "29.976777003030886",
    "geocoded_column": {
      "latitude": "29.976777003030886",
      "longitude": "-90.10782010514752"
    }
  },
  {
    "service_request": "2025-1209742",
    "request_type": "Mosquito, Termite & Rodent Control",
    "request_reason": "Mosquito Complaint",
    "date_created": "2025-07-15T15:40:42.000",
    "date_modified": "2025-07-15T15:41:32.000",
    "request_status": "Pending",
    "responsible_agency": "Mosquito, Termite & Rodent Control Board",
    "final_address": "1216 Chartres St",
    "address_councildis": "C",
    "status": "Pending",
    "rowid": "1209742",
    "final_x": "3684136.60194",
    "final_y": "533731.382149",
    "longitude": "-90.05966727747494",
    "latitude": "29.961495909545246",
    "geocoded_column": {
      "latitude": "29.961495909545246",
      "longitude": "-90.05966727747494"
    }
  },
  {
    "service_request": "2025-1209741",
    "request_type": "Trash/Recycling",
    "request_reason": "Request a Large Item Pick Up",
    "date_created": "2025-07-15T15:39:04.000",
    "date_modified": "2025-07-15T15:39:51.000",
    "request_status": "Pending",
    "responsible_agency": "Department of Sanitation",
    "final_address": "3409 Paris Ave",
    "address_councildis": "D",
    "status": "Assigned to Contractor",
    "contractor": "IV Waste",
    "rowid": "1209741",
    "final_x": "3679812.25154",
    "final_y": "544871.600719",
    "longitude": "-90.0729358771826",
    "latitude": "29.99225911576418",
    "geocoded_column": {
      "latitude": "29.99225911576418",
      "longitude": "-90.0729358771826"
    }
  },
  {
    "service_request": "2025-1209740",
    "request_type": "Trash/Recycling",
    "request_reason": "Request a Large Item Pick Up",
    "date_created": "2025-07-15T15:38:58.000",
    "date_modified": "2025-07-15T15:39:00.000",
    "request_status": "Pending",
    "responsible_agency": "Department of Sanitation",
    "final_address": "3620 Palmyra St",
    "address_councildis": "B",
    "status": "Assigned to Contractor",
    "contractor": "IV Waste",
    "rowid": "1209740",
    "final_x": "3671911.15739",
    "final_y": "536617.580807",
    "longitude": "-90.0981749892301",
    "latitude": "29.96979998433987",
    "geocoded_column": {
      "latitude": "29.96979998433987",
      "longitude": "-90.0981749892301"
    }
  },
  {
    "service_request": "2025-1209739",
    "request_type": "Drainage",
    "request_reason": "Drainage Manhole Cover Missing or Damaged",
    "date_created": "2025-07-15T15:34:29.000",
    "date_modified": "2025-07-15T15:34:31.000",
    "request_status": "Pending",
    "responsible_agency": "Sewerage & Water Board",
    "final_address": "8601 Leake Ave",
    "address_councildis": "A",
    "status": "Pending",
    "rowid": "1209739",
    "final_x": "3660208.80339",
    "final_y": "529136.21248",
    "longitude": "-90.13537932999203",
    "latitude": "29.949570309269692",
    "geocoded_column": {
      "latitude": "29.949570309269692",
      "longitude": "-90.13537932999203"
    }
  },
  {
    "service_request": "2025-1209738",
    "request_type": "Trash/Recycling",
    "request_reason": "Illegal Dumping",
    "date_created": "2025-07-15T15:31:06.000",
    "date_modified": "2025-07-15T15:31:07.000",
    "request_status": "Pending",
    "responsible_agency": "Department of Sanitation",
    "final_address": "5700 Crowder Blvd",
    "address_councildis": "E",
    "status": "Pending",
    "rowid": "1209738",
    "final_x": "3705062.42065",
    "final_y": "557854.943195",
    "longitude": "-89.99269635649384",
    "latitude": "30.02717049048631",
    "geocoded_column": {
      "latitude": "30.02717049048631",
      "longitude": "-89.99269635649384"
    }
  },
  {
    "service_request": "2025-1209737",
    "request_type": "Property Maintenance",
    "request_reason": "Property Maintenance",
    "date_created": "2025-07-15T15:30:32.000",
    "date_modified": "2025-07-15T15:40:01.000",
    "case_close_date": "2025-07-15T10:40:00.000",
    "request_status": "Closed",
    "responsible_agency": "Department of Code Enforcement",
    "final_address": "1318 France St",
    "address_councildis": "D",
    "status": "Referred to Code Enforcement",
    "rowid": "1209737",
    "final_x": "3692570.95209",
    "final_y": "536082.510663",
    "longitude": "-90.03294888682888",
    "latitude": "29.967700202709214",
    "geocoded_column": {
      "latitude": "29.967700202709214",
      "longitude": "-90.03294888682888"
    }
  },
  {
    "service_request": "2025-1209736",
    "request_type": "General Services",
    "request_reason": "General Service Request",
    "date_created": "2025-07-15T15:29:34.000",
    "date_modified": "2025-07-15T15:34:03.000",
    "case_close_date": "2025-07-15T10:34:02.000",
    "request_status": "Closed",
    "responsible_agency": "Orleans Parish Communication District",
    "final_address": "700 BLK Saint Joseph St",
    "address_councildis": "B",
    "status": "Referred to Risk Management",
    "rowid": "1209736",
    "final_x": "3680058.24287",
    "final_y": "527515.810242",
    "longitude": "-90.07276196814688",
    "latitude": "29.94452920202078",
    "geocoded_column": {
      "latitude": "29.94452920202078",
      "longitude": "-90.07276196814688"
    }
  },
  {
    "service_request": "2025-1209735",
    "request_type": "Property Maintenance",
    "request_reason": "Property Maintenance",
    "date_created": "2025-07-15T15:29:14.000",
    "date_modified": "2025-07-15T15:43:06.000",
    "case_close_date": "2025-07-15T10:43:05.000",
    "request_status": "Closed",
    "responsible_agency": "Department of Code Enforcement",
    "final_address": "5101 Sandhurst Dr",
    "address_councildis": "E",
    "status": "Referred to Code Enforcement",
    "rowid": "1209735",
    "final_x": "3705272.05028",
    "final_y": "556679.877082",
    "longitude": "-89.99207741461058",
    "latitude": "30.023932769594037",
    "geocoded_column": {
      "latitude": "30.023932769594037",
      "longitude": "-89.99207741461058"
    }
  },
  {
    "service_request": "2025-1209734",
    "request_type": "Trash/Recycling",
    "request_reason": "Order Trash Cart",
    "date_created": "2025-07-15T15:28:41.000",
    "date_modified": "2025-07-15T15:28:43.000",
    "request_status": "Pending",
    "responsible_agency": "Department of Sanitation",
    "final_address": "2353 St Claude Ave",
    "address_councildis": "C",
    "status": "Assigned to Contractor",
    "contractor": "IV Waste",
    "rowid": "1209734",
    "final_x": "3686234.63842",
    "final_y": "536514.873863",
    "longitude": "-90.05294383052781",
    "latitude": "29.96908525513046",
    "geocoded_column": {
      "latitude": "29.96908525513046",
      "longitude": "-90.05294383052781"
    }
  },
  {
    "service_request": "2025-1209733",
    "request_type": "Trash/Recycling",
    "request_reason": "Request a Large Item Pick Up",
    "date_created": "2025-07-15T15:27:31.000",
    "date_modified": "2025-07-15T15:27:33.000",
    "request_status": "Pending",
    "responsible_agency": "Department of Sanitation",
    "final_address": "2740 Filmore Ave",
    "address_councildis": "D",
    "status": "Assigned to Contractor",
    "contractor": "IV Waste",
    "rowid": "1209733",
    "final_x": "3687632.73763",
    "final_y": "552524.942422",
    "longitude": "-90.04796136924755",
    "latitude": "30.013064173235698",
    "geocoded_column": {
      "latitude": "30.013064173235698",
      "longitude": "-90.04796136924755"
    }
  },
  {
    "service_request": "2025-1209732",
    "request_type": "Roads and Streets",
    "request_reason": "Pothole",
    "date_created": "2025-07-15T15:23:35.000",
    "date_modified": "2025-07-15T15:23:37.000",
    "request_status": "Pending",
    "responsible_agency": "Department of Public Works",
    "final_address": "6313 Pritchard Pl",
    "address_councildis": "B",
    "status": "Pending",
    "rowid": "1209732",
    "final_x": "3668313.93562",
    "final_y": "531029.06509",
    "longitude": "-90.10972385497395",
    "latitude": "29.954539546124092",
    "geocoded_column": {
      "latitude": "29.954539546124092",
      "longitude": "-90.10972385497395"
    }
  },
  {
    "service_request": "2025-1209731",
    "request_type": "Mosquito, Termite & Rodent Control",
    "request_reason": "Rodent Complaint (Mice & Rats)",
    "date_created": "2025-07-15T15:20:20.000",
    "date_modified": "2025-07-15T15:20:21.000",
    "request_status": "Pending",
    "responsible_agency": "Mosquito, Termite & Rodent Control Board",
    "final_address": "4431 Macarthur Blvd",
    "address_councildis": "C",
    "status": "Pending",
    "rowid": "1209731",
    "final_x": "3700270.09015",
    "final_y": "520176.40268",
    "longitude": "-90.00921543719888",
    "latitude": "29.923721497773414",
    "geocoded_column": {
      "latitude": "29.923721497773414",
      "longitude": "-90.00921543719888"
    }
  },
  {
    "service_request": "2025-1209730",
    "request_type": "Trash/Recycling",
    "request_reason": "Request a Large Item Pick Up",
    "date_created": "2025-07-15T15:20:08.000",
    "date_modified": "2025-07-15T15:24:50.000",
    "request_status": "Pending",
    "responsible_agency": "Department of Sanitation",
    "final_address": "6313 Pritchard Pl",
    "address_councildis": "B",
    "status": "Assigned to Contractor",
    "contractor": "IV Waste",
    "rowid": "1209730",
    "final_x": "3668313.93562",
    "final_y": "531029.06509",
    "longitude": "-90.10972385497395",
    "latitude": "29.954539546124092",
    "geocoded_column": {
      "latitude": "29.954539546124092",
      "longitude": "-90.10972385497395"
    }
  },
  {
    "service_request": "2025-1209729",
    "request_type": "Roads and Streets",
    "request_reason": "Sidewalk Damaged or Missing",
    "date_created": "2025-07-15T15:18:58.000",
    "date_modified": "2025-07-15T15:30:58.000",
    "request_status": "Pending",
    "responsible_agency": "Department of Public Works",
    "final_address": "2204 Bienville Ave",
    "address_councildis": "B",
    "status": "Assigned to Contractor",
    "rowid": "1209729",
    "final_x": "3677326.56898",
    "final_y": "534494.687685",
    "longitude": "-90.08114587352247",
    "latitude": "29.963801126255284",
    "geocoded_column": {
      "latitude": "29.963801126255284",
      "longitude": "-90.08114587352247"
    }
  },
  {
    "service_request": "2025-1209728",
    "request_type": "Streetlights",
    "request_reason": "Streetlight Knocked Down/Leaning",
    "date_created": "2025-07-15T15:18:34.000",
    "date_modified": "2025-07-15T15:18:36.000",
    "request_status": "Pending",
    "responsible_agency": "Department of Public Works",
    "final_address": "2600 N Robertson St",
    "address_councildis": "C",
    "status": "Pending",
    "contractor": "Legacy Professional Services",
    "rowid": "1209728",
    "final_x": "3687622.21071",
    "final_y": "537859.920073",
    "longitude": "-90.04851416193122",
    "latitude": "29.972740954572714",
    "geocoded_column": {
      "latitude": "29.972740954572714",
      "longitude": "-90.04851416193122"
    }
  },
  {
    "service_request": "2025-1209727",
    "request_type": "Drainage",
    "request_reason": "Street Flooding",
    "date_created": "2025-07-15T15:17:47.000",
    "date_modified": "2025-07-15T15:17:50.000",
    "request_status": "Pending",
    "responsible_agency": "Sewerage & Water Board",
    "final_address": "6823 St Charles Ave",
    "address_councildis": "A",
    "status": "Pending",
    "rowid": "1209727",
    "final_x": "3664251.8256",
    "final_y": "524033.789948",
    "longitude": "-90.1227838277921",
    "latitude": "29.935423435180134",
    "geocoded_column": {
      "latitude": "29.935423435180134",
      "longitude": "-90.1227838277921"
    }
  },
  {
    "service_request": "2025-1209726",
    "request_type": "Trash/Recycling",
    "request_reason": "Return Recycling Cart",
    "date_created": "2025-07-15T15:17:33.000",
    "date_modified": "2025-07-15T15:17:35.000",
    "request_status": "Pending",
    "responsible_agency": "Department of Sanitation",
    "final_address": "3813 Dumaine St",
    "address_councildis": "A",
    "status": "Pending",
    "rowid": "1209726",
    "final_x": "3673701.25102",
    "final_y": "540208.491467",
    "longitude": "-90.09239888270663",
    "latitude": "29.979620587591707",
    "geocoded_column": {
      "latitude": "29.979620587591707",
      "longitude": "-90.09239888270663"
    }
  },
  {
    "service_request": "2025-1209725",
    "request_type": "Utility Poles",
    "request_reason": "Utility Pole Leaning",
    "date_created": "2025-07-15T15:14:02.000",
    "date_modified": "2025-07-15T15:14:05.000",
    "request_status": "Pending",
    "responsible_agency": "Utility Company Collective",
    "final_address": "ADAMS ST & HAMPSON ST",
    "address_councildis": "A",
    "status": "Pending",
    "rowid": "1209725",
    "final_x": "3661893.4",
    "final_y": "526095.98",
    "longitude": "-90.13016106612565",
    "latitude": "29.941162105435232",
    "geocoded_column": {
      "latitude": "29.941162105435232",
      "longitude": "-90.13016106612565"
    }
  },
  {
    "service_request": "2025-1209724",
    "request_type": "Trash/Recycling",
    "request_reason": "Order Second Trash Cart",
    "date_created": "2025-07-15T15:13:08.000",
    "date_modified": "2025-07-15T15:13:10.000",
    "request_status": "Pending",
    "responsible_agency": "Department of Sanitation",
    "final_address": "7934 Maple St",
    "address_councildis": "A",
    "status": "Assigned to Contractor",
    "contractor": "IV Waste",
    "rowid": "1209724",
    "final_x": "3661353.61946",
    "final_y": "526976.072894",
    "longitude": "-90.13183612703901",
    "latitude": "29.943597655075305",
    "geocoded_column": {
      "latitude": "29.943597655075305",
      "longitude": "-90.13183612703901"
    }
  },
  {
    "service_request": "2025-1209723",
    "request_type": "Abandoned Vehicles",
    "request_reason": "Abandoned/Junk Vehicles",
    "date_created": "2025-07-15T15:12:12.000",
    "date_modified": "2025-07-15T15:13:13.000",
    "request_status": "Pending",
    "responsible_agency": "Department of Public Works",
    "final_address": "436 S Cortez St",
    "address_councildis": "B",
    "status": "Pending",
    "rowid": "1209723",
    "final_x": "3671187.05243",
    "final_y": "536367.066247",
    "longitude": "-90.10047029755826",
    "latitude": "29.969132596035525",
    "geocoded_column": {
      "latitude": "29.969132596035525",
      "longitude": "-90.10047029755826"
    }
  },
  {
    "service_request": "2025-1209722",
    "request_type": "Trash/Recycling",
    "request_reason": "Request a Large Item Pick Up",
    "date_created": "2025-07-15T15:07:48.000",
    "date_modified": "2025-07-15T15:07:49.000",
    "request_status": "Pending",
    "responsible_agency": "Department of Sanitation",
    "final_address": "3915 Magazine St Apt B",
    "address_councildis": "B",
    "status": "Assigned to Contractor",
    "contractor": "IV Waste",
    "rowid": "1209722",
    "final_x": "3672961.30216",
    "final_y": "519039.493175",
    "longitude": "-90.09545824966698",
    "latitude": "29.921434847015878",
    "geocoded_column": {
      "latitude": "29.921434847015878",
      "longitude": "-90.09545824966698"
    }
  },
  {
    "service_request": "2025-1209721",
    "request_type": "Drainage",
    "request_reason": "Catch Basin Clogged",
    "date_created": "2025-07-15T15:05:29.000",
    "date_modified": "2025-07-15T15:05:31.000",
    "request_status": "Pending",
    "responsible_agency": "Sewerage & Water Board",
    "final_address": "1739 N Dupre St",
    "address_councildis": "D",
    "status": "Pending",
    "rowid": "1209721",
    "final_x": "3679130.09083",
    "final_y": "541480.648076",
    "longitude": "-90.07520829887619",
    "latitude": "29.982955796964408",
    "geocoded_column": {
      "latitude": "29.982955796964408",
      "longitude": "-90.07520829887619"
    }
  },
  {
    "service_request": "2025-1209720",
    "request_type": "General Services",
    "request_reason": "General Service Request",
    "date_created": "2025-07-15T15:03:49.000",
    "date_modified": "2025-07-15T15:35:45.000",
    "case_close_date": "2025-07-15T10:35:44.000",
    "request_status": "Closed",
    "responsible_agency": "Orleans Parish Communication District",
    "final_address": "3723 Meadow Park Ln",
    "address_councildis": "C",
    "status": "Additional information requested from citizen",
    "rowid": "1209720",
    "final_x": "3703690.32074",
    "final_y": "510774.705583",
    "longitude": "-89.99876475780545",
    "latitude": "29.897760924472323",
    "geocoded_column": {
      "latitude": "29.897760924472323",
      "longitude": "-89.99876475780545"
    }
  },
  {
    "service_request": "2025-1209719",
    "request_type": "Trash/Recycling",
    "request_reason": "Repair Recycling Cart",
    "date_created": "2025-07-15T15:03:18.000",
    "date_modified": "2025-07-15T15:03:20.000",
    "request_status": "Pending",
    "responsible_agency": "Department of Sanitation",
    "final_address": "4775 Baccich St",
    "address_councildis": "D",
    "status": "Pending",
    "rowid": "1209719",
    "final_x": "3687756.17001",
    "final_y": "550928.342997",
    "longitude": "-90.04762799155235",
    "latitude": "30.00867030275962",
    "geocoded_column": {
      "latitude": "30.00867030275962",
      "longitude": "-90.04762799155235"
    }
  },
  {
    "service_request": "2025-1209718",
    "request_type": "Trash/Recycling",
    "request_reason": "Request a Large Item Pick Up",
    "date_created": "2025-07-15T15:02:37.000",
    "date_modified": "2025-07-15T15:02:57.000",
    "request_status": "Pending",
    "responsible_agency": "Department of Sanitation",
    "final_address": "5805 Fontainebleau Dr",
    "address_councildis": "B",
    "status": "Assigned to Contractor",
    "contractor": "IV Waste",
    "rowid": "1209718",
    "final_x": "3668477.80218",
    "final_y": "529867.832577",
    "longitude": "-90.10924559784861",
    "latitude": "29.951341724272368",
    "geocoded_column": {
      "latitude": "29.951341724272368",
      "longitude": "-90.10924559784861"
    }
  },
  {
    "service_request": "2025-1209717",
    "request_type": "Drainage",
    "request_reason": "Catch Basin Clogged",
    "date_created": "2025-07-15T14:59:58.000",
    "date_modified": "2025-07-15T15:00:00.000",
    "request_status": "Pending",
    "responsible_agency": "Sewerage & Water Board",
    "final_address": "1201 St Mary St",
    "address_councildis": "B",
    "status": "Pending",
    "rowid": "1209717",
    "final_x": "3679461.71765",
    "final_y": "523174.647995",
    "longitude": "-90.07479591669288",
    "latitude": "29.932610474188653",
    "geocoded_column": {
      "latitude": "29.932610474188653",
      "longitude": "-90.07479591669288"
    }
  },
  {
    "service_request": "2025-1209716",
    "request_type": "Roads and Streets",
    "request_reason": "Pothole",
    "date_created": "2025-07-15T14:58:30.000",
    "date_modified": "2025-07-15T14:58:32.000",
    "request_status": "Pending",
    "responsible_agency": "Department of Public Works",
    "final_address": "2800 Fourth St",
    "address_councildis": "B",
    "status": "Pending",
    "rowid": "1209716",
    "final_x": "3673794.5259",
    "final_y": "526262.830782",
    "longitude": "-90.09258122697555",
    "latitude": "29.941271909756466",
    "geocoded_column": {
      "latitude": "29.941271909756466",
      "longitude": "-90.09258122697555"
    }
  },
  {
    "service_request": "2025-1209715",
    "request_type": "Trash/Recycling",
    "request_reason": "Request a Large Item Pick Up",
    "date_created": "2025-07-15T14:56:46.000",
    "date_modified": "2025-07-15T14:56:48.000",
    "request_status": "Pending",
    "responsible_agency": "Department of Sanitation",
    "final_address": "1470 Urania St",
    "address_councildis": "B",
    "status": "Assigned to Contractor",
    "contractor": "IV Waste",
    "rowid": "1209715",
    "final_x": "3679020.6605",
    "final_y": "524112.813372",
    "longitude": "-90.07615580224486",
    "latitude": "29.935203433418685",
    "geocoded_column": {
      "latitude": "29.935203433418685",
      "longitude": "-90.07615580224486"
    }
  },
  {
    "service_request": "2025-1209714",
    "request_type": "Parks & Parkways",
    "request_reason": "Request Tree Service (Right of Way/Public Property)",
    "date_created": "2025-07-15T14:56:18.000",
    "date_modified": "2025-07-15T14:57:08.000",
    "request_status": "Pending",
    "responsible_agency": "Department of Parks & Parkway",
    "final_address": "4601 Knight Dr",
    "address_councildis": "E",
    "status": "Pending",
    "rowid": "1209714",
    "final_x": "3708291.42539",
    "final_y": "554669.324568",
    "longitude": "-89.98261174830743",
    "latitude": "30.018307006780574",
    "geocoded_column": {
      "latitude": "30.018307006780574",
      "longitude": "-89.98261174830743"
    }
  },
  {
    "service_request": "2025-1209713",
    "request_type": "Abandoned Vehicles",
    "request_reason": "Abandoned/Junk Vehicles",
    "date_created": "2025-07-15T14:52:06.000",
    "date_modified": "2025-07-15T14:52:08.000",
    "request_status": "Pending",
    "responsible_agency": "Department of Public Works",
    "final_address": "3901 Toulouse St",
    "address_councildis": "A",
    "status": "Pending",
    "rowid": "1209713",
    "final_x": "3672864.31918",
    "final_y": "539308.925066",
    "longitude": "-90.09507295971285",
    "latitude": "29.97717198271486",
    "geocoded_column": {
      "latitude": "29.97717198271486",
      "longitude": "-90.09507295971285"
    }
  },
  {
    "service_request": "2025-1209712",
    "request_type": "Streetlights",
    "request_reason": "Streetlight Knocked Down/Leaning",
    "date_created": "2025-07-15T14:50:09.000",
    "date_modified": "2025-07-15T14:50:10.000",
    "request_status": "Pending",
    "responsible_agency": "Department of Public Works",
    "final_address": "240 Decatur St",
    "address_councildis": "C",
    "status": "Pending",
    "contractor": "Legacy Professional Services",
    "rowid": "1209712",
    "final_x": "3682286.45756",
    "final_y": "530787.225666",
    "longitude": "-90.06561257362986",
    "latitude": "29.953456899877665",
    "geocoded_column": {
      "latitude": "29.953456899877665",
      "longitude": "-90.06561257362986"
    }
  },
  {
    "service_request": "2025-1209711",
    "request_type": "Property Maintenance",
    "request_reason": "Property Maintenance",
    "date_created": "2025-07-15T14:49:29.000",
    "date_modified": "2025-07-15T15:24:20.000",
    "case_close_date": "2025-07-15T10:00:20.000",
    "request_status": "Closed",
    "responsible_agency": "Department of Code Enforcement",
    "final_address": "1633 N Johnson St",
    "address_councildis": "D",
    "status": "Referred to Code Enforcement",
    "rowid": "1209711",
    "final_x": "3681188.44527",
    "final_y": "538902.175178",
    "longitude": "-90.0687968493565",
    "latitude": "29.975803590006837",
    "geocoded_column": {
      "latitude": "29.975803590006837",
      "longitude": "-90.0687968493565"
    }
  },
  {
    "service_request": "2025-1209710",
    "request_type": "Roads and Streets",
    "request_reason": "Abandoned Service Cut",
    "date_created": "2025-07-15T14:48:38.000",
    "date_modified": "2025-07-15T14:50:13.000",
    "request_status": "Pending",
    "responsible_agency": "Department of Public Works",
    "final_address": "3961 Louisiana Avenue Prkwy",
    "address_councildis": "B",
    "status": "Pending",
    "rowid": "1209710",
    "final_x": "3671071.32308",
    "final_y": "529502.936705",
    "longitude": "-90.10106890430876",
    "latitude": "29.950261942692194",
    "geocoded_column": {
      "latitude": "29.950261942692194",
      "longitude": "-90.10106890430876"
    }
  },
  {
    "service_request": "2025-1209709",
    "request_type": "Roads and Streets",
    "request_reason": "Street Subsidence (Sinking)",
    "date_created": "2025-07-15T14:48:11.000",
    "date_modified": "2025-07-15T14:48:13.000",
    "request_status": "Pending",
    "responsible_agency": "Department of Public Works",
    "final_address": "440 Bermuda St",
    "address_councildis": "C",
    "status": "Pending",
    "rowid": "1209709",
    "final_x": "3686725.855",
    "final_y": "530223.829249",
    "longitude": "-90.05161477286336",
    "latitude": "29.95177195339137",
    "geocoded_column": {
      "latitude": "29.95177195339137",
      "longitude": "-90.05161477286336"
    }
  },
  {
    "service_request": "2025-1209708",
    "request_type": "Trash/Recycling",
    "request_reason": "Replace Trash Cart",
    "date_created": "2025-07-15T14:46:44.000",
    "date_modified": "2025-07-15T14:46:46.000",
    "request_status": "Pending",
    "responsible_agency": "Department of Sanitation",
    "final_address": "20285 Old Spanish Trl",
    "address_councildis": "E",
    "status": "Assigned to Contractor",
    "contractor": "Waste Pro",
    "rowid": "1209708",
    "final_x": "3760224.96208",
    "final_y": "572694.263529",
    "longitude": "-89.81777217770386",
    "latitude": "30.066081972191537",
    "geocoded_column": {
      "latitude": "30.066081972191537",
      "longitude": "-89.81777217770386"
    }
  },
  {
    "service_request": "2025-1209707",
    "request_type": "Property Maintenance",
    "request_reason": "Property Maintenance",
    "date_created": "2025-07-15T14:38:45.000",
    "date_modified": "2025-07-15T14:54:35.000",
    "case_close_date": "2025-07-15T09:54:34.000",
    "request_status": "Closed",
    "responsible_agency": "Department of Code Enforcement",
    "final_address": "237 Decatur St",
    "address_councildis": "C",
    "status": "Referred to Code Enforcement",
    "rowid": "1209707",
    "final_x": "3682205.84687",
    "final_y": "530795.958978",
    "longitude": "-90.06586680269743",
    "latitude": "29.953483365567994",
    "geocoded_column": {
      "latitude": "29.953483365567994",
      "longitude": "-90.06586680269743"
    }
  },