[
  {
    "service_request": "2023-999328",
    "request_type": "Traffic Signals/Signs/Striping/Streetlights",
    "request_reason": "Street Light Outage/Malfunction",
    "date_created": "2023-05-13T01:51:33.000",
    "date_modified": "2023-05-13T01:51:34.000",
    "request_status": "Pending",
    "responsible_agency": "Department of Public Works",
    "final_address": "ST CHARLES AVE & LEONTINE ST",
    "address_councildis": "B",
    "status": "Assigned to Contractor",
    "contractor": "Legacy Professional Services",
    "rowid": "999328",
    "final_x": "3667585.8",
    "final_y": "521415.58",
    "longitude": "-90.11234649557043",
    "latitude": "29.928126920903008",
    "geocoded_column": {
      "latitude": "29.928126920903008",
      "longitude": "-90.11234649557043"
    }
  },
  {
    "service_request": "2023-999327",
    "request_type": "Traffic Signals/Signs/Striping/Streetlights",
    "request_reason": "Street Light Outage/Malfunction",
    "date_created": "2023-05-13T01:47:26.000",
    "date_modified": "2023-05-13T01:47:26.000",
    "request_status": "Pending",
    "responsible_agency": "Department of Public Works",
    "final_address": "1000 BLK Leontine St",
    "address_councildis": "B",
    "status": "Assigned to Contractor",
    "contractor": "Legacy Professional Services",
    "rowid": "999327",
    "final_x": "3667241.59625",
    "final_y": "519262.696499",
    "longitude": "-90.11350542302486",
    "latitude": "29.922217252583962",
    "geocoded_column": {
      "latitude": "29.922217252583962",
      "longitude": "-90.11350542302486"
    }
  },
  {
    "service_request": "2023-999326",
    "request_type": "Abandoned Vehicles",
    "request_reason": "Abandoned/Junk Vehicles",
    "date_created": "2023-05-12T23:16:05.000",
    "date_modified": "2023-05-12T23:16:06.000",
    "request_status": "Pending",
    "responsible_agency": "Department of Public Works",
    "final_address": "124 S Dorgenois St",
    "address_councildis": "B",
    "status": "Pending",
    "rowid": "999326",
    "final_x": "3675662.08449",
    "final_y": "534510.405317",
    "longitude": "-90.08640161909003",
    "latitude": "29.96389425489396",
    "geocoded_column": {
      "latitude": "29.96389425489396",
      "longitude": "-90.08640161909003"
    }
  },
  {
    "service_request": "2023-999325",
    "request_type": "Abandoned Vehicles",
    "request_reason": "Abandoned/Junk Vehicles",
    "date_created": "2023-05-12T23:04:43.000",
    "date_modified": "2023-05-12T23:04:43.000",
    "request_status": "Pending",
    "responsible_agency": "Department of Public Works",
    "final_address": "300 BLK N dOrgenois St",
    "address_councildis": "B",
    "status": "Pending",
    "rowid": "999325",
    "final_x": "3676385.19969",
    "final_y": "535553.722315",
    "longitude": "-90.08408216716967",
    "latitude": "29.96674136612868",
    "geocoded_column": {
      "latitude": "29.96674136612868",
      "longitude": "-90.08408216716967"
    }
  },
  {
    "service_request": "2023-999324",
    "request_type": "Traffic Signals/Signs/Striping/Streetlights",
    "request_reason": "Street Light Outage/Malfunction",
    "date_created": "2023-05-12T22:42:35.000",
    "date_modified": "2023-05-12T22:42:36.000",
    "request_status": "Pending",
    "responsible_agency": "Department of Public Works",
    "final_address": "618 S Pierce St",
    "address_councildis": "B",
    "status": "Assigned to Contractor",
    "contractor": "Legacy Professional Services",
    "rowid": "999324",
    "final_x": "3670233.06894",
    "final_y": "536278.751111",
    "longitude": "-90.10348604720605",
    "latitude": "29.968917947993315",
    "geocoded_column": {
      "latitude": "29.968917947993315",
      "longitude": "-90.10348604720605"
    }
  },
  {
    "service_request": "2023-999323",
    "request_type": "Trash/Recycling",
    "request_reason": "Report a Missed Trash/Recycling Pick Up",
    "date_created": "2023-05-12T22:39:25.000",
    "date_modified": "2023-05-12T22:39:26.000",
    "request_status": "Pending",
    "responsible_agency": "Department of Sanitation",
    "final_address": "7719 Pearl St",
    "address_councildis": "A",
    "contractor": "Richards Disposal",
    "rowid": "999323",
    "final_x": "3661322.75584",
    "final_y": "525685.491069",
    "longitude": "-90.1319762934953",
    "latitude": "29.940049854606897",
    "geocoded_column": {
      "latitude": "29.940049854606897",
      "longitude": "-90.1319762934953"
    }
  },
  {
    "service_request": "2023-999322",
    "request_type": "Trash/Recycling",
    "request_reason": "Missed Trash Pick-Up",
    "date_created": "2023-05-12T22:09:32.000",
    "date_modified": "2023-05-12T22:09:33.000",
    "request_status": "Pending",
    "responsible_agency": "Department of Sanitation",
    "final_address": "2628 Third St",
    "address_councildis": "B",
    "status": "Assigned to Contractor",
    "contractor": "Richards Disposal",
    "rowid": "999322",
    "final_x": "3674279.55156",
    "final_y": "526079.980542",
    "longitude": "-90.09105616538332",
    "latitude": "29.94075468129887",
    "geocoded_column": {
      "latitude": "29.94075468129887",
      "longitude": "-90.09105616538332"
    }
  },
  {
    "service_request": "2023-999321",
    "request_type": "Trash/Recycling",
    "request_reason": "Missed Trash Pick-Up",
    "date_created": "2023-05-12T22:08:28.000",
    "date_modified": "2023-05-12T22:08:29.000",
    "request_status": "Pending",
    "responsible_agency": "Department of Sanitation",
    "final_address": "2628 Third St",
    "address_councildis": "B",
    "status": "Assigned to Contractor",
    "contractor": "Richards Disposal",
    "rowid": "999321",
    "final_x": "3674279.55156",
    "final_y": "526079.980542",
    "longitude": "-90.09105616538332",
    "latitude": "29.94075468129887",
    "geocoded_column": {
      "latitude": "29.94075468129887",
      "longitude": "-90.09105616538332"
    }
  },
  {
    "service_request": "2023-999320",
    "request_type": "Trash/Recycling",
    "request_reason": "Start Trash Service",
    "date_created": "2023-05-12T22:07:22.000",
    "date_modified": "2023-05-12T22:07:23.000",
    "request_status": "Pending",
    "responsible_agency": "Department of Sanitation",
    "final_address": "3416 Danneel St",
    "address_councildis": "B",
    "status": "Assigned to Contractor",
    "contractor": "Richards Disposal",
    "rowid": "999320",
    "final_x": "3673451.94369",
    "final_y": "522754.161018",
    "longitude": "-90.09378266092422",
    "latitude": "29.931634404890303",
    "geocoded_column": {
      "latitude": "29.931634404890303",
      "longitude": "-90.09378266092422"
    }
  },
  {
    "service_request": "2023-999319",
    "request_type": "Health Related Request",
    "request_reason": "Noise Ordinance",
    "date_created": "2023-05-12T22:06:09.000",
    "date_modified": "2023-05-12T22:06:09.000",
    "request_status": "Pending",
    "final_address": "525 Frenchmen St",
    "address_councildis": "C",
    "status": "Pending",
    "rowid": "999319",
    "final_x": "3684776.90357",
    "final_y": "534376.138501",
    "longitude": "-90.05762264942118",
    "latitude": "29.96324918168695",
    "geocoded_column": {
      "latitude": "29.96324918168695",
      "longitude": "-90.05762264942118"
    }
  },
  {
    "service_request": "2023-999318",
    "request_type": "Property Maintenance",
    "request_reason": "Property Maintenance",
    "date_created": "2023-05-12T21:33:27.000",
    "date_modified": "2023-05-12T21:33:27.000",
    "request_status": "Pending",
    "responsible_agency": "Department of Code Enforcement",
    "final_address": "1605 N Rocheblave St",
    "address_councildis": "D",
    "status": "Pending",
    "rowid": "999318",
    "final_x": "3679955.78299",
    "final_y": "539581.246986",
    "longitude": "-90.07266634804654",
    "latitude": "29.97770814982995",
    "geocoded_column": {
      "latitude": "29.97770814982995",
      "longitude": "-90.07266634804654"
    }
  },
  {
    "service_request": "2023-999317",
    "request_type": "Property Maintenance",
    "request_reason": "Property Maintenance",
    "date_created": "2023-05-12T21:29:48.000",
    "date_modified": "2023-05-12T21:29:48.000",
    "request_status": "Pending",
    "responsible_agency": "Department of Code Enforcement",
    "final_address": "1605 N Rocheblave St",
    "address_councildis": "D",
    "status": "Pending",
    "rowid": "999317",
    "final_x": "3679955.78299",
    "final_y": "539581.246986",
    "longitude": "-90.07266634804654",
    "latitude": "29.97770814982995",
    "geocoded_column": {
      "latitude": "29.97770814982995",
      "longitude": "-90.07266634804654"
    }
  },
  {
    "service_request": "2023-999316",
    "request_type": "Traffic Signals/Signs/Striping/Streetlights",
    "request_reason": "Street Light Outage/Malfunction",
    "date_created": "2023-05-12T21:20:38.000",
    "date_modified": "2023-05-12T21:20:38.000",
    "request_status": "Pending",
    "responsible_agency": "Department of Public Works",
    "final_address": "3809 State Street Dr",
    "address_councildis": "A",
    "status": "Assigned to Contractor",
    "contractor": "Legacy Professional Services",
    "rowid": "999316",
    "final_x": "3668104.67284",
    "final_y": "529580.225345",
    "longitude": "-90.11043345276177",
    "latitude": "29.95056185340376",
    "geocoded_column": {
      "latitude": "29.95056185340376",
      "longitude": "-90.11043345276177"
    }
  },
  {
    "service_request": "2023-999315",
    "request_type": "Trash/Recycling",
    "request_reason": "Order Recycling Cart",
    "date_created": "2023-05-12T20:44:39.000",
    "date_modified": "2023-05-12T20:44:39.000",
    "request_status": "Pending",
    "responsible_agency": "Department of Sanitation",
    "final_address": "6560 Catina St",
    "address_councildis": "A",
    "status": "Pending",
    "rowid": "999315",
    "final_x": "3666908.17607",
    "final_y": "551386.235669",
    "longitude": "-90.11347838901612",
    "latitude": "30.010556089200083",
    "geocoded_column": {
      "latitude": "30.010556089200083",
      "longitude": "-90.11347838901612"
    }
  },
  {
    "service_request": "2023-999314",
    "request_type": "Trash/Recycling",
    "request_reason": "Missed Trash Pick-Up",
    "date_created": "2023-05-12T20:43:54.000",
    "date_modified": "2023-05-12T20:43:55.000",
    "request_status": "Pending",
    "responsible_agency": "Department of Sanitation",
    "final_address": "2331 N Rampart St",
    "address_councildis": "C",
    "status": "Assigned to Contractor",
    "contractor": "IV Waste",
    "rowid": "999314",
    "final_x": "3685701.96918",
    "final_y": "536028.225927",
    "longitude": "-90.05464318444446",
    "latitude": "29.967763498163094",
    "geocoded_column": {
      "latitude": "29.967763498163094",
      "longitude": "-90.05464318444446"
    }
  },
  {
    "service_request": "2023-999313",
    "request_type": "Roads/Drainage",
    "request_reason": "Alley Way",
    "date_created": "2023-05-12T20:09:55.000",
    "date_modified": "2023-05-12T20:09:55.000",
    "request_status": "Pending",
    "responsible_agency": "Department of Public Works",
    "final_address": "5944 Argonne Blvd",
    "address_councildis": "A",
    "status": "Pending",
    "rowid": "999313",
    "final_x": "3670066.86791",
    "final_y": "546827.277457",
    "longitude": "-90.1036534180396",
    "latitude": "29.997927705448376",
    "geocoded_column": {
      "latitude": "29.997927705448376",
      "longitude": "-90.1036534180396"
    }
  },
  {
    "service_request": "2023-999312",
    "request_type": "Trash/Recycling",
    "request_reason": "Request a Large Item Pick Up",
    "date_created": "2023-05-12T19:59:18.000",
    "date_modified": "2023-05-12T19:59:19.000",
    "request_status": "Pending",
    "responsible_agency": "Department of Sanitation",
    "final_address": "4632 Palmyra St",
    "address_councildis": "A",
    "status": "Assigned to Contractor",
    "contractor": "Richards Disposal",
    "rowid": "999312",
    "final_x": "3668657.13831",
    "final_y": "539098.992778",
    "longitude": "-90.10836773818717",
    "latitude": "29.976719082561484",
    "geocoded_column": {
      "latitude": "29.976719082561484",
      "longitude": "-90.10836773818717"
    }
  },
  {
    "service_request": "2023-999311",
    "request_type": "Trash/Recycling",
    "request_reason": "MIssed Recycling Pick-Up",
    "date_created": "2023-05-12T19:38:05.000",
    "date_modified": "2023-05-12T19:38:06.000",
    "request_status": "Pending",
    "responsible_agency": "Department of Sanitation",
    "final_address": "423 S Solomon St",
    "address_councildis": "A",
    "status": "Assigned to Contractor",
    "contractor": "Richards Disposal",
    "rowid": "999311",
    "final_x": "3669684.00743",
    "final_y": "537605.832264",
    "longitude": "-90.10517510291825",
    "latitude": "29.972583168970633",
    "geocoded_column": {
      "latitude": "29.972583168970633",
      "longitude": "-90.10517510291825"
    }
  },
  {
    "service_request": "2023-999310",
    "request_type": "Parks & Parkways",
    "request_reason": "Request Tree Service (Right of Way/Public Property)",
    "date_created": "2023-05-12T19:32:39.000",
    "date_modified": "2023-05-12T19:36:15.000",
    "request_status": "Pending",
    "responsible_agency": "Department of Parks & Parkway",
    "final_address": "6 Crane St",
    "address_councildis": "D",
    "status": "Pending",
    "rowid": "999310",
    "final_x": "3673350.87848",
    "final_y": "554573.169944",
    "longitude": "-90.09301439898364",
    "latitude": "30.019128854552196",
    "geocoded_column": {
      "latitude": "30.019128854552196",
      "longitude": "-90.09301439898364"
    }
  },
  {
    "service_request": "2023-999309",
    "request_type": "Roads/Drainage",
    "request_reason": "Street Flooding / Drainage",
    "date_created": "2023-05-12T19:30:02.000",
    "date_modified": "2023-05-12T19:30:02.000",
    "request_status": "Pending",
    "responsible_agency": "Department of Public Works",
    "final_address": " & BALDWIN ST",
    "address_councildis": "D",
    "status": "Pending",
    "rowid": "999309",
    "final_x": "3687893.7",
    "final_y": "559892.69",
    "longitude": "-90.04687552277309",
    "latitude": "30.033314683701462",
    "geocoded_column": {
      "latitude": "30.033314683701462",
      "longitude": "-90.04687552277309"
    }
  },
  {
    "service_request": "2023-999308",
    "request_type": "Abandoned Vehicles",
    "request_reason": "Abandoned/Junk Vehicles",
    "date_created": "2023-05-12T19:09:55.000",
    "date_modified": "2023-05-12T19:09:55.000",
    "request_status": "Pending",
    "responsible_agency": "Department of Public Works",
    "final_address": "1419 Milan St",
    "address_councildis": "B",
    "status": "Pending",
    "rowid": "999308",
    "final_x": "3671715.85063",
    "final_y": "520587.080568",
    "longitude": "-90.09933699517596",
    "latitude": "29.92572715615037",
    "geocoded_column": {
      "latitude": "29.92572715615037",
      "longitude": "-90.09933699517596"
    }
  },
  {
    "service_request": "2023-999307",
    "request_type": "Abandoned Vehicles",
    "request_reason": "Abandoned/Junk Vehicles",
    "date_created": "2023-05-12T19:04:00.000",
    "date_modified": "2023-05-12T19:04:00.000",
    "request_status": "Pending",
    "responsible_agency": "Department of Public Works",
    "final_address": "1419 Milan St",
    "address_councildis": "B",
    "status": "Pending",
    "rowid": "999307",
    "final_x": "3671715.85063",
    "final_y": "520587.080568",
    "longitude": "-90.09933699517596",
    "latitude": "29.92572715615037",
    "geocoded_column": {
      "latitude": "29.92572715615037",
      "longitude": "-90.09933699517596"
    }
  },
  {
    "service_request": "2023-999306",
    "request_type": "Property Maintenance",
    "request_reason": "Property Maintenance",
    "date_created": "2023-05-12T18:52:29.000",
    "date_modified": "2023-05-12T18:54:31.000",
    "request_status": "Pending",
    "responsible_agency": "Department of Code Enforcement",
    "final_address": "162 Pinewood Ct",
    "address_councildis": "C",
    "status": "Pending",
    "rowid": "999306",
    "final_x": "3695934.58582",
    "final_y": "523529.575483",
    "longitude": "-90.02277990782272",
    "latitude": "29.933078626369817",
    "geocoded_column": {
      "latitude": "29.933078626369817",
      "longitude": "-90.02277990782272"
    }
  },
  {
    "service_request": "2023-999305",
    "request_type": "Traffic Signals/Signs/Striping/Streetlights",
    "request_reason": "Street Light Outage/Malfunction",
    "date_created": "2023-05-12T18:29:15.000",
    "date_modified": "2023-05-12T18:29:15.000",
    "request_status": "Pending",
    "responsible_agency": "Department of Public Works",
    "final_address": "7691 Rochon Ave",
    "address_councildis": "E",
    "status": "Assigned to Contractor",
    "contractor": "Legacy Professional Services",
    "rowid": "999305",
    "final_x": "3718452.41516",
    "final_y": "572028.712872",
    "longitude": "-89.9498449498986",
    "latitude": "30.065704986220084",
    "geocoded_column": {
      "latitude": "30.065704986220084",
      "longitude": "-89.9498449498986"
    }
  },
  {
    "service_request": "2023-999304",
    "request_type": "Abandoned Vehicles",
    "request_reason": "Abandoned/Junk Vehicles",
    "date_created": "2023-05-12T18:12:59.000",
    "date_modified": "2023-05-12T18:12:59.000",
    "request_status": "Pending",
    "responsible_agency": "Department of Public Works",
    "final_address": "2317 Bienville Ave",
    "address_councildis": "B",
    "status": "Pending",
    "rowid": "999304",
    "final_x": "3677087.11362",
    "final_y": "534847.834502",
    "longitude": "-90.08188987090723",
    "latitude": "29.964779353476743",
    "geocoded_column": {
      "latitude": "29.964779353476743",
      "longitude": "-90.08188987090723"
    }
  },
  {
    "service_request": "2023-999303",
    "request_type": "Trash/Recycling",
    "request_reason": "Order Recycling Cart",
    "date_created": "2023-05-12T18:07:32.000",
    "date_modified": "2023-05-12T18:07:32.000",
    "request_status": "Pending",
    "responsible_agency": "Department of Sanitation",
    "final_address": "4900 BLK Elysian Fields Ave",
    "address_councildis": "D",
    "status": "Pending",
    "rowid": "999303",
    "final_x": "3683869.71326",
    "final_y": "551235.903549",
    "longitude": "-90.05989574864839",
    "latitude": "30.00963531775951",
    "geocoded_column": {
      "latitude": "30.00963531775951",
      "longitude": "-90.05989574864839"
    }
  },
  {
    "service_request": "2023-999302",
    "request_type": "Trash/Recycling",
    "request_reason": "Request a Large Item Pick Up",
    "date_created": "2023-05-12T18:03:38.000",
    "date_modified": "2023-05-12T18:03:39.000",
    "request_status": "Pending",
    "responsible_agency": "Department of Sanitation",
    "final_address": "312 State St",
    "address_councildis": "A",
    "status": "Assigned to Contractor",
    "contractor": "Richards Disposal",
    "rowid": "999302",
    "final_x": "3664119.68154",
    "final_y": "517676.062198",
    "longitude": "-90.12341294791301",
    "latitude": "29.91794551940804",
    "geocoded_column": {
      "latitude": "29.91794551940804",
      "longitude": "-90.12341294791301"
    }
  },
  {
    "service_request": "2023-999301",
    "request_type": "Trash/Recycling",
    "request_reason": "Missed Trash Pick-Up",
    "date_created": "2023-05-12T18:03:38.000",
    "date_modified": "2023-05-12T18:03:38.000",
    "request_status": "Pending",
    "responsible_agency": "Department of Sanitation",
    "final_address": "2420 dubreuil st. nola, 70117",
    "status": "Assigned to Contractor",
    "rowid": "999301",
    "longitude": "0.0",
    "latitude": "0.0",
    "geocoded_column": {
      "latitude": "0.0",
      "longitude": "0.0"
    }
  },
  {
    "service_request": "2023-999300",
    "request_type": "Roads/Drainage",
    "request_reason": "Ditch Issue",
    "date_created": "2023-05-12T17:55:25.000",
    "date_modified": "2023-05-12T17:55:25.000",
    "request_status": "Pending",
    "responsible_agency": "Department of Public Works",
    "final_address": "3017 Wabash St",
    "address_councildis": "C",
    "status": "Pending",
    "rowid": "999300",
    "final_x": "3694734.51933",
    "final_y": "520584.214392",
    "longitude": "-90.02667444952127",
    "latitude": "29.925017572933786",
    "geocoded_column": {
      "latitude": "29.925017572933786",
      "longitude": "-90.02667444952127"
    }
  },
  {
    "service_request": "2023-999299",
    "request_type": "Traffic Signals/Signs/Striping/Streetlights",
    "request_reason": "Traffic Signal Malfunctioning/Damaged",
    "date_created": "2023-05-12T17:48:19.000",
    "date_modified": "2023-05-12T17:48:19.000",
    "request_status": "Pending",
    "responsible_agency": "Department of Public Works",
    "final_address": "0 General De Gaulle Dr",
    "address_councildis": "C",
    "status": "Pending",
    "rowid": "999299",
    "final_x": "3697018.31735",
    "final_y": "519731.228088",
    "longitude": "-90.01949615286618",
    "latitude": "29.922600343135908",
    "geocoded_column": {
      "latitude": "29.922600343135908",
      "longitude": "-90.01949615286618"
    }
  },
  {
    "service_request": "2023-999298",
    "request_type": "Roads/Drainage",
    "request_reason": "Ditch Issue",
    "date_created": "2023-05-12T17:43:51.000",
    "date_modified": "2023-05-12T17:43:51.000",
    "request_status": "Pending",
    "responsible_agency": "Department of Public Works",
    "final_address": "3017 Wabash St",
    "address_councildis": "C",
    "status": "Pending",
    "rowid": "999298",
    "final_x": "3694734.51933",
    "final_y": "520584.214392",
    "longitude": "-90.02667444952127",
    "latitude": "29.925017572933786",
    "geocoded_column": {
      "latitude": "29.925017572933786",
      "longitude": "-90.02667444952127"
    }
  },
  {
    "service_request": "2023-999297",
    "request_type": "Trash/Recycling",
    "request_reason": "Illegal Dumping",
    "date_created": "2023-05-12T17:36:22.000",
    "date_modified": "2023-05-12T17:36:23.000",
    "request_status": "Pending",
    "responsible_agency": "Department of Sanitation",
    "final_address": "6700 Plaza Dr",
    "address_councildis": "E",
    "status": "Pending",
    "rowid": "999297",
    "final_x": "3708600.87569",
    "final_y": "559744.969757",
    "longitude": "-89.98144479994687",
    "latitude": "30.032253010900185",
    "geocoded_column": {
      "latitude": "30.032253010900185",
      "longitude": "-89.98144479994687"
    }
  },
  {
    "service_request": "2023-999296",
    "request_type": "Trash/Recycling",
    "request_reason": "Order Recycling Cart",
    "date_created": "2023-05-12T17:29:53.000",
    "date_modified": "2023-05-12T17:29:53.000",
    "request_status": "Pending",
    "responsible_agency": "Department of Sanitation",
    "final_address": "1101 Philip St",
    "address_councildis": "B",
    "status": "Pending",
    "rowid": "999296",
    "final_x": "3678547.80706",
    "final_y": "521896.275386",
    "longitude": "-90.0777252794287",
    "latitude": "29.929122937576615",
    "geocoded_column": {
      "latitude": "29.929122937576615",
      "longitude": "-90.0777252794287"
    }
  },
  {
    "service_request": "2023-999295",
    "request_type": "Roads/Drainage",
    "request_reason": "Catch Basin - Clogged",
    "date_created": "2023-05-12T16:48:45.000",
    "date_modified": "2023-05-12T16:48:45.000",
    "request_status": "Pending",
    "responsible_agency": "Department of Public Works",
    "final_address": "4721 Bright Dr",
    "address_councildis": "E",
    "status": "Pending",
    "rowid": "999295",
    "final_x": "3715909.39608",
    "final_y": "556842.243802",
    "longitude": "-89.95845969136853",
    "latitude": "30.02403255477211",
    "geocoded_column": {
      "latitude": "30.02403255477211",
      "longitude": "-89.95845969136853"
    }
  },
  {
    "service_request": "2023-999294",
    "request_type": "Roads/Drainage",
    "request_reason": "Catch Basin - Clogged",
    "date_created": "2023-05-12T16:47:56.000",
    "date_modified": "2023-05-12T16:47:57.000",
    "request_status": "Pending",
    "responsible_agency": "Department of Public Works",
    "final_address": "4720 Bright Dr",
    "address_councildis": "E",
    "status": "Pending",
    "rowid": "999294",
    "final_x": "3715821.86636",
    "final_y": "556833.340186",
    "longitude": "-89.95873660294468",
    "latitude": "30.024010960877675",
    "geocoded_column": {
      "latitude": "30.024010960877675",
      "longitude": "-89.95873660294468"
    }
  },
  {
    "service_request": "2023-999293",
    "request_type": "Traffic Signals/Signs/Striping/Streetlights",
    "request_reason": "Road Surface Marking Maintenance-Traffic Control",
    "date_created": "2023-05-12T16:47:04.000",
    "date_modified": "2023-05-12T16:47:04.000",
    "request_status": "Pending",
    "responsible_agency": "Department of Public Works",
    "final_address": "6073 Louis Xiv St",
    "address_councildis": "A",
    "status": "Pending",
    "rowid": "999293",
    "final_x": "3668227.9122",
    "final_y": "547905.507346",
    "longitude": "-90.1094262852902",
    "latitude": "30.000946601171275",
    "geocoded_column": {
      "latitude": "30.000946601171275",
      "longitude": "-90.1094262852902"
    }
  },
  {
    "service_request": "2023-999292",
    "request_type": "Trash/Recycling",
    "request_reason": "MIssed Recycling Pick-Up",
    "date_created": "2023-05-12T16:46:15.000",
    "date_modified": "2023-05-12T16:46:16.000",
    "request_status": "Pending",
    "responsible_agency": "Department of Sanitation",
    "final_address": "4506 St Claude Ave",
    "address_councildis": "C",
    "status": "Assigned to Contractor",
    "contractor": "IV Waste",
    "rowid": "999292",
    "final_x": "3693370.41769",
    "final_y": "534863.163846",
    "longitude": "-90.03046794882333",
    "latitude": "29.964322458050418",
    "geocoded_column": {
      "latitude": "29.964322458050418",
      "longitude": "-90.03046794882333"
    }
  },
  {
    "service_request": "2023-999291",
    "request_type": "Property Maintenance",
    "request_reason": "Property Maintenance",
    "date_created": "2023-05-12T16:44:32.000",
    "date_modified": "2023-05-12T16:44:32.000",
    "request_status": "Pending",
    "responsible_agency": "Department of Code Enforcement",
    "final_address": "13000 Chateau Ct",
    "address_councildis": "E",
    "status": "Pending",
    "rowid": "999291",
    "final_x": "3724448.00364",
    "final_y": "562272.230367",
    "longitude": "-89.93126976223337",
    "latitude": "30.038678328170985",
    "geocoded_column": {
      "latitude": "30.038678328170985",
      "longitude": "-89.93126976223337"
    }
  },
  {
    "service_request": "2023-999290",
    "request_type": "Property Maintenance",
    "request_reason": "Property Maintenance",
    "date_created": "2023-05-12T16:40:08.000",
    "date_modified": "2023-05-12T16:40:08.000",
    "request_status": "Pending",
    "responsible_agency": "Department of Code Enforcement",
    "final_address": "13000 Chateau Ct",
    "address_councildis": "E",
    "status": "Pending",
    "rowid": "999290",
    "final_x": "3724448.00364",
    "final_y": "562272.230367",
    "longitude": "-89.93126976223337",
    "latitude": "30.038678328170985",
    "geocoded_column": {
      "latitude": "30.038678328170985",
      "longitude": "-89.93126976223337"
    }
  },
  {
    "service_request": "2023-999289",
    "request_type": "Abandoned Vehicles",
    "request_reason": "Abandoned/Junk Vehicles",
    "date_created": "2023-05-12T16:37:24.000",
    "date_modified": "2023-05-12T16:37:24.000",
    "request_status": "Pending",
    "responsible_agency": "Department of Public Works",
    "final_address": "7919 Means Ave",
    "address_councildis": "E",
    "status": "Pending",
    "rowid": "999289",
    "final_x": "3707621.78769",
    "final_y": "565639.86813",
    "longitude": "-89.98431944650785",
    "latitude": "30.048493365502853",
    "geocoded_column": {
      "latitude": "30.048493365502853",
      "longitude": "-89.98431944650785"
    }
  },
  {
    "service_request": "2023-999288",
    "request_type": "Traffic Signals/Signs/Striping/Streetlights",
    "request_reason": "Traffic Signal Malfunctioning/Damaged",
    "date_created": "2023-05-12T16:30:13.000",
    "date_modified": "2023-05-12T16:30:14.000",
    "request_status": "Pending",
    "responsible_agency": "Department of Public Works",
    "final_address": "GENERAL DE GAULLE DR & GARDEN OAKS DR & WESTBEND PKWY",
    "address_councildis": "C",
    "status": "Pending",
    "rowid": "999288",
    "final_x": "3696351.7",
    "final_y": "520532.68",
    "longitude": "-90.02157142374539",
    "latitude": "29.924825063772325",
    "geocoded_column": {
      "latitude": "29.924825063772325",
      "longitude": "-90.02157142374539"
    }
  },
  {
    "service_request": "2023-999287",
    "request_type": "Roads/Drainage",
    "request_reason": "Catch Basin - Clogged",
    "date_created": "2023-05-12T16:29:41.000",
    "date_modified": "2023-05-12T16:29:41.000",
    "request_status": "Pending",
    "responsible_agency": "Department of Public Works",
    "final_address": "6073 Louis Xiv St",
    "address_councildis": "A",
    "status": "Pending",
    "rowid": "999287",
    "final_x": "3668227.9122",
    "final_y": "547905.507346",
    "longitude": "-90.1094262852902",
    "latitude": "30.000946601171275",
    "geocoded_column": {
      "latitude": "30.000946601171275",
      "longitude": "-90.1094262852902"
    }
  },
  {
    "service_request": "2023-999286",
    "request_type": "Traffic Signals/Signs/Striping/Streetlights",
    "request_reason": "Street Light Outage/Malfunction",
    "date_created": "2023-05-12T16:20:26.000",
    "date_modified": "2023-05-12T16:20:27.000",
    "request_status": "Pending",
    "responsible_agency": "Department of Public Works",
    "final_address": "5976 Canal Blvd",
    "address_councildis": "A",
    "status": "Assigned to Contractor",
    "contractor": "Legacy Professional Services",
    "rowid": "999286",
    "final_x": "3668309.22439",
    "final_y": "547237.471441",
    "longitude": "-90.10919195877784",
    "latitude": "29.999107345275263",
    "geocoded_column": {
      "latitude": "29.999107345275263",
      "longitude": "-90.10919195877784"
    }
  },
  {
    "service_request": "2023-999285",
    "request_type": "Traffic Signals/Signs/Striping/Streetlights",
    "request_reason": "Street Light Outage/Malfunction",
    "date_created": "2023-05-12T16:19:30.000",
    "date_modified": "2023-05-12T16:19:31.000",
    "request_status": "Pending",
    "responsible_agency": "Department of Public Works",
    "final_address": "7060 Curran Rd",
    "address_councildis": "E",
    "status": "Assigned to Contractor",
    "contractor": "Legacy Professional Services",
    "rowid": "999285",
    "final_x": "3699291.25885",
    "final_y": "560257.248925",
    "longitude": "-90.01084497787751",
    "latitude": "30.033960304819626",
    "geocoded_column": {
      "latitude": "30.033960304819626",
      "longitude": "-90.01084497787751"
    }
  },
  {
    "service_request": "2023-999284",
    "request_type": "Trash/Recycling",
    "request_reason": "Illegal Dumping",
    "date_created": "2023-05-12T16:17:44.000",
    "date_modified": "2023-05-12T16:17:44.000",
    "request_status": "Pending",
    "responsible_agency": "Department of Sanitation",
    "final_address": "4118 N Roman St",
    "address_councildis": "D",
    "status": "Pending",
    "rowid": "999284",
    "final_x": "3692951.8223",
    "final_y": "537764.63604",
    "longitude": "-90.03168574865765",
    "latitude": "29.972313560670244",
    "geocoded_column": {
      "latitude": "29.972313560670244",
      "longitude": "-90.03168574865765"
    }
  },
  {
    "service_request": "2023-999283",
    "request_type": "Trash/Recycling",
    "request_reason": "Missed Trash Pick-Up",
    "date_created": "2023-05-12T16:14:21.000",
    "date_modified": "2023-05-12T16:14:22.000",
    "request_status": "Pending",
    "responsible_agency": "Department of Sanitation",
    "final_address": "7401 Chadbourne Dr",
    "address_councildis": "E",
    "status": "Assigned to Contractor",
    "contractor": "Waste Pro",
    "rowid": "999283",
    "final_x": "3701392.67076",
    "final_y": "557630.843867",
    "longitude": "-90.00430056706577",
    "latitude": "30.026671851675555",
    "geocoded_column": {
      "latitude": "30.026671851675555",
      "longitude": "-90.00430056706577"
    }
  },
  {
    "service_request": "2023-999282",
    "request_type": "Traffic Signals/Signs/Striping/Streetlights",
    "request_reason": "Street Light Outage/Malfunction",
    "date_created": "2023-05-12T16:12:49.000",
    "date_modified": "2023-05-12T16:12:50.000",
    "request_status": "Pending",
    "responsible_agency": "Department of Public Works",
    "final_address": "6069 Louis Xiv St",
    "address_councildis": "A",
    "status": "Assigned to Contractor",
    "contractor": "Legacy Professional Services",
    "rowid": "999282",
    "final_x": "3668223.53268",
    "final_y": "547855.876114",
    "longitude": "-90.10944179527513",
    "latitude": "30.000810261100817",
    "geocoded_column": {
      "latitude": "30.000810261100817",
      "longitude": "-90.10944179527513"
    }
  },
  {
    "service_request": "2023-999281",
    "request_type": "Trash/Recycling",
    "request_reason": "Request a Large Item Pick Up",
    "date_created": "2023-05-12T16:11:17.000",
    "date_modified": "2023-05-12T16:12:14.000",
    "request_status": "Pending",
    "responsible_agency": "Department of Sanitation",
    "final_address": "8131 Apricot St",
    "address_councildis": "A",
    "status": "Assigned to Contractor",
    "contractor": "Richards Disposal",
    "rowid": "999281",
    "final_x": "3665700.48903",
    "final_y": "532824.543364",
    "longitude": "-90.1179159954325",
    "latitude": "29.9595530042956",
    "geocoded_column": {
      "latitude": "29.9595530042956",
      "longitude": "-90.1179159954325"
    }
  },
  {
    "service_request": "2023-999279",
    "request_type": "Trash/Recycling",
    "request_reason": "MIssed Recycling Pick-Up",
    "date_created": "2023-05-12T16:03:39.000",
    "date_modified": "2023-05-12T16:03:40.000",
    "request_status": "Pending",
    "responsible_agency": "Department of Sanitation",
    "final_address": "4849 Francisco Verrett Dr",
    "address_councildis": "E",
    "status": "Assigned to Contractor",
    "contractor": "Waste Pro",
    "rowid": "999279",
    "final_x": "3704222.56625",
    "final_y": "555913.510489",
    "longitude": "-89.99542183027292",
    "latitude": "30.021859294091527",
    "geocoded_column": {
      "latitude": "30.021859294091527",
      "longitude": "-89.99542183027292"
    }
  },
  {
    "service_request": "2023-999277",
    "request_type": "Trash/Recycling",
    "request_reason": "Order Recycling Cart",
    "date_created": "2023-05-12T16:00:23.000",
    "date_modified": "2023-05-12T16:00:23.000",
    "request_status": "Pending",
    "responsible_agency": "Department of Sanitation",
    "final_address": "931 Kerlerec St Apt B",
    "address_councildis": "C",
    "status": "Pending",
    "rowid": "999277",
    "final_x": "3683551.39727",
    "final_y": "535297.715206",
    "longitude": "-90.06146034923499",
    "latitude": "29.965820659915522",
    "geocoded_column": {
      "latitude": "29.965820659915522",
      "longitude": "-90.06146034923499"
    }
  },
  {
    "service_request": "2023-999276",
    "request_type": "Parks & Parkways",
    "request_reason": "Request Tree Service (Right of Way/Public Property)",
    "date_created": "2023-05-12T16:00:14.000",
    "date_modified": "2023-05-12T16:00:14.000",
    "request_status": "Pending",
    "responsible_agency": "Department of Parks & Parkway",
    "final_address": "6052 Canal Blvd",
    "address_councildis": "A",
    "status": "Pending",
    "rowid": "999276",
    "final_x": "3668390.52782",
    "final_y": "547782.911186",
    "longitude": "-90.10891670659126",
    "latitude": "30.00060472721618",
    "geocoded_column": {
      "latitude": "30.00060472721618",
      "longitude": "-90.10891670659126"
    }
  },
  {
    "service_request": "2023-999275",
    "request_type": "Trash/Recycling",
    "request_reason": "Order Recycling Cart",
    "date_created": "2023-05-12T16:00:04.000",
    "date_modified": "2023-05-12T16:00:04.000",
    "request_status": "Pending",
    "responsible_agency": "Department of Sanitation",
    "final_address": "931 Kerlerec St Apt C",
    "address_councildis": "C",
    "status": "Pending",
    "rowid": "999275",
    "final_x": "3683556.89961",
    "final_y": "535303.217542",
    "longitude": "-90.06144278017506",
    "latitude": "29.965835621504393",
    "geocoded_column": {
      "latitude": "29.965835621504393",
      "longitude": "-90.06144278017506"
    }
  },
  {
    "service_request": "2023-999274",
    "request_type": "Trash/Recycling",
    "request_reason": "Order Trash Cart",
    "date_created": "2023-05-12T15:59:47.000",
    "date_modified": "2023-05-12T15:59:48.000",
    "request_status": "Pending",
    "responsible_agency": "Department of Sanitation",
    "final_address": "931 Kerlerec St Apt C",
    "address_councildis": "C",
    "status": "Assigned to Contractor",
    "contractor": "IV Waste",
    "rowid": "999274",
    "final_x": "3683556.89961",
    "final_y": "535303.217542",
    "longitude": "-90.06144278017506",
    "latitude": "29.965835621504393",
    "geocoded_column": {
      "latitude": "29.965835621504393",
      "longitude": "-90.06144278017506"
    }
  },
  {
    "service_request": "2023-999273",
    "request_type": "Roads/Drainage",
    "request_reason": "Debris in Roadway",
    "date_created": "2023-05-12T15:59:22.000",
    "date_modified": "2023-05-12T16:37:39.000",
    "case_close_date": "2023-05-12T11:37:39.000",
    "request_status": "Closed",
    "responsible_agency": "Department of Public Works",
    "final_address": "FILMORE ST & ELYSIAN FIELDS AVE",
    "address_councildis": "D",
    "status": "Captured by Project",
    "rowid": "999273",
    "final_x": "3683670.4",
    "final_y": "552282.68",
    "longitude": "-90.06048871194535",
    "latitude": "30.01251966165882",
    "geocoded_column": {
      "latitude": "30.01251966165882",
      "longitude": "-90.06048871194535"
    }
  },
  {
    "service_request": "2023-999272",
    "request_type": "Trash/Recycling",
    "request_reason": "Order Trash Cart",
    "date_created": "2023-05-12T15:59:18.000",
    "date_modified": "2023-05-12T15:59:18.000",
    "request_status": "Pending",
    "responsible_agency": "Department of Sanitation",
    "final_address": "931 Kerlerec St Apt B",
    "address_councildis": "C",
    "status": "Assigned to Contractor",
    "contractor": "IV Waste",
    "rowid": "999272",
    "final_x": "3683551.39727",
    "final_y": "535297.715206",
    "longitude": "-90.06146034923499",
    "latitude": "29.965820659915522",
    "geocoded_column": {
      "latitude": "29.965820659915522",
      "longitude": "-90.06146034923499"
    }
  },
  {
    "service_request": "2023-999271",
    "request_type": "Trash/Recycling",
    "request_reason": "Repair Trash Cart",
    "date_created": "2023-05-12T15:55:02.000",
    "date_modified": "2023-05-12T15:55:03.000",
    "request_status": "Pending",
    "responsible_agency": "Department of Sanitation",
    "final_address": "8229 Oleander St",
    "address_councildis": "A",
    "status": "Assigned to Contractor",
    "contractor": "Richards Disposal",
    "rowid": "999271",
    "final_x": "3666375.43764",
    "final_y": "534076.781317",
    "longitude": "-90.11574263706949",
    "latitude": "29.962976543824514",
    "geocoded_column": {
      "latitude": "29.962976543824514",
      "longitude": "-90.11574263706949"
    }
  },
  {
    "service_request": "2023-999270",
    "request_type": "Tax and Revenue",
    "request_reason": "Sales Tax Question",
    "date_created": "2023-05-12T15:53:56.000",
    "date_modified": "2023-05-12T15:53:57.000",
    "request_status": "Pending",
    "responsible_agency": "Bureau of Revenue",
    "final_address": "2913 Camp St",
    "address_councildis": "B",
    "status": "Pending",
    "rowid": "999270",
    "final_x": "3676288.6564",
    "final_y": "520816.304633",
    "longitude": "-90.08489413055848",
    "latitude": "29.926221245130836",
    "geocoded_column": {
      "latitude": "29.926221245130836",
      "longitude": "-90.08489413055848"
    }
  },
  {
    "service_request": "2023-999269",
    "request_type": "Traffic Signals/Signs/Striping/Streetlights",
    "request_reason": "Street Light Outage/Malfunction",
    "date_created": "2023-05-12T15:48:23.000",
    "date_modified": "2023-05-12T15:48:24.000",
    "request_status": "Pending",
    "responsible_agency": "Department of Public Works",
    "final_address": "11605 N Adams Ct",
    "address_councildis": "E",
    "status": "Assigned to Contractor",
    "contractor": "Legacy Professional Services",
    "rowid": "999269",
    "final_x": "3718403.25925",
    "final_y": "557565.761947",
    "longitude": "-89.95055206670624",
    "latitude": "30.025939426273485",
    "geocoded_column": {
      "latitude": "30.025939426273485",
      "longitude": "-89.95055206670624"
    }
  },
  {
    "service_request": "2023-999268",
    "request_type": "Abandoned Vehicles",
    "request_reason": "Vehicle Blocking Your Driveway",
    "date_created": "2023-05-12T15:43:34.000",
    "date_modified": "2023-05-12T15:43:34.000",
    "request_status": "Pending",
    "responsible_agency": "Department of Public Works",
    "final_address": "418 Octavia St",
    "address_councildis": "A",
    "status": "Pending",
    "rowid": "999268",
    "final_x": "3666149.11386",
    "final_y": "517726.964086",
    "longitude": "-90.11700541134857",
    "latitude": "29.918026404079118",
    "geocoded_column": {
      "latitude": "29.918026404079118",
      "longitude": "-90.11700541134857"
    }
  },
  {
    "service_request": "2023-999266",
    "request_type": "Trash/Recycling",
    "request_reason": "Order Trash Cart",
    "date_created": "2023-05-12T15:31:49.000",
    "date_modified": "2023-05-12T15:31:49.000",
    "request_status": "Pending",
    "responsible_agency": "Department of Sanitation",
    "final_address": "7624 Primrose Dr",
    "address_councildis": "E",
    "status": "Assigned to Contractor",
    "contractor": "Waste Pro",
    "rowid": "999266",
    "final_x": "3701658.43959",
    "final_y": "561266.61539",
    "longitude": "-90.00332742035684",
    "latitude": "30.036660333909225",
    "geocoded_column": {
      "latitude": "30.036660333909225",
      "longitude": "-90.00332742035684"
    }
  },
  {
    "service_request": "2023-999265",
    "request_type": "Traffic Signals/Signs/Striping/Streetlights",
    "request_reason": "Traffic Signal Malfunctioning/Damaged",
    "date_created": "2023-05-12T15:28:30.000",
    "date_modified": "2023-05-12T15:28:31.000",
    "request_status": "Pending",
    "responsible_agency": "Department of Public Works",
    "final_address": "GENERAL DE GAULLE DR & WESTBEND PKWY",
    "address_councildis": "C",
    "status": "Pending",
    "rowid": "999265",
    "final_x": "3696463.6",
    "final_y": "520687.78",
    "longitude": "-90.02121258781013",
    "latitude": "29.92524801305741",
    "geocoded_column": {
      "latitude": "29.92524801305741",
      "longitude": "-90.02121258781013"
    }
  },
  {
    "service_request": "2023-999264",
    "request_type": "Trash/Recycling",
    "request_reason": "Missed Trash Pick-Up",
    "date_created": "2023-05-12T15:27:24.000",
    "date_modified": "2023-05-12T15:27:25.000",
    "request_status": "Pending",
    "responsible_agency": "Department of Sanitation",
    "final_address": "7624 Primrose Dr",
    "address_councildis": "E",
    "status": "Assigned to Contractor",
    "contractor": "Waste Pro",
    "rowid": "999264",
    "final_x": "3701658.43959",
    "final_y": "561266.61539",
    "longitude": "-90.00332742035684",
    "latitude": "30.036660333909225",
    "geocoded_column": {
      "latitude": "30.036660333909225",
      "longitude": "-90.00332742035684"
    }
  },
  {
    "service_request": "2023-999263",
    "request_type": "Trash/Recycling",
    "request_reason": "Illegal Dumping",
    "date_created": "2023-05-12T15:23:51.000",
    "date_modified": "2023-05-12T15:23:51.000",
    "request_status": "Pending",
    "responsible_agency": "Department of Sanitation",
    "final_address": "9700 BLK Lake Forest Blvd",
    "address_councildis": "E",
    "status": "Pending",
    "rowid": "999263",
    "final_x": "3709184.11112",
    "final_y": "558787.703734",
    "longitude": "-89.97963748982313",
    "latitude": "30.029601973420633",
    "geocoded_column": {
      "latitude": "30.029601973420633",
      "longitude": "-89.97963748982313"
    }
  },
  {
    "service_request": "2023-999262",
    "request_type": "Roads/Drainage",
    "request_reason": "Street Subsidence (Sinking)",
    "date_created": "2023-05-12T15:22:46.000",
    "date_modified": "2023-05-12T15:22:47.000",
    "request_status": "Pending",
    "responsible_agency": "Department of Public Works",
    "final_address": "2620 Filmore Ave",
    "address_councildis": "D",
    "status": "Pending",
    "rowid": "999262",
    "final_x": "3686859.72329",
    "final_y": "552496.297814",
    "longitude": "-90.05040468663384",
    "latitude": "30.013009231794555",
    "geocoded_column": {
      "latitude": "30.013009231794555",
      "longitude": "-90.05040468663384"
    }
  },
  {
    "service_request": "2023-999261",
    "request_type": "Trash/Recycling",
    "request_reason": "Request a Large Item Pick Up",
    "date_created": "2023-05-12T15:20:19.000",
    "date_modified": "2023-05-12T15:20:19.000",
    "request_status": "Pending",
    "responsible_agency": "Department of Sanitation",
    "final_address": "6202 Painters St",
    "address_councildis": "D",
    "status": "Assigned to Contractor",
    "contractor": "IV Waste",
    "rowid": "999261",
    "final_x": "3685894.90364",
    "final_y": "556126.099866",
    "longitude": "-90.05332487980573",
    "latitude": "30.02301951791059",
    "geocoded_column": {
      "latitude": "30.02301951791059",
      "longitude": "-90.05332487980573"
    }
  },
  {
    "service_request": "2023-999260",
    "request_type": "Trash/Recycling",
    "request_reason": "Missed Trash Pick-Up",
    "date_created": "2023-05-12T15:18:41.000",
    "date_modified": "2023-05-12T15:49:08.000",
    "request_status": "Pending",
    "responsible_agency": "Department of Sanitation",
    "final_address": "1738 Prytania St",
    "address_councildis": "B",
    "status": "Assigned to Contractor",
    "contractor": "Richards Disposal",
    "rowid": "999260",
    "final_x": "3679164.56847",
    "final_y": "524407.243132",
    "longitude": "-90.07569128298755",
    "latitude": "29.936008675926224",
    "geocoded_column": {
      "latitude": "29.936008675926224",
      "longitude": "-90.07569128298755"
    }
  },
  {
    "service_request": "2023-999259",
    "request_type": "Trash/Recycling",
    "request_reason": "Repair Recycling Cart",
    "date_created": "2023-05-12T15:15:25.000",
    "date_modified": "2023-05-12T15:15:26.000",
    "request_status": "Pending",
    "responsible_agency": "Department of Sanitation",
    "final_address": "2818 Laurel St",
    "address_councildis": "B",
    "status": "Pending",
    "rowid": "999259",
    "final_x": "3677324.47086",
    "final_y": "520067.697848",
    "longitude": "-90.08165017302987",
    "latitude": "29.92413174689581",
    "geocoded_column": {
      "latitude": "29.92413174689581",
      "longitude": "-90.08165017302987"
    }
  },
  {
    "service_request": "2023-999258",
    "request_type": "Trash/Recycling",
    "request_reason": "Repair Trash Cart",
    "date_created": "2023-05-12T15:15:05.000",
    "date_modified": "2023-05-12T15:15:05.000",
    "request_status": "Pending",
    "responsible_agency": "Department of Sanitation",
    "final_address": "2818 Laurel St",
    "address_councildis": "B",
    "status": "Assigned to Contractor",
    "contractor": "Richards Disposal",
    "rowid": "999258",
    "final_x": "3677324.47086",
    "final_y": "520067.697848",
    "longitude": "-90.08165017302987",
    "latitude": "29.92413174689581",
    "geocoded_column": {
      "latitude": "29.92413174689581",
      "longitude": "-90.08165017302987"
    }
  },
  {
    "service_request": "2023-999257",
    "request_type": "Trash/Recycling",
    "request_reason": "Missed Trash Pick-Up",
    "date_created": "2023-05-12T15:08:07.000",
    "date_modified": "2023-05-12T15:08:07.000",
    "request_status": "Pending",
    "responsible_agency": "Department of Sanitation",
    "final_address": "2314 Barracks St",
    "address_councildis": "D",
    "status": "Assigned to Contractor",
    "contractor": "Richards Disposal",
    "rowid": "999257",
    "final_x": "3679266.99823",
    "final_y": "537711.528648",
    "longitude": "-90.07490662083585",
    "latitude": "29.972587888444192",
    "geocoded_column": {
      "latitude": "29.972587888444192",
      "longitude": "-90.07490662083585"
    }
  },
  {
    "service_request": "2023-999255",
    "request_type": "Property Maintenance",
    "request_reason": "Property Maintenance",
    "date_created": "2023-05-12T15:03:55.000",
    "date_modified": "2023-05-12T15:03:55.000",
    "request_status": "Pending",
    "responsible_agency": "Department of Code Enforcement",
    "final_address": "1500 France St",
    "address_councildis": "D",
    "status": "Pending",
    "rowid": "999255",
    "final_x": "3692732.70953",
    "final_y": "536688.923463",
    "longitude": "-90.03241631226548",
    "latitude": "29.969362574782313",
    "geocoded_column": {
      "latitude": "29.969362574782313",
      "longitude": "-90.03241631226548"
    }
  },
  {
    "service_request": "2023-999254",
    "request_type": "Trash/Recycling",
    "request_reason": "Missed Trash Pick-Up",
    "date_created": "2023-05-12T15:00:15.000",
    "date_modified": "2023-05-12T15:00:17.000",
    "request_status": "Pending",
    "responsible_agency": "Department of Sanitation",
    "final_address": "7339 Perth St",
    "address_councildis": "E",
    "status": "Assigned to Contractor",
    "contractor": "Waste Pro",
    "rowid": "999254",
    "final_x": "3698419.63453",
    "final_y": "559093.26134",
    "longitude": "-90.0136417671959",
    "latitude": "30.030787420057354",
    "geocoded_column": {
      "latitude": "30.030787420057354",
      "longitude": "-90.0136417671959"
    }
  },
  {
    "service_request": "2023-999253",
    "request_type": "Trash/Recycling",
    "request_reason": "Missed Trash Pick-Up",
    "date_created": "2023-05-12T15:00:10.000",
    "date_modified": "2023-05-12T15:31:31.000",
    "case_close_date": "2023-05-12T10:31:31.000",
    "request_status": "Closed",
    "responsible_agency": "Department of Sanitation",
    "final_address": "6040 Burgundy St",
    "address_councildis": "E",
    "status": "Assigned to Contractor",
    "contractor": "Waste Pro",
    "contractor_action": "Completed",
    "rowid": "999253",
    "final_x": "3699133.00375",
    "final_y": "532536.7097",
    "longitude": "-90.01235497646901",
    "latitude": "29.95774411453584",
    "geocoded_column": {
      "latitude": "29.95774411453584",
      "longitude": "-90.01235497646901"
    }
  },
  {
    "service_request": "2023-999252",
    "request_type": "Trash/Recycling",
    "request_reason": "Order Trash Cart",
    "date_created": "2023-05-12T14:59:29.000",
    "date_modified": "2023-05-12T14:59:30.000",
    "request_status": "Pending",
    "responsible_agency": "Department of Sanitation",
    "final_address": "4114 N Robertson St",
    "address_councildis": "D",
    "status": "Assigned to Contractor",
    "contractor": "IV Waste",
    "rowid": "999252",
    "final_x": "3692619.76419",
    "final_y": "536611.139143",
    "longitude": "-90.03277578924228",
    "latitude": "29.969152220858938",
    "geocoded_column": {
      "latitude": "29.969152220858938",
      "longitude": "-90.03277578924228"
    }
  },
  {
    "service_request": "2023-999251",
    "request_type": "Abandoned Vehicles",
    "request_reason": "Abandoned/Junk Vehicles",
    "date_created": "2023-05-12T14:58:22.000",
    "date_modified": "2023-05-12T14:58:22.000",
    "request_status": "Pending",
    "responsible_agency": "Department of Public Works",
    "final_address": "3521 Baudin St",
    "address_councildis": "B",
    "status": "Pending",
    "rowid": "999251",
    "final_x": "3671758.52155",
    "final_y": "535859.599239",
    "longitude": "-90.09868282153003",
    "latitude": "29.96772031308505",
    "geocoded_column": {
      "latitude": "29.96772031308505",
      "longitude": "-90.09868282153003"
    }
  },
  {
    "service_request": "2023-999250",
    "request_type": "Property Maintenance",
    "request_reason": "Property Maintenance",
    "date_created": "2023-05-12T14:57:48.000",
    "date_modified": "2023-05-12T14:57:48.000",
    "request_status": "Pending",
    "responsible_agency": "Department of Code Enforcement",
    "final_address": "2265 St Charles Ave",
    "address_councildis": "B",
    "status": "Pending",
    "rowid": "999250",
    "final_x": "3677144.91541",
    "final_y": "523437.133883",
    "longitude": "-90.08210082256034",
    "latitude": "29.9334019911984",
    "geocoded_column": {
      "latitude": "29.9334019911984",
      "longitude": "-90.08210082256034"
    }
  },
  {
    "service_request": "2023-999249",
    "request_type": "Traffic Signals/Signs/Striping/Streetlights",
    "request_reason": "Traffic Signal Malfunctioning/Damaged",
    "date_created": "2023-05-12T14:53:23.000",
    "date_modified": "2023-05-12T14:53:24.000",
    "request_status": "Pending",
    "responsible_agency": "Department of Public Works",
    "final_address": "GENERAL DE GAULLE DR & WESTBEND PKWY",
    "address_councildis": "C",
    "status": "Pending",
    "rowid": "999249",
    "final_x": "3696418.9",
    "final_y": "520711.38",
    "longitude": "-90.02135283780243",
    "latitude": "29.925314312408663",
    "geocoded_column": {
      "latitude": "29.925314312408663",
      "longitude": "-90.02135283780243"
    }
  },
  {
    "service_request": "2023-999248",
    "request_type": "Roads/Drainage",
    "request_reason": "Damaged Sidewalk",
    "date_created": "2023-05-12T14:51:09.000",
    "date_modified": "2023-05-12T14:51:09.000",
    "request_status": "Pending",
    "responsible_agency": "Department of Public Works",
    "final_address": "4025 Cleveland Ave",
    "address_councildis": "A",
    "status": "Pending",
    "rowid": "999248",
    "final_x": "3671076.22798",
    "final_y": "537881.130633",
    "longitude": "-90.1007688557221",
    "latitude": "29.973299041724918",
    "geocoded_column": {
      "latitude": "29.973299041724918",
      "longitude": "-90.1007688557221"
    }
  },
  {
    "service_request": "2023-999247",
    "request_type": "Trash/Recycling",
    "request_reason": "Request a Large Item Pick Up",
    "date_created": "2023-05-12T14:50:46.000",
    "date_modified": "2023-05-12T14:50:46.000",
    "request_status": "Pending",
    "responsible_agency": "Department of Sanitation",
    "final_address": "2424 Dauphine St",
    "address_councildis": "C",
    "status": "Assigned to Contractor",
    "contractor": "IV Waste",
    "rowid": "999247",
    "final_x": "3686087.9599",
    "final_y": "535281.639238",
    "longitude": "-90.05345055298048",
    "latitude": "29.965698794466384",
    "geocoded_column": {
      "latitude": "29.965698794466384",
      "longitude": "-90.05345055298048"
    }
  },
  {
    "service_request": "2023-999246",
    "request_type": "Roads/Drainage",
    "request_reason": "Alley Way",
    "date_created": "2023-05-12T14:46:46.000",
    "date_modified": "2023-05-12T14:46:46.000",
    "request_status": "Pending",
    "responsible_agency": "Department of Public Works",
    "final_address": "6655 Milne Blvd",
    "address_councildis": "A",
    "status": "Pending",
    "rowid": "999246",
    "final_x": "3667582.22285",
    "final_y": "551986.70159",
    "longitude": "-90.11132857761422",
    "latitude": "30.012187411822993",
    "geocoded_column": {
      "latitude": "30.012187411822993",
      "longitude": "-90.11132857761422"
    }
  },
  {
    "service_request": "2023-999245",
    "request_type": "Trash/Recycling",
    "request_reason": "Order Recycling Cart",
    "date_created": "2023-05-12T14:44:45.000",
    "date_modified": "2023-05-12T14:44:45.000",
    "request_status": "Pending",
    "responsible_agency": "Department of Sanitation",
    "final_address": "2543 Verbena St",
    "address_councildis": "D",
    "status": "Pending",
    "rowid": "999245",
    "final_x": "3686656.11561",
    "final_y": "547813.614418",
    "longitude": "-90.05121351906624",
    "latitude": "30.000139824162904",
    "geocoded_column": {
      "latitude": "30.000139824162904",
      "longitude": "-90.05121351906624"
    }
  },
  {
    "service_request": "2023-999244",
    "request_type": "Trash/Recycling",
    "request_reason": "Repair Trash Cart",
    "date_created": "2023-05-12T14:44:19.000",
    "date_modified": "2023-05-12T14:44:19.000",
    "request_status": "Pending",
    "responsible_agency": "Department of Sanitation",
    "final_address": "2543 Verbena St",
    "address_councildis": "D",
    "status": "Assigned to Contractor",
    "contractor": "IV Waste",
    "rowid": "999244",
    "final_x": "3686656.11561",
    "final_y": "547813.614418",
    "longitude": "-90.05121351906624",
    "latitude": "30.000139824162904",
    "geocoded_column": {
      "latitude": "30.000139824162904",
      "longitude": "-90.05121351906624"
    }
  },
  {
    "service_request": "2023-999243",
    "request_type": "Trash/Recycling",
    "request_reason": "MIssed Recycling Pick-Up",
    "date_created": "2023-05-12T14:40:44.000",
    "date_modified": "2023-05-12T14:40:45.000",
    "request_status": "Pending",
    "responsible_agency": "Department of Sanitation",
    "final_address": "1107 Third St",
    "address_councildis": "B",
    "status": "Assigned to Contractor",
    "contractor": "Richards Disposal",
    "rowid": "999243",
    "final_x": "3677556.51765",
    "final_y": "521270.492921",
    "longitude": "-90.0808761818653",
    "latitude": "29.927432070750235",
    "geocoded_column": {
      "latitude": "29.927432070750235",
      "longitude": "-90.0808761818653"
    }
  },
  {
    "service_request": "2023-999242",
    "request_type": "Roads/Drainage",
    "request_reason": "Accessibility Ramps, Curbs and Sidewalk Repair",
    "date_created": "2023-05-12T14:40:18.000",
    "date_modified": "2023-05-12T14:40:18.000",
    "request_status": "Pending",
    "responsible_agency": "Department of Public Works",
    "final_address": "1435 Pine St",
    "address_councildis": "A",
    "status": "Pending",
    "rowid": "999242",
    "final_x": "3664548.86036",
    "final_y": "527445.748351",
    "longitude": "-90.12173218577709",
    "latitude": "29.944796598915254",
    "geocoded_column": {
      "latitude": "29.944796598915254",
      "longitude": "-90.12173218577709"
    }
  },
  {
    "service_request": "2023-999241",
    "request_type": "Abandoned Vehicles",
    "request_reason": "Abandoned/Junk Vehicles",
    "date_created": "2023-05-12T14:38:00.000",
    "date_modified": "2023-05-12T14:41:33.000",
    "request_status": "Pending",
    "responsible_agency": "Department of Public Works",
    "final_address": "5400 BLK Freret St",
    "address_councildis": "A",
    "status": "Pending",
    "rowid": "999241",
    "final_x": "3667742.48338",
    "final_y": "524032.887746",
    "longitude": "-90.11176379669168",
    "latitude": "29.935319090783143",
    "geocoded_column": {
      "latitude": "29.935319090783143",
      "longitude": "-90.11176379669168"
    }
  },
  {
    "service_request": "2023-999240",
    "request_type": "Property Maintenance",
    "request_reason": "Property Maintenance",
    "date_created": "2023-05-12T14:34:03.000",
    "date_modified": "2023-05-12T14:34:04.000",
    "request_status": "Pending",
    "responsible_agency": "Department of Code Enforcement",
    "final_address": "1645 Jourdan Ave",
    "address_councildis": "E",
    "status": "Pending",
    "rowid": "999240",
    "final_x": "3695698.74026",
    "final_y": "536686.751431",
    "longitude": "-90.02304947986883",
    "latitude": "29.96926367593917",
    "geocoded_column": {
      "latitude": "29.96926367593917",
      "longitude": "-90.02304947986883"
    }
  },
  {
    "service_request": "2023-999239",
    "request_type": "Trash/Recycling",
    "request_reason": "Request a Large Item Pick Up",
    "date_created": "2023-05-12T14:24:53.000",
    "date_modified": "2023-05-12T14:24:54.000",
    "request_status": "Pending",
    "responsible_agency": "Department of Sanitation",
    "final_address": "4911 Miles Dr",
    "address_councildis": "D",
    "status": "Assigned to Contractor",
    "contractor": "IV Waste",
    "rowid": "999239",
    "final_x": "3680258.03989",
    "final_y": "549509.306579",
    "longitude": "-90.07136637701485",
    "latitude": "30.004997668215562",
    "geocoded_column": {
      "latitude": "30.004997668215562",
      "longitude": "-90.07136637701485"
    }
  },
  {
    "service_request": "2023-999238",
    "request_type": "Trash/Recycling",
    "request_reason": "Request a Large Item Pick Up",
    "date_created": "2023-05-12T14:21:50.000",
    "date_modified": "2023-05-12T14:21:51.000",
    "request_status": "Pending",
    "responsible_agency": "Department of Sanitation",
    "final_address": "4922 Nottingham Dr",
    "address_councildis": "E",
    "status": "Assigned to Contractor",
    "contractor": "Waste Pro",
    "rowid": "999238",
    "final_x": "3716235.92927",
    "final_y": "557703.600027",
    "longitude": "-89.95739523803537",
    "latitude": "30.02639016428215",
    "geocoded_column": {
      "latitude": "30.02639016428215",
      "longitude": "-89.95739523803537"
    }
  },
  {
    "service_request": "2023-999237",
    "request_type": "Trash/Recycling",
    "request_reason": "MIssed Recycling Pick-Up",
    "date_created": "2023-05-12T14:18:25.000",
    "date_modified": "2023-05-12T14:18:25.000",
    "request_status": "Pending",
    "responsible_agency": "Department of Sanitation",
    "final_address": "1936 Florida Ave",
    "address_councildis": "D",
    "status": "Assigned to Contractor",
    "contractor": "IV Waste",
    "rowid": "999237",
    "final_x": "3682513.84412",
    "final_y": "543094.501709",
    "longitude": "-90.06446424768069",
    "latitude": "29.987290734201242",
    "geocoded_column": {
      "latitude": "29.987290734201242",
      "longitude": "-90.06446424768069"
    }
  },
  {
    "service_request": "2023-999236",
    "request_type": "Trash/Recycling",
    "request_reason": "Repair Trash Cart",
    "date_created": "2023-05-12T14:18:08.000",
    "date_modified": "2023-05-12T14:18:09.000",
    "request_status": "Pending",
    "responsible_agency": "Department of Sanitation",
    "final_address": "7409 Ligustrum Dr",
    "address_councildis": "E",
    "status": "Assigned to Contractor",
    "contractor": "Waste Pro",
    "rowid": "999236",
    "final_x": "3701827.84708",
    "final_y": "560540.453342",
    "longitude": "-90.002818707597",
    "latitude": "30.034658263639358",
    "geocoded_column": {
      "latitude": "30.034658263639358",
      "longitude": "-90.002818707597"
    }
  },
  {
    "service_request": "2023-999235",
    "request_type": "Trash/Recycling",
    "request_reason": "Missed Trash Pick-Up",
    "date_created": "2023-05-12T14:17:40.000",
    "date_modified": "2023-05-12T14:17:41.000",
    "request_status": "Pending",
    "responsible_agency": "Department of Sanitation",
    "final_address": "5919 Selma St",
    "address_councildis": "D",
    "status": "Assigned to Contractor",
    "contractor": "Waste Pro",
    "rowid": "999235",
    "final_x": "3696297.93072",
    "final_y": "552461.040342",
    "longitude": "-90.02058647426446",
    "latitude": "30.012618345267185",
    "geocoded_column": {
      "latitude": "30.012618345267185",
      "longitude": "-90.02058647426446"
    }
  },
  {
    "service_request": "2023-999234",
    "request_type": "Trash/Recycling",
    "request_reason": "Repair Trash Cart",
    "date_created": "2023-05-12T14:13:43.000",
    "date_modified": "2023-05-12T14:13:44.000",
    "request_status": "Pending",
    "responsible_agency": "Department of Sanitation",
    "final_address": "2866 Fortin St",
    "address_councildis": "A",
    "status": "Assigned to Contractor",
    "contractor": "IV Waste",
    "rowid": "999234",
    "final_x": "3677824.49211",
    "final_y": "540877.812811",
    "longitude": "-90.07935288351557",
    "latitude": "29.981337561616314",
    "geocoded_column": {
      "latitude": "29.981337561616314",
      "longitude": "-90.07935288351557"
    }
  },
  {
    "service_request": "2023-999233",
    "request_type": "Trash/Recycling",
    "request_reason": "MIssed Recycling Pick-Up",
    "date_created": "2023-05-12T14:00:10.000",
    "date_modified": "2023-05-12T14:00:10.000",
    "request_status": "Pending",
    "responsible_agency": "Department of Sanitation",
    "final_address": "2126 Seventh St",
    "address_councildis": "B",
    "status": "Assigned to Contractor",
    "contractor": "Richards Disposal",
    "rowid": "999233",
    "final_x": "3674107.4235",
    "final_y": "523751.260987",
    "longitude": "-90.09167927391977",
    "latitude": "29.934356592358267",
    "geocoded_column": {
      "latitude": "29.934356592358267",
      "longitude": "-90.09167927391977"
    }
  },
  {
    "service_request": "2023-999232",
    "request_type": "Trash/Recycling",
    "request_reason": "Request a Large Item Pick Up",
    "date_created": "2023-05-12T13:54:13.000",
    "date_modified": "2023-05-12T13:54:15.000",
    "request_status": "Pending",
    "responsible_agency": "Department of Sanitation",
    "final_address": "2509 Palmyra St",
    "address_councildis": "B",
    "status": "Assigned to Contractor",
    "contractor": "Richards Disposal",
    "rowid": "999232",
    "final_x": "3675622.74689",
    "final_y": "533994.126405",
    "longitude": "-90.08654358361936",
    "latitude": "29.962475838980083",
    "geocoded_column": {
      "latitude": "29.962475838980083",
      "longitude": "-90.08654358361936"
    }
  },
  {
    "service_request": "2023-999231",
    "request_type": "Trash/Recycling",
    "request_reason": "MIssed Recycling Pick-Up",
    "date_created": "2023-05-12T13:51:09.000",
    "date_modified": "2023-05-12T13:51:09.000",
    "request_status": "Pending",
    "responsible_agency": "Department of Sanitation",
    "final_address": "4510 St Claude Ave",
    "address_councildis": "C",
    "status": "Assigned to Contractor",
    "contractor": "IV Waste",
    "rowid": "999231",
    "final_x": "3693422.97622",
    "final_y": "534854.618054",
    "longitude": "-90.03030228084882",
    "latitude": "29.964297316806743",
    "geocoded_column": {
      "latitude": "29.964297316806743",
      "longitude": "-90.03030228084882"
    }
  },
  {
    "service_request": "2023-999230",
    "request_type": "Trash/Recycling",
    "request_reason": "Missed Trash Pick-Up",
    "date_created": "2023-05-12T13:51:02.000",
    "date_modified": "2023-05-12T13:51:03.000",
    "request_status": "Pending",
    "responsible_agency": "Department of Sanitation",
    "final_address": "6246 Erin Dr",
    "address_councildis": "E",
    "status": "Assigned to Contractor",
    "contractor": "Waste Pro",
    "rowid": "999230",
    "final_x": "3696462.08515",
    "final_y": "558704.11926",
    "longitude": "-90.0198417333989",
    "latitude": "30.029779274912702",
    "geocoded_column": {
      "latitude": "30.029779274912702",
      "longitude": "-90.0198417333989"
    }
  },
  {
    "service_request": "2023-999229",
    "request_type": "Roads/Drainage",
    "request_reason": "Man hole cover issue",
    "date_created": "2023-05-12T13:50:06.000",
    "date_modified": "2023-05-12T13:50:06.000",
    "request_status": "Pending",
    "responsible_agency": "Department of Public Works",
    "final_address": "4510 St Claude Ave",
    "address_councildis": "C",
    "status": "Pending",
    "rowid": "999229",
    "final_x": "3693422.97622",
    "final_y": "534854.618054",
    "longitude": "-90.03030228084882",
    "latitude": "29.964297316806743",
    "geocoded_column": {
      "latitude": "29.964297316806743",
      "longitude": "-90.03030228084882"
    }
  },
  {
    "service_request": "2023-999228",
    "request_type": "Abandoned Vehicles",
    "request_reason": "Abandoned/Junk Vehicles",
    "date_created": "2023-05-12T13:50:04.000",
    "date_modified": "2023-05-12T13:58:41.000",
    "request_status": "Pending",
    "responsible_agency": "Department of Public Works",
    "final_address": "2200 Flood St",
    "address_councildis": "E",
    "status": "Inspected",
    "rowid": "999228",
    "final_x": "3698793.48317",
    "final_y": "538003.513865",
    "longitude": "-90.01322819861315",
    "latitude": "29.972786628927963",
    "geocoded_column": {
      "latitude": "29.972786628927963",
      "longitude": "-90.01322819861315"
    }
  },
  {
    "service_request": "2023-999227",
    "request_type": "Trash/Recycling",
    "request_reason": "Order Trash Cart",
    "date_created": "2023-05-12T13:45:12.000",
    "date_modified": "2023-05-12T13:46:48.000",
    "request_status": "Pending",
    "responsible_agency": "Department of Sanitation",
    "final_address": "3321 Hamilton St",
    "address_councildis": "A",
    "status": "Assigned to Contractor",
    "contractor": "Richards Disposal",
    "rowid": "999227",
    "final_x": "3664556.35623",
    "final_y": "536406.521159",
    "longitude": "-90.12140928327275",
    "latitude": "29.969435586362504",
    "geocoded_column": {
      "latitude": "29.969435586362504",
      "longitude": "-90.12140928327275"
    }
  },
  {
    "service_request": "2023-999226",
    "request_type": "Trash/Recycling",
    "request_reason": "Repair Trash Cart",
    "date_created": "2023-05-12T13:42:04.000",
    "date_modified": "2023-05-12T13:42:04.000",
    "request_status": "Pending",
    "responsible_agency": "Department of Sanitation",
    "final_address": "6214 Bellaire Dr",
    "address_councildis": "A",
    "status": "Assigned to Contractor",
    "contractor": "IV Waste",
    "rowid": "999226",
    "final_x": "3664290.18874",
    "final_y": "549071.527827",
    "longitude": "-90.12182697209816",
    "latitude": "30.004267818928145",
    "geocoded_column": {
      "latitude": "30.004267818928145",
      "longitude": "-90.12182697209816"
    }
  },
  {
    "service_request": "2023-999225",
    "request_type": "Trash/Recycling",
    "request_reason": "Request a Large Item Pick Up",
    "date_created": "2023-05-12T13:41:02.000",
    "date_modified": "2023-05-12T13:41:03.000",
    "request_status": "Pending",
    "responsible_agency": "Department of Sanitation",
    "final_address": "4149 Iberville St",
    "address_councildis": "A",
    "status": "Assigned to Contractor",
    "contractor": "Richards Disposal",
    "rowid": "999225",
    "final_x": "3671037.35841",
    "final_y": "538979.227914",
    "longitude": "-90.10085431163863",
    "latitude": "29.97631958770908",
    "geocoded_column": {
      "latitude": "29.97631958770908",
      "longitude": "-90.10085431163863"
    }
  },
  {
    "service_request": "2023-999224",
    "request_type": "Trash/Recycling",
    "request_reason": "Missed Trash Pick-Up",
    "date_created": "2023-05-12T13:36:59.000",
    "date_modified": "2023-05-12T13:37:00.000",
    "request_status": "Pending",
    "responsible_agency": "Department of Sanitation",
    "final_address": "7301 Malvern Dr",
    "address_councildis": "E",
    "status": "Assigned to Contractor",
    "contractor": "Waste Pro",
    "rowid": "999224",
    "final_x": "3702970.25329",
    "final_y": "560613.585566",
    "longitude": "-89.9992058723215",
    "latitude": "30.034822824715384",
    "geocoded_column": {
      "latitude": "30.034822824715384",
      "longitude": "-89.9992058723215"
    }
  },
  {
    "service_request": "2023-999223",
    "request_type": "Trash/Recycling",
    "request_reason": "Missed Trash Pick-Up",
    "date_created": "2023-05-12T13:36:10.000",
    "date_modified": "2023-05-12T13:36:11.000",
    "request_status": "Pending",
    "responsible_agency": "Department of Sanitation",
    "final_address": "1139 Oretha Castle Haley Blvd",
    "address_councildis": "B",
    "status": "Assigned to Contractor",
    "contractor": "Richards Disposal",
    "rowid": "999223",
    "final_x": "3678583.04571",
    "final_y": "527278.543167",
    "longitude": "-90.07742780941236",
    "latitude": "29.943921338497315",
    "geocoded_column": {
      "latitude": "29.943921338497315",
      "longitude": "-90.07742780941236"
    }
  },
  {
    "service_request": "2023-999222",
    "request_type": "Trash/Recycling",
    "request_reason": "Return Recycling Cart",
    "date_created": "2023-05-12T13:34:42.000",
    "date_modified": "2023-05-12T13:34:42.000",
    "request_status": "Pending",
    "responsible_agency": "Department of Sanitation",
    "final_address": "245 Hendee St",
    "address_councildis": "C",
    "status": "Pending",
    "rowid": "999222",
    "final_x": "3690911.23676",
    "final_y": "530709.31597",
    "longitude": "-90.03838206084271",
    "latitude": "29.952977479416138",
    "geocoded_column": {
      "latitude": "29.952977479416138",
      "longitude": "-90.03838206084271"
    }
  },
  {
    "service_request": "2023-999221",
    "request_type": "Trash/Recycling",
    "request_reason": "Missed Trash Pick-Up",
    "date_created": "2023-05-12T13:32:42.000",
    "date_modified": "2023-05-12T13:32:42.000",
    "request_status": "Pending",
    "responsible_agency": "Department of Sanitation",
    "final_address": "517 Cherokee St",
    "address_councildis": "A",
    "status": "Assigned to Contractor",
    "contractor": "Richards Disposal",
    "rowid": "999221",
    "final_x": "3662005.64851",
    "final_y": "525202.303165",
    "longitude": "-90.12983630966954",
    "latitude": "29.938701536334722",
    "geocoded_column": {
      "latitude": "29.938701536334722",
      "longitude": "-90.12983630966954"
    }
  },
  {
    "service_request": "2023-999220",
    "request_type": "Abandoned Vehicles",
    "request_reason": "Abandoned/Junk Vehicles",
    "date_created": "2023-05-12T13:28:10.000",
    "date_modified": "2023-05-12T13:49:26.000",
    "request_status": "Pending",
    "responsible_agency": "Department of Public Works",
    "final_address": "ANDRY ST & N DORGENOIS ST",
    "address_councildis": "E",
    "status": "Inspected",
    "rowid": "999220",
    "final_x": "3698614.0",
    "final_y": "539217.08",
    "longitude": "-90.01375089861601",
    "latitude": "29.976129182041202",
    "geocoded_column": {
      "latitude": "29.976129182041202",
      "longitude": "-90.01375089861601"
    }
  },
  {
    "service_request": "2023-999219",
    "request_type": "Trash/Recycling",
    "request_reason": "Request a Large Item Pick Up",
    "date_created": "2023-05-12T13:21:20.000",
    "date_modified": "2023-05-12T13:21:21.000",
    "request_status": "Pending",
    "responsible_agency": "Department of Sanitation",
    "final_address": "2725 General Taylor St",
    "address_councildis": "B",
    "status": "Assigned to Contractor",
    "contractor": "Richards Disposal",
    "rowid": "999219",
    "final_x": "3671722.16782",
    "final_y": "525080.777277",
    "longitude": "-90.09916426623302",
    "latitude": "29.938083187155744",
    "geocoded_column": {
      "latitude": "29.938083187155744",
      "longitude": "-90.09916426623302"
    }
  },
  {
    "service_request": "2023-999218",
    "request_type": "Trash/Recycling",
    "request_reason": "Illegal Dumping",
    "date_created": "2023-05-12T13:20:17.000",
    "date_modified": "2023-05-12T13:20:17.000",
    "request_status": "Pending",
    "responsible_agency": "Department of Sanitation",
    "final_address": "1100 BLK S Robertson St",
    "address_councildis": "B",
    "status": "Pending",
    "rowid": "999218",
    "final_x": "3676730.31284",
    "final_y": "528393.212358",
    "longitude": "-90.08323900335486",
    "latitude": "29.947042016894066",
    "geocoded_column": {
      "latitude": "29.947042016894066",
      "longitude": "-90.08323900335486"
    }
  },
  {
    "service_request": "2023-999217",
    "request_type": "Trash/Recycling",
    "request_reason": "Request a Large Item Pick Up",
    "date_created": "2023-05-12T13:17:49.000",
    "date_modified": "2023-05-12T13:17:49.000",
    "request_status": "Pending",
    "responsible_agency": "Department of Sanitation",
    "final_address": "5520 Wingate Dr",
    "address_councildis": "D",
    "status": "Assigned to Contractor",
    "contractor": "IV Waste",
    "rowid": "999217",
    "final_x": "3681271.35439",
    "final_y": "553379.970647",
    "longitude": "-90.06803007767462",
    "latitude": "30.01560987128206",
    "geocoded_column": {
      "latitude": "30.01560987128206",
      "longitude": "-90.06803007767462"
    }
  },
  {
    "service_request": "2023-999216",
    "request_type": "Roads/Drainage",
    "request_reason": "Street Subsidence (Sinking)",
    "date_created": "2023-05-12T13:16:32.000",
    "date_modified": "2023-05-12T15:44:20.000",
    "request_status": "Pending",
    "responsible_agency": "Department of Public Works",
    "final_address": "6511 Dorchester St",
    "address_councildis": "E",
    "status": "Inspected",
    "rowid": "999216",
    "final_x": "3697500.5144",
    "final_y": "558871.87606",
    "longitude": "-90.01655423188532",
    "latitude": "30.03020777027829",
    "geocoded_column": {
      "latitude": "30.03020777027829",
      "longitude": "-90.01655423188532"
    }
  },
  {
    "service_request": "2023-999215",
    "request_type": "Abandoned Vehicles",
    "request_reason": "Abandoned/Junk Vehicles",
    "date_created": "2023-05-12T13:16:23.000",
    "date_modified": "2023-05-12T13:17:44.000",
    "request_status": "Pending",
    "responsible_agency": "Department of Public Works",
    "final_address": "4037 Dauphine St",
    "address_councildis": "C",
    "status": "Pending",
    "rowid": "999215",
    "final_x": "3691800.49507",
    "final_y": "534119.873349",
    "longitude": "-90.03545220547804",
    "latitude": "29.96232765967612",
    "geocoded_column": {
      "latitude": "29.96232765967612",
      "longitude": "-90.03545220547804"
    }
  },
  {
    "service_request": "2023-999213",
    "request_type": "Abandoned Vehicles",
    "request_reason": "Abandoned/Junk Vehicles",
    "date_created": "2023-05-12T13:13:22.000",
    "date_modified": "2023-05-12T13:20:02.000",
    "request_status": "Closed",
    "responsible_agency": "Department of Public Works",
    "final_address": "2321 Lamanche St",
    "address_councildis": "E",
    "status": "Inspected",
    "rowid": "999213",
    "final_x": "3699696.74525",
    "final_y": "538343.312265",
    "longitude": "-90.01036315574751",
    "latitude": "29.973692306939583",
    "geocoded_column": {
      "latitude": "29.973692306939583",
      "longitude": "-90.01036315574751"
    }
  },
  {
    "service_request": "2023-999212",
    "request_type": "Trash/Recycling",
    "request_reason": "Repair Trash Cart",
    "date_created": "2023-05-12T13:12:16.000",
    "date_modified": "2023-05-12T13:12:17.000",
    "request_status": "Pending",
    "responsible_agency": "Department of Sanitation",
    "final_address": "7409 Ligustrum Dr",
    "address_councildis": "E",
    "status": "Assigned to Contractor",
    "contractor": "Waste Pro",
    "rowid": "999212",
    "final_x": "3701827.84708",
    "final_y": "560540.453342",
    "longitude": "-90.002818707597",
    "latitude": "30.034658263639358",
    "geocoded_column": {
      "latitude": "30.034658263639358",
      "longitude": "-90.002818707597"
    }
  },
  {
    "service_request": "2023-999211",
    "request_type": "Roads/Drainage",
    "request_reason": "Street Flooding / Drainage",
    "date_created": "2023-05-12T13:09:40.000",
    "date_modified": "2023-05-12T13:09:40.000",
    "request_status": "Pending",
    "responsible_agency": "Department of Public Works",
    "final_address": "3218 Dumaine St",
    "address_councildis": "A",
    "status": "Pending",
    "rowid": "999211",
    "final_x": "3675256.05307",
    "final_y": "538933.79361",
    "longitude": "-90.0875319570536",
    "latitude": "29.97606921398905",
    "geocoded_column": {
      "latitude": "29.97606921398905",
      "longitude": "-90.0875319570536"
    }
  },
  {
    "service_request": "2023-999210",
    "request_type": "Trash/Recycling",
    "request_reason": "Repair Trash Cart",
    "date_created": "2023-05-12T13:08:48.000",
    "date_modified": "2023-05-12T13:08:48.000",
    "request_status": "Pending",
    "responsible_agency": "Department of Sanitation",
    "final_address": "1846 Tupelo St",
    "address_councildis": "E",
    "status": "Assigned to Contractor",
    "contractor": "Waste Pro",
    "rowid": "999210",
    "final_x": "3700516.09725",
    "final_y": "536126.740039",
    "longitude": "-90.00785646114511",
    "latitude": "29.96757149665534",
    "geocoded_column": {
      "latitude": "29.96757149665534",
      "longitude": "-90.00785646114511"
    }
  },
  {
    "service_request": "2023-999209",
    "request_type": "Abandoned Vehicles",
    "request_reason": "Abandoned/Junk Vehicles",
    "date_created": "2023-05-12T13:04:09.000",
    "date_modified": "2023-05-12T13:05:13.000",
    "request_status": "Pending",
    "responsible_agency": "Department of Public Works",
    "final_address": "ALABO ST & ELLIS ST",
    "address_councildis": "E",
    "status": "Inspected",
    "rowid": "999209",
    "final_x": "3700170.8",
    "final_y": "538238.68",
    "longitude": "-90.00886981795044",
    "latitude": "29.973389547748077",
    "geocoded_column": {
      "latitude": "29.973389547748077",
      "longitude": "-90.00886981795044"
    }
  },
  {
    "service_request": "2023-999208",
    "request_type": "Trash/Recycling",
    "request_reason": "Replace Trash Cart",
    "date_created": "2023-05-12T13:00:55.000",
    "date_modified": "2023-05-12T13:00:56.000",
    "request_status": "Pending",
    "responsible_agency": "Department of Sanitation",
    "final_address": "2453 Josephine St",
    "address_councildis": "B",
    "status": "Assigned to Contractor",
    "contractor": "Richards Disposal",
    "rowid": "999208",
    "final_x": "3675983.36795",
    "final_y": "526513.865278",
    "longitude": "-90.08566200024453",
    "latitude": "29.94189681927254",
    "geocoded_column": {
      "latitude": "29.94189681927254",
      "longitude": "-90.08566200024453"
    }
  },
  {
    "service_request": "2023-999207",
    "request_type": "Abandoned Vehicles",
    "request_reason": "Abandoned/Junk Vehicles",
    "date_created": "2023-05-12T12:51:38.000",
    "date_modified": "2023-05-12T12:55:44.000",
    "request_status": "Pending",
    "responsible_agency": "Department of Public Works",
    "final_address": "FLORIDA AVE & FORSTALL ST",
    "address_councildis": "E",
    "status": "Inspected",
    "rowid": "999207",
    "final_x": "3697934.0",
    "final_y": "540187.38",
    "longitude": "-90.01586329032824",
    "latitude": "29.978818671216423",
    "geocoded_column": {
      "latitude": "29.978818671216423",
      "longitude": "-90.01586329032824"
    }
  },
  {
    "service_request": "2023-999206",
    "request_type": "Trash/Recycling",
    "request_reason": "Request a Large Item Pick Up",
    "date_created": "2023-05-12T12:40:07.000",
    "date_modified": "2023-05-12T12:40:08.000",
    "request_status": "Pending",
    "responsible_agency": "Department of Sanitation",
    "final_address": "1926 Ellen Park Pl",
    "address_councildis": "C",
    "status": "Assigned to Contractor",
    "contractor": "Richards Disposal",
    "rowid": "999206",
    "final_x": "3703014.65815",
    "final_y": "523698.118075",
    "longitude": "-90.0004225858919",
    "latitude": "29.933317497881898",
    "geocoded_column": {
      "latitude": "29.933317497881898",
      "longitude": "-90.0004225858919"
    }
  },
  {
    "service_request": "2023-999204",
    "request_type": "Abandoned Vehicles",
    "request_reason": "Abandoned/Junk Vehicles",
    "date_created": "2023-05-12T12:35:58.000",
    "date_modified": "2023-05-12T12:35:58.000",
    "request_status": "Pending",
    "responsible_agency": "Department of Public Works",
    "final_address": "7541 Pineridge St",
    "address_councildis": "E",
    "status": "Pending",
    "rowid": "999204",
    "final_x": "3719328.38207",
    "final_y": "571740.584744",
    "longitude": "-89.94708695820057",
    "latitude": "30.064883644627454",
    "geocoded_column": {
      "latitude": "30.064883644627454",
      "longitude": "-89.94708695820057"
    }
  },
  {
    "service_request": "2023-999203",
    "request_type": "Traffic Signals/Signs/Striping/Streetlights",
    "request_reason": "Street Light Outage/Malfunction",
    "date_created": "2023-05-12T12:34:47.000",
    "date_modified": "2023-05-12T12:34:47.000",
    "request_status": "Pending",
    "responsible_agency": "Department of Public Works",
    "final_address": "120 N Galvez St",
    "address_councildis": "B",
    "status": "Assigned to Contractor",
    "contractor": "Legacy Professional Services",
    "rowid": "999203",
    "final_x": "3677234.67899",
    "final_y": "533990.772165",
    "longitude": "-90.08145343916057",
    "latitude": "29.962418289982864",
    "geocoded_column": {
      "latitude": "29.962418289982864",
      "longitude": "-90.08145343916057"
    }
  },
  {
    "service_request": "2023-999202",
    "request_type": "Trash/Recycling",
    "request_reason": "Repair Trash Cart",
    "date_created": "2023-05-12T12:34:37.000",
    "date_modified": "2023-05-12T12:34:37.000",
    "request_status": "Pending",
    "responsible_agency": "Department of Sanitation",
    "final_address": "8725 Oleander St",
    "address_councildis": "A",
    "status": "Assigned to Contractor",
    "contractor": "Richards Disposal",
    "rowid": "999202",
    "final_x": "3665074.56711",
    "final_y": "535264.640198",
    "longitude": "-90.11981091608301",
    "latitude": "29.966280710014946",
    "geocoded_column": {
      "latitude": "29.966280710014946",
      "longitude": "-90.11981091608301"
    }
  },
  {
    "service_request": "2023-999201",
    "request_type": "Trash/Recycling",
    "request_reason": "Illegal Dumping",
    "date_created": "2023-05-12T12:34:11.000",
    "date_modified": "2023-05-12T12:34:11.000",
    "request_status": "Pending",
    "responsible_agency": "Department of Sanitation",
    "final_address": "4225 Tulane Ave",
    "address_councildis": "A",
    "status": "Pending",
    "rowid": "999201",
    "final_x": "3668765.16673",
    "final_y": "536655.103303",
    "longitude": "-90.10810908286071",
    "latitude": "29.96999603063133",
    "geocoded_column": {
      "latitude": "29.96999603063133",
      "longitude": "-90.10810908286071"
    }
  },
  {
    "service_request": "2023-999200",
    "request_type": "Trash/Recycling",
    "request_reason": "Request a Large Item Pick Up",
    "date_created": "2023-05-12T12:33:58.000",
    "date_modified": "2023-05-12T12:33:59.000",
    "request_status": "Pending",
    "responsible_agency": "Department of Sanitation",
    "final_address": "7568 Dearborn Rd",
    "address_councildis": "E",
    "status": "Assigned to Contractor",
    "contractor": "Waste Pro",
    "rowid": "999200",
    "final_x": "3709295.9772",
    "final_y": "564473.687777",
    "longitude": "-89.97907164020914",
    "latitude": "30.045232535508404",
    "geocoded_column": {
      "latitude": "30.045232535508404",
      "longitude": "-89.97907164020914"
    }
  },
  {
    "service_request": "2023-999199",
    "request_type": "Trash/Recycling",
    "request_reason": "Request a Large Item Pick Up",
    "date_created": "2023-05-12T12:30:52.000",
    "date_modified": "2023-05-12T12:30:53.000",
    "request_status": "Pending",
    "responsible_agency": "Department of Sanitation",
    "final_address": "3317 Laurel St",
    "address_councildis": "B",
    "status": "Assigned to Contractor",
    "contractor": "Richards Disposal",
    "rowid": "999199",
    "final_x": "3675499.24731",
    "final_y": "519146.403511",
    "longitude": "-90.08744338876099",
    "latitude": "29.92165318162446",
    "geocoded_column": {
      "latitude": "29.92165318162446",
      "longitude": "-90.08744338876099"
    }
  },
  {
    "service_request": "2023-999198",
    "request_type": "Roads/Drainage",
    "request_reason": "Street Subsidence (Sinking)",
    "date_created": "2023-05-12T12:28:52.000",
    "date_modified": "2023-05-12T12:28:53.000",
    "request_status": "Pending",
    "responsible_agency": "Department of Public Works",
    "final_address": "5100 BLK General De Gaulle Dr",
    "address_councildis": "C",
    "status": "Pending",
    "rowid": "999198",
    "final_x": "3702985.22818",
    "final_y": "516230.73898",
    "longitude": "-90.00078964523841",
    "latitude": "29.912785727058367",
    "geocoded_column": {
      "latitude": "29.912785727058367",
      "longitude": "-90.00078964523841"
    }
  },
  {
    "service_request": "2023-999197",
    "request_type": "Trash/Recycling",
    "request_reason": "Order Trash Cart",
    "date_created": "2023-05-12T12:27:31.000",
    "date_modified": "2023-05-12T12:27:31.000",
    "request_status": "Pending",
    "responsible_agency": "Department of Sanitation",
    "final_address": "1422 Deslonde St",
    "address_councildis": "E",
    "status": "Assigned to Contractor",
    "contractor": "Waste Pro",
    "rowid": "999197",
    "final_x": "3695674.83235",
    "final_y": "535762.496007",
    "longitude": "-90.02315835729279",
    "latitude": "29.966723054274627",
    "geocoded_column": {
      "latitude": "29.966723054274627",
      "longitude": "-90.02315835729279"
    }
  },
  {
    "service_request": "2023-999196",
    "request_type": "Roads/Drainage",
    "request_reason": "Damaged Property",
    "date_created": "2023-05-12T12:26:37.000",
    "date_modified": "2023-05-12T12:26:37.000",
    "request_status": "Pending",
    "responsible_agency": "Department of Public Works",
    "final_address": "1334 Cambronne St",
    "address_councildis": "A",
    "status": "Pending",
    "rowid": "999196",
    "final_x": "3661568.60134",
    "final_y": "529608.984257",
    "longitude": "-90.1310701476341",
    "latitude": "29.950831119467395",
    "geocoded_column": {
      "latitude": "29.950831119467395",
      "longitude": "-90.1310701476341"
    }
  },
  {
    "service_request": "2023-999195",
    "request_type": "Trash/Recycling",
    "request_reason": "Repair Recycling Cart",
    "date_created": "2023-05-12T12:20:14.000",
    "date_modified": "2023-05-12T12:20:14.000",
    "request_status": "Pending",
    "responsible_agency": "Department of Sanitation",
    "final_address": "6051 Milne Blvd",
    "address_councildis": "A",
    "status": "Pending",
    "rowid": "999195",
    "final_x": "3667141.69383",
    "final_y": "547903.123538",
    "longitude": "-90.11285782714248",
    "latitude": "30.000971903843784",
    "geocoded_column": {
      "latitude": "30.000971903843784",
      "longitude": "-90.11285782714248"
    }
  },
  {
    "service_request": "2023-999194",
    "request_type": "Trash/Recycling",
    "request_reason": "Request a Large Item Pick Up",
    "date_created": "2023-05-12T12:19:09.000",
    "date_modified": "2023-05-12T12:19:10.000",
    "request_status": "Pending",
    "responsible_agency": "Department of Sanitation",
    "final_address": "5 Neron Pl",
    "address_councildis": "A",
    "status": "Assigned to Contractor",
    "contractor": "Richards Disposal",
    "rowid": "999194",
    "final_x": "3664770.83828",
    "final_y": "531111.829442",
    "longitude": "-90.12090885606904",
    "latitude": "29.954870681133077",
    "geocoded_column": {
      "latitude": "29.954870681133077",
      "longitude": "-90.12090885606904"
    }
  },
  {
    "service_request": "2023-999193",
    "request_type": "Roads/Drainage",
    "request_reason": "Street Flooding / Drainage",
    "date_created": "2023-05-12T12:18:32.000",
    "date_modified": "2023-05-12T12:18:32.000",
    "request_status": "Pending",
    "responsible_agency": "Department of Public Works",
    "final_address": "1228 Cambronne St",
    "address_councildis": "A",
    "status": "Pending",
    "rowid": "999193",
    "final_x": "3661302.00704",
    "final_y": "529306.519361",
    "longitude": "-90.1319219350396",
    "latitude": "29.95000712672728",
    "geocoded_column": {
      "latitude": "29.95000712672728",
      "longitude": "-90.1319219350396"
    }
  },
  {
    "service_request": "2023-999192",
    "request_type": "Trash/Recycling",
    "request_reason": "Order Recycling Cart",
    "date_created": "2023-05-12T12:16:34.000",
    "date_modified": "2023-05-12T12:16:34.000",
    "request_status": "Pending",
    "responsible_agency": "Department of Sanitation",
    "final_address": "3023 Iberville St",
    "address_councildis": "B",
    "status": "Pending",
    "rowid": "999192",
    "final_x": "3674492.50593",
    "final_y": "536349.738887",
    "longitude": "-90.09003201817453",
    "latitude": "29.968986746263102",
    "geocoded_column": {
      "latitude": "29.968986746263102",
      "longitude": "-90.09003201817453"
    }
  },
  {
    "service_request": "2023-999191",
    "request_type": "Trash/Recycling",
    "request_reason": "Illegal Dumping",
    "date_created": "2023-05-12T12:11:54.000",
    "date_modified": "2023-05-12T12:11:54.000",
    "request_status": "Pending",
    "responsible_agency": "Department of Sanitation",
    "final_address": "8927 Willow St",
    "address_councildis": "A",
    "status": "Pending",
    "rowid": "999191",
    "final_x": "3660209.40627",
    "final_y": "530975.683074",
    "longitude": "-90.135316701187",
    "latitude": "29.95462824662377",
    "geocoded_column": {
      "latitude": "29.95462824662377",
      "longitude": "-90.135316701187"
    }
  },
  {
    "service_request": "2023-999190",
    "request_type": "Trash/Recycling",
    "request_reason": "Order Trash Cart",
    "date_created": "2023-05-12T12:09:00.000",
    "date_modified": "2023-05-12T12:09:01.000",
    "request_status": "Pending",
    "responsible_agency": "Department of Sanitation",
    "final_address": "2606 Pauger St",
    "address_councildis": "D",
    "status": "Assigned to Contractor",
    "contractor": "IV Waste",
    "rowid": "999190",
    "final_x": "3683588.40092",
    "final_y": "539233.565578",
    "longitude": "-90.06120550154145",
    "latitude": "29.97664175336775",
    "geocoded_column": {
      "latitude": "29.97664175336775",
      "longitude": "-90.06120550154145"
    }
  },
  {
    "service_request": "2023-999189",
    "request_type": "Roads/Drainage",
    "request_reason": "Street Subsidence (Sinking)",
    "date_created": "2023-05-12T12:07:24.000",
    "date_modified": "2023-05-12T12:07:25.000",
    "request_status": "Pending",
    "responsible_agency": "Department of Public Works",
    "final_address": "3600 BLK Calhoun St",
    "address_councildis": "A",
    "status": "Pending",
    "rowid": "999189",
    "final_x": "3667901.24782",
    "final_y": "529855.84001",
    "longitude": "-90.11106648318552",
    "latitude": "29.951325671953693",
    "geocoded_column": {
      "latitude": "29.951325671953693",
      "longitude": "-90.11106648318552"
    }
  },
  {
    "service_request": "2023-999188",
    "request_type": "Traffic Signals/Signs/Striping/Streetlights",
    "request_reason": "Street Light Outage/Malfunction",
    "date_created": "2023-05-12T12:04:59.000",
    "date_modified": "2023-05-12T12:04:59.000",
    "request_status": "Pending",
    "responsible_agency": "Department of Public Works",
    "final_address": "130 20Th St",
    "address_councildis": "A",
    "status": "Assigned to Contractor",
    "contractor": "Legacy Professional Services",
    "rowid": "999188",
    "final_x": "3665884.13421",
    "final_y": "548943.264851",
    "longitude": "-90.11679568738258",
    "latitude": "30.003868704234097",
    "geocoded_column": {
      "latitude": "30.003868704234097",
      "longitude": "-90.11679568738258"
    }
  },
  {
    "service_request": "2023-999187",
    "request_type": "Utility Poles",
    "request_reason": "Utility Pole Leaning",
    "date_created": "2023-05-12T12:02:23.000",
    "date_modified": "2023-05-12T12:02:26.000",
    "request_status": "Pending",
    "responsible_agency": "Utility Company Collective",
    "final_address": "2300 BLK Terpsichore St",
    "address_councildis": "B",
    "status": "Pending",
    "rowid": "999187",
    "final_x": "3676357.94482",
    "final_y": "526959.981301",
    "longitude": "-90.0844640302464",
    "latitude": "29.943112270897164",
    "geocoded_column": {
      "latitude": "29.943112270897164",
      "longitude": "-90.0844640302464"
    }
  },
  {
    "service_request": "2023-999186",
    "request_type": "Parks & Parkways",
    "request_reason": "Request Tree Service (Right of Way/Public Property)",
    "date_created": "2023-05-12T12:01:35.000",
    "date_modified": "2023-05-12T12:01:35.000",
    "request_status": "Pending",
    "responsible_agency": "Department of Parks & Parkway",
    "final_address": "787 Harrison Ave",
    "address_councildis": "A",
    "status": "Pending",
    "rowid": "999186",
    "final_x": "3669312.3129",
    "final_y": "549321.749971",
    "longitude": "-90.10595264396969",
    "latitude": "30.004808882132448",
    "geocoded_column": {
      "latitude": "30.004808882132448",
      "longitude": "-90.10595264396969"
    }
  },
  {
    "service_request": "2023-999185",
    "request_type": "Trash/Recycling",
    "request_reason": "Request a Large Item Pick Up",
    "date_created": "2023-05-12T11:59:40.000",
    "date_modified": "2023-05-12T11:59:41.000",
    "request_status": "Pending",
    "responsible_agency": "Department of Sanitation",
    "final_address": "717 S Gayoso St",
    "address_councildis": "B",
    "status": "Assigned to Contractor",
    "contractor": "Richards Disposal",
    "rowid": "999185",
    "final_x": "3672684.01268",
    "final_y": "533841.312389",
    "longitude": "-90.09582892698783",
    "latitude": "29.96214324856005",
    "geocoded_column": {
      "latitude": "29.96214324856005",
      "longitude": "-90.09582892698783"
    }
  },
  {
    "service_request": "2023-999184",
    "request_type": "Traffic Signals/Signs/Striping/Streetlights",
    "request_reason": "Street Light Outage/Malfunction",
    "date_created": "2023-05-12T11:56:48.000",
    "date_modified": "2023-05-12T11:56:49.000",
    "request_status": "Pending",
    "responsible_agency": "Department of Public Works",
    "final_address": "7741 Hansbrough Ave",
    "address_councildis": "E",
    "status": "Assigned to Contractor",
    "contractor": "Legacy Professional Services",
    "rowid": "999184",
    "final_x": "3707460.65572",
    "final_y": "564904.577442",
    "longitude": "-89.98485606252517",
    "latitude": "30.046476825612757",
    "geocoded_column": {
      "latitude": "30.046476825612757",
      "longitude": "-89.98485606252517"
    }
  },