[
  {
    "service_request": "2024-1074169",
    "request_type": "Health Related Request",
    "request_reason": "Noise Ordinance Complaint",
    "date_created": "2024-03-10T22:57:57.000",
    "date_modified": "2024-03-10T22:57:57.000",
    "request_status": "Pending",
    "responsible_agency": "Health Department",
    "final_address": "3821 Franklin Ave Apt A204",
    "address_councildis": "D",
    "status": "Pending",
    "rowid": "1074169",
    "final_x": "3687197.96802",
    "final_y": "547122.074705",
    "longitude": "-90.04952625919651",
    "latitude": "29.99822165776239",
    "geocoded_column": {
      "latitude": "29.99822165776239",
      "longitude": "-90.04952625919651"
    }
  },
  {
    "service_request": "2024-1074168",
    "request_type": "Roads/Drainage",
    "request_reason": "Damaged Sidewalk",
    "date_created": "2024-03-10T22:22:05.000",
    "date_modified": "2024-03-10T22:22:05.000",
    "request_status": "Pending",
    "responsible_agency": "Department of Public Works",
    "final_address": "Canal Street & North Scott Street",
    "address_councildis": "A",
    "status": "Pending",
    "rowid": "1074168",
    "final_x": "3671804.64635",
    "final_y": "537864.700233",
    "longitude": "-90.09846891652272",
    "latitude": "29.973232298643307",
    "geocoded_column": {
      "latitude": "29.973232298643307",
      "longitude": "-90.09846891652272"
    }
  },
  {
    "service_request": "2024-1074167",
    "request_type": "Abandoned Vehicles",
    "request_reason": "Vehicle Blocking Your Driveway",
    "date_created": "2024-03-10T22:06:49.000",
    "date_modified": "2024-03-10T22:06:49.000",
    "request_status": "Pending",
    "responsible_agency": "Department of Public Works",
    "final_address": "5245 E Nemours St",
    "address_councildis": "E",
    "status": "Pending",
    "rowid": "1074167",
    "final_x": "3727000.85901",
    "final_y": "563284.798688",
    "longitude": "-89.92316278172892",
    "latitude": "30.04137633416485",
    "geocoded_column": {
      "latitude": "30.04137633416485",
      "longitude": "-89.92316278172892"
    }
  },
  {
    "service_request": "2024-1074166",
    "request_type": "Trash/Recycling",
    "request_reason": "Order Recycling Cart",
    "date_created": "2024-03-10T22:02:21.000",
    "date_modified": "2024-03-10T22:02:21.000",
    "request_status": "Pending",
    "responsible_agency": "Department of Sanitation",
    "final_address": "1823 Martin Luther King, Jr. Blvd",
    "address_councildis": "B",
    "status": "Pending",
    "rowid": "1074166",
    "final_x": "3678293.37557",
    "final_y": "526182.716926",
    "longitude": "-90.07838027043971",
    "latitude": "29.940916906441064",
    "geocoded_column": {
      "latitude": "29.940916906441064",
      "longitude": "-90.07838027043971"
    }
  },
  {
    "service_request": "2024-1074165",
    "request_type": "Trash/Recycling",
    "request_reason": "Illegal Dumping",
    "date_created": "2024-03-10T22:00:37.000",
    "date_modified": "2024-03-10T22:00:37.000",
    "request_status": "Pending",
    "responsible_agency": "Department of Sanitation",
    "final_address": "4768 Werner Dr",
    "address_councildis": "E",
    "status": "Pending",
    "rowid": "1074165",
    "final_x": "3704663.17111",
    "final_y": "555517.123481",
    "longitude": "-89.99404428334294",
    "latitude": "30.020755229733474",
    "geocoded_column": {
      "latitude": "30.020755229733474",
      "longitude": "-89.99404428334294"
    }
  },
  {
    "service_request": "2024-1074164",
    "request_type": "Trash/Recycling",
    "request_reason": "Illegal Dumping",
    "date_created": "2024-03-10T21:56:44.000",
    "date_modified": "2024-03-10T21:56:44.000",
    "request_status": "Pending",
    "responsible_agency": "Department of Sanitation",
    "final_address": "4769 Bonita Dr",
    "address_councildis": "E",
    "status": "Pending",
    "rowid": "1074164",
    "final_x": "3704509.89463",
    "final_y": "555496.758809",
    "longitude": "-89.99452933997146",
    "latitude": "30.020704159910363",
    "geocoded_column": {
      "latitude": "30.020704159910363",
      "longitude": "-89.99452933997146"
    }
  },
  {
    "service_request": "2024-1074162",
    "request_type": "Trash/Recycling",
    "request_reason": "Repair Trash Cart",
    "date_created": "2024-03-10T21:19:01.000",
    "date_modified": "2024-03-10T21:19:01.000",
    "request_status": "Pending",
    "responsible_agency": "Department of Sanitation",
    "final_address": "224 S Olympia St",
    "address_councildis": "A",
    "status": "Assigned to Contractor",
    "contractor": "Richards Disposal",
    "rowid": "1074162",
    "final_x": "3669065.93262",
    "final_y": "539109.923722",
    "longitude": "-90.1070762650104",
    "latitude": "29.976737115996272",
    "geocoded_column": {
      "latitude": "29.976737115996272",
      "longitude": "-90.1070762650104"
    }
  },
  {
    "service_request": "2024-1074160",
    "request_type": "Abandoned Vehicles",
    "request_reason": "Abandoned/Junk Vehicles",
    "date_created": "2024-03-10T20:58:32.000",
    "date_modified": "2024-03-10T20:58:32.000",
    "request_status": "Pending",
    "responsible_agency": "Department of Public Works",
    "final_address": "1500 BLK Caton St",
    "address_councildis": "D",
    "status": "Pending",
    "rowid": "1074160",
    "final_x": "3679340.81681",
    "final_y": "546967.065302",
    "longitude": "-90.07435231943344",
    "latitude": "29.998035153721826",
    "geocoded_column": {
      "latitude": "29.998035153721826",
      "longitude": "-90.07435231943344"
    }
  },
  {
    "service_request": "2024-1074159",
    "request_type": "Property Maintenance",
    "request_reason": "Property Maintenance",
    "date_created": "2024-03-10T20:20:27.000",
    "date_modified": "2024-03-10T20:20:27.000",
    "request_status": "Pending",
    "responsible_agency": "Department of Code Enforcement",
    "final_address": "1700 BLK Saint Bernard Ave",
    "address_councildis": "D",
    "status": "Pending",
    "rowid": "1074159",
    "final_x": "3681898.97442",
    "final_y": "538316.725976",
    "longitude": "-90.06657324072279",
    "latitude": "29.97417222782985",
    "geocoded_column": {
      "latitude": "29.97417222782985",
      "longitude": "-90.06657324072279"
    }
  },
  {
    "service_request": "2024-1074158",
    "request_type": "Traffic Signals/Signs/Striping/Streetlights",
    "request_reason": "Traffic Signal Malfunctioning/Damaged",
    "date_created": "2024-03-10T20:10:44.000",
    "date_modified": "2024-03-10T20:10:44.000",
    "request_status": "Pending",
    "responsible_agency": "Department of Public Works",
    "final_address": "2200 BLK Dumaine St",
    "address_councildis": "D",
    "status": "Pending",
    "rowid": "1074158",
    "final_x": "3678658.46745",
    "final_y": "536370.232821",
    "longitude": "-90.07687492137718",
    "latitude": "29.968918147078508",
    "geocoded_column": {
      "latitude": "29.968918147078508",
      "longitude": "-90.07687492137718"
    }
  },
  {
    "service_request": "2024-1074156",
    "request_type": "Parks & Parkways",
    "request_reason": "Request Tree Service (Right of Way/Public Property)",
    "date_created": "2024-03-10T19:50:36.000",
    "date_modified": "2024-03-10T19:50:36.000",
    "request_status": "Pending",
    "responsible_agency": "Department of Parks & Parkway",
    "final_address": "216 Maumus Ave",
    "address_councildis": "C",
    "status": "Pending",
    "rowid": "1074156",
    "final_x": "3706585.17431",
    "final_y": "516832.821749",
    "longitude": "-89.9894049831792",
    "latitude": "29.91432564039068",
    "geocoded_column": {
      "latitude": "29.91432564039068",
      "longitude": "-89.9894049831792"
    }
  },
  {
    "service_request": "2024-1074155",
    "request_type": "Abandoned Vehicles",
    "request_reason": "Abandoned/Junk Vehicles",
    "date_created": "2024-03-10T19:45:36.000",
    "date_modified": "2024-03-10T19:45:36.000",
    "request_status": "Pending",
    "responsible_agency": "Department of Public Works",
    "final_address": "1600 St Bernard Ave",
    "address_councildis": "D",
    "status": "Pending",
    "rowid": "1074155",
    "final_x": "3681968.86325",
    "final_y": "538024.026505",
    "longitude": "-90.06636273718718",
    "latitude": "29.973365281056946",
    "geocoded_column": {
      "latitude": "29.973365281056946",
      "longitude": "-90.06636273718718"
    }
  },
  {
    "service_request": "2024-1074154",
    "request_type": "Property Maintenance",
    "request_reason": "Property Maintenance",
    "date_created": "2024-03-10T19:42:34.000",
    "date_modified": "2024-03-10T19:42:34.000",
    "request_status": "Pending",
    "responsible_agency": "Department of Code Enforcement",
    "final_address": "1700 BLK Saint Bernard Ave",
    "address_councildis": "D",
    "status": "Pending",
    "rowid": "1074154",
    "final_x": "3681898.97442",
    "final_y": "538316.725976",
    "longitude": "-90.06657324072279",
    "latitude": "29.97417222782985",
    "geocoded_column": {
      "latitude": "29.97417222782985",
      "longitude": "-90.06657324072279"
    }
  },
  {
    "service_request": "2024-1074153",
    "request_type": "Trash/Recycling",
    "request_reason": "Request a Large Item Pick Up",
    "date_created": "2024-03-10T19:37:51.000",
    "date_modified": "2024-03-10T19:37:52.000",
    "request_status": "Pending",
    "responsible_agency": "Department of Sanitation",
    "final_address": "3805 Octavia St",
    "address_councildis": "A",
    "status": "Assigned to Contractor",
    "contractor": "Richards Disposal",
    "rowid": "1074153",
    "final_x": "3668826.2827",
    "final_y": "529392.729665",
    "longitude": "-90.1081613042878",
    "latitude": "29.950025105536138",
    "geocoded_column": {
      "latitude": "29.950025105536138",
      "longitude": "-90.1081613042878"
    }
  },
  {
    "service_request": "2024-1074152",
    "request_type": "Trash/Recycling",
    "request_reason": "Repair Trash Cart",
    "date_created": "2024-03-10T19:36:04.000",
    "date_modified": "2024-03-10T19:36:04.000",
    "request_status": "Pending",
    "responsible_agency": "Department of Sanitation",
    "final_address": "3805 Octavia St",
    "address_councildis": "A",
    "status": "Assigned to Contractor",
    "contractor": "Richards Disposal",
    "rowid": "1074152",
    "final_x": "3668826.2827",
    "final_y": "529392.729665",
    "longitude": "-90.1081613042878",
    "latitude": "29.950025105536138",
    "geocoded_column": {
      "latitude": "29.950025105536138",
      "longitude": "-90.1081613042878"
    }
  },
  {
    "service_request": "2024-1074151",
    "request_type": "Graffiti Removal",
    "request_reason": "Graffiti Removal",
    "date_created": "2024-03-10T19:28:41.000",
    "date_modified": "2024-03-10T19:28:41.000",
    "request_status": "Pending",
    "responsible_agency": "Department of Code Enforcement",
    "final_address": "N VILLERE ST & ST LOUIS ST",
    "address_councildis": "C",
    "status": "Pending",
    "rowid": "1074151",
    "final_x": "3679846.3",
    "final_y": "533557.58",
    "longitude": "-90.07322135377217",
    "latitude": "29.96114844415495",
    "geocoded_column": {
      "latitude": "29.96114844415495",
      "longitude": "-90.07322135377217"
    }
  },
  {
    "service_request": "2024-1074150",
    "request_type": "Trash/Recycling",
    "request_reason": "Request a Large Item Pick Up",
    "date_created": "2024-03-10T18:55:50.000",
    "date_modified": "2024-03-10T18:55:50.000",
    "request_status": "Pending",
    "responsible_agency": "Department of Sanitation",
    "final_address": "406 38Th St",
    "address_councildis": "A",
    "status": "Assigned to Contractor",
    "contractor": "IV Waste",
    "rowid": "1074150",
    "final_x": "3664918.89773",
    "final_y": "552657.589334",
    "longitude": "-90.11972076524341",
    "latitude": "30.01410994978017",
    "geocoded_column": {
      "latitude": "30.01410994978017",
      "longitude": "-90.11972076524341"
    }
  },
  {
    "service_request": "2024-1074149",
    "request_type": "Trash/Recycling",
    "request_reason": "Request a Large Item Pick Up",
    "date_created": "2024-03-10T18:41:11.000",
    "date_modified": "2024-03-10T18:41:12.000",
    "request_status": "Pending",
    "responsible_agency": "Department of Sanitation",
    "final_address": "3130 Delachaise St",
    "address_councildis": "B",
    "status": "Assigned to Contractor",
    "contractor": "Richards Disposal",
    "rowid": "1074149",
    "final_x": "3671655.17403",
    "final_y": "526673.831422",
    "longitude": "-90.09932160781054",
    "latitude": "29.942465551914374",
    "geocoded_column": {
      "latitude": "29.942465551914374",
      "longitude": "-90.09932160781054"
    }
  },
  {
    "service_request": "2024-1074148",
    "request_type": "Trash/Recycling",
    "request_reason": "Order Recycling Cart",
    "date_created": "2024-03-10T18:30:48.000",
    "date_modified": "2024-03-10T18:30:48.000",
    "request_status": "Pending",
    "responsible_agency": "Department of Sanitation",
    "final_address": "601 Homer St",
    "address_councildis": "C",
    "status": "Pending",
    "rowid": "1074148",
    "final_x": "3687206.14978",
    "final_y": "528298.59456",
    "longitude": "-90.05016631035998",
    "latitude": "29.946463434090607",
    "geocoded_column": {
      "latitude": "29.946463434090607",
      "longitude": "-90.05016631035998"
    }
  },
  {
    "service_request": "2024-1074147",
    "request_type": "Graffiti Removal",
    "request_reason": "Graffiti Removal",
    "date_created": "2024-03-10T18:25:11.000",
    "date_modified": "2024-03-10T18:25:11.000",
    "request_status": "Pending",
    "responsible_agency": "Department of Code Enforcement",
    "final_address": "2927 Conti St",
    "address_councildis": "B",
    "status": "Pending",
    "rowid": "1074147",
    "final_x": "3675200.44955",
    "final_y": "536842.95028",
    "longitude": "-90.0877793508118",
    "latitude": "29.970321769487384",
    "geocoded_column": {
      "latitude": "29.970321769487384",
      "longitude": "-90.0877793508118"
    }
  },
  {
    "service_request": "2024-1074145",
    "request_type": "Trash/Recycling",
    "request_reason": "Request a Large Item Pick Up",
    "date_created": "2024-03-10T18:19:34.000",
    "date_modified": "2024-03-10T18:19:35.000",
    "request_status": "Pending",
    "responsible_agency": "Department of Sanitation",
    "final_address": "2117 Lapeyrouse St",
    "address_councildis": "D",
    "status": "Assigned to Contractor",
    "contractor": "IV Waste",
    "rowid": "1074145",
    "final_x": "3680694.49858",
    "final_y": "539025.227338",
    "longitude": "-90.07035258824878",
    "latitude": "29.976156920320896",
    "geocoded_column": {
      "latitude": "29.976156920320896",
      "longitude": "-90.07035258824878"
    }
  },
  {
    "service_request": "2024-1074144",
    "request_type": "Graffiti Removal",
    "request_reason": "Graffiti Removal",
    "date_created": "2024-03-10T18:14:28.000",
    "date_modified": "2024-03-10T18:14:28.000",
    "request_status": "Pending",
    "responsible_agency": "Department of Code Enforcement",
    "final_address": "500 BLK N Claiborne Ave",
    "address_councildis": "C",
    "status": "Pending",
    "rowid": "1074144",
    "final_x": "3679506.33452",
    "final_y": "534128.719916",
    "longitude": "-90.0742750854324",
    "latitude": "29.962729160547678",
    "geocoded_column": {
      "latitude": "29.962729160547678",
      "longitude": "-90.0742750854324"
    }
  },
  {
    "service_request": "2024-1074143",
    "request_type": "Parks & Parkways",
    "request_reason": "Request Grass Cutting Service (City Owned Property)",
    "date_created": "2024-03-10T18:14:25.000",
    "date_modified": "2024-03-10T18:14:25.000",
    "request_status": "Pending",
    "responsible_agency": "Department of Parks & Parkway",
    "final_address": "ORANGE ST & ANNUNCIATION ST",
    "address_councildis": "B",
    "status": "Pending",
    "rowid": "1074143",
    "final_x": "3680900.9",
    "final_y": "523286.88",
    "longitude": "-90.07024863570352",
    "latitude": "29.93287553181704",
    "geocoded_column": {
      "latitude": "29.93287553181704",
      "longitude": "-90.07024863570352"
    }
  },
  {
    "service_request": "2024-1074142",
    "request_type": "Trash/Recycling",
    "request_reason": "Repair Recycling Cart",
    "date_created": "2024-03-10T17:45:06.000",
    "date_modified": "2024-03-10T17:45:06.000",
    "request_status": "Pending",
    "responsible_agency": "Department of Sanitation",
    "final_address": "319 Eliza St",
    "address_councildis": "C",
    "status": "Pending",
    "rowid": "1074142",
    "final_x": "3686493.6831",
    "final_y": "529501.974849",
    "longitude": "-90.05237333958488",
    "latitude": "29.949794239230492",
    "geocoded_column": {
      "latitude": "29.949794239230492",
      "longitude": "-90.05237333958488"
    }
  },
  {
    "service_request": "2024-1074141",
    "request_type": "Trash/Recycling",
    "request_reason": "Request a Large Item Pick Up",
    "date_created": "2024-03-10T17:42:47.000",
    "date_modified": "2024-03-10T17:42:47.000",
    "request_status": "Pending",
    "responsible_agency": "Department of Sanitation",
    "final_address": "2330 Jena St",
    "address_councildis": "B",
    "status": "Assigned to Contractor",
    "contractor": "Richards Disposal",
    "rowid": "1074141",
    "final_x": "3670128.65767",
    "final_y": "523578.310267",
    "longitude": "-90.10424601378064",
    "latitude": "29.933998985043004",
    "geocoded_column": {
      "latitude": "29.933998985043004",
      "longitude": "-90.10424601378064"
    }
  },
  {
    "service_request": "2024-1074140",
    "request_type": "Property Maintenance",
    "request_reason": "Property Maintenance",
    "date_created": "2024-03-10T17:41:54.000",
    "date_modified": "2024-03-10T17:41:54.000",
    "request_status": "Pending",
    "responsible_agency": "Department of Code Enforcement",
    "final_address": "1102 Valence St",
    "address_councildis": "B",
    "status": "Pending",
    "rowid": "1074140",
    "final_x": "3669814.65114",
    "final_y": "519454.991735",
    "longitude": "-90.10537682290095",
    "latitude": "29.922670433598512",
    "geocoded_column": {
      "latitude": "29.922670433598512",
      "longitude": "-90.10537682290095"
    }
  },
  {
    "service_request": "2024-1074139",
    "request_type": "Trash/Recycling",
    "request_reason": "Replace Trash Cart",
    "date_created": "2024-03-10T17:38:32.000",
    "date_modified": "2024-03-10T17:38:33.000",
    "request_status": "Pending",
    "responsible_agency": "Department of Sanitation",
    "final_address": "8014 Panola St",
    "address_councildis": "A",
    "status": "Assigned to Contractor",
    "contractor": "Richards Disposal",
    "rowid": "1074139",
    "final_x": "3664287.00224",
    "final_y": "530481.272578",
    "longitude": "-90.12245767395585",
    "latitude": "29.95315092241425",
    "geocoded_column": {
      "latitude": "29.95315092241425",
      "longitude": "-90.12245767395585"
    }
  },
  {
    "service_request": "2024-1074138",
    "request_type": "Trash/Recycling",
    "request_reason": "Request a Large Item Pick Up",
    "date_created": "2024-03-10T17:25:14.000",
    "date_modified": "2024-03-10T17:25:15.000",
    "request_status": "Pending",
    "responsible_agency": "Department of Sanitation",
    "final_address": "1212 N Rocheblave St",
    "address_councildis": "D",
    "status": "Assigned to Contractor",
    "contractor": "Richards Disposal",
    "rowid": "1074138",
    "final_x": "3678751.36578",
    "final_y": "537879.817097",
    "longitude": "-90.07652925202147",
    "latitude": "29.97306618499876",
    "geocoded_column": {
      "latitude": "29.97306618499876",
      "longitude": "-90.07652925202147"
    }
  },
  {
    "service_request": "2024-1074137",
    "request_type": "Trash/Recycling",
    "request_reason": "Repair Trash Cart",
    "date_created": "2024-03-10T17:25:12.000",
    "date_modified": "2024-03-10T17:25:13.000",
    "request_status": "Pending",
    "responsible_agency": "Department of Sanitation",
    "final_address": "4736 S Liberty St",
    "address_councildis": "B",
    "status": "Assigned to Contractor",
    "contractor": "Richards Disposal",
    "rowid": "1074137",
    "final_x": "3669188.72065",
    "final_y": "523162.999803",
    "longitude": "-90.10722739574231",
    "latitude": "29.932884703878724",
    "geocoded_column": {
      "latitude": "29.932884703878724",
      "longitude": "-90.10722739574231"
    }
  },
  {
    "service_request": "2024-1074136",
    "request_type": "Trash/Recycling",
    "request_reason": "Request a Large Item Pick Up",
    "date_created": "2024-03-10T17:23:07.000",
    "date_modified": "2024-03-10T17:23:07.000",
    "request_status": "Pending",
    "responsible_agency": "Department of Sanitation",
    "final_address": "4736 S Liberty St",
    "address_councildis": "B",
    "status": "Assigned to Contractor",
    "contractor": "Richards Disposal",
    "rowid": "1074136",
    "final_x": "3669188.72065",
    "final_y": "523162.999803",
    "longitude": "-90.10722739574231",
    "latitude": "29.932884703878724",
    "geocoded_column": {
      "latitude": "29.932884703878724",
      "longitude": "-90.10722739574231"
    }
  },
  {
    "service_request": "2024-1074135",
    "request_type": "Trash/Recycling",
    "request_reason": "Repair Recycling Cart",
    "date_created": "2024-03-10T16:49:49.000",
    "date_modified": "2024-03-10T16:49:49.000",
    "request_status": "Pending",
    "responsible_agency": "Department of Sanitation",
    "final_address": "166 Country Club Dr",
    "address_councildis": "A",
    "status": "Pending",
    "rowid": "1074135",
    "final_x": "3665309.4297",
    "final_y": "544248.32795",
    "longitude": "-90.11876850207854",
    "latitude": "29.990976001118774",
    "geocoded_column": {
      "latitude": "29.990976001118774",
      "longitude": "-90.11876850207854"
    }
  },
  {
    "service_request": "2024-1074134",
    "request_type": "Trash/Recycling",
    "request_reason": "Request a Large Item Pick Up",
    "date_created": "2024-03-10T16:45:18.000",
    "date_modified": "2024-03-10T16:45:19.000",
    "request_status": "Pending",
    "responsible_agency": "Department of Sanitation",
    "final_address": "4673 Nottingham Dr",
    "address_councildis": "E",
    "status": "Assigned to Contractor",
    "contractor": "Waste Pro",
    "rowid": "1074134",
    "final_x": "3716506.37452",
    "final_y": "556580.917722",
    "longitude": "-89.95658329664846",
    "latitude": "30.023294302826834",
    "geocoded_column": {
      "latitude": "30.023294302826834",
      "longitude": "-89.95658329664846"
    }
  },
  {
    "service_request": "2024-1074132",
    "request_type": "Trash/Recycling",
    "request_reason": "Missed Trash Pick-Up",
    "date_created": "2024-03-10T16:32:56.000",
    "date_modified": "2024-03-10T16:32:57.000",
    "request_status": "Pending",
    "responsible_agency": "Department of Sanitation",
    "final_address": "821 Baronne St",
    "address_councildis": "B",
    "status": "Assigned to Contractor",
    "contractor": "Empire Services",
    "rowid": "1074132",
    "final_x": "3679520.82434",
    "final_y": "528049.607871",
    "longitude": "-90.07444023933199",
    "latitude": "29.946013213341246",
    "geocoded_column": {
      "latitude": "29.946013213341246",
      "longitude": "-90.07444023933199"
    }
  },
  {
    "service_request": "2024-1074131",
    "request_type": "Roads/Drainage",
    "request_reason": "Street Flooding / Drainage",
    "date_created": "2024-03-10T16:15:31.000",
    "date_modified": "2024-03-10T16:15:31.000",
    "request_status": "Pending",
    "responsible_agency": "Department of Public Works",
    "final_address": "8443 Panola St",
    "address_councildis": "A",
    "status": "Pending",
    "rowid": "1074131",
    "final_x": "3663112.23347",
    "final_y": "531655.506179",
    "longitude": "-90.12612803832025",
    "latitude": "29.95641376797416",
    "geocoded_column": {
      "latitude": "29.95641376797416",
      "longitude": "-90.12612803832025"
    }
  },
  {
    "service_request": "2024-1074130",
    "request_type": "Trash/Recycling",
    "request_reason": "Repair Recycling Cart",
    "date_created": "2024-03-10T16:14:19.000",
    "date_modified": "2024-03-10T16:14:19.000",
    "request_status": "Pending",
    "responsible_agency": "Department of Sanitation",
    "final_address": "4603 Coliseum St",
    "address_councildis": "B",
    "status": "Pending",
    "rowid": "1074130",
    "final_x": "3670150.5986",
    "final_y": "519786.220408",
    "longitude": "-90.10430515308495",
    "latitude": "29.923571303454708",
    "geocoded_column": {
      "latitude": "29.923571303454708",
      "longitude": "-90.10430515308495"
    }
  },
  {
    "service_request": "2024-1074129",
    "request_type": "Trash/Recycling",
    "request_reason": "Repair Recycling Cart",
    "date_created": "2024-03-10T16:07:24.000",
    "date_modified": "2024-03-10T16:07:24.000",
    "request_status": "Pending",
    "responsible_agency": "Department of Sanitation",
    "final_address": "5642 Marcia Ave",
    "address_councildis": "A",
    "status": "Pending",
    "rowid": "1074129",
    "final_x": "3664780.33543",
    "final_y": "545199.651087",
    "longitude": "-90.12040798320115",
    "latitude": "29.99360722645952",
    "geocoded_column": {
      "latitude": "29.99360722645952",
      "longitude": "-90.12040798320115"
    }
  },
  {
    "service_request": "2024-1074128",
    "request_type": "Trash/Recycling",
    "request_reason": "Request a Large Item Pick Up",
    "date_created": "2024-03-10T16:05:29.000",
    "date_modified": "2024-03-10T16:05:30.000",
    "request_status": "Pending",
    "responsible_agency": "Department of Sanitation",
    "final_address": "862 Olga St",
    "address_councildis": "A",
    "status": "Assigned to Contractor",
    "contractor": "Richards Disposal",
    "rowid": "1074128",
    "final_x": "3673382.23713",
    "final_y": "540244.124171",
    "longitude": "-90.09340524119628",
    "latitude": "29.979728061245904",
    "geocoded_column": {
      "latitude": "29.979728061245904",
      "longitude": "-90.09340524119628"
    }
  },
  {
    "service_request": "2024-1074127",
    "request_type": "Trash/Recycling",
    "request_reason": "Missed Trash Pick-Up",
    "date_created": "2024-03-10T16:02:52.000",
    "date_modified": "2024-03-10T16:02:53.000",
    "request_status": "Pending",
    "responsible_agency": "Department of Sanitation",
    "final_address": "7741 Wales St",
    "address_councildis": "E",
    "status": "Assigned to Contractor",
    "contractor": "Waste Pro",
    "rowid": "1074127",
    "final_x": "3701019.09009",
    "final_y": "561846.707295",
    "longitude": "-90.005326638881",
    "latitude": "30.038275750062667",
    "geocoded_column": {
      "latitude": "30.038275750062667",
      "longitude": "-90.005326638881"
    }
  },
  {
    "service_request": "2024-1074126",
    "request_type": "Trash/Recycling",
    "request_reason": "Missed Trash Pick-Up",
    "date_created": "2024-03-10T15:57:01.000",
    "date_modified": "2024-03-10T15:57:02.000",
    "request_status": "Pending",
    "responsible_agency": "Department of Sanitation",
    "final_address": "1306 Calhoun St",
    "address_councildis": "A",
    "status": "Assigned to Contractor",
    "contractor": "Richards Disposal",
    "rowid": "1074126",
    "final_x": "3664103.11738",
    "final_y": "521391.034809",
    "longitude": "-90.12334140557269",
    "latitude": "29.928161012734737",
    "geocoded_column": {
      "latitude": "29.928161012734737",
      "longitude": "-90.12334140557269"
    }
  },
  {
    "service_request": "2024-1074125",
    "request_type": "Roads/Drainage",
    "request_reason": "Pothole",
    "date_created": "2024-03-10T15:52:37.000",
    "date_modified": "2024-03-10T15:52:37.000",
    "request_status": "Pending",
    "responsible_agency": "Department of Public Works",
    "final_address": "4216 Chestnut St",
    "address_councildis": "B",
    "status": "Pending",
    "rowid": "1074125",
    "final_x": "3671574.31393",
    "final_y": "519539.203703",
    "longitude": "-90.09981939416457",
    "latitude": "29.922850019854593",
    "geocoded_column": {
      "latitude": "29.922850019854593",
      "longitude": "-90.09981939416457"
    }
  },
  {
    "service_request": "2024-1074124",
    "request_type": "Trash/Recycling",
    "request_reason": "Illegal Dumping",
    "date_created": "2024-03-10T15:36:57.000",
    "date_modified": "2024-03-10T15:36:57.000",
    "request_status": "Pending",
    "responsible_agency": "Department of Sanitation",
    "final_address": "1725 Painters St",
    "address_councildis": "D",
    "status": "Pending",
    "rowid": "1074124",
    "final_x": "3687407.95414",
    "final_y": "538940.925066",
    "longitude": "-90.04915256031579",
    "latitude": "29.97571994257679",
    "geocoded_column": {
      "latitude": "29.97571994257679",
      "longitude": "-90.04915256031579"
    }
  },
  {
    "service_request": "2024-1074123",
    "request_type": "Roads/Drainage",
    "request_reason": "Pothole",
    "date_created": "2024-03-10T15:32:44.000",
    "date_modified": "2024-03-10T15:32:44.000",
    "request_status": "Pending",
    "responsible_agency": "Department of Public Works",
    "final_address": "1301 Constantinople St",
    "address_councildis": "B",
    "status": "Pending",
    "rowid": "1074123",
    "final_x": "3672430.66305",
    "final_y": "520250.7726",
    "longitude": "-90.09709199725775",
    "latitude": "29.924781230435865",
    "geocoded_column": {
      "latitude": "29.924781230435865",
      "longitude": "-90.09709199725775"
    }
  },
  {
    "service_request": "2024-1074122",
    "request_type": "Trash/Recycling",
    "request_reason": "Order Recycling Cart",
    "date_created": "2024-03-10T15:26:38.000",
    "date_modified": "2024-03-10T15:26:38.000",
    "request_status": "Pending",
    "responsible_agency": "Department of Sanitation",
    "final_address": "1013 Verret St",
    "address_councildis": "C",
    "status": "Pending",
    "rowid": "1074122",
    "final_x": "3687189.45154",
    "final_y": "527852.454847",
    "longitude": "-90.0502348060468",
    "latitude": "29.945237215827074",
    "geocoded_column": {
      "latitude": "29.945237215827074",
      "longitude": "-90.0502348060468"
    }
  },
  {
    "service_request": "2024-1074121",
    "request_type": "Trash/Recycling",
    "request_reason": "Repair Recycling Cart",
    "date_created": "2024-03-10T15:19:19.000",
    "date_modified": "2024-03-10T15:19:19.000",
    "request_status": "Pending",
    "responsible_agency": "Department of Sanitation",
    "final_address": "1530 Washington Ave",
    "address_councildis": "B",
    "status": "Pending",
    "rowid": "1074121",
    "final_x": "3676010.01326",
    "final_y": "522297.475258",
    "longitude": "-90.08572281898638",
    "latitude": "29.930302328735703",
    "geocoded_column": {
      "latitude": "29.930302328735703",
      "longitude": "-90.08572281898638"
    }
  },
  {
    "service_request": "2024-1074120",
    "request_type": "Roads/Drainage",
    "request_reason": "Pothole",
    "date_created": "2024-03-10T15:04:36.000",
    "date_modified": "2024-03-10T15:04:36.000",
    "request_status": "Pending",
    "responsible_agency": "Department of Public Works",
    "final_address": "1565 Webster St",
    "address_councildis": "A",
    "status": "Pending",
    "rowid": "1074120",
    "final_x": "3665329.74644",
    "final_y": "522513.853178",
    "longitude": "-90.11943164710019",
    "latitude": "29.931212734546094",
    "geocoded_column": {
      "latitude": "29.931212734546094",
      "longitude": "-90.11943164710019"
    }
  },
  {
    "service_request": "2024-1074119",
    "request_type": "Trash/Recycling",
    "request_reason": "Request a Large Item Pick Up",
    "date_created": "2024-03-10T14:50:26.000",
    "date_modified": "2024-03-10T14:50:27.000",
    "request_status": "Pending",
    "responsible_agency": "Department of Sanitation",
    "final_address": "4404 Frenchmen St",
    "address_councildis": "D",
    "status": "Assigned to Contractor",
    "contractor": "IV Waste",
    "rowid": "1074119",
    "final_x": "3683524.08898",
    "final_y": "548950.706451",
    "longitude": "-90.06106785988585",
    "latitude": "30.003362408834263",
    "geocoded_column": {
      "latitude": "30.003362408834263",
      "longitude": "-90.06106785988585"
    }
  },
  {
    "service_request": "2024-1074118",
    "request_type": "Traffic Signals/Signs/Striping/Streetlights",
    "request_reason": "Street Light Outage/Malfunction",
    "date_created": "2024-03-10T14:49:30.000",
    "date_modified": "2024-03-10T14:49:30.000",
    "request_status": "Pending",
    "responsible_agency": "Department of Public Works",
    "final_address": "624 Pacific Ave",
    "address_councildis": "C",
    "status": "Assigned to Contractor",
    "contractor": "Legacy Professional Services",
    "rowid": "1074118",
    "final_x": "3688516.84803",
    "final_y": "529230.474945",
    "longitude": "-90.04599492752382",
    "latitude": "29.948985362236566",
    "geocoded_column": {
      "latitude": "29.948985362236566",
      "longitude": "-90.04599492752382"
    }
  },
  {
    "service_request": "2024-1074117",
    "request_type": "Property Maintenance",
    "request_reason": "Property Maintenance",
    "date_created": "2024-03-10T14:44:26.000",
    "date_modified": "2024-03-10T14:44:26.000",
    "request_status": "Pending",
    "responsible_agency": "Department of Code Enforcement",
    "final_address": "2950 Elmwood Park Dr",
    "address_councildis": "C",
    "status": "Pending",
    "rowid": "1074117",
    "final_x": "3693638.93853",
    "final_y": "519614.930808",
    "longitude": "-90.03016762571504",
    "latitude": "29.922386677748854",
    "geocoded_column": {
      "latitude": "29.922386677748854",
      "longitude": "-90.03016762571504"
    }
  },
  {
    "service_request": "2024-1074116",
    "request_type": "Abandoned Vehicles",
    "request_reason": "Abandoned/Junk Vehicles",
    "date_created": "2024-03-10T14:37:03.000",
    "date_modified": "2024-03-10T14:37:03.000",
    "request_status": "Pending",
    "responsible_agency": "Department of Public Works",
    "final_address": "500 S Scott St",
    "address_councildis": "B",
    "status": "Pending",
    "rowid": "1074116",
    "final_x": "3670824.25217",
    "final_y": "536445.321479",
    "longitude": "-90.10161339299228",
    "latitude": "29.969358500070214",
    "geocoded_column": {
      "latitude": "29.969358500070214",
      "longitude": "-90.10161339299228"
    }
  },
  {
    "service_request": "2024-1074115",
    "request_type": "Trash/Recycling",
    "request_reason": "Repair Trash Cart",
    "date_created": "2024-03-10T14:24:45.000",
    "date_modified": "2024-03-10T14:24:45.000",
    "request_status": "Pending",
    "responsible_agency": "Department of Sanitation",
    "final_address": "331 Alix St",
    "address_councildis": "C",
    "status": "Assigned to Contractor",
    "contractor": "Richards Disposal",
    "rowid": "1074115",
    "final_x": "3686653.02626",
    "final_y": "530080.738561",
    "longitude": "-90.05184978366054",
    "latitude": "29.951380742738337",
    "geocoded_column": {
      "latitude": "29.951380742738337",
      "longitude": "-90.05184978366054"
    }
  },
  {
    "service_request": "2024-1074114",
    "request_type": "Roads/Drainage",
    "request_reason": "Pothole",
    "date_created": "2024-03-10T14:20:01.000",
    "date_modified": "2024-03-10T14:20:01.000",
    "request_status": "Pending",
    "responsible_agency": "Department of Public Works",
    "final_address": "5924 Coliseum St",
    "address_councildis": "A",
    "status": "Pending",
    "rowid": "1074114",
    "final_x": "3665169.45293",
    "final_y": "520029.276984",
    "longitude": "-90.12002072885706",
    "latitude": "29.924385602060447",
    "geocoded_column": {
      "latitude": "29.924385602060447",
      "longitude": "-90.12002072885706"
    }
  },
  {
    "service_request": "2024-1074113",
    "request_type": "Trash/Recycling",
    "request_reason": "Request a Large Item Pick Up",
    "date_created": "2024-03-10T14:13:24.000",
    "date_modified": "2024-03-10T14:13:25.000",
    "request_status": "Pending",
    "responsible_agency": "Department of Sanitation",
    "final_address": "3236 Sabine St",
    "address_councildis": "C",
    "status": "Assigned to Contractor",
    "contractor": "Richards Disposal",
    "rowid": "1074113",
    "final_x": "3695079.22742",
    "final_y": "517872.247158",
    "longitude": "-90.02568402005211",
    "latitude": "29.917549766596093",
    "geocoded_column": {
      "latitude": "29.917549766596093",
      "longitude": "-90.02568402005211"
    }
  },
  {
    "service_request": "2024-1074112",
    "request_type": "Roads/Drainage",
    "request_reason": "Street Flooding / Drainage",
    "date_created": "2024-03-10T14:12:36.000",
    "date_modified": "2024-03-10T14:12:36.000",
    "request_status": "Pending",
    "responsible_agency": "Department of Public Works",
    "final_address": "8100 BLK Hampson St",
    "address_councildis": "A",
    "status": "Pending",
    "rowid": "1074112",
    "final_x": "3660699.64576",
    "final_y": "527180.184929",
    "longitude": "-90.13389415979455",
    "latitude": "29.94417773769125",
    "geocoded_column": {
      "latitude": "29.94417773769125",
      "longitude": "-90.13389415979455"
    }
  },
  {
    "service_request": "2024-1074111",
    "request_type": "Trash/Recycling",
    "request_reason": "Order Recycling Cart",
    "date_created": "2024-03-10T14:12:21.000",
    "date_modified": "2024-03-10T14:12:21.000",
    "request_status": "Pending",
    "responsible_agency": "Department of Sanitation",
    "final_address": "2950 Elmwood Park Dr",
    "address_councildis": "C",
    "status": "Pending",
    "rowid": "1074111",
    "final_x": "3693638.93853",
    "final_y": "519614.930808",
    "longitude": "-90.03016762571504",
    "latitude": "29.922386677748854",
    "geocoded_column": {
      "latitude": "29.922386677748854",
      "longitude": "-90.03016762571504"
    }
  },
  {
    "service_request": "2024-1074110",
    "request_type": "Roads/Drainage",
    "request_reason": "Street Flooding / Drainage",
    "date_created": "2024-03-10T14:12:17.000",
    "date_modified": "2024-03-10T14:12:17.000",
    "request_status": "Pending",
    "responsible_agency": "Department of Public Works",
    "final_address": "3537 Broadway St",
    "address_councildis": "B",
    "status": "Pending",
    "rowid": "1074110",
    "final_x": "3668940.19278",
    "final_y": "533500.55578",
    "longitude": "-90.1076628961638",
    "latitude": "29.961316927176465",
    "geocoded_column": {
      "latitude": "29.961316927176465",
      "longitude": "-90.1076628961638"
    }
  },
  {
    "service_request": "2024-1074109",
    "request_type": "Trash/Recycling",
    "request_reason": "Request a Large Item Pick Up",
    "date_created": "2024-03-10T14:00:08.000",
    "date_modified": "2024-03-10T14:00:08.000",
    "request_status": "Pending",
    "responsible_agency": "Department of Sanitation",
    "final_address": "729 Elmira Ave",
    "address_councildis": "C",
    "status": "Assigned to Contractor",
    "contractor": "Richards Disposal",
    "rowid": "1074109",
    "final_x": "3688114.5231",
    "final_y": "528830.753792",
    "longitude": "-90.04727940375277",
    "latitude": "29.947898688308932",
    "geocoded_column": {
      "latitude": "29.947898688308932",
      "longitude": "-90.04727940375277"
    }
  },
  {
    "service_request": "2024-1074108",
    "request_type": "Trash/Recycling",
    "request_reason": "Request a Large Item Pick Up",
    "date_created": "2024-03-10T13:58:03.000",
    "date_modified": "2024-03-10T13:58:03.000",
    "request_status": "Pending",
    "responsible_agency": "Department of Sanitation",
    "final_address": "1507 Governor Nicholls St",
    "address_councildis": "C",
    "status": "Assigned to Contractor",
    "contractor": "Richards Disposal",
    "rowid": "1074108",
    "final_x": "3681434.80936",
    "final_y": "535781.479623",
    "longitude": "-90.06812759011838",
    "latitude": "29.967215276535388",
    "geocoded_column": {
      "latitude": "29.967215276535388",
      "longitude": "-90.06812759011838"
    }
  },
  {
    "service_request": "2024-1074107",
    "request_type": "Roads/Drainage",
    "request_reason": "Man hole cover issue",
    "date_created": "2024-03-10T13:48:21.000",
    "date_modified": "2024-03-10T13:48:21.000",
    "request_status": "Pending",
    "responsible_agency": "Department of Public Works",
    "final_address": "1300 BLK Saint Andrew St",
    "address_councildis": "B",
    "status": "Pending",
    "rowid": "1074107",
    "final_x": "3678940.69458",
    "final_y": "523263.2446",
    "longitude": "-90.0764376748678",
    "latitude": "29.932869810940254",
    "geocoded_column": {
      "latitude": "29.932869810940254",
      "longitude": "-90.0764376748678"
    }
  },
  {
    "service_request": "2024-1074106",
    "request_type": "Trash/Recycling",
    "request_reason": "Request a Large Item Pick Up",
    "date_created": "2024-03-10T13:36:16.000",
    "date_modified": "2024-03-10T13:36:17.000",
    "request_status": "Pending",
    "responsible_agency": "Department of Sanitation",
    "final_address": "910 Third St",
    "address_councildis": "B",
    "status": "Assigned to Contractor",
    "contractor": "Richards Disposal",
    "rowid": "1074106",
    "final_x": "3677889.86754",
    "final_y": "520603.837816",
    "longitude": "-90.07984690014166",
    "latitude": "29.92558896297516",
    "geocoded_column": {
      "latitude": "29.92558896297516",
      "longitude": "-90.07984690014166"
    }
  },
  {
    "service_request": "2024-1074105",
    "request_type": "Trash/Recycling",
    "request_reason": "Order Recycling Cart",
    "date_created": "2024-03-10T13:07:28.000",
    "date_modified": "2024-03-10T13:07:28.000",
    "request_status": "Pending",
    "responsible_agency": "Department of Sanitation",
    "final_address": "1612 Lauradale Dr",
    "address_councildis": "C",
    "status": "Pending",
    "rowid": "1074105",
    "final_x": "3692823.2719",
    "final_y": "525329.830717",
    "longitude": "-90.03253755086095",
    "latitude": "29.93812619582925",
    "geocoded_column": {
      "latitude": "29.93812619582925",
      "longitude": "-90.03253755086095"
    }
  },
  {
    "service_request": "2024-1074104",
    "request_type": "Trash/Recycling",
    "request_reason": "MIssed Recycling Pick-Up",
    "date_created": "2024-03-10T12:57:37.000",
    "date_modified": "2024-03-10T12:57:37.000",
    "request_status": "Pending",
    "responsible_agency": "Department of Sanitation",
    "final_address": "2100 Camp St",
    "address_councildis": "B",
    "status": "Assigned to Contractor",
    "contractor": "Richards Disposal",
    "rowid": "1074104",
    "final_x": "3678893.94773",
    "final_y": "522516.354106",
    "longitude": "-90.07661111160074",
    "latitude": "29.930817517003458",
    "geocoded_column": {
      "latitude": "29.930817517003458",
      "longitude": "-90.07661111160074"
    }
  },
  {
    "service_request": "2024-1074103",
    "request_type": "Trash/Recycling",
    "request_reason": "Repair Trash Cart",
    "date_created": "2024-03-10T12:56:45.000",
    "date_modified": "2024-03-10T12:56:46.000",
    "request_status": "Pending",
    "responsible_agency": "Department of Sanitation",
    "final_address": "2928 Cambronne St",
    "address_councildis": "A",
    "status": "Assigned to Contractor",
    "contractor": "Richards Disposal",
    "rowid": "1074103",
    "final_x": "3665401.0802",
    "final_y": "533807.525317",
    "longitude": "-90.11882856259626",
    "latitude": "29.962264611525086",
    "geocoded_column": {
      "latitude": "29.962264611525086",
      "longitude": "-90.11882856259626"
    }
  },
  {
    "service_request": "2024-1074102",
    "request_type": "Property Maintenance",
    "request_reason": "Property Maintenance",
    "date_created": "2024-03-10T12:47:41.000",
    "date_modified": "2024-03-10T12:47:41.000",
    "request_status": "Pending",
    "responsible_agency": "Department of Code Enforcement",
    "final_address": "7557 Avalon Way",
    "address_councildis": "E",
    "status": "Pending",
    "rowid": "1074102",
    "final_x": "3709214.0995",
    "final_y": "564330.452385",
    "longitude": "-89.97933576004013",
    "latitude": "30.04484135616043",
    "geocoded_column": {
      "latitude": "30.04484135616043",
      "longitude": "-89.97933576004013"
    }
  },
  {
    "service_request": "2024-1074101",
    "request_type": "Roads/Drainage",
    "request_reason": "WaterMain Break",
    "date_created": "2024-03-10T12:45:02.000",
    "date_modified": "2024-03-10T12:45:02.000",
    "request_status": "Pending",
    "responsible_agency": "Department of Public Works",
    "final_address": "1613 Feliciana St",
    "address_councildis": "D",
    "status": "Pending",
    "rowid": "1074101",
    "final_x": "3689278.89961",
    "final_y": "538093.726281",
    "longitude": "-90.04327373356442",
    "latitude": "29.973332656884512",
    "geocoded_column": {
      "latitude": "29.973332656884512",
      "longitude": "-90.04327373356442"
    }
  },
  {
    "service_request": "2024-1074100",
    "request_type": "Traffic Signals/Signs/Striping/Streetlights",
    "request_reason": "Disabled Parking Sign ",
    "date_created": "2024-03-10T12:35:57.000",
    "date_modified": "2024-03-10T12:35:57.000",
    "request_status": "Pending",
    "responsible_agency": "Department of Public Works",
    "final_address": "1669 N Dupre St",
    "address_councildis": "D",
    "status": "Pending",
    "rowid": "1074100",
    "final_x": "3678852.13442",
    "final_y": "541107.503436",
    "longitude": "-90.07609915837021",
    "latitude": "29.98193816772726",
    "geocoded_column": {
      "latitude": "29.98193816772726",
      "longitude": "-90.07609915837021"
    }
  },
  {
    "service_request": "2024-1074099",
    "request_type": "Trash/Recycling",
    "request_reason": "Order Trash Cart",
    "date_created": "2024-03-10T12:33:47.000",
    "date_modified": "2024-03-10T12:33:47.000",
    "request_status": "Pending",
    "responsible_agency": "Department of Sanitation",
    "final_address": "14818 Emory Rd",
    "address_councildis": "E",
    "status": "Assigned to Contractor",
    "contractor": "Waste Pro",
    "rowid": "1074099",
    "final_x": "3720711.5429",
    "final_y": "573834.44209",
    "longitude": "-89.94263436684508",
    "latitude": "30.070594785672178",
    "geocoded_column": {
      "latitude": "30.070594785672178",
      "longitude": "-89.94263436684508"
    }
  },
  {
    "service_request": "2024-1074098",
    "request_type": "Abandoned Vehicles",
    "request_reason": "Abandoned/Junk Vehicles",
    "date_created": "2024-03-10T12:31:33.000",
    "date_modified": "2024-03-10T12:31:33.000",
    "request_status": "Pending",
    "responsible_agency": "Department of Public Works",
    "final_address": "4526 Elba St",
    "address_councildis": "B",
    "status": "Pending",
    "rowid": "1074098",
    "final_x": "3669317.67316",
    "final_y": "530625.230722",
    "longitude": "-90.1065680863642",
    "latitude": "29.953399623459184",
    "geocoded_column": {
      "latitude": "29.953399623459184",
      "longitude": "-90.1065680863642"
    }
  },
  {
    "service_request": "2024-1074097",
    "request_type": "Abandoned Vehicles",
    "request_reason": "Abandoned/Junk Vehicles",
    "date_created": "2024-03-10T12:29:50.000",
    "date_modified": "2024-03-10T12:29:50.000",
    "request_status": "Pending",
    "responsible_agency": "Department of Public Works",
    "final_address": "4528 Elba St",
    "address_councildis": "B",
    "status": "Pending",
    "rowid": "1074097",
    "final_x": "3669272.89255",
    "final_y": "530661.622658",
    "longitude": "-90.10670825473696",
    "latitude": "29.95350100754141",
    "geocoded_column": {
      "latitude": "29.95350100754141",
      "longitude": "-90.10670825473696"
    }
  },
  {
    "service_request": "2024-1074096",
    "request_type": "Abandoned Vehicles",
    "request_reason": "Abandoned/Junk Vehicles",
    "date_created": "2024-03-10T12:27:55.000",
    "date_modified": "2024-03-10T12:27:55.000",
    "request_status": "Pending",
    "responsible_agency": "Department of Public Works",
    "final_address": "4528 Elba St",
    "address_councildis": "B",
    "status": "Pending",
    "rowid": "1074096",
    "final_x": "3669272.89255",
    "final_y": "530661.622658",
    "longitude": "-90.10670825473696",
    "latitude": "29.95350100754141",
    "geocoded_column": {
      "latitude": "29.95350100754141",
      "longitude": "-90.10670825473696"
    }
  },
  {
    "service_request": "2024-1074095",
    "request_type": "Roads/Drainage",
    "request_reason": "Pothole",
    "date_created": "2024-03-10T12:27:49.000",
    "date_modified": "2024-03-10T12:27:49.000",
    "request_status": "Pending",
    "responsible_agency": "Department of Public Works",
    "final_address": "504 Madison St",
    "address_councildis": "C",
    "status": "Pending",
    "rowid": "1074095",
    "final_x": "3683439.11951",
    "final_y": "532471.652868",
    "longitude": "-90.06191394523337",
    "latitude": "29.95805338472934",
    "geocoded_column": {
      "latitude": "29.95805338472934",
      "longitude": "-90.06191394523337"
    }
  },
  {
    "service_request": "2024-1074094",
    "request_type": "Abandoned Vehicles",
    "request_reason": "Abandoned/Junk Vehicles",
    "date_created": "2024-03-10T12:26:13.000",
    "date_modified": "2024-03-10T12:26:13.000",
    "request_status": "Pending",
    "responsible_agency": "Department of Public Works",
    "final_address": "1822 S Lopez St",
    "address_councildis": "B",
    "status": "Pending",
    "rowid": "1074094",
    "final_x": "3669778.12769",
    "final_y": "530161.311361",
    "longitude": "-90.10512986475561",
    "latitude": "29.95211043437856",
    "geocoded_column": {
      "latitude": "29.95211043437856",
      "longitude": "-90.10512986475561"
    }
  },
  {
    "service_request": "2024-1074093",
    "request_type": "Abandoned Vehicles",
    "request_reason": "Abandoned/Junk Vehicles",
    "date_created": "2024-03-10T12:24:31.000",
    "date_modified": "2024-03-10T12:24:31.000",
    "request_status": "Pending",
    "responsible_agency": "Department of Public Works",
    "final_address": "1628 S Lopez St",
    "address_councildis": "B",
    "status": "Pending",
    "rowid": "1074093",
    "final_x": "3670037.2777",
    "final_y": "530665.228162",
    "longitude": "-90.1042945211984",
    "latitude": "29.953488399490997",
    "geocoded_column": {
      "latitude": "29.953488399490997",
      "longitude": "-90.1042945211984"
    }
  },
  {
    "service_request": "2024-1074092",
    "request_type": "Abandoned Vehicles",
    "request_reason": "Abandoned/Junk Vehicles",
    "date_created": "2024-03-10T12:22:45.000",
    "date_modified": "2024-03-10T12:22:45.000",
    "request_status": "Pending",
    "responsible_agency": "Department of Public Works",
    "final_address": "1630 S Lopez St",
    "address_councildis": "B",
    "status": "Pending",
    "rowid": "1074092",
    "final_x": "3670032.85703",
    "final_y": "530639.19085",
    "longitude": "-90.10430936167344",
    "latitude": "29.953416935823984",
    "geocoded_column": {
      "latitude": "29.953416935823984",
      "longitude": "-90.10430936167344"
    }
  },
  {
    "service_request": "2024-1074091",
    "request_type": "Abandoned Vehicles",
    "request_reason": "Abandoned/Junk Vehicles",
    "date_created": "2024-03-10T12:21:08.000",
    "date_modified": "2024-03-10T12:21:08.000",
    "request_status": "Pending",
    "responsible_agency": "Department of Public Works",
    "final_address": "1630 S Lopez St",
    "address_councildis": "B",
    "status": "Pending",
    "rowid": "1074091",
    "final_x": "3670032.85703",
    "final_y": "530639.19085",
    "longitude": "-90.10430936167344",
    "latitude": "29.953416935823984",
    "geocoded_column": {
      "latitude": "29.953416935823984",
      "longitude": "-90.10430936167344"
    }
  },
  {
    "service_request": "2024-1074090",
    "request_type": "Abandoned Vehicles",
    "request_reason": "Abandoned/Junk Vehicles",
    "date_created": "2024-03-10T12:19:12.000",
    "date_modified": "2024-03-10T12:19:12.000",
    "request_status": "Pending",
    "responsible_agency": "Department of Public Works",
    "final_address": "1700 BLK S Rendon St",
    "address_councildis": "B",
    "status": "Pending",
    "rowid": "1074090",
    "final_x": "3669594.82744",
    "final_y": "530683.206138",
    "longitude": "-90.10569098751144",
    "latitude": "29.9535508748617",
    "geocoded_column": {
      "latitude": "29.9535508748617",
      "longitude": "-90.10569098751144"
    }
  },
  {
    "service_request": "2024-1074089",
    "request_type": "Trash/Recycling",
    "request_reason": "Illegal Dumping",
    "date_created": "2024-03-10T12:18:32.000",
    "date_modified": "2024-03-10T12:18:32.000",
    "request_status": "Pending",
    "responsible_agency": "Department of Sanitation",
    "final_address": "1036 Brooklyn Ave",
    "address_councildis": "C",
    "status": "Pending",
    "rowid": "1074089",
    "final_x": "3686251.76354",
    "final_y": "527557.211007",
    "longitude": "-90.05320579063476",
    "latitude": "29.944454233865702",
    "geocoded_column": {
      "latitude": "29.944454233865702",
      "longitude": "-90.05320579063476"
    }
  },
  {
    "service_request": "2024-1074088",
    "request_type": "Trash/Recycling",
    "request_reason": "Illegal Dumping",
    "date_created": "2024-03-10T12:12:53.000",
    "date_modified": "2024-03-10T12:12:53.000",
    "request_status": "Pending",
    "responsible_agency": "Department of Sanitation",
    "final_address": "1118 Brooklyn Ave",
    "address_councildis": "C",
    "status": "Pending",
    "rowid": "1074088",
    "final_x": "3686262.99222",
    "final_y": "527337.423807",
    "longitude": "-90.0531780912437",
    "latitude": "29.943849548588773",
    "geocoded_column": {
      "latitude": "29.943849548588773",
      "longitude": "-90.0531780912437"
    }
  },
  {
    "service_request": "2024-1074087",
    "request_type": "Trash/Recycling",
    "request_reason": "Repair Trash Cart",
    "date_created": "2024-03-10T11:30:37.000",
    "date_modified": "2024-03-10T11:30:37.000",
    "request_status": "Pending",
    "responsible_agency": "Department of Sanitation",
    "final_address": "919 Delachaise St",
    "address_councildis": "B",
    "status": "Assigned to Contractor",
    "contractor": "Richards Disposal",
    "rowid": "1074087",
    "final_x": "3674936.122",
    "final_y": "518960.228855",
    "longitude": "-90.08922731591022",
    "latitude": "29.921158085209523",
    "geocoded_column": {
      "latitude": "29.921158085209523",
      "longitude": "-90.08922731591022"
    }
  },
  {
    "service_request": "2024-1074086",
    "request_type": "Trash/Recycling",
    "request_reason": "Order Recycling Cart",
    "date_created": "2024-03-10T11:29:16.000",
    "date_modified": "2024-03-10T11:29:16.000",
    "request_status": "Pending",
    "responsible_agency": "Department of Sanitation",
    "final_address": "231 18Th St",
    "address_councildis": "A",
    "status": "Pending",
    "rowid": "1074086",
    "final_x": "3665432.1056",
    "final_y": "548781.061971",
    "longitude": "-90.11822916304074",
    "latitude": "30.003435890642",
    "geocoded_column": {
      "latitude": "30.003435890642",
      "longitude": "-90.11822916304074"
    }
  },
  {
    "service_request": "2024-1074085",
    "request_type": "Abandoned Vehicles",
    "request_reason": "Abandoned/Junk Vehicles",
    "date_created": "2024-03-10T11:14:47.000",
    "date_modified": "2024-03-10T11:14:47.000",
    "request_status": "Pending",
    "responsible_agency": "Department of Public Works",
    "final_address": "3417 General Taylor St",
    "address_councildis": "B",
    "status": "Pending",
    "rowid": "1074085",
    "final_x": "3671171.69857",
    "final_y": "527473.641599",
    "longitude": "-90.10082089166647",
    "latitude": "29.944679077208956",
    "geocoded_column": {
      "latitude": "29.944679077208956",
      "longitude": "-90.10082089166647"
    }
  },
  {
    "service_request": "2024-1074084",
    "request_type": "Trash/Recycling",
    "request_reason": "Illegal Dumping",
    "date_created": "2024-03-10T11:11:05.000",
    "date_modified": "2024-03-10T11:11:05.000",
    "request_status": "Pending",
    "responsible_agency": "Department of Sanitation",
    "final_address": "3417 General Taylor St",
    "address_councildis": "B",
    "status": "Pending",
    "rowid": "1074084",
    "final_x": "3671171.69857",
    "final_y": "527473.641599",
    "longitude": "-90.10082089166647",
    "latitude": "29.944679077208956",
    "geocoded_column": {
      "latitude": "29.944679077208956",
      "longitude": "-90.10082089166647"
    }
  },
  {
    "service_request": "2024-1074083",
    "request_type": "Trash/Recycling",
    "request_reason": "Illegal Dumping",
    "date_created": "2024-03-10T11:08:21.000",
    "date_modified": "2024-03-10T11:08:21.000",
    "request_status": "Pending",
    "responsible_agency": "Department of Sanitation",
    "final_address": "3417 General Taylor St",
    "address_councildis": "B",
    "status": "Pending",
    "rowid": "1074083",
    "final_x": "3671171.69857",
    "final_y": "527473.641599",
    "longitude": "-90.10082089166647",
    "latitude": "29.944679077208956",
    "geocoded_column": {
      "latitude": "29.944679077208956",
      "longitude": "-90.10082089166647"
    }
  },
  {
    "service_request": "2024-1074082",
    "request_type": "Trash/Recycling",
    "request_reason": "Replace Recycling Cart",
    "date_created": "2024-03-10T11:05:52.000",
    "date_modified": "2024-03-10T11:05:52.000",
    "request_status": "Pending",
    "responsible_agency": "Department of Sanitation",
    "final_address": "5629 Cherlyn Dr",
    "address_councildis": "A",
    "status": "Pending",
    "rowid": "1074082",
    "final_x": "3665292.216",
    "final_y": "545110.797519",
    "longitude": "-90.11879399951519",
    "latitude": "29.993348000541342",
    "geocoded_column": {
      "latitude": "29.993348000541342",
      "longitude": "-90.11879399951519"
    }
  },
  {
    "service_request": "2024-1074081",
    "request_type": "Trash/Recycling",
    "request_reason": "Repair Trash Cart",
    "date_created": "2024-03-10T10:40:39.000",
    "date_modified": "2024-03-10T10:40:39.000",
    "request_status": "Pending",
    "responsible_agency": "Department of Sanitation",
    "final_address": "2657 Iberville St",
    "address_councildis": "B",
    "status": "Assigned to Contractor",
    "contractor": "Richards Disposal",
    "rowid": "1074081",
    "final_x": "3675755.99182",
    "final_y": "535435.268166",
    "longitude": "-90.0860732769049",
    "latitude": "29.96643450480175",
    "geocoded_column": {
      "latitude": "29.96643450480175",
      "longitude": "-90.0860732769049"
    }
  },
  {
    "service_request": "2024-1074080",
    "request_type": "Trash/Recycling",
    "request_reason": "MIssed Recycling Pick-Up",
    "date_created": "2024-03-10T10:34:29.000",
    "date_modified": "2024-03-10T10:34:29.000",
    "request_status": "Pending",
    "responsible_agency": "Department of Sanitation",
    "final_address": "8702 Forshey St",
    "address_councildis": "A",
    "status": "Assigned to Contractor",
    "contractor": "Richards Disposal",
    "rowid": "1074080",
    "final_x": "3665379.40116",
    "final_y": "535354.571718",
    "longitude": "-90.11884524175848",
    "latitude": "29.966519111482736",
    "geocoded_column": {
      "latitude": "29.966519111482736",
      "longitude": "-90.11884524175848"
    }
  },
  {
    "service_request": "2024-1074079",
    "request_type": "Roads/Drainage",
    "request_reason": "Catch Basin - Clogged",
    "date_created": "2024-03-10T10:25:24.000",
    "date_modified": "2024-03-10T10:25:24.000",
    "request_status": "Pending",
    "responsible_agency": "Department of Public Works",
    "final_address": "6901 Canal Blvd",
    "address_councildis": "A",
    "status": "Pending",
    "rowid": "1074079",
    "final_x": "3669194.9723",
    "final_y": "553375.406551",
    "longitude": "-90.10618619719612",
    "latitude": "30.015958469450137",
    "geocoded_column": {
      "latitude": "30.015958469450137",
      "longitude": "-90.10618619719612"
    }
  },
  {
    "service_request": "2024-1074078",
    "request_type": "Trash/Recycling",
    "request_reason": "Replace Recycling Cart",
    "date_created": "2024-03-10T10:14:38.000",
    "date_modified": "2024-03-10T10:14:38.000",
    "request_status": "Pending",
    "responsible_agency": "Department of Sanitation",
    "final_address": "2425 Bienville Ave",
    "address_councildis": "B",
    "status": "Pending",
    "rowid": "1074078",
    "final_x": "3676810.37096",
    "final_y": "535163.80871",
    "longitude": "-90.0827529161436",
    "latitude": "29.96565648333568",
    "geocoded_column": {
      "latitude": "29.96565648333568",
      "longitude": "-90.0827529161436"
    }
  },
  {
    "service_request": "2024-1074077",
    "request_type": "Trash/Recycling",
    "request_reason": "Request a Large Item Pick Up",
    "date_created": "2024-03-10T10:11:04.000",
    "date_modified": "2024-03-10T10:11:05.000",
    "request_status": "Pending",
    "responsible_agency": "Department of Sanitation",
    "final_address": "2775 Orchid St",
    "address_councildis": "A",
    "status": "Assigned to Contractor",
    "contractor": "Richards Disposal",
    "rowid": "1074077",
    "final_x": "3677316.17851",
    "final_y": "538794.978569",
    "longitude": "-90.08103026921484",
    "latitude": "29.975625771414908",
    "geocoded_column": {
      "latitude": "29.975625771414908",
      "longitude": "-90.08103026921484"
    }
  },
  {
    "service_request": "2024-1074076",
    "request_type": "Trash/Recycling",
    "request_reason": "Replace Trash Cart",
    "date_created": "2024-03-10T09:56:14.000",
    "date_modified": "2024-03-10T09:56:15.000",
    "request_status": "Pending",
    "responsible_agency": "Department of Sanitation",
    "final_address": "2775 Orchid St",
    "address_councildis": "A",
    "status": "Assigned to Contractor",
    "contractor": "Richards Disposal",
    "rowid": "1074076",
    "final_x": "3677316.17851",
    "final_y": "538794.978569",
    "longitude": "-90.08103026921484",
    "latitude": "29.975625771414908",
    "geocoded_column": {
      "latitude": "29.975625771414908",
      "longitude": "-90.08103026921484"
    }
  },
  {
    "service_request": "2024-1074075",
    "request_type": "Roads/Drainage",
    "request_reason": "Catch Basin - Broken/Damage",
    "date_created": "2024-03-10T09:42:29.000",
    "date_modified": "2024-03-10T09:42:29.000",
    "request_status": "Pending",
    "responsible_agency": "Department of Public Works",
    "final_address": "20433 Old Spanish Trl",
    "address_councildis": "E",
    "status": "Pending",
    "rowid": "1074075",
    "final_x": "3761345.59325",
    "final_y": "572457.776873",
    "longitude": "-89.81423971055217",
    "latitude": "30.065390940139423",
    "geocoded_column": {
      "latitude": "30.065390940139423",
      "longitude": "-89.81423971055217"
    }
  },
  {
    "service_request": "2024-1074074",
    "request_type": "Traffic Signals/Signs/Striping/Streetlights",
    "request_reason": "Street Light Outage/Malfunction",
    "date_created": "2024-03-10T09:32:03.000",
    "date_modified": "2024-03-10T09:32:04.000",
    "request_status": "Pending",
    "responsible_agency": "Department of Public Works",
    "final_address": "4361 San Remo St",
    "address_councildis": "E",
    "status": "Assigned to Contractor",
    "contractor": "Legacy Professional Services",
    "rowid": "1074074",
    "final_x": "3760541.27292",
    "final_y": "573692.37425",
    "longitude": "-89.81673054053617",
    "latitude": "30.068814810124877",
    "geocoded_column": {
      "latitude": "30.068814810124877",
      "longitude": "-89.81673054053617"
    }
  },
  {
    "service_request": "2024-1074073",
    "request_type": "Abandoned Vehicles",
    "request_reason": "Abandoned/Junk Vehicles",
    "date_created": "2024-03-10T08:58:32.000",
    "date_modified": "2024-03-10T08:58:32.000",
    "request_status": "Pending",
    "responsible_agency": "Department of Public Works",
    "final_address": "2600 BLK Short St",
    "address_councildis": "A",
    "status": "Pending",
    "rowid": "1074073",
    "final_x": "3665814.88028",
    "final_y": "531934.082245",
    "longitude": "-90.11758460720446",
    "latitude": "29.957101190803783",
    "geocoded_column": {
      "latitude": "29.957101190803783",
      "longitude": "-90.11758460720446"
    }
  },
  {
    "service_request": "2024-1074072",
    "request_type": "Roads/Drainage",
    "request_reason": "Catch Basin - Broken/Damage",
    "date_created": "2024-03-10T08:49:41.000",
    "date_modified": "2024-03-10T08:49:41.000",
    "request_status": "Pending",
    "responsible_agency": "Department of Public Works",
    "final_address": "625 Chartres St",
    "address_councildis": "C",
    "status": "Pending",
    "rowid": "1074072",
    "final_x": "3682707.17519",
    "final_y": "532127.715779",
    "longitude": "-90.06423724742083",
    "latitude": "29.95712998638815",
    "geocoded_column": {
      "latitude": "29.95712998638815",
      "longitude": "-90.06423724742083"
    }
  },
  {
    "service_request": "2024-1074071",
    "request_type": "Roads/Drainage",
    "request_reason": "Man hole cover issue",
    "date_created": "2024-03-10T08:30:40.000",
    "date_modified": "2024-03-10T08:30:40.000",
    "request_status": "Pending",
    "responsible_agency": "Department of Public Works",
    "final_address": "600 BLK Webster St",
    "address_councildis": "A",
    "status": "Pending",
    "rowid": "1074071",
    "final_x": "3663943.93651",
    "final_y": "518947.437943",
    "longitude": "-90.12392532447788",
    "latitude": "29.921446508123612",
    "geocoded_column": {
      "latitude": "29.921446508123612",
      "longitude": "-90.12392532447788"
    }
  },
  {
    "service_request": "2024-1074070",
    "request_type": "Trash/Recycling",
    "request_reason": "MIssed Recycling Pick-Up",
    "date_created": "2024-03-10T08:12:53.000",
    "date_modified": "2024-03-10T08:12:54.000",
    "request_status": "Pending",
    "responsible_agency": "Department of Sanitation",
    "final_address": "8614 Palm St",
    "address_councildis": "A",
    "status": "Assigned to Contractor",
    "contractor": "Richards Disposal",
    "rowid": "1074070",
    "final_x": "3666264.80833",
    "final_y": "535965.639495",
    "longitude": "-90.116028624094",
    "latitude": "29.968173511534115",
    "geocoded_column": {
      "latitude": "29.968173511534115",
      "longitude": "-90.116028624094"
    }
  },
  {
    "service_request": "2024-1073606",
    "request_type": "Abandoned Vehicles",
    "request_reason": "Abandoned/Junk Vehicles",
    "date_created": "2024-03-07T23:27:38.000",
    "date_modified": "2024-03-07T23:27:38.000",
    "request_status": "Pending",
    "responsible_agency": "Department of Public Works",
    "final_address": "6100 BLK Canal Blvd",
    "address_councildis": "A",
    "status": "Pending",
    "rowid": "1073606",
    "final_x": "3668503.54321",
    "final_y": "548268.738552",
    "longitude": "-90.10854327706421",
    "latitude": "30.00193726288108",
    "geocoded_column": {
      "latitude": "30.00193726288108",
      "longitude": "-90.10854327706421"
    }
  },
  {
    "service_request": "2024-1073605",
    "request_type": "Roads/Drainage",
    "request_reason": "Catch Basin - Broken/Damage",
    "date_created": "2024-03-07T23:22:32.000",
    "date_modified": "2024-03-07T23:22:32.000",
    "request_status": "Pending",
    "responsible_agency": "Department of Public Works",
    "final_address": "3918 General Ogden St",
    "address_councildis": "A",
    "status": "Pending",
    "rowid": "1073605",
    "final_x": "3666417.237",
    "final_y": "537522.17012",
    "longitude": "-90.11549500165043",
    "latitude": "29.972448999706113",
    "geocoded_column": {
      "latitude": "29.972448999706113",
      "longitude": "-90.11549500165043"
    }
  },
  {
    "service_request": "2024-1073604",
    "request_type": "Roads/Drainage",
    "request_reason": "Catch Basin - Broken/Damage",
    "date_created": "2024-03-07T23:13:01.000",
    "date_modified": "2024-03-07T23:13:01.000",
    "request_status": "Pending",
    "responsible_agency": "Department of Public Works",
    "final_address": "3902 General Ogden St",
    "address_councildis": "A",
    "status": "Pending",
    "rowid": "1073604",
    "final_x": "3666341.85914",
    "final_y": "537438.117256",
    "longitude": "-90.11573587992088",
    "latitude": "29.9722200849886",
    "geocoded_column": {
      "latitude": "29.9722200849886",
      "longitude": "-90.11573587992088"
    }
  },
  {
    "service_request": "2024-1073603",
    "request_type": "Trash/Recycling",
    "request_reason": "Replace Trash Cart",
    "date_created": "2024-03-07T23:04:31.000",
    "date_modified": "2024-03-07T23:04:31.000",
    "request_status": "Pending",
    "responsible_agency": "Department of Sanitation",
    "final_address": "3125 Industrial Ct",
    "address_councildis": "D",
    "status": "Assigned to Contractor",
    "contractor": "IV Waste",
    "rowid": "1073603",
    "final_x": "3689844.84432",
    "final_y": "538401.051593",
    "longitude": "-90.04147542752897",
    "latitude": "29.974160160649006",
    "geocoded_column": {
      "latitude": "29.974160160649006",
      "longitude": "-90.04147542752897"
    }
  },
  {
    "service_request": "2024-1073602",
    "request_type": "Roads/Drainage",
    "request_reason": "Pothole",
    "date_created": "2024-03-07T22:50:49.000",
    "date_modified": "2024-03-07T22:50:49.000",
    "request_status": "Pending",
    "responsible_agency": "Department of Public Works",
    "final_address": "1445 Nashville Ave",
    "address_councildis": "A",
    "status": "Pending",
    "rowid": "1073602",
    "final_x": "3666126.15405",
    "final_y": "521365.292345",
    "longitude": "-90.11695597131158",
    "latitude": "29.928031332760977",
    "geocoded_column": {
      "latitude": "29.928031332760977",
      "longitude": "-90.11695597131158"
    }
  },
  {
    "service_request": "2024-1073601",
    "request_type": "Abandoned Vehicles",
    "request_reason": "Abandoned/Junk Vehicles",
    "date_created": "2024-03-07T22:44:57.000",
    "date_modified": "2024-03-07T22:44:57.000",
    "request_status": "Pending",
    "responsible_agency": "Department of Public Works",
    "final_address": "1725 Baronne St",
    "address_councildis": "B",
    "status": "Pending",
    "rowid": "1073601",
    "final_x": "3677966.42862",
    "final_y": "525364.733821",
    "longitude": "-90.07944076126076",
    "latitude": "29.938677564999605",
    "geocoded_column": {
      "latitude": "29.938677564999605",
      "longitude": "-90.07944076126076"
    }
  },
  {
    "service_request": "2024-1073600",
    "request_type": "Trash/Recycling",
    "request_reason": "Missed Trash Pick-Up",
    "date_created": "2024-03-07T22:39:09.000",
    "date_modified": "2024-03-07T22:39:10.000",
    "request_status": "Pending",
    "responsible_agency": "Department of Sanitation",
    "final_address": "425 Celeste St",
    "address_councildis": "B",
    "status": "Assigned to Contractor",
    "contractor": "Richards Disposal",
    "rowid": "1073600",
    "final_x": "3682253.27951",
    "final_y": "521476.733881",
    "longitude": "-90.06604248169063",
    "latitude": "29.927857167766927",
    "geocoded_column": {
      "latitude": "29.927857167766927",
      "longitude": "-90.06604248169063"
    }
  },
  {
    "service_request": "2024-1073599",
    "request_type": "Trash/Recycling",
    "request_reason": "Illegal Dumping",
    "date_created": "2024-03-07T22:34:48.000",
    "date_modified": "2024-03-07T22:34:48.000",
    "request_status": "Pending",
    "responsible_agency": "Department of Sanitation",
    "final_address": "4202 S Derbigny St",
    "address_councildis": "B",
    "status": "Pending",
    "rowid": "1073599",
    "final_x": "3671006.52052",
    "final_y": "526280.367678",
    "longitude": "-90.10138291576014",
    "latitude": "29.941402846952975",
    "geocoded_column": {
      "latitude": "29.941402846952975",
      "longitude": "-90.10138291576014"
    }
  },
  {
    "service_request": "2024-1073598",
    "request_type": "Abandoned Vehicles",
    "request_reason": "Abandoned/Junk Vehicles",
    "date_created": "2024-03-07T22:28:57.000",
    "date_modified": "2024-03-07T22:28:57.000",
    "request_status": "Pending",
    "responsible_agency": "Department of Public Works",
    "final_address": "1865 Humanity St",
    "address_councildis": "D",
    "status": "Pending",
    "rowid": "1073598",
    "final_x": "3681910.12866",
    "final_y": "544658.236047",
    "longitude": "-90.06631655340708",
    "latitude": "29.99160882033668",
    "geocoded_column": {
      "latitude": "29.99160882033668",
      "longitude": "-90.06631655340708"
    }
  },
  {
    "service_request": "2024-1073597",
    "request_type": "Trash/Recycling",
    "request_reason": "Illegal Dumping",
    "date_created": "2024-03-07T22:27:18.000",
    "date_modified": "2024-03-07T22:27:18.000",
    "request_status": "Pending",
    "responsible_agency": "Department of Sanitation",
    "final_address": "1865 Humanity St",
    "address_councildis": "D",
    "status": "Pending",
    "rowid": "1073597",
    "final_x": "3681910.12866",
    "final_y": "544658.236047",
    "longitude": "-90.06631655340708",
    "latitude": "29.99160882033668",
    "geocoded_column": {
      "latitude": "29.99160882033668",
      "longitude": "-90.06631655340708"
    }
  },
  {
    "service_request": "2024-1073596",
    "request_type": "Roads/Drainage",
    "request_reason": "Service Cut",
    "date_created": "2024-03-07T22:14:13.000",
    "date_modified": "2024-03-07T22:14:13.000",
    "request_status": "Pending",
    "responsible_agency": "Department of Public Works",
    "final_address": "4434 Werner Dr",
    "address_councildis": "E",
    "status": "Pending",
    "rowid": "1073596",
    "final_x": "3704859.88004",
    "final_y": "553549.068439",
    "longitude": "-89.99349545871338",
    "latitude": "30.01533751238025",
    "geocoded_column": {
      "latitude": "30.01533751238025",
      "longitude": "-89.99349545871338"
    }
  },
  {
    "service_request": "2024-1073595",
    "request_type": "Roads/Drainage",
    "request_reason": "Pothole",
    "date_created": "2024-03-07T22:12:24.000",
    "date_modified": "2024-03-07T22:12:24.000",
    "request_status": "Pending",
    "responsible_agency": "Department of Public Works",
    "final_address": "5823 Perrier St",
    "address_councildis": "A",
    "status": "Pending",
    "rowid": "1073595",
    "final_x": "3665601.07367",
    "final_y": "520421.208184",
    "longitude": "-90.11864512991228",
    "latitude": "29.92545071542357",
    "geocoded_column": {
      "latitude": "29.92545071542357",
      "longitude": "-90.11864512991228"
    }
  },
  {
    "service_request": "2024-1073594",
    "request_type": "Roads/Drainage",
    "request_reason": "Pothole",
    "date_created": "2024-03-07T22:05:03.000",
    "date_modified": "2024-03-07T22:05:03.000",
    "request_status": "Pending",
    "responsible_agency": "Department of Public Works",
    "final_address": "5935 Coliseum St",
    "address_councildis": "A",
    "status": "Pending",
    "rowid": "1073594",
    "final_x": "3665220.92672",
    "final_y": "520215.433528",
    "longitude": "-90.11985201992287",
    "latitude": "29.924895975237057",
    "geocoded_column": {
      "latitude": "29.924895975237057",
      "longitude": "-90.11985201992287"
    }
  },
  {
    "service_request": "2024-1073593",
    "request_type": "Abandoned Vehicles",
    "request_reason": "Abandoned/Junk Vehicles",
    "date_created": "2024-03-07T21:56:18.000",
    "date_modified": "2024-03-07T21:56:18.000",
    "request_status": "Pending",
    "responsible_agency": "Department of Public Works",
    "final_address": "2534 Sage St",
    "address_councildis": "D",
    "status": "Pending",
    "rowid": "1073593",
    "final_x": "3687017.99311",
    "final_y": "545438.744016",
    "longitude": "-90.05015434707472",
    "latitude": "29.993598647510954",
    "geocoded_column": {
      "latitude": "29.993598647510954",
      "longitude": "-90.05015434707472"
    }
  },
  {
    "service_request": "2024-1073592",
    "request_type": "Roads/Drainage",
    "request_reason": "Street Flooding / Drainage",
    "date_created": "2024-03-07T21:49:55.000",
    "date_modified": "2024-03-07T21:49:55.000",
    "request_status": "Pending",
    "responsible_agency": "Department of Public Works",
    "final_address": "4820 Calliope St",
    "address_councildis": "B",
    "status": "Pending",
    "rowid": "1073592",
    "final_x": "3669491.24097",
    "final_y": "533124.040388",
    "longitude": "-90.10593551383013",
    "latitude": "29.960265415454813",
    "geocoded_column": {
      "latitude": "29.960265415454813",
      "longitude": "-90.10593551383013"
    }
  },
  {
    "service_request": "2024-1073591",
    "request_type": "Mosquito, Termite & Rodent Control",
    "request_reason": "Non-Rodent Complaint (Mice, Possums, Snakes)",
    "date_created": "2024-03-07T21:27:32.000",
    "date_modified": "2024-03-07T21:27:32.000",
    "request_status": "Pending",
    "responsible_agency": "Mosquito, Termite & Rodent Control Board",
    "final_address": "700 Webster St",
    "address_councildis": "A",
    "status": "Pending",
    "rowid": "1073591",
    "final_x": "3663975.43123",
    "final_y": "519165.772599",
    "longitude": "-90.1238186341016",
    "latitude": "29.92204594615883",
    "geocoded_column": {
      "latitude": "29.92204594615883",
      "longitude": "-90.1238186341016"
    }
  },
  {
    "service_request": "2024-1073590",
    "request_type": "Roads/Drainage",
    "request_reason": "WaterMain Break",
    "date_created": "2024-03-07T21:22:01.000",
    "date_modified": "2024-03-07T21:22:01.000",
    "request_status": "Pending",
    "responsible_agency": "Department of Public Works",
    "final_address": "6331 Paris Ave",
    "address_councildis": "D",
    "status": "Pending",
    "rowid": "1073590",
    "final_x": "3678486.0532",
    "final_y": "556864.184026",
    "longitude": "-90.07670963014978",
    "latitude": "30.02527446868966",
    "geocoded_column": {
      "latitude": "30.02527446868966",
      "longitude": "-90.07670963014978"
    }
  },
  {
    "service_request": "2024-1073589",
    "request_type": "Trash/Recycling",
    "request_reason": "Request a Large Item Pick Up",
    "date_created": "2024-03-07T21:00:32.000",
    "date_modified": "2024-03-07T21:00:33.000",
    "request_status": "Pending",
    "responsible_agency": "Department of Sanitation",
    "final_address": "2646 Allen Toussaint Blvd",
    "address_councildis": "D",
    "status": "Assigned to Contractor",
    "contractor": "IV Waste",
    "rowid": "1073589",
    "final_x": "3686839.07932",
    "final_y": "555926.612249",
    "longitude": "-90.05034855913685",
    "latitude": "30.022441966007037",
    "geocoded_column": {
      "latitude": "30.022441966007037",
      "longitude": "-90.05034855913685"
    }
  },
  {
    "service_request": "2024-1073588",
    "request_type": "Traffic Signals/Signs/Striping/Streetlights",
    "request_reason": "Street Light Outage/Malfunction",
    "date_created": "2024-03-07T20:57:13.000",
    "date_modified": "2024-03-07T20:57:13.000",
    "request_status": "Pending",
    "responsible_agency": "Department of Public Works",
    "final_address": "1931 Second St",
    "address_councildis": "B",
    "status": "Assigned to Contractor",
    "contractor": "Legacy Professional Services",
    "rowid": "1073588",
    "final_x": "3675986.89109",
    "final_y": "524178.657212",
    "longitude": "-90.08573115208942",
    "latitude": "29.935475657974237",
    "geocoded_column": {
      "latitude": "29.935475657974237",
      "longitude": "-90.08573115208942"
    }
  },
  {
    "service_request": "2024-1073587",
    "request_type": "Traffic Signals/Signs/Striping/Streetlights",
    "request_reason": "Street Light Outage/Malfunction",
    "date_created": "2024-03-07T20:56:32.000",
    "date_modified": "2024-03-07T20:56:33.000",
    "request_status": "Pending",
    "responsible_agency": "Department of Public Works",
    "final_address": "1931 Second St",
    "address_councildis": "B",
    "status": "Assigned to Contractor",
    "contractor": "Legacy Professional Services",
    "rowid": "1073587",
    "final_x": "3675986.89109",
    "final_y": "524178.657212",
    "longitude": "-90.08573115208942",
    "latitude": "29.935475657974237",
    "geocoded_column": {
      "latitude": "29.935475657974237",
      "longitude": "-90.08573115208942"
    }
  },
  {
    "service_request": "2024-1073586",
    "request_type": "Traffic Signals/Signs/Striping/Streetlights",
    "request_reason": "Street Light Outage/Malfunction",
    "date_created": "2024-03-07T20:53:08.000",
    "date_modified": "2024-03-07T20:53:08.000",
    "request_status": "Pending",
    "responsible_agency": "Department of Public Works",
    "final_address": "1931 Second St",
    "address_councildis": "B",
    "status": "Assigned to Contractor",
    "contractor": "Legacy Professional Services",
    "rowid": "1073586",
    "final_x": "3675986.89109",
    "final_y": "524178.657212",
    "longitude": "-90.08573115208942",
    "latitude": "29.935475657974237",
    "geocoded_column": {
      "latitude": "29.935475657974237",
      "longitude": "-90.08573115208942"
    }
  },
  {
    "service_request": "2024-1073585",
    "request_type": "Trash/Recycling",
    "request_reason": "Replace Trash Cart",
    "date_created": "2024-03-07T20:47:33.000",
    "date_modified": "2024-03-07T20:47:33.000",
    "request_status": "Pending",
    "responsible_agency": "Department of Sanitation",
    "final_address": "1537 St Maurice Ave",
    "address_councildis": "E",
    "status": "Assigned to Contractor",
    "contractor": "Waste Pro",
    "rowid": "1073585",
    "final_x": "3700550.93905",
    "final_y": "534820.609926",
    "longitude": "-90.0077941472545",
    "latitude": "29.96397899998691",
    "geocoded_column": {
      "latitude": "29.96397899998691",
      "longitude": "-90.0077941472545"
    }
  },
  {
    "service_request": "2024-1073584",
    "request_type": "Trash/Recycling",
    "request_reason": "Replace Trash Cart",
    "date_created": "2024-03-07T20:06:13.000",
    "date_modified": "2024-03-07T20:06:13.000",
    "request_status": "Pending",
    "responsible_agency": "Department of Sanitation",
    "final_address": "6980 Argonne Blvd, New Orleans, Louisiana, 70124",
    "address_councildis": "A",
    "status": "Assigned to Contractor",
    "contractor": "IV Waste",
    "rowid": "1073584",
    "final_x": "3670691.05979",
    "final_y": "553794.359575",
    "longitude": "-90.10144498454888",
    "latitude": "30.0170663006104",
    "geocoded_column": {
      "latitude": "30.0170663006104",
      "longitude": "-90.10144498454888"
    }
  },
  {
    "service_request": "2024-1073583",
    "request_type": "Traffic Signals/Signs/Striping/Streetlights",
    "request_reason": "Street Light Outage/Malfunction",
    "date_created": "2024-03-07T19:50:00.000",
    "date_modified": "2024-03-07T19:50:01.000",
    "request_status": "Pending",
    "responsible_agency": "Department of Public Works",
    "final_address": "5981 Winchester Park Dr",
    "address_councildis": "E",
    "status": "Assigned to Contractor",
    "contractor": "Legacy Professional Services",
    "rowid": "1073583",
    "final_x": "3714463.97912",
    "final_y": "563314.39792",
    "longitude": "-89.96278227038351",
    "latitude": "30.041875997598392",
    "geocoded_column": {
      "latitude": "30.041875997598392",
      "longitude": "-89.96278227038351"
    }
  },
  {
    "service_request": "2024-1073582",
    "request_type": "Trash/Recycling",
    "request_reason": "Order Recycling Cart",
    "date_created": "2024-03-07T19:34:13.000",
    "date_modified": "2024-03-07T19:34:13.000",
    "request_status": "Pending",
    "responsible_agency": "Department of Sanitation",
    "final_address": "NOTTINGHAM DR & PRENTISS AVE",
    "address_councildis": "E",
    "status": "Pending",
    "rowid": "1073582",
    "final_x": "3716417.4",
    "final_y": "556692.58",
    "longitude": "-89.95686019538506",
    "latitude": "30.02360426887037",
    "geocoded_column": {
      "latitude": "30.02360426887037",
      "longitude": "-89.95686019538506"
    }
  },
  {
    "service_request": "2024-1073581",
    "request_type": "Traffic Signals/Signs/Striping/Streetlights",
    "request_reason": "Street Name Sign Damaged or Missing",
    "date_created": "2024-03-07T19:31:36.000",
    "date_modified": "2024-03-07T19:31:36.000",
    "request_status": "Pending",
    "responsible_agency": "Department of Public Works",
    "final_address": "NOTTINGHAM DR & PRENTISS AVE",
    "address_councildis": "E",
    "status": "Pending",
    "rowid": "1073581",
    "final_x": "3716417.4",
    "final_y": "556692.58",
    "longitude": "-89.95686019538506",
    "latitude": "30.02360426887037",
    "geocoded_column": {
      "latitude": "30.02360426887037",
      "longitude": "-89.95686019538506"
    }
  },
  {
    "service_request": "2024-1073580",
    "request_type": "Mosquito, Termite & Rodent Control",
    "request_reason": "Mosquito Complaint",
    "date_created": "2024-03-07T19:28:26.000",
    "date_modified": "2024-03-07T19:28:26.000",
    "request_status": "Pending",
    "responsible_agency": "Mosquito, Termite & Rodent Control Board",
    "final_address": "NOTTINGHAM DR & PRENTISS AVE",
    "address_councildis": "E",
    "status": "Pending",
    "rowid": "1073580",
    "final_x": "3716417.4",
    "final_y": "556692.58",
    "longitude": "-89.95686019538506",
    "latitude": "30.02360426887037",
    "geocoded_column": {
      "latitude": "30.02360426887037",
      "longitude": "-89.95686019538506"
    }
  },
  {
    "service_request": "2024-1073579",
    "request_type": "Graffiti Removal",
    "request_reason": "Graffiti Removal",
    "date_created": "2024-03-07T19:26:47.000",
    "date_modified": "2024-03-07T19:26:47.000",
    "request_status": "Pending",
    "responsible_agency": "Department of Code Enforcement",
    "final_address": "202 Clinton St",
    "address_councildis": "C",
    "status": "Pending",
    "rowid": "1073579",
    "final_x": "3682220.6061",
    "final_y": "530493.699522",
    "longitude": "-90.06583075677841",
    "latitude": "29.952651805542068",
    "geocoded_column": {
      "latitude": "29.952651805542068",
      "longitude": "-90.06583075677841"
    }
  },
  {
    "service_request": "2024-1073578",
    "request_type": "Roads/Drainage",
    "request_reason": "Catch Basin - Clogged",
    "date_created": "2024-03-07T19:25:58.000",
    "date_modified": "2024-03-07T19:25:58.000",
    "request_status": "Pending",
    "responsible_agency": "Department of Public Works",
    "final_address": "NOTTINGHAM DR & PRENTISS AVE",
    "address_councildis": "E",
    "status": "Pending",
    "rowid": "1073578",
    "final_x": "3716417.4",
    "final_y": "556692.58",
    "longitude": "-89.95686019538506",
    "latitude": "30.02360426887037",
    "geocoded_column": {
      "latitude": "30.02360426887037",
      "longitude": "-89.95686019538506"
    }
  },
  {
    "service_request": "2024-1073576",
    "request_type": "Trash/Recycling",
    "request_reason": "Order Recycling Cart",
    "date_created": "2024-03-07T19:19:59.000",
    "date_modified": "2024-03-07T19:19:59.000",
    "request_status": "Pending",
    "responsible_agency": "Department of Sanitation",
    "final_address": "615 N Alexander St",
    "address_councildis": "A",
    "status": "Pending",
    "rowid": "1073576",
    "final_x": "3671126.66254",
    "final_y": "540741.131083",
    "longitude": "-90.10051239151386",
    "latitude": "29.981161581473717",
    "geocoded_column": {
      "latitude": "29.981161581473717",
      "longitude": "-90.10051239151386"
    }
  },
  {
    "service_request": "2024-1073575",
    "request_type": "Traffic Signals/Signs/Striping/Streetlights",
    "request_reason": "Street Light Outage/Malfunction",
    "date_created": "2024-03-07T19:19:12.000",
    "date_modified": "2024-03-07T19:19:13.000",
    "request_status": "Pending",
    "responsible_agency": "Department of Public Works",
    "final_address": "4901 Perrault Walk",
    "address_councildis": "E",
    "status": "Assigned to Contractor",
    "contractor": "Legacy Professional Services",
    "rowid": "1073575",
    "final_x": "3709782.54693",
    "final_y": "556601.03497",
    "longitude": "-89.97782820068133",
    "latitude": "30.02357004045313",
    "geocoded_column": {
      "latitude": "30.02357004045313",
      "longitude": "-89.97782820068133"
    }
  },
  {
    "service_request": "2024-1073574",
    "request_type": "Trash/Recycling",
    "request_reason": "Request a Large Item Pick Up",
    "date_created": "2024-03-07T19:07:37.000",
    "date_modified": "2024-03-07T19:07:38.000",
    "request_status": "Pending",
    "responsible_agency": "Department of Sanitation",
    "final_address": "1415 Constantinople St",
    "address_councildis": "B",
    "status": "Assigned to Contractor",
    "contractor": "Richards Disposal",
    "rowid": "1073574",
    "final_x": "3672389.11003",
    "final_y": "520600.754296",
    "longitude": "-90.09721124839871",
    "latitude": "29.925744800635343",
    "geocoded_column": {
      "latitude": "29.925744800635343",
      "longitude": "-90.09721124839871"
    }
  },
  {
    "service_request": "2024-1073573",
    "request_type": "Abandoned Vehicles",
    "request_reason": "Abandoned/Junk Vehicles",
    "date_created": "2024-03-07T18:58:58.000",
    "date_modified": "2024-03-07T18:58:58.000",
    "request_status": "Pending",
    "responsible_agency": "Department of Public Works",
    "final_address": "1433 N Villere St",
    "address_councildis": "C",
    "status": "Pending",
    "rowid": "1073573",
    "final_x": "3681960.37615",
    "final_y": "536403.697095",
    "longitude": "-90.06644612044406",
    "latitude": "29.96891019314207",
    "geocoded_column": {
      "latitude": "29.96891019314207",
      "longitude": "-90.06644612044406"
    }
  },
  {
    "service_request": "2024-1073572",
    "request_type": "Trash/Recycling",
    "request_reason": "Request a Large Item Pick Up",
    "date_created": "2024-03-07T18:57:58.000",
    "date_modified": "2024-03-07T18:57:59.000",
    "request_status": "Pending",
    "responsible_agency": "Department of Sanitation",
    "final_address": "29 W Park Pl",
    "address_councildis": "A",
    "status": "Assigned to Contractor",
    "contractor": "IV Waste",
    "rowid": "1073572",
    "final_x": "3670104.9721",
    "final_y": "544096.551246",
    "longitude": "-90.10362562432668",
    "latitude": "29.990418026372414",
    "geocoded_column": {
      "latitude": "29.990418026372414",
      "longitude": "-90.10362562432668"
    }
  },
  {
    "service_request": "2024-1073571",
    "request_type": "Roads/Drainage",
    "request_reason": "Street Flooding / Drainage",
    "date_created": "2024-03-07T18:45:31.000",
    "date_modified": "2024-03-07T18:45:31.000",
    "request_status": "Pending",
    "responsible_agency": "Department of Public Works",
    "final_address": "431 Atlantic Ave",
    "address_councildis": "C",
    "status": "Pending",
    "rowid": "1073571",
    "final_x": "3688760.06684",
    "final_y": "530035.319937",
    "longitude": "-90.04519841422469",
    "latitude": "29.95119089399211",
    "geocoded_column": {
      "latitude": "29.95119089399211",
      "longitude": "-90.04519841422469"
    }
  },
  {
    "service_request": "2024-1073570",
    "request_type": "Trash/Recycling",
    "request_reason": "Missed Trash Pick-Up",
    "date_created": "2024-03-07T18:44:18.000",
    "date_modified": "2024-03-07T18:44:19.000",
    "request_status": "Pending",
    "responsible_agency": "Department of Sanitation",
    "final_address": "5773 Wickfield Dr",
    "address_councildis": "D",
    "status": "Assigned to Contractor",
    "contractor": "IV Waste",
    "rowid": "1073570",
    "final_x": "3681073.13423",
    "final_y": "554527.857496",
    "longitude": "-90.06861633182535",
    "latitude": "30.018772159405682",
    "geocoded_column": {
      "latitude": "30.018772159405682",
      "longitude": "-90.06861633182535"
    }
  },
  {
    "service_request": "2024-1073569",
    "request_type": "Trash/Recycling",
    "request_reason": "Request a Large Item Pick Up",
    "date_created": "2024-03-07T18:39:27.000",
    "date_modified": "2024-03-07T18:39:28.000",
    "request_status": "Pending",
    "responsible_agency": "Department of Sanitation",
    "final_address": "7980 Edgelake Ct",
    "address_councildis": "E",
    "status": "Assigned to Contractor",
    "contractor": "Waste Pro",
    "rowid": "1073569",
    "final_x": "3702588.0554",
    "final_y": "562130.359519",
    "longitude": "-90.00035790651032",
    "latitude": "30.039005590023145",
    "geocoded_column": {
      "latitude": "30.039005590023145",
      "longitude": "-90.00035790651032"
    }
  },
  {
    "service_request": "2024-1073568",
    "request_type": "Trash/Recycling",
    "request_reason": "Request a Large Item Pick Up",
    "date_created": "2024-03-07T18:31:46.000",
    "date_modified": "2024-03-07T18:31:47.000",
    "request_status": "Pending",
    "responsible_agency": "Department of Sanitation",
    "final_address": "2720 S Carrollton Ave, New Orleans, Louisiana, 70118",
    "address_councildis": "A",
    "status": "Assigned to Contractor",
    "contractor": "Richards Disposal",
    "rowid": "1073568",
    "final_x": "3665710.68135",
    "final_y": "532507.302404",
    "longitude": "-90.11789443654493",
    "latitude": "29.95868039828293",
    "geocoded_column": {
      "latitude": "29.95868039828293",
      "longitude": "-90.11789443654493"
    }
  },
  {
    "service_request": "2024-1073567",
    "request_type": "Trash/Recycling",
    "request_reason": "Request a Large Item Pick Up",
    "date_created": "2024-03-07T18:12:34.000",
    "date_modified": "2024-03-07T18:12:35.000",
    "request_status": "Pending",
    "responsible_agency": "Department of Sanitation",
    "final_address": "736 S Salcedo St, New Orleans, Louisiana, 70119",
    "address_councildis": "B",
    "status": "Assigned to Contractor",
    "contractor": "Richards Disposal",
    "rowid": "1073567",
    "final_x": "3672414.95924",
    "final_y": "533814.529029",
    "longitude": "-90.09667947200319",
    "latitude": "29.962077590410118",
    "geocoded_column": {
      "latitude": "29.962077590410118",
      "longitude": "-90.09667947200319"
    }
  },
  {
    "service_request": "2024-1073566",
    "request_type": "Trash/Recycling",
    "request_reason": "Missed Trash Pick-Up",
    "date_created": "2024-03-07T18:03:55.000",
    "date_modified": "2024-03-07T18:03:56.000",
    "request_status": "Pending",
    "responsible_agency": "Department of Sanitation",
    "final_address": "1920 Adams St, New Orleans, Louisiana, 70118",
    "address_councildis": "A",
    "status": "Assigned to Contractor",
    "contractor": "Richards Disposal",
    "rowid": "1073566",
    "final_x": "3664806.90612",
    "final_y": "529360.570689",
    "longitude": "-90.1208534812332",
    "latitude": "29.950054237977923",
    "geocoded_column": {
      "latitude": "29.950054237977923",
      "longitude": "-90.1208534812332"
    }
  },
  {
    "service_request": "2024-1073565",
    "request_type": "Trash/Recycling",
    "request_reason": "Missed Trash Pick-Up",
    "date_created": "2024-03-07T18:03:51.000",
    "date_modified": "2024-03-07T18:03:52.000",
    "request_status": "Pending",
    "responsible_agency": "Department of Sanitation",
    "final_address": "333 S Alexander St",
    "address_councildis": "A",
    "status": "Assigned to Contractor",
    "contractor": "Richards Disposal",
    "rowid": "1073565",
    "final_x": "3669314.65012",
    "final_y": "538352.877577",
    "longitude": "-90.10631633897438",
    "latitude": "29.974648172996986",
    "geocoded_column": {
      "latitude": "29.974648172996986",
      "longitude": "-90.10631633897438"
    }
  },
  {
    "service_request": "2024-1073564",
    "request_type": "Property Maintenance",
    "request_reason": "Property Maintenance",
    "date_created": "2024-03-07T17:46:34.000",
    "date_modified": "2024-03-07T17:46:34.000",
    "request_status": "Pending",
    "responsible_agency": "Department of Code Enforcement",
    "final_address": "6900 Martin Dr",
    "address_councildis": "E",
    "status": "Pending",
    "rowid": "1073564",
    "final_x": "3699050.20208",
    "final_y": "557776.318043",
    "longitude": "-90.01169717120273",
    "latitude": "30.027146348453442",
    "geocoded_column": {
      "latitude": "30.027146348453442",
      "longitude": "-90.01169717120273"
    }
  },
  {
    "service_request": "2024-1073563",
    "request_type": "Trash/Recycling",
    "request_reason": "Missed Trash Pick-Up",
    "date_created": "2024-03-07T17:45:55.000",
    "date_modified": "2024-03-07T17:45:55.000",
    "request_status": "Pending",
    "responsible_agency": "Department of Sanitation",
    "final_address": "1922 Adams St, New Orleans, Louisiana, 70118",
    "address_councildis": "A",
    "status": "Assigned to Contractor",
    "contractor": "Richards Disposal",
    "rowid": "1073563",
    "final_x": "3664814.87687",
    "final_y": "529368.983105",
    "longitude": "-90.12082803266622",
    "latitude": "29.95007713748382",
    "geocoded_column": {
      "latitude": "29.95007713748382",
      "longitude": "-90.12082803266622"
    }
  },
  {
    "service_request": "2024-1073562",
    "request_type": "Roads/Drainage",
    "request_reason": "Man hole cover issue",
    "date_created": "2024-03-07T17:27:26.000",
    "date_modified": "2024-03-07T17:27:26.000",
    "request_status": "Pending",
    "responsible_agency": "Department of Public Works",
    "final_address": "TOULOUSE ST & N DORGENOIS ST",
    "address_councildis": "D",
    "status": "Pending",
    "rowid": "1073562",
    "final_x": "3676889.4",
    "final_y": "536240.68",
    "longitude": "-90.08246622105513",
    "latitude": "29.96861514160248",
    "geocoded_column": {
      "latitude": "29.96861514160248",
      "longitude": "-90.08246622105513"
    }
  },