[
  {
    "service_request": "2026-1250372",
    "request_type": "Trash/Recycling",
    "request_reason": "Request a Large Item Pick Up",
    "date_created": "2026-01-07T22:42:45.000",
    "date_modified": "2026-01-07T22:42:47.000",
    "request_status": "Pending",
    "responsible_agency": "Department of Sanitation",
    "final_address": "1615 Spain St",
    "address_councildis": "D",
    "status": "Assigned to Contractor",
    "contractor": "IV Waste",
    "rowid": "1250372",
    "final_x": "3686008.01154",
    "final_y": "538377.259529",
    "longitude": "-90.05359384420694",
    "latitude": "29.974213126641224",
    "geocoded_column": {
      "latitude": "29.974213126641224",
      "longitude": "-90.05359384420694"
    }
  },
  {
    "service_request": "2026-1250371",
    "request_type": "Trash/Recycling",
    "request_reason": "Order Trash Cart",
    "date_created": "2026-01-07T21:55:31.000",
    "date_modified": "2026-01-07T21:55:34.000",
    "request_status": "Pending",
    "responsible_agency": "Department of Sanitation",
    "final_address": "5874 Bellaire Dr",
    "address_councildis": "A",
    "status": "Assigned to Contractor",
    "contractor": "IV Waste",
    "rowid": "1250371",
    "final_x": "3664179.20583",
    "final_y": "547343.372881",
    "longitude": "-90.1222352940768",
    "latitude": "29.999519212635892",
    "geocoded_column": {
      "latitude": "29.999519212635892",
      "longitude": "-90.1222352940768"
    }
  },
  {
    "service_request": "2026-1250370",
    "request_type": "Trash/Recycling",
    "request_reason": "Request a Large Item Pick Up",
    "date_created": "2026-01-07T21:32:14.000",
    "date_modified": "2026-01-07T21:32:16.000",
    "request_status": "Pending",
    "responsible_agency": "Department of Sanitation",
    "final_address": "3317 Chippewa St",
    "address_councildis": "B",
    "status": "Assigned to Contractor",
    "contractor": "IV Waste",
    "rowid": "1250370",
    "final_x": "3675875.9451",
    "final_y": "518311.669942",
    "longitude": "-90.08628299113407",
    "latitude": "29.91934666493375",
    "geocoded_column": {
      "latitude": "29.91934666493375",
      "longitude": "-90.08628299113407"
    }
  },
  {
    "service_request": "2026-1250369",
    "request_type": "Trash/Recycling",
    "request_reason": "Request a Large Item Pick Up",
    "date_created": "2026-01-07T20:54:17.000",
    "date_modified": "2026-01-07T20:54:19.000",
    "request_status": "Pending",
    "responsible_agency": "Department of Sanitation",
    "final_address": "2347 Martin Luther King, Jr. Blvd",
    "address_councildis": "B",
    "status": "Assigned to Contractor",
    "contractor": "IV Waste",
    "rowid": "1250369",
    "final_x": "3676734.24801",
    "final_y": "527186.663487",
    "longitude": "-90.08326813891227",
    "latitude": "29.943724289161807",
    "geocoded_column": {
      "latitude": "29.943724289161807",
      "longitude": "-90.08326813891227"
    }
  },
  {
    "service_request": "2026-1250368",
    "request_type": "Trash/Recycling",
    "request_reason": "Repair Trash Cart",
    "date_created": "2026-01-07T20:41:09.000",
    "date_modified": "2026-01-07T20:41:10.000",
    "request_status": "Pending",
    "responsible_agency": "Department of Sanitation",
    "final_address": "1474 Granada Dr",
    "address_councildis": "D",
    "status": "Assigned to Contractor",
    "contractor": "IV Waste",
    "rowid": "1250368",
    "final_x": "3678308.61339",
    "final_y": "550519.1389",
    "longitude": "-90.07749005506207",
    "latitude": "30.007833237149622",
    "geocoded_column": {
      "latitude": "30.007833237149622",
      "longitude": "-90.07749005506207"
    }
  },
  {
    "service_request": "2026-1250367",
    "request_type": "Streetlights",
    "request_reason": "Streetlight Outage/Malfunction",
    "date_created": "2026-01-07T20:40:56.000",
    "date_modified": "2026-01-07T20:40:58.000",
    "request_status": "Pending",
    "responsible_agency": "Department of Public Works",
    "final_address": "3820 Metropolitan St",
    "address_councildis": "D",
    "status": "Pending",
    "rowid": "1250367",
    "final_x": "3691512.85865",
    "final_y": "547065.718993",
    "longitude": "-90.03589761992038",
    "latitude": "29.99793306481964",
    "geocoded_column": {
      "latitude": "29.99793306481964",
      "longitude": "-90.03589761992038"
    }
  },
  {
    "service_request": "2026-1250366",
    "request_type": "Streetlights",
    "request_reason": "Streetlight Outage/Malfunction",
    "date_created": "2026-01-07T20:27:13.000",
    "date_modified": "2026-01-07T20:27:14.000",
    "request_status": "Pending",
    "responsible_agency": "Department of Public Works",
    "final_address": "4618 Knight Dr",
    "address_councildis": "E",
    "status": "Pending",
    "rowid": "1250366",
    "final_x": "3708145.00676",
    "final_y": "554713.598616",
    "longitude": "-89.98307272413602",
    "latitude": "30.018433488254775",
    "geocoded_column": {
      "latitude": "30.018433488254775",
      "longitude": "-89.98307272413602"
    }
  },
  {
    "service_request": "2026-1250365",
    "request_type": "Trash/Recycling",
    "request_reason": "Request a Large Item Pick Up",
    "date_created": "2026-01-07T20:27:06.000",
    "date_modified": "2026-01-07T20:27:07.000",
    "request_status": "Pending",
    "responsible_agency": "Department of Sanitation",
    "final_address": "127 S Gayoso St",
    "address_councildis": "B",
    "status": "Assigned to Contractor",
    "contractor": "IV Waste",
    "rowid": "1250365",
    "final_x": "3674141.7963",
    "final_y": "535673.905223",
    "longitude": "-90.09116272192135",
    "latitude": "29.967138890909293",
    "geocoded_column": {
      "latitude": "29.967138890909293",
      "longitude": "-90.09116272192135"
    }
  },
  {
    "service_request": "2026-1250364",
    "request_type": "Streetlights",
    "request_reason": "Streetlight Outage/Malfunction",
    "date_created": "2026-01-07T20:25:32.000",
    "date_modified": "2026-01-07T20:25:34.000",
    "request_status": "Pending",
    "responsible_agency": "Department of Public Works",
    "final_address": "4618 Knight Dr",
    "address_councildis": "E",
    "status": "Pending",
    "rowid": "1250364",
    "final_x": "3708145.00676",
    "final_y": "554713.598616",
    "longitude": "-89.98307272413602",
    "latitude": "30.018433488254775",
    "geocoded_column": {
      "latitude": "30.018433488254775",
      "longitude": "-89.98307272413602"
    }
  },
  {
    "service_request": "2026-1250363",
    "request_type": "Trash/Recycling",
    "request_reason": "Request a Large Item Pick Up",
    "date_created": "2026-01-07T19:54:21.000",
    "date_modified": "2026-01-07T19:54:23.000",
    "request_status": "Pending",
    "responsible_agency": "Department of Sanitation",
    "final_address": "3760 Mansfield Ave",
    "address_councildis": "C",
    "status": "Assigned to Contractor",
    "contractor": "Richards Disposal",
    "rowid": "1250363",
    "final_x": "3708877.41547",
    "final_y": "517030.781493",
    "longitude": "-89.98216259521274",
    "latitude": "29.914795836610278",
    "geocoded_column": {
      "latitude": "29.914795836610278",
      "longitude": "-89.98216259521274"
    }
  },
  {
    "service_request": "2026-1250362",
    "request_type": "Trash/Recycling",
    "request_reason": "Order Second Trash Cart",
    "date_created": "2026-01-07T19:44:46.000",
    "date_modified": "2026-01-07T19:44:48.000",
    "request_status": "Pending",
    "responsible_agency": "Department of Sanitation",
    "final_address": "508 Millaudon St",
    "address_councildis": "A",
    "status": "Assigned to Contractor",
    "contractor": "IV Waste",
    "rowid": "1250362",
    "final_x": "3662156.72192",
    "final_y": "525044.984253",
    "longitude": "-90.12936457079851",
    "latitude": "29.93826459526661",
    "geocoded_column": {
      "latitude": "29.93826459526661",
      "longitude": "-90.12936457079851"
    }
  },
  {
    "service_request": "2026-1250361",
    "request_type": "Trash/Recycling",
    "request_reason": "Replace Recycling Cart",
    "date_created": "2026-01-07T19:42:23.000",
    "date_modified": "2026-01-07T19:42:25.000",
    "request_status": "Pending",
    "responsible_agency": "Department of Sanitation",
    "final_address": "508 Millaudon St",
    "address_councildis": "A",
    "status": "Pending",
    "rowid": "1250361",
    "final_x": "3662156.72192",
    "final_y": "525044.984253",
    "longitude": "-90.12936457079851",
    "latitude": "29.93826459526661",
    "geocoded_column": {
      "latitude": "29.93826459526661",
      "longitude": "-90.12936457079851"
    }
  },
  {
    "service_request": "2026-1250360",
    "request_type": "Streetlights",
    "request_reason": "Streetlight Outage/Malfunction",
    "date_created": "2026-01-07T19:39:51.000",
    "date_modified": "2026-01-07T19:39:52.000",
    "request_status": "Pending",
    "responsible_agency": "Department of Public Works",
    "final_address": "210 Pelican Ave",
    "address_councildis": "C",
    "status": "Pending",
    "rowid": "1250360",
    "final_x": "3685960.91273",
    "final_y": "530128.253697",
    "longitude": "-90.05403345930623",
    "latitude": "29.95153265862249",
    "geocoded_column": {
      "latitude": "29.95153265862249",
      "longitude": "-90.05403345930623"
    }
  },
  {
    "service_request": "2026-1250359",
    "request_type": "Trash/Recycling",
    "request_reason": "Request a Large Item Pick Up",
    "date_created": "2026-01-07T19:35:46.000",
    "date_modified": "2026-01-07T19:35:48.000",
    "request_status": "Pending",
    "responsible_agency": "Department of Sanitation",
    "final_address": "3109 Rabbits St",
    "address_councildis": "D",
    "status": "Assigned to Contractor",
    "contractor": "IV Waste",
    "rowid": "1250359",
    "final_x": "3688395.06799",
    "final_y": "544485.650703",
    "longitude": "-90.04583822051646",
    "latitude": "29.990935508647766",
    "geocoded_column": {
      "latitude": "29.990935508647766",
      "longitude": "-90.04583822051646"
    }
  },
  {
    "service_request": "2026-1250358",
    "request_type": "Trash/Recycling",
    "request_reason": "Repair Trash Cart",
    "date_created": "2026-01-07T19:17:26.000",
    "date_modified": "2026-01-07T19:17:28.000",
    "request_status": "Pending",
    "responsible_agency": "Department of Sanitation",
    "final_address": "305 S Pierce St",
    "address_councildis": "A",
    "status": "Assigned to Contractor",
    "contractor": "IV Waste",
    "rowid": "1250358",
    "final_x": "3670912.3419",
    "final_y": "537382.580808",
    "longitude": "-90.10130337214864",
    "latitude": "29.971933044081446",
    "geocoded_column": {
      "latitude": "29.971933044081446",
      "longitude": "-90.10130337214864"
    }
  },
  {
    "service_request": "2026-1250357",
    "request_type": "Streetlights",
    "request_reason": "Streetlight Outage/Malfunction",
    "date_created": "2026-01-07T19:11:20.000",
    "date_modified": "2026-01-07T19:11:22.000",
    "request_status": "Pending",
    "responsible_agency": "Department of Public Works",
    "final_address": "5200 Crowder Blvd",
    "address_councildis": "E",
    "status": "Pending",
    "rowid": "1250357",
    "final_x": "3706110.3098",
    "final_y": "556875.952794",
    "longitude": "-89.9894214322073",
    "latitude": "30.024444895091882",
    "geocoded_column": {
      "latitude": "30.024444895091882",
      "longitude": "-89.9894214322073"
    }
  },
  {
    "service_request": "2026-1250356",
    "request_type": "Trash/Recycling",
    "request_reason": "Replace Trash Cart",
    "date_created": "2026-01-07T19:08:01.000",
    "date_modified": "2026-01-07T19:08:02.000",
    "request_status": "Pending",
    "responsible_agency": "Department of Sanitation",
    "final_address": "307 S Pierce St",
    "address_councildis": "A",
    "status": "Assigned to Contractor",
    "contractor": "IV Waste",
    "rowid": "1250356",
    "final_x": "3670901.54734",
    "final_y": "537369.43956",
    "longitude": "-90.10133790940915",
    "latitude": "29.971897229209855",
    "geocoded_column": {
      "latitude": "29.971897229209855",
      "longitude": "-90.10133790940915"
    }
  },
  {
    "service_request": "2026-1250355",
    "request_type": "Street and Traffic Signs",
    "request_reason": "Traffic or Parking Sign Damaged or Missing",
    "date_created": "2026-01-07T19:06:33.000",
    "date_modified": "2026-01-07T19:06:34.000",
    "request_status": "Pending",
    "responsible_agency": "Department of Public Works",
    "final_address": "5701 Crowder Blvd",
    "address_councildis": "E",
    "status": "Pending",
    "rowid": "1250355",
    "final_x": "3705377.62999",
    "final_y": "558023.320475",
    "longitude": "-89.99169410197185",
    "latitude": "30.02762331816234",
    "geocoded_column": {
      "latitude": "30.02762331816234",
      "longitude": "-89.99169410197185"
    }
  },
  {
    "service_request": "2026-1250354",
    "request_type": "Streetlights",
    "request_reason": "Streetlight Outage/Malfunction",
    "date_created": "2026-01-07T18:52:43.000",
    "date_modified": "2026-01-07T18:52:44.000",
    "request_status": "Pending",
    "responsible_agency": "Department of Public Works",
    "final_address": "208 Norland Ave",
    "address_councildis": "C",
    "status": "Pending",
    "rowid": "1250354",
    "final_x": "3706444.87934",
    "final_y": "520480.647032",
    "longitude": "-89.98971278684647",
    "latitude": "29.92436041686961",
    "geocoded_column": {
      "latitude": "29.92436041686961",
      "longitude": "-89.98971278684647"
    }
  },
  {
    "service_request": "2026-1250353",
    "request_type": "Streetlights",
    "request_reason": "Streetlight Outage/Malfunction",
    "date_created": "2026-01-07T18:52:22.000",
    "date_modified": "2026-01-07T18:52:24.000",
    "request_status": "Pending",
    "responsible_agency": "Department of Public Works",
    "final_address": "915 Seventh St",
    "address_councildis": "B",
    "status": "Pending",
    "rowid": "1250353",
    "final_x": "3676737.47278",
    "final_y": "519896.893752",
    "longitude": "-90.08350900159692",
    "latitude": "29.923679709286645",
    "geocoded_column": {
      "latitude": "29.923679709286645",
      "longitude": "-90.08350900159692"
    }
  },
  {
    "service_request": "2026-1250352",
    "request_type": "Trash/Recycling",
    "request_reason": "MIssed Recycling Pick-Up",
    "date_created": "2026-01-07T18:50:35.000",
    "date_modified": "2026-01-07T18:50:37.000",
    "request_status": "Pending",
    "responsible_agency": "Department of Sanitation",
    "final_address": "11247 Winrock Dr",
    "address_councildis": "E",
    "status": "Assigned to Contractor",
    "contractor": "Waste Pro",
    "rowid": "1250352",
    "final_x": "3716324.73874",
    "final_y": "561450.226335",
    "longitude": "-89.95697240759702",
    "latitude": "30.036688951212785",
    "geocoded_column": {
      "latitude": "30.036688951212785",
      "longitude": "-89.95697240759702"
    }
  },
  {
    "service_request": "2026-1250351",
    "request_type": "Streetlights",
    "request_reason": "Streetlight Outage/Malfunction",
    "date_created": "2026-01-07T18:50:22.000",
    "date_modified": "2026-01-07T18:50:24.000",
    "request_status": "Pending",
    "responsible_agency": "Department of Public Works",
    "final_address": "1028 Bordeaux St",
    "address_councildis": "B",
    "status": "Pending",
    "rowid": "1250351",
    "final_x": "3669491.06241",
    "final_y": "519239.078647",
    "longitude": "-90.10640556440809",
    "latitude": "29.922086272368226",
    "geocoded_column": {
      "latitude": "29.922086272368226",
      "longitude": "-90.10640556440809"
    }
  },
  {
    "service_request": "2026-1250350",
    "request_type": "Trash/Recycling",
    "request_reason": "Return Recycling Cart",
    "date_created": "2026-01-07T18:36:34.000",
    "date_modified": "2026-01-07T18:36:36.000",
    "request_status": "Pending",
    "responsible_agency": "Department of Sanitation",
    "final_address": "613 Nashville Ave",
    "address_councildis": "A",
    "status": "Pending",
    "rowid": "1250350",
    "final_x": "3665504.69082",
    "final_y": "518402.044214",
    "longitude": "-90.11901692976976",
    "latitude": "29.919901457323597",
    "geocoded_column": {
      "latitude": "29.919901457323597",
      "longitude": "-90.11901692976976"
    }
  },
  {
    "service_request": "2026-1250349",
    "request_type": "General Services",
    "request_reason": "General Service Request",
    "date_created": "2026-01-07T18:35:23.000",
    "date_modified": "2026-01-07T18:35:24.000",
    "request_status": "Pending",
    "responsible_agency": "Orleans Parish Communication District",
    "final_address": "4691 Arthur Dr",
    "address_councildis": "E",
    "status": "Pending",
    "rowid": "1250349",
    "final_x": "3707795.4147",
    "final_y": "555157.185305",
    "longitude": "-89.9841607939076",
    "latitude": "30.019664502321678",
    "geocoded_column": {
      "latitude": "30.019664502321678",
      "longitude": "-89.9841607939076"
    }
  },
  {
    "service_request": "2026-1250348",
    "request_type": "Trash/Recycling",
    "request_reason": "Missed Trash Pick-Up",
    "date_created": "2026-01-07T18:31:09.000",
    "date_modified": "2026-01-07T18:31:11.000",
    "request_status": "Pending",
    "responsible_agency": "Department of Sanitation",
    "final_address": "978 Harding Dr",
    "address_councildis": "A",
    "status": "Assigned to Contractor",
    "contractor": "IV Waste",
    "rowid": "1250348",
    "final_x": "3674509.35348",
    "final_y": "540227.094603",
    "longitude": "-90.08984592788774",
    "latitude": "29.979647651010495",
    "geocoded_column": {
      "latitude": "29.979647651010495",
      "longitude": "-90.08984592788774"
    }
  },
  {
    "service_request": "2026-1250347",
    "request_type": "Trash/Recycling",
    "request_reason": "Request a Large Item Pick Up",
    "date_created": "2026-01-07T18:29:47.000",
    "date_modified": "2026-01-07T18:29:48.000",
    "request_status": "Pending",
    "responsible_agency": "Department of Sanitation",
    "final_address": "2522 Peniston St",
    "address_councildis": "B",
    "status": "Assigned to Contractor",
    "contractor": "IV Waste",
    "rowid": "1250347",
    "final_x": "3672046.98196",
    "final_y": "524379.784636",
    "longitude": "-90.09816265318439",
    "latitude": "29.936146060969133",
    "geocoded_column": {
      "latitude": "29.936146060969133",
      "longitude": "-90.09816265318439"
    }
  },
  {
    "service_request": "2026-1250346",
    "request_type": "Trash/Recycling",
    "request_reason": "MIssed Recycling Pick-Up",
    "date_created": "2026-01-07T18:26:47.000",
    "date_modified": "2026-01-07T18:26:48.000",
    "request_status": "Pending",
    "responsible_agency": "Department of Sanitation",
    "final_address": "715 Eleonore St",
    "address_councildis": "A",
    "status": "Assigned to Contractor",
    "contractor": "IV Waste",
    "rowid": "1250346",
    "final_x": "3665224.62522",
    "final_y": "518855.425271",
    "longitude": "-90.11988580900595",
    "latitude": "29.921156271529615",
    "geocoded_column": {
      "latitude": "29.921156271529615",
      "longitude": "-90.11988580900595"
    }
  },
  {
    "service_request": "2026-1250345",
    "request_type": "Trash/Recycling",
    "request_reason": "Order Recycling Cart",
    "date_created": "2026-01-07T18:26:18.000",
    "date_modified": "2026-01-07T18:26:21.000",
    "request_status": "Pending",
    "responsible_agency": "Department of Sanitation",
    "final_address": "2010 Marais St",
    "address_councildis": "C",
    "status": "Pending",
    "rowid": "1250345",
    "final_x": "3684315.4733",
    "final_y": "536591.913543",
    "longitude": "-90.05900197299721",
    "latitude": "29.969355914916147",
    "geocoded_column": {
      "latitude": "29.969355914916147",
      "longitude": "-90.05900197299721"
    }
  },
  {
    "service_request": "2026-1250344",
    "request_type": "General Services",
    "request_reason": "General Service Request",
    "date_created": "2026-01-07T18:20:38.000",
    "date_modified": "2026-01-07T18:20:41.000",
    "request_status": "Pending",
    "responsible_agency": "Orleans Parish Communication District",
    "final_address": "4533 Lafon Dr",
    "address_councildis": "E",
    "status": "Pending",
    "rowid": "1250344",
    "final_x": "3701336.29085",
    "final_y": "553141.102551",
    "longitude": "-90.00464323037744",
    "latitude": "30.01432857973379",
    "geocoded_column": {
      "latitude": "30.01432857973379",
      "longitude": "-90.00464323037744"
    }
  },
  {
    "service_request": "2026-1250343",
    "request_type": "Traffic Signals",
    "request_reason": "Traffic Signal Malfunctioning or Damaged",
    "date_created": "2026-01-07T18:05:29.000",
    "date_modified": "2026-01-07T18:05:30.000",
    "request_status": "Pending",
    "responsible_agency": "Department of Public Works",
    "final_address": "6000 Bullard Ave",
    "address_councildis": "E",
    "status": "Pending",
    "rowid": "1250343",
    "final_x": "3714876.25311",
    "final_y": "563881.658913",
    "longitude": "-89.96145788051206",
    "latitude": "30.043422170200817",
    "geocoded_column": {
      "latitude": "30.043422170200817",
      "longitude": "-89.96145788051206"
    }
  },
  {
    "service_request": "2026-1250342",
    "request_type": "Trash/Recycling",
    "request_reason": "Request a Large Item Pick Up",
    "date_created": "2026-01-07T17:59:27.000",
    "date_modified": "2026-01-07T17:59:35.000",
    "request_status": "Pending",
    "responsible_agency": "Department of Sanitation",
    "final_address": "14500 Beekman Rd",
    "address_councildis": "E",
    "status": "Assigned to Contractor",
    "contractor": "Waste Pro",
    "rowid": "1250342",
    "final_x": "3720786.10393",
    "final_y": "572758.553577",
    "longitude": "-89.94243994685621",
    "latitude": "30.067634058513985",
    "geocoded_column": {
      "latitude": "30.067634058513985",
      "longitude": "-89.94243994685621"
    }
  },
  {
    "service_request": "2026-1250341",
    "request_type": "Property Maintenance",
    "request_reason": "Property Maintenance",
    "date_created": "2026-01-07T17:49:17.000",
    "date_modified": "2026-01-07T17:49:20.000",
    "request_status": "Pending",
    "responsible_agency": "Department of Code Enforcement",
    "final_address": "2630 N Derbigny St",
    "address_councildis": "D",
    "status": "Pending",
    "rowid": "1250341",
    "final_x": "3687949.49155",
    "final_y": "538617.969929",
    "longitude": "-90.04745368453806",
    "latitude": "29.97481523044817",
    "geocoded_column": {
      "latitude": "29.97481523044817",
      "longitude": "-90.04745368453806"
    }
  },
  {
    "service_request": "2026-1250340",
    "request_type": "General Services",
    "request_reason": "General Service Request",
    "date_created": "2026-01-07T17:23:46.000",
    "date_modified": "2026-01-07T17:23:47.000",
    "request_status": "Pending",
    "responsible_agency": "Orleans Parish Communication District",
    "final_address": "1100 State St",
    "address_councildis": "A",
    "status": "Pending",
    "rowid": "1250340",
    "final_x": "3664950.20308",
    "final_y": "520257.593592",
    "longitude": "-90.12070520084384",
    "latitude": "29.925019782851088",
    "geocoded_column": {
      "latitude": "29.925019782851088",
      "longitude": "-90.12070520084384"
    }
  },
  {
    "service_request": "2026-1250339",
    "request_type": "Roads and Streets",
    "request_reason": "Road Shoulder Damage",
    "date_created": "2026-01-07T17:22:44.000",
    "date_modified": "2026-01-07T17:22:45.000",
    "request_status": "Pending",
    "responsible_agency": "Department of Public Works",
    "final_address": "7220 Thornley Dr",
    "address_councildis": "E",
    "status": "Pending",
    "rowid": "1250339",
    "final_x": "3702894.56247",
    "final_y": "560033.846749",
    "longitude": "-89.99946639193918",
    "latitude": "30.033231192157377",
    "geocoded_column": {
      "latitude": "30.033231192157377",
      "longitude": "-89.99946639193918"
    }
  },
  {
    "service_request": "2026-1250338",
    "request_type": "Roads and Streets",
    "request_reason": "Road Shoulder Damage",
    "date_created": "2026-01-07T17:13:59.000",
    "date_modified": "2026-01-07T17:14:01.000",
    "request_status": "Pending",
    "responsible_agency": "Department of Public Works",
    "final_address": "7220 Thornley Dr",
    "address_councildis": "E",
    "status": "Pending",
    "rowid": "1250338",
    "final_x": "3702894.56247",
    "final_y": "560033.846749",
    "longitude": "-89.99946639193918",
    "latitude": "30.033231192157377",
    "geocoded_column": {
      "latitude": "30.033231192157377",
      "longitude": "-89.99946639193918"
    }
  },
  {
    "service_request": "2026-1250337",
    "request_type": "Trash/Recycling",
    "request_reason": "Replace Trash Cart",
    "date_created": "2026-01-07T17:08:13.000",
    "date_modified": "2026-01-07T17:08:15.000",
    "request_status": "Pending",
    "responsible_agency": "Department of Sanitation",
    "final_address": "1127 Philip St",
    "address_councildis": "B",
    "status": "Assigned to Contractor",
    "contractor": "IV Waste",
    "rowid": "1250337",
    "final_x": "3678423.50491",
    "final_y": "522054.605114",
    "longitude": "-90.07811220197074",
    "latitude": "29.929562037329514",
    "geocoded_column": {
      "latitude": "29.929562037329514",
      "longitude": "-90.07811220197074"
    }
  },
  {
    "service_request": "2026-1250336",
    "request_type": "Trash/Recycling",
    "request_reason": "Request a Large Item Pick Up",
    "date_created": "2026-01-07T17:04:58.000",
    "date_modified": "2026-01-07T17:05:00.000",
    "request_status": "Pending",
    "responsible_agency": "Department of Sanitation",
    "final_address": "623 France St",
    "address_councildis": "C",
    "status": "Assigned to Contractor",
    "contractor": "IV Waste",
    "rowid": "1250336",
    "final_x": "3692003.29629",
    "final_y": "533498.447236",
    "longitude": "-90.03483402908854",
    "latitude": "29.96061263772952",
    "geocoded_column": {
      "latitude": "29.96061263772952",
      "longitude": "-90.03483402908854"
    }
  },
  {
    "service_request": "2026-1250335",
    "request_type": "Trash/Recycling",
    "request_reason": "Replace Recycling Cart",
    "date_created": "2026-01-07T17:01:17.000",
    "date_modified": "2026-01-07T17:01:18.000",
    "request_status": "Pending",
    "responsible_agency": "Department of Sanitation",
    "final_address": "618 Arabella St",
    "address_councildis": "A",
    "status": "Pending",
    "rowid": "1250335",
    "final_x": "3665681.94573",
    "final_y": "518439.873142",
    "longitude": "-90.11845615388452",
    "latitude": "29.920000308633313",
    "geocoded_column": {
      "latitude": "29.920000308633313",
      "longitude": "-90.11845615388452"
    }
  },
  {
    "service_request": "2026-1250334",
    "request_type": "Trash/Recycling",
    "request_reason": "Order Recycling Cart",
    "date_created": "2026-01-07T17:00:32.000",
    "date_modified": "2026-01-07T17:00:34.000",
    "request_status": "Pending",
    "responsible_agency": "Department of Sanitation",
    "final_address": "11030 S Hardy St",
    "address_councildis": "E",
    "status": "Pending",
    "rowid": "1250334",
    "final_x": "3713515.58002",
    "final_y": "561928.062559",
    "longitude": "-89.96583182397627",
    "latitude": "30.038095290446815",
    "geocoded_column": {
      "latitude": "30.038095290446815",
      "longitude": "-89.96583182397627"
    }
  },
  {
    "service_request": "2026-1250333",
    "request_type": "Mosquito, Termite & Rodent Control",
    "request_reason": "Rodent Complaint (Mice & Rats)",
    "date_created": "2026-01-07T16:57:32.000",
    "date_modified": "2026-01-07T16:57:33.000",
    "request_status": "Pending",
    "responsible_agency": "Mosquito, Termite & Rodent Control Board",
    "final_address": "8330 Green St",
    "address_councildis": "A",
    "status": "Pending",
    "rowid": "1250333",
    "final_x": "3662391.88346",
    "final_y": "530298.376385",
    "longitude": "-90.1284477385069",
    "latitude": "29.95270294788629",
    "geocoded_column": {
      "latitude": "29.95270294788629",
      "longitude": "-90.1284477385069"
    }
  },
  {
    "service_request": "2026-1250332",
    "request_type": "Mosquito, Termite & Rodent Control",
    "request_reason": "Mosquito Complaint",
    "date_created": "2026-01-07T16:57:24.000",
    "date_modified": "2026-01-07T16:57:25.000",
    "request_status": "Pending",
    "responsible_agency": "Mosquito, Termite & Rodent Control Board",
    "final_address": "13220 St Helena Pl",
    "address_councildis": "E",
    "status": "Pending",
    "rowid": "1250332",
    "final_x": "3726755.30784",
    "final_y": "564399.097185",
    "longitude": "-89.92389548294817",
    "latitude": "30.044448498567743",
    "geocoded_column": {
      "latitude": "30.044448498567743",
      "longitude": "-89.92389548294817"
    }
  },
  {
    "service_request": "2026-1250331",
    "request_type": "Mosquito, Termite & Rodent Control",
    "request_reason": "Rodent Complaint (Mice & Rats)",
    "date_created": "2026-01-07T16:53:52.000",
    "date_modified": "2026-01-07T16:53:53.000",
    "request_status": "Pending",
    "responsible_agency": "Mosquito, Termite & Rodent Control Board",
    "final_address": "8933 Jeannette St",
    "address_councildis": "A",
    "status": "Pending",
    "rowid": "1250331",
    "final_x": "3660400.90643",
    "final_y": "531279.340994",
    "longitude": "-90.13470198442748",
    "latitude": "29.95545770143198",
    "geocoded_column": {
      "latitude": "29.95545770143198",
      "longitude": "-90.13470198442748"
    }
  },
  {
    "service_request": "2026-1250330",
    "request_type": "Trash/Recycling",
    "request_reason": "Missed Trash Pick-Up",
    "date_created": "2026-01-07T16:53:16.000",
    "date_modified": "2026-01-07T16:53:17.000",
    "request_status": "Pending",
    "responsible_agency": "Department of Sanitation",
    "final_address": "4874 Lurline St",
    "address_councildis": "E",
    "status": "Assigned to Contractor",
    "contractor": "Waste Pro",
    "rowid": "1250330",
    "final_x": "3711818.28062",
    "final_y": "556914.81673",
    "longitude": "-89.97138398024748",
    "latitude": "30.02436644234353",
    "geocoded_column": {
      "latitude": "30.02436644234353",
      "longitude": "-89.97138398024748"
    }
  },
  {
    "service_request": "2026-1250329",
    "request_type": "Trash/Recycling",
    "request_reason": "Repair Trash Cart",
    "date_created": "2026-01-07T16:52:27.000",
    "date_modified": "2026-01-07T16:52:29.000",
    "request_status": "Pending",
    "responsible_agency": "Department of Sanitation",
    "final_address": "4874 Lurline St",
    "address_councildis": "E",
    "status": "Assigned to Contractor",
    "contractor": "Waste Pro",
    "rowid": "1250329",
    "final_x": "3711818.28062",
    "final_y": "556914.81673",
    "longitude": "-89.97138398024748",
    "latitude": "30.02436644234353",
    "geocoded_column": {
      "latitude": "30.02436644234353",
      "longitude": "-89.97138398024748"
    }
  },
  {
    "service_request": "2026-1250328",
    "request_type": "Trash/Recycling",
    "request_reason": "Replace Trash Cart",
    "date_created": "2026-01-07T16:49:13.000",
    "date_modified": "2026-01-07T16:49:14.000",
    "request_status": "Pending",
    "responsible_agency": "Department of Sanitation",
    "final_address": "116 N Murat St",
    "address_councildis": "A",
    "status": "Assigned to Contractor",
    "contractor": "IV Waste",
    "rowid": "1250328",
    "final_x": "3669885.26606",
    "final_y": "539573.157322",
    "longitude": "-90.10447285664496",
    "latitude": "29.977986716382876",
    "geocoded_column": {
      "latitude": "29.977986716382876",
      "longitude": "-90.10447285664496"
    }
  },
  {
    "service_request": "2026-1250327",
    "request_type": "Mosquito, Termite & Rodent Control",
    "request_reason": "Rodent Complaint (Mice & Rats)",
    "date_created": "2026-01-07T16:48:54.000",
    "date_modified": "2026-01-07T16:48:55.000",
    "request_status": "Pending",
    "responsible_agency": "Mosquito, Termite & Rodent Control Board",
    "final_address": "1714 New Orleans St",
    "address_councildis": "D",
    "status": "Pending",
    "rowid": "1250327",
    "final_x": "3682185.35669",
    "final_y": "538440.842313",
    "longitude": "-90.0656644435406",
    "latitude": "29.974504796061392",
    "geocoded_column": {
      "latitude": "29.974504796061392",
      "longitude": "-90.0656644435406"
    }
  },
  {
    "service_request": "2026-1250326",
    "request_type": "Trash/Recycling",
    "request_reason": "Request a Large Item Pick Up",
    "date_created": "2026-01-07T16:48:53.000",
    "date_modified": "2026-01-07T16:48:55.000",
    "request_status": "Pending",
    "responsible_agency": "Department of Sanitation",
    "final_address": "4808 St Claude Ave",
    "address_councildis": "E",
    "status": "Assigned to Contractor",
    "contractor": "Waste Pro",
    "rowid": "1250326",
    "final_x": "3695140.33008",
    "final_y": "534421.409861",
    "longitude": "-90.0248946657472",
    "latitude": "29.963052336513883",
    "geocoded_column": {
      "latitude": "29.963052336513883",
      "longitude": "-90.0248946657472"
    }
  },
  {
    "service_request": "2026-1250325",
    "request_type": "Trash/Recycling",
    "request_reason": "Request a Large Item Pick Up",
    "date_created": "2026-01-07T16:48:18.000",
    "date_modified": "2026-01-07T17:30:09.000",
    "case_close_date": "2026-01-07T11:30:08.000",
    "request_status": "Closed",
    "responsible_agency": "Department of Sanitation",
    "final_address": "7730 Shaw Ave",
    "address_councildis": "E",
    "status": "Invalid Request",
    "contractor": "Waste Pro",
    "contractor_action": "Invalid",
    "rowid": "1250325",
    "final_x": "3706972.13828",
    "final_y": "564568.955041",
    "longitude": "-89.98641248769796",
    "latitude": "30.04556979677027",
    "geocoded_column": {
      "latitude": "30.04556979677027",
      "longitude": "-89.98641248769796"
    }
  },
  {
    "service_request": "2026-1250324",
    "request_type": "Trash/Recycling",
    "request_reason": "Request a Large Item Pick Up",
    "date_created": "2026-01-07T16:45:22.000",
    "date_modified": "2026-01-07T16:45:24.000",
    "request_status": "Pending",
    "responsible_agency": "Department of Sanitation",
    "final_address": "4103 S Miro St",
    "address_councildis": "B",
    "status": "Assigned to Contractor",
    "contractor": "IV Waste",
    "rowid": "1250324",
    "final_x": "3670955.62823",
    "final_y": "527946.940799",
    "longitude": "-90.10148702661363",
    "latitude": "29.945986884312326",
    "geocoded_column": {
      "latitude": "29.945986884312326",
      "longitude": "-90.10148702661363"
    }
  },
  {
    "service_request": "2026-1250323",
    "request_type": "Abandoned Vehicles",
    "request_reason": "Abandoned/Junk Vehicles",
    "date_created": "2026-01-07T16:45:20.000",
    "date_modified": "2026-01-07T16:45:22.000",
    "request_status": "Pending",
    "responsible_agency": "Department of Public Works",
    "final_address": "3015 Jefferson Ave",
    "address_councildis": "B",
    "status": "Pending",
    "rowid": "1250323",
    "final_x": "3668533.51815",
    "final_y": "526451.972862",
    "longitude": "-90.10918490081964",
    "latitude": "29.941947583650443",
    "geocoded_column": {
      "latitude": "29.941947583650443",
      "longitude": "-90.10918490081964"
    }
  },
  {
    "service_request": "2026-1250322",
    "request_type": "Abandoned Vehicles",
    "request_reason": "Abandoned/Junk Vehicles",
    "date_created": "2026-01-07T16:43:38.000",
    "date_modified": "2026-01-07T16:43:39.000",
    "request_status": "Pending",
    "responsible_agency": "Department of Public Works",
    "final_address": "830 Second St",
    "address_councildis": "B",
    "status": "Pending",
    "rowid": "1250322",
    "final_x": "3678264.85282",
    "final_y": "520611.410424",
    "longitude": "-90.07866292430965",
    "latitude": "29.925598500329755",
    "geocoded_column": {
      "latitude": "29.925598500329755",
      "longitude": "-90.07866292430965"
    }
  },
  {
    "service_request": "2026-1250321",
    "request_type": "Trash/Recycling",
    "request_reason": "Request a Large Item Pick Up",
    "date_created": "2026-01-07T16:43:24.000",
    "date_modified": "2026-01-07T16:43:26.000",
    "request_status": "Pending",
    "responsible_agency": "Department of Sanitation",
    "final_address": "319 Lane St",
    "address_councildis": "A",
    "status": "Assigned to Contractor",
    "contractor": "IV Waste",
    "rowid": "1250321",
    "final_x": "3667535.09415",
    "final_y": "550905.396757",
    "longitude": "-90.11151390665374",
    "latitude": "30.009215583941995",
    "geocoded_column": {
      "latitude": "30.009215583941995",
      "longitude": "-90.11151390665374"
    }
  },
  {
    "service_request": "2026-1250320",
    "request_type": "Abandoned Vehicles",
    "request_reason": "Abandoned/Junk Vehicles",
    "date_created": "2026-01-07T16:42:07.000",
    "date_modified": "2026-01-07T16:42:09.000",
    "request_status": "Pending",
    "responsible_agency": "Department of Public Works",
    "final_address": "830 Second St",
    "address_councildis": "B",
    "status": "Pending",
    "rowid": "1250320",
    "final_x": "3678264.85282",
    "final_y": "520611.410424",
    "longitude": "-90.07866292430965",
    "latitude": "29.925598500329755",
    "geocoded_column": {
      "latitude": "29.925598500329755",
      "longitude": "-90.07866292430965"
    }
  },
  {
    "service_request": "2026-1250319",
    "request_type": "Streetlights",
    "request_reason": "Streetlight Outage/Malfunction",
    "date_created": "2026-01-07T16:41:28.000",
    "date_modified": "2026-01-07T16:41:30.000",
    "request_status": "Pending",
    "responsible_agency": "Department of Public Works",
    "final_address": "5371 Paris Ave",
    "address_councildis": "D",
    "status": "Pending",
    "rowid": "1250319",
    "final_x": "3679273.9437",
    "final_y": "552113.760086",
    "longitude": "-90.07438493838745",
    "latitude": "30.012188745729876",
    "geocoded_column": {
      "latitude": "30.012188745729876",
      "longitude": "-90.07438493838745"
    }
  },
  {
    "service_request": "2026-1250318",
    "request_type": "Drainage",
    "request_reason": "Ditch and Culvert Maintenance",
    "date_created": "2026-01-07T16:41:20.000",
    "date_modified": "2026-01-07T16:41:22.000",
    "request_status": "Pending",
    "responsible_agency": "Department of Public Works",
    "final_address": "3401 Alvar St",
    "address_councildis": "D",
    "status": "Pending",
    "rowid": "1250318",
    "final_x": "3693738.88521",
    "final_y": "544638.834447",
    "longitude": "-90.02895294296512",
    "latitude": "29.99119052495007",
    "geocoded_column": {
      "latitude": "29.99119052495007",
      "longitude": "-90.02895294296512"
    }
  },
  {
    "service_request": "2026-1250317",
    "request_type": "Trash/Recycling",
    "request_reason": "Repair Recycling Cart",
    "date_created": "2026-01-07T16:38:22.000",
    "date_modified": "2026-01-07T16:38:24.000",
    "request_status": "Pending",
    "responsible_agency": "Department of Sanitation",
    "final_address": "130 Eastview Dr",
    "address_councildis": "E",
    "status": "Pending",
    "rowid": "1250317",
    "final_x": "3719307.1422",
    "final_y": "565573.83549",
    "longitude": "-89.94738988302446",
    "latitude": "30.047928351422502",
    "geocoded_column": {
      "latitude": "30.047928351422502",
      "longitude": "-89.94738988302446"
    }
  },
  {
    "service_request": "2026-1250316",
    "request_type": "Trash/Recycling",
    "request_reason": "Replace Recycling Cart",
    "date_created": "2026-01-07T16:30:05.000",
    "date_modified": "2026-01-07T16:30:06.000",
    "request_status": "Pending",
    "responsible_agency": "Department of Sanitation",
    "final_address": "LOMBARD ST & DEMONTLUZIN ST",
    "address_councildis": "D",
    "status": "Pending",
    "rowid": "1250316",
    "final_x": "3687217.5",
    "final_y": "549684.08",
    "longitude": "-90.04937386880458",
    "latitude": "30.005265641780117",
    "geocoded_column": {
      "latitude": "30.005265641780117",
      "longitude": "-90.04937386880458"
    }
  },
  {
    "service_request": "2026-1250315",
    "request_type": "Trash/Recycling",
    "request_reason": "Request a Large Item Pick Up",
    "date_created": "2026-01-07T16:28:56.000",
    "date_modified": "2026-01-07T16:28:58.000",
    "request_status": "Pending",
    "responsible_agency": "Department of Sanitation",
    "final_address": "1205 St Denis St",
    "address_councildis": "D",
    "status": "Assigned to Contractor",
    "contractor": "IV Waste",
    "rowid": "1250315",
    "final_x": "3676745.00104",
    "final_y": "545682.416656",
    "longitude": "-90.08259676943777",
    "latitude": "29.994580989483307",
    "geocoded_column": {
      "latitude": "29.994580989483307",
      "longitude": "-90.08259676943777"
    }
  },
  {
    "service_request": "2026-1250314",
    "request_type": "Trash/Recycling",
    "request_reason": "Request a Large Item Pick Up",
    "date_created": "2026-01-07T16:25:05.000",
    "date_modified": "2026-01-07T16:25:06.000",
    "request_status": "Pending",
    "responsible_agency": "Department of Sanitation",
    "final_address": "5533 S Tonti St",
    "address_councildis": "A",
    "status": "Assigned to Contractor",
    "contractor": "IV Waste",
    "rowid": "1250314",
    "final_x": "3668218.64916",
    "final_y": "528156.668479",
    "longitude": "-90.11012155691748",
    "latitude": "29.94664419020916",
    "geocoded_column": {
      "latitude": "29.94664419020916",
      "longitude": "-90.11012155691748"
    }
  },
  {
    "service_request": "2026-1250313",
    "request_type": "Abandoned Vehicles",
    "request_reason": "Abandoned/Junk Vehicles",
    "date_created": "2026-01-07T16:22:20.000",
    "date_modified": "2026-01-07T16:22:21.000",
    "request_status": "Pending",
    "responsible_agency": "Department of Public Works",
    "final_address": "1639 N Robertson St",
    "address_councildis": "C",
    "status": "Pending",
    "rowid": "1250313",
    "final_x": "3682668.24629",
    "final_y": "537628.96212",
    "longitude": "-90.06416776401879",
    "latitude": "29.972257708933107",
    "geocoded_column": {
      "latitude": "29.972257708933107",
      "longitude": "-90.06416776401879"
    }
  },
  {
    "service_request": "2026-1250312",
    "request_type": "Trash/Recycling",
    "request_reason": "Request a Large Item Pick Up",
    "date_created": "2026-01-07T16:17:29.000",
    "date_modified": "2026-01-07T16:17:32.000",
    "request_status": "Pending",
    "responsible_agency": "Department of Sanitation",
    "final_address": "2107 Peniston St",
    "address_councildis": "B",
    "status": "Assigned to Contractor",
    "contractor": "IV Waste",
    "rowid": "1250312",
    "final_x": "3672523.07585",
    "final_y": "522962.036859",
    "longitude": "-90.09670791348408",
    "latitude": "29.932233593292192",
    "geocoded_column": {
      "latitude": "29.932233593292192",
      "longitude": "-90.09670791348408"
    }
  },
  {
    "service_request": "2026-1250311",
    "request_type": "Trash/Recycling",
    "request_reason": "Replace Recycling Cart",
    "date_created": "2026-01-07T16:16:25.000",
    "date_modified": "2026-01-07T16:16:26.000",
    "request_status": "Pending",
    "responsible_agency": "Department of Sanitation",
    "final_address": "4600 De Montluzin St",
    "address_councildis": "D",
    "status": "Pending",
    "rowid": "1250311",
    "final_x": "3687178.00022",
    "final_y": "549721.999764",
    "longitude": "-90.04949731457698",
    "latitude": "30.005371124288935",
    "geocoded_column": {
      "latitude": "30.005371124288935",
      "longitude": "-90.04949731457698"
    }
  },
  {
    "service_request": "2026-1250310",
    "request_type": "Trash/Recycling",
    "request_reason": "Request a Large Item Pick Up",
    "date_created": "2026-01-07T16:15:59.000",
    "date_modified": "2026-01-07T16:16:01.000",
    "request_status": "Pending",
    "responsible_agency": "Department of Sanitation",
    "final_address": "4343 Vixen St",
    "address_councildis": "C",
    "status": "Assigned to Contractor",
    "contractor": "Richards Disposal",
    "rowid": "1250310",
    "final_x": "3699682.9354",
    "final_y": "520645.711545",
    "longitude": "-90.01105176306572",
    "latitude": "29.925030579793187",
    "geocoded_column": {
      "latitude": "29.925030579793187",
      "longitude": "-90.01105176306572"
    }
  },
  {
    "service_request": "2026-1250309",
    "request_type": "Drainage",
    "request_reason": "Catch Basin Not Draining",
    "date_created": "2026-01-07T16:14:15.000",
    "date_modified": "2026-01-07T16:14:16.000",
    "request_status": "Pending",
    "responsible_agency": "Sewerage & Water Board",
    "final_address": "2101 St Denis St",
    "address_councildis": "D",
    "status": "Pending",
    "rowid": "1250309",
    "final_x": "3683737.80751",
    "final_y": "546244.542096",
    "longitude": "-90.06048765864452",
    "latitude": "29.995914900952663",
    "geocoded_column": {
      "latitude": "29.995914900952663",
      "longitude": "-90.06048765864452"
    }
  },
  {
    "service_request": "2026-1250308",
    "request_type": "Trash/Recycling",
    "request_reason": "Repair Trash Cart",
    "date_created": "2026-01-07T16:13:28.000",
    "date_modified": "2026-01-07T16:13:30.000",
    "request_status": "Pending",
    "responsible_agency": "Department of Sanitation",
    "final_address": "3832 Annunciation St",
    "address_councildis": "B",
    "status": "Assigned to Contractor",
    "contractor": "IV Waste",
    "rowid": "1250308",
    "final_x": "3673397.70747",
    "final_y": "517941.932918",
    "longitude": "-90.09411817503981",
    "latitude": "29.918403935952618",
    "geocoded_column": {
      "latitude": "29.918403935952618",
      "longitude": "-90.09411817503981"
    }
  },
  {
    "service_request": "2026-1250307",
    "request_type": "Streetlights",
    "request_reason": "Streetlight Outage/Malfunction",
    "date_created": "2026-01-07T16:11:34.000",
    "date_modified": "2026-01-07T16:13:37.000",
    "request_status": "Pending",
    "responsible_agency": "Department of Public Works",
    "final_address": "919 Short St",
    "address_councildis": "A",
    "status": "Pending",
    "rowid": "1250307",
    "final_x": "3661713.52685",
    "final_y": "527384.388991",
    "longitude": "-90.13068626794377",
    "latitude": "29.944710012364858",
    "geocoded_column": {
      "latitude": "29.944710012364858",
      "longitude": "-90.13068626794377"
    }
  },
  {
    "service_request": "2026-1250306",
    "request_type": "Trash/Recycling",
    "request_reason": "Request a Large Item Pick Up",
    "date_created": "2026-01-07T16:11:26.000",
    "date_modified": "2026-01-07T16:11:30.000",
    "request_status": "Pending",
    "responsible_agency": "Department of Sanitation",
    "final_address": "6251 Carlisle Ct",
    "address_councildis": "C",
    "status": "Assigned to Contractor",
    "contractor": "Richards Disposal",
    "rowid": "1250306",
    "final_x": "3707315.74411",
    "final_y": "516460.044853",
    "longitude": "-89.98711290207136",
    "latitude": "29.913277051707755",
    "geocoded_column": {
      "latitude": "29.913277051707755",
      "longitude": "-89.98711290207136"
    }
  },
  {
    "service_request": "2026-1250305",
    "request_type": "Traffic Signals",
    "request_reason": "Traffic Signal Malfunctioning or Damaged",
    "date_created": "2026-01-07T16:00:36.000",
    "date_modified": "2026-01-07T16:00:38.000",
    "request_status": "Pending",
    "responsible_agency": "Department of Public Works",
    "final_address": "ELYSIAN FIELDS AVE & N CLAIBORNE AVE",
    "address_councildis": "D",
    "status": "Pending",
    "rowid": "1250305",
    "final_x": "3684815.6",
    "final_y": "538136.98",
    "longitude": "-90.05736820071654",
    "latitude": "29.973589006521028",
    "geocoded_column": {
      "latitude": "29.973589006521028",
      "longitude": "-90.05736820071654"
    }
  },
  {
    "service_request": "2026-1250304",
    "request_type": "Trash/Recycling",
    "request_reason": "Repair Trash Cart",
    "date_created": "2026-01-07T15:56:45.000",
    "date_modified": "2026-01-07T15:56:46.000",
    "request_status": "Pending",
    "responsible_agency": "Department of Sanitation",
    "final_address": "1840 Farragut St",
    "address_councildis": "C",
    "status": "Assigned to Contractor",
    "contractor": "Richards Disposal",
    "rowid": "1250304",
    "final_x": "3692303.60637",
    "final_y": "524252.353788",
    "longitude": "-90.03421674254443",
    "latitude": "29.935179713064574",
    "geocoded_column": {
      "latitude": "29.935179713064574",
      "longitude": "-90.03421674254443"
    }
  },
  {
    "service_request": "2026-1250303",
    "request_type": "Trash/Recycling",
    "request_reason": "Request a Large Item Pick Up",
    "date_created": "2026-01-07T15:54:52.000",
    "date_modified": "2026-01-07T15:54:53.000",
    "request_status": "Pending",
    "responsible_agency": "Department of Sanitation",
    "final_address": "368 Audubon St",
    "address_councildis": "A",
    "status": "Assigned to Contractor",
    "contractor": "IV Waste",
    "rowid": "1250303",
    "final_x": "3661921.54759",
    "final_y": "522671.16473",
    "longitude": "-90.13018573429217",
    "latitude": "29.931744132834158",
    "geocoded_column": {
      "latitude": "29.931744132834158",
      "longitude": "-90.13018573429217"
    }
  },
  {
    "service_request": "2026-1250302",
    "request_type": "Street and Traffic Signs",
    "request_reason": "Stop Sign Missing or Damaged",
    "date_created": "2026-01-07T15:54:25.000",
    "date_modified": "2026-01-07T15:54:37.000",
    "request_status": "Pending",
    "responsible_agency": "Department of Public Works",
    "final_address": "2ND ST & S CLAIBORNE AVE",
    "address_councildis": "B",
    "status": "Pending",
    "rowid": "1250302",
    "final_x": "3673908.1",
    "final_y": "527277.98",
    "longitude": "-90.09218793543225",
    "latitude": "29.944059855118947",
    "geocoded_column": {
      "latitude": "29.944059855118947",
      "longitude": "-90.09218793543225"
    }
  },
  {
    "service_request": "2026-1250301",
    "request_type": "Roads and Streets",
    "request_reason": "Street Subsidence (Sinking)",
    "date_created": "2026-01-07T15:49:54.000",
    "date_modified": "2026-01-07T15:49:55.000",
    "request_status": "Pending",
    "responsible_agency": "Sewerage & Water Board",
    "final_address": "7102 Colapissa St",
    "address_councildis": "B",
    "status": "Pending",
    "rowid": "1250301",
    "final_x": "3668079.47092",
    "final_y": "531957.858755",
    "longitude": "-90.1104329053729",
    "latitude": "29.957100306381182",
    "geocoded_column": {
      "latitude": "29.957100306381182",
      "longitude": "-90.1104329053729"
    }
  },
  {
    "service_request": "2026-1250300",
    "request_type": "Trash/Recycling",
    "request_reason": "Request a Large Item Pick Up",
    "date_created": "2026-01-07T15:49:20.000",
    "date_modified": "2026-01-07T15:49:23.000",
    "request_status": "Pending",
    "responsible_agency": "Department of Sanitation",
    "final_address": "4114 Willow St",
    "address_councildis": "B",
    "status": "Assigned to Contractor",
    "contractor": "IV Waste",
    "rowid": "1250300",
    "final_x": "3671445.98523",
    "final_y": "525499.442557",
    "longitude": "-90.1000219746371",
    "latitude": "29.93924255746779",
    "geocoded_column": {
      "latitude": "29.93924255746779",
      "longitude": "-90.1000219746371"
    }
  },
  {
    "service_request": "2026-1250299",
    "request_type": "Trash/Recycling",
    "request_reason": "Dead Animal Pick Up",
    "date_created": "2026-01-07T15:49:17.000",
    "date_modified": "2026-01-07T15:49:19.000",
    "request_status": "Pending",
    "responsible_agency": "Department of Sanitation",
    "final_address": "4443 Arts St",
    "address_councildis": "D",
    "status": "Assigned to Contractor",
    "contractor": "IV Waste",
    "rowid": "1250299",
    "final_x": "3686074.66492",
    "final_y": "549250.176979",
    "longitude": "-90.05299964038981",
    "latitude": "30.00410772806479",
    "geocoded_column": {
      "latitude": "30.00410772806479",
      "longitude": "-90.05299964038981"
    }
  },
  {
    "service_request": "2026-1250298",
    "request_type": "Trash/Recycling",
    "request_reason": "Request a Large Item Pick Up",
    "date_created": "2026-01-07T15:48:56.000",
    "date_modified": "2026-01-07T15:48:57.000",
    "request_status": "Pending",
    "responsible_agency": "Department of Sanitation",
    "final_address": "4403 Shalimar Dr",
    "address_councildis": "D",
    "status": "Assigned to Contractor",
    "contractor": "Waste Pro",
    "rowid": "1250298",
    "final_x": "3697413.35581",
    "final_y": "552428.684822",
    "longitude": "-90.01706354046605",
    "latitude": "30.012494194974227",
    "geocoded_column": {
      "latitude": "30.012494194974227",
      "longitude": "-90.01706354046605"
    }
  },
  {
    "service_request": "2026-1250297",
    "request_type": "Trash/Recycling",
    "request_reason": "Request a Large Item Pick Up",
    "date_created": "2026-01-07T15:48:20.000",
    "date_modified": "2026-01-07T15:48:21.000",
    "request_status": "Pending",
    "responsible_agency": "Department of Sanitation",
    "final_address": "909 Lowerline St Unit A",
    "address_councildis": "A",
    "status": "Assigned to Contractor",
    "contractor": "IV Waste",
    "rowid": "1250297",
    "final_x": "3663220.0649",
    "final_y": "525951.594941",
    "longitude": "-90.12597732108884",
    "latitude": "29.940726721700734",
    "geocoded_column": {
      "latitude": "29.940726721700734",
      "longitude": "-90.12597732108884"
    }
  },
  {
    "service_request": "2026-1250296",
    "request_type": "Trash/Recycling",
    "request_reason": "Order Recycling Cart",
    "date_created": "2026-01-07T15:47:03.000",
    "date_modified": "2026-01-07T15:47:05.000",
    "request_status": "Pending",
    "responsible_agency": "Department of Sanitation",
    "final_address": "6540 Coventry St",
    "address_councildis": "E",
    "status": "Pending",
    "rowid": "1250296",
    "final_x": "3697636.74608",
    "final_y": "559042.346908",
    "longitude": "-90.0161175489098",
    "latitude": "30.030672194274807",
    "geocoded_column": {
      "latitude": "30.030672194274807",
      "longitude": "-90.0161175489098"
    }
  },
  {
    "service_request": "2026-1250295",
    "request_type": "Trash/Recycling",
    "request_reason": "Repair Recycling Cart",
    "date_created": "2026-01-07T15:45:12.000",
    "date_modified": "2026-01-07T15:45:13.000",
    "request_status": "Pending",
    "responsible_agency": "Department of Sanitation",
    "final_address": "5935 Coliseum St",
    "address_councildis": "A",
    "status": "Pending",
    "rowid": "1250295",
    "final_x": "3665220.92672",
    "final_y": "520215.433528",
    "longitude": "-90.11985201992287",
    "latitude": "29.924895975237057",
    "geocoded_column": {
      "latitude": "29.924895975237057",
      "longitude": "-90.11985201992287"
    }
  },
  {
    "service_request": "2026-1250294",
    "request_type": "Trash/Recycling",
    "request_reason": "Request a Large Item Pick Up",
    "date_created": "2026-01-07T15:44:52.000",
    "date_modified": "2026-01-07T15:44:54.000",
    "request_status": "Pending",
    "responsible_agency": "Department of Sanitation",
    "final_address": "6540 Coventry St",
    "address_councildis": "E",
    "status": "Assigned to Contractor",
    "contractor": "Waste Pro",
    "rowid": "1250294",
    "final_x": "3697636.74608",
    "final_y": "559042.346908",
    "longitude": "-90.0161175489098",
    "latitude": "30.030672194274807",
    "geocoded_column": {
      "latitude": "30.030672194274807",
      "longitude": "-90.0161175489098"
    }
  },
  {
    "service_request": "2026-1250293",
    "request_type": "Trash/Recycling",
    "request_reason": "MIssed Recycling Pick-Up",
    "date_created": "2026-01-07T15:43:30.000",
    "date_modified": "2026-01-07T15:43:32.000",
    "request_status": "Pending",
    "responsible_agency": "Department of Sanitation",
    "final_address": "6545 Canal Blvd",
    "address_councildis": "A",
    "status": "Assigned to Contractor",
    "contractor": "IV Waste",
    "rowid": "1250293",
    "final_x": "3668982.98657",
    "final_y": "551044.655381",
    "longitude": "-90.1069347984169",
    "latitude": "30.009555965106482",
    "geocoded_column": {
      "latitude": "30.009555965106482",
      "longitude": "-90.1069347984169"
    }
  },
  {
    "service_request": "2026-1250292",
    "request_type": "Trash/Recycling",
    "request_reason": "Request a Large Item Pick Up",
    "date_created": "2026-01-07T15:40:10.000",
    "date_modified": "2026-01-07T15:40:22.000",
    "request_status": "Pending",
    "responsible_agency": "Department of Sanitation",
    "final_address": "330 Delery St",
    "address_councildis": "E",
    "status": "Assigned to Contractor",
    "contractor": "Waste Pro",
    "rowid": "1250292",
    "final_x": "3699432.05981",
    "final_y": "530551.031874",
    "longitude": "-90.01148298308456",
    "latitude": "29.952274720648813",
    "geocoded_column": {
      "latitude": "29.952274720648813",
      "longitude": "-90.01148298308456"
    }
  },
  {
    "service_request": "2026-1250291",
    "request_type": "Safety & Permits",
    "request_reason": "Licenses & Permits",
    "date_created": "2026-01-07T15:38:40.000",
    "date_modified": "2026-01-07T15:38:41.000",
    "request_status": "Pending",
    "responsible_agency": "Safety and Permits",
    "final_address": "10220 Chef Menteur Hwy",
    "address_councildis": "E",
    "status": "Pending",
    "rowid": "1250291",
    "final_x": "3713479.75122",
    "final_y": "554803.87772",
    "longitude": "-89.96621367084757",
    "latitude": "30.018507786811345",
    "geocoded_column": {
      "latitude": "30.018507786811345",
      "longitude": "-89.96621367084757"
    }
  },
  {
    "service_request": "2026-1250290",
    "request_type": "Streetlights",
    "request_reason": "Streetlight Outage/Malfunction",
    "date_created": "2026-01-07T15:37:11.000",
    "date_modified": "2026-01-07T15:37:12.000",
    "request_status": "Pending",
    "responsible_agency": "Department of Public Works",
    "final_address": "422 S Pierce St",
    "address_councildis": "B",
    "status": "Pending",
    "rowid": "1250290",
    "final_x": "3670646.13531",
    "final_y": "536878.863176",
    "longitude": "-90.10216119025254",
    "latitude": "29.97055585765077",
    "geocoded_column": {
      "latitude": "29.97055585765077",
      "longitude": "-90.10216119025254"
    }
  },
  {
    "service_request": "2026-1250289",
    "request_type": "Streetlights",
    "request_reason": "Streetlight Outage/Malfunction",
    "date_created": "2026-01-07T15:36:40.000",
    "date_modified": "2026-01-07T15:36:42.000",
    "request_status": "Pending",
    "responsible_agency": "Department of Public Works",
    "final_address": "421 S Pierce St",
    "address_councildis": "A",
    "status": "Pending",
    "rowid": "1250289",
    "final_x": "3670596.53895",
    "final_y": "536951.005384",
    "longitude": "-90.1023153740388",
    "latitude": "29.9707556896799",
    "geocoded_column": {
      "latitude": "29.9707556896799",
      "longitude": "-90.1023153740388"
    }
  },
  {
    "service_request": "2026-1250288",
    "request_type": "Property Maintenance",
    "request_reason": "Property Maintenance",
    "date_created": "2026-01-07T15:36:35.000",
    "date_modified": "2026-01-07T15:36:37.000",
    "request_status": "Pending",
    "responsible_agency": "Department of Code Enforcement",
    "final_address": "10220 Chef Menteur Hwy",
    "address_councildis": "E",
    "status": "Pending",
    "rowid": "1250288",
    "final_x": "3713479.75122",
    "final_y": "554803.87772",
    "longitude": "-89.96621367084757",
    "latitude": "30.018507786811345",
    "geocoded_column": {
      "latitude": "30.018507786811345",
      "longitude": "-89.96621367084757"
    }
  },
  {
    "service_request": "2026-1250287",
    "request_type": "Abandoned Vehicles",
    "request_reason": "Abandoned/Junk Vehicles",
    "date_created": "2026-01-07T15:35:40.000",
    "date_modified": "2026-01-07T15:35:41.000",
    "request_status": "Pending",
    "responsible_agency": "Department of Public Works",
    "final_address": "206 N Tonti St",
    "address_councildis": "B",
    "status": "Pending",
    "rowid": "1250287",
    "final_x": "3676755.93646",
    "final_y": "534681.807174",
    "longitude": "-90.08294142861776",
    "latitude": "29.964332775888707",
    "geocoded_column": {
      "latitude": "29.964332775888707",
      "longitude": "-90.08294142861776"
    }
  },
  {
    "service_request": "2026-1250286",
    "request_type": "Trash/Recycling",
    "request_reason": "MIssed Recycling Pick-Up",
    "date_created": "2026-01-07T15:32:31.000",
    "date_modified": "2026-01-07T15:48:42.000",
    "case_close_date": "2026-01-07T09:48:42.000",
    "request_status": "Closed",
    "responsible_agency": "Department of Sanitation",
    "final_address": "7637 Sycamore St",
    "address_councildis": "A",
    "status": "Assigned to Contractor",
    "contractor": "IV Waste",
    "contractor_action": "Completed",
    "rowid": "1250286",
    "final_x": "3665485.94055",
    "final_y": "529971.423681",
    "longitude": "-90.11868899752338",
    "latitude": "29.95171411113614",
    "geocoded_column": {
      "latitude": "29.95171411113614",
      "longitude": "-90.11868899752338"
    }
  },
  {
    "service_request": "2026-1250285",
    "request_type": "Trash/Recycling",
    "request_reason": "Missed Trash Pick-Up",
    "date_created": "2026-01-07T15:32:02.000",
    "date_modified": "2026-01-07T15:32:05.000",
    "request_status": "Pending",
    "responsible_agency": "Department of Sanitation",
    "final_address": "39 Wren St",
    "address_councildis": "D",
    "status": "Assigned to Contractor",
    "contractor": "IV Waste",
    "rowid": "1250285",
    "final_x": "3672489.71783",
    "final_y": "555947.328793",
    "longitude": "-90.09568847728902",
    "latitude": "30.022932901777292",
    "geocoded_column": {
      "latitude": "30.022932901777292",
      "longitude": "-90.09568847728902"
    }
  },
  {
    "service_request": "2026-1250284",
    "request_type": "Trash/Recycling",
    "request_reason": "Request a Large Item Pick Up",
    "date_created": "2026-01-07T15:20:54.000",
    "date_modified": "2026-01-07T15:21:01.000",
    "request_status": "Pending",
    "responsible_agency": "Department of Sanitation",
    "final_address": "4638 Arts St",
    "address_councildis": "D",
    "status": "Assigned to Contractor",
    "contractor": "IV Waste",
    "rowid": "1250284",
    "final_x": "3685888.77705",
    "final_y": "549876.960084",
    "longitude": "-90.05356477661928",
    "latitude": "30.00583686409909",
    "geocoded_column": {
      "latitude": "30.00583686409909",
      "longitude": "-90.05356477661928"
    }
  },
  {
    "service_request": "2026-1250283",
    "request_type": "Trash/Recycling",
    "request_reason": "Replace Recycling Cart",
    "date_created": "2026-01-07T15:20:25.000",
    "date_modified": "2026-01-07T15:20:27.000",
    "request_status": "Pending",
    "responsible_agency": "Department of Sanitation",
    "final_address": "813 Dumaine St",
    "address_councildis": "C",
    "status": "Pending",
    "rowid": "1250283",
    "final_x": "3682639.33672",
    "final_y": "533349.003844",
    "longitude": "-90.0644087531383",
    "latitude": "29.960490177530062",
    "geocoded_column": {
      "latitude": "29.960490177530062",
      "longitude": "-90.0644087531383"
    }
  },
  {
    "service_request": "2026-1250282",
    "request_type": "Roads and Streets",
    "request_reason": "Abandoned Service Cut",
    "date_created": "2026-01-07T15:18:47.000",
    "date_modified": "2026-01-07T15:18:49.000",
    "request_status": "Pending",
    "responsible_agency": "Department of Public Works",
    "final_address": "4851 Robin Hood Dr",
    "address_councildis": "E",
    "status": "Pending",
    "rowid": "1250282",
    "final_x": "3717512.17349",
    "final_y": "557550.576219",
    "longitude": "-89.95336832586707",
    "latitude": "30.025927209485722",
    "geocoded_column": {
      "latitude": "30.025927209485722",
      "longitude": "-89.95336832586707"
    }
  },
  {
    "service_request": "2026-1250281",
    "request_type": "Trash/Recycling",
    "request_reason": "Replace Trash Cart",
    "date_created": "2026-01-07T15:18:35.000",
    "date_modified": "2026-01-07T15:18:36.000",
    "request_status": "Pending",
    "responsible_agency": "Department of Sanitation",
    "final_address": "1729 Calhoun St",
    "address_councildis": "A",
    "status": "Assigned to Contractor",
    "contractor": "IV Waste",
    "rowid": "1250281",
    "final_x": "3665231.09485",
    "final_y": "523635.942203",
    "longitude": "-90.11970556024689",
    "latitude": "29.934300996731718",
    "geocoded_column": {
      "latitude": "29.934300996731718",
      "longitude": "-90.11970556024689"
    }
  },
  {
    "service_request": "2026-1250280",
    "request_type": "Taxi Issues",
    "request_reason": "Taxi Lost & Found Item",
    "date_created": "2026-01-07T15:17:49.000",
    "date_modified": "2026-01-07T15:22:48.000",
    "request_status": "Pending",
    "responsible_agency": "Department of Public Works",
    "final_address": "700 BLK N Rampart St",
    "address_councildis": "C",
    "status": "Pending",
    "rowid": "1250280",
    "final_x": "3681397.1749",
    "final_y": "533425.808264",
    "longitude": "-90.0683285690107",
    "latitude": "29.96073912915691",
    "geocoded_column": {
      "latitude": "29.96073912915691",
      "longitude": "-90.0683285690107"
    }
  },
  {
    "service_request": "2026-1250279",
    "request_type": "Health Related Request",
    "request_reason": "Noise Ordinance Complaint",
    "date_created": "2026-01-07T15:12:17.000",
    "date_modified": "2026-01-07T16:36:37.000",
    "request_status": "Pending",
    "responsible_agency": "Health Department",
    "final_address": "2024 Marengo St",
    "address_councildis": "B",
    "status": "Pending",
    "rowid": "1250279",
    "final_x": "3671747.493",
    "final_y": "522661.527226",
    "longitude": "-90.09916657767764",
    "latitude": "29.931430281493352",
    "geocoded_column": {
      "latitude": "29.931430281493352",
      "longitude": "-90.09916657767764"
    }
  },
  {
    "service_request": "2026-1250278",
    "request_type": "Trash/Recycling",
    "request_reason": "Replace Trash Cart",
    "date_created": "2026-01-07T15:10:17.000",
    "date_modified": "2026-01-07T15:10:18.000",
    "request_status": "Pending",
    "responsible_agency": "Department of Sanitation",
    "final_address": "293 Audubon Blvd",
    "address_councildis": "A",
    "status": "Assigned to Contractor",
    "contractor": "IV Waste",
    "rowid": "1250278",
    "final_x": "3667077.63604",
    "final_y": "529597.872897",
    "longitude": "-90.1136757234181",
    "latitude": "29.950640477756416",
    "geocoded_column": {
      "latitude": "29.950640477756416",
      "longitude": "-90.1136757234181"
    }
  },
  {
    "service_request": "2026-1250277",
    "request_type": "Drainage",
    "request_reason": "Catch Basin Frame and Cover Missing or Damaged",
    "date_created": "2026-01-07T15:08:10.000",
    "date_modified": "2026-01-07T15:08:11.000",
    "request_status": "Pending",
    "responsible_agency": "Sewerage & Water Board",
    "final_address": "3000 BLK Pine St",
    "address_councildis": "B",
    "status": "Pending",
    "rowid": "1250277",
    "final_x": "3667596.39312",
    "final_y": "532196.150618",
    "longitude": "-90.11195030031288",
    "latitude": "29.957769698240096",
    "geocoded_column": {
      "latitude": "29.957769698240096",
      "longitude": "-90.11195030031288"
    }
  },
  {
    "service_request": "2026-1250276",
    "request_type": "Trash/Recycling",
    "request_reason": "Illegal Dumping",
    "date_created": "2026-01-07T15:04:57.000",
    "date_modified": "2026-01-07T15:04:59.000",
    "request_status": "Pending",
    "responsible_agency": "Department of Sanitation",
    "final_address": "126 Oaktree Dr",
    "address_councildis": "A",
    "status": "Pending",
    "rowid": "1250276",
    "final_x": "3665508.60749",
    "final_y": "545121.620943",
    "longitude": "-90.11811008845972",
    "latitude": "29.993371452746082",
    "geocoded_column": {
      "latitude": "29.993371452746082",
      "longitude": "-90.11811008845972"
    }
  },
  {
    "service_request": "2026-1250275",
    "request_type": "Trash/Recycling",
    "request_reason": "Order Second Trash Cart",
    "date_created": "2026-01-07T15:02:21.000",
    "date_modified": "2026-01-07T15:02:23.000",
    "request_status": "Pending",
    "responsible_agency": "Department of Sanitation",
    "final_address": "2001 Baronne St",
    "address_councildis": "B",
    "status": "Assigned to Contractor",
    "contractor": "IV Waste",
    "rowid": "1250275",
    "final_x": "3677523.92872",
    "final_y": "524883.140284",
    "longitude": "-90.08085440131958",
    "latitude": "29.93736664855212",
    "geocoded_column": {
      "latitude": "29.93736664855212",
      "longitude": "-90.08085440131958"
    }
  },
  {
    "service_request": "2026-1250274",
    "request_type": "Trash/Recycling",
    "request_reason": "Order Recycling Cart",
    "date_created": "2026-01-07T15:01:25.000",
    "date_modified": "2026-01-07T15:01:32.000",
    "request_status": "Pending",
    "responsible_agency": "Department of Sanitation",
    "final_address": "2003 Baronne St",
    "address_councildis": "B",
    "status": "Pending",
    "rowid": "1250274",
    "final_x": "3677517.65986",
    "final_y": "524878.676348",
    "longitude": "-90.08087434657952",
    "latitude": "29.93735456261004",
    "geocoded_column": {
      "latitude": "29.93735456261004",
      "longitude": "-90.08087434657952"
    }
  },
  {
    "service_request": "2026-1250273",
    "request_type": "General Services",
    "request_reason": "General Service Request",
    "date_created": "2026-01-07T14:59:36.000",
    "date_modified": "2026-01-07T16:37:51.000",
    "case_close_date": "2026-01-07T10:37:50.000",
    "request_status": "Closed",
    "responsible_agency": "Orleans Parish Communication District",
    "final_address": "11600 Morrison Rd",
    "address_councildis": "E",
    "status": "Referred to External Agency",
    "rowid": "1250273",
    "final_x": "3712842.9731",
    "final_y": "566029.157283",
    "longitude": "-89.96780295767543",
    "latitude": "30.049393700817774",
    "geocoded_column": {
      "latitude": "30.049393700817774",
      "longitude": "-89.96780295767543"
    }
  },
  {
    "service_request": "2026-1250272",
    "request_type": "Abandoned Vehicles",
    "request_reason": "Abandoned/Junk Vehicles",
    "date_created": "2026-01-07T14:59:33.000",
    "date_modified": "2026-01-07T14:59:34.000",
    "request_status": "Pending",
    "responsible_agency": "Department of Public Works",
    "final_address": "4320 Banks St",
    "address_councildis": "A",
    "status": "Pending",
    "rowid": "1250272",
    "final_x": "3669365.90574",
    "final_y": "538055.999049",
    "longitude": "-90.10616450229591",
    "latitude": "29.97383034761862",
    "geocoded_column": {
      "latitude": "29.97383034761862",
      "longitude": "-90.10616450229591"
    }
  },
  {
    "service_request": "2026-1250271",
    "request_type": "Trash/Recycling",
    "request_reason": "Missed Trash Pick-Up",
    "date_created": "2026-01-07T14:59:20.000",
    "date_modified": "2026-01-07T14:59:22.000",
    "request_status": "Pending",
    "responsible_agency": "Department of Sanitation",
    "final_address": "11325 Curran Rd",
    "address_councildis": "E",
    "status": "Assigned to Contractor",
    "contractor": "Waste Pro",
    "rowid": "1250271",
    "final_x": "3711257.37259",
    "final_y": "566686.607075",
    "longitude": "-89.9727897048572",
    "latitude": "30.05125328291266",
    "geocoded_column": {
      "latitude": "30.05125328291266",
      "longitude": "-89.9727897048572"
    }
  },
  {
    "service_request": "2026-1250270",
    "request_type": "Trash/Recycling",
    "request_reason": "Order Recycling Cart",
    "date_created": "2026-01-07T14:59:19.000",
    "date_modified": "2026-01-07T14:59:20.000",
    "request_status": "Pending",
    "responsible_agency": "Department of Sanitation",
    "final_address": "2001 Baronne St",
    "address_councildis": "B",
    "status": "Pending",
    "rowid": "1250270",
    "final_x": "3677523.92872",
    "final_y": "524883.140284",
    "longitude": "-90.08085440131958",
    "latitude": "29.93736664855212",
    "geocoded_column": {
      "latitude": "29.93736664855212",
      "longitude": "-90.08085440131958"
    }
  },
  {
    "service_request": "2026-1250269",
    "request_type": "Trash/Recycling",
    "request_reason": "Request a Large Item Pick Up",
    "date_created": "2026-01-07T14:58:04.000",
    "date_modified": "2026-01-07T14:58:05.000",
    "request_status": "Pending",
    "responsible_agency": "Department of Sanitation",
    "final_address": "2717 Carver Rams Way",
    "address_councildis": "D",
    "status": "Assigned to Contractor",
    "contractor": "IV Waste",
    "rowid": "1250269",
    "final_x": "3689545.7727",
    "final_y": "545150.417295",
    "longitude": "-90.0421797687947",
    "latitude": "29.992727775193423",
    "geocoded_column": {
      "latitude": "29.992727775193423",
      "longitude": "-90.0421797687947"
    }
  },
  {
    "service_request": "2026-1250268",
    "request_type": "Safety & Permits",
    "request_reason": "Zoning Enforcement",
    "date_created": "2026-01-07T14:57:55.000",
    "date_modified": "2026-01-07T14:59:33.000",
    "request_status": "Pending",
    "responsible_agency": "Safety and Permits",
    "final_address": "1321 Sere St",
    "address_councildis": "D",
    "status": "Pending",
    "rowid": "1250268",
    "final_x": "3677635.33966",
    "final_y": "545386.768848",
    "longitude": "-90.0797945147756",
    "latitude": "29.9937413095196",
    "geocoded_column": {
      "latitude": "29.9937413095196",
      "longitude": "-90.0797945147756"
    }
  },
  {
    "service_request": "2026-1250267",
    "request_type": "Drainage",
    "request_reason": "Catch Basin Not Draining",
    "date_created": "2026-01-07T14:56:23.000",
    "date_modified": "2026-01-07T14:56:25.000",
    "request_status": "Pending",
    "responsible_agency": "Sewerage & Water Board",
    "final_address": "5641 Painters St",
    "address_councildis": "D",
    "status": "Pending",
    "rowid": "1250267",
    "final_x": "3686209.71113",
    "final_y": "553947.939928",
    "longitude": "-90.05240709908674",
    "latitude": "30.01702070961983",
    "geocoded_column": {
      "latitude": "30.01702070961983",
      "longitude": "-90.05240709908674"
    }
  },
  {
    "service_request": "2026-1250266",
    "request_type": "Trash/Recycling",
    "request_reason": "Repair Recycling Cart",
    "date_created": "2026-01-07T14:56:22.000",
    "date_modified": "2026-01-07T14:56:24.000",
    "request_status": "Pending",
    "responsible_agency": "Department of Sanitation",
    "final_address": "4180 Vincennes Pl",
    "address_councildis": "B",
    "status": "Pending",
    "rowid": "1250266",
    "final_x": "3668669.16935",
    "final_y": "531088.753282",
    "longitude": "-90.1086001475045",
    "latitude": "29.95469323359766",
    "geocoded_column": {
      "latitude": "29.95469323359766",
      "longitude": "-90.1086001475045"
    }
  },
  {
    "service_request": "2026-1250265",
    "request_type": "Trash/Recycling",
    "request_reason": "Replace Trash Cart",
    "date_created": "2026-01-07T14:55:14.000",
    "date_modified": "2026-01-07T14:55:16.000",
    "request_status": "Pending",
    "responsible_agency": "Department of Sanitation",
    "final_address": "4180 Vincennes Pl",
    "address_councildis": "B",
    "status": "Assigned to Contractor",
    "contractor": "IV Waste",
    "rowid": "1250265",
    "final_x": "3668669.16935",
    "final_y": "531088.753282",
    "longitude": "-90.1086001475045",
    "latitude": "29.95469323359766",
    "geocoded_column": {
      "latitude": "29.95469323359766",
      "longitude": "-90.1086001475045"
    }
  },
  {
    "service_request": "2026-1250264",
    "request_type": "Trash/Recycling",
    "request_reason": "Request a Large Item Pick Up",
    "date_created": "2026-01-07T14:54:24.000",
    "date_modified": "2026-01-07T14:54:27.000",
    "request_status": "Pending",
    "responsible_agency": "Department of Sanitation",
    "final_address": "7614 Wales St",
    "address_councildis": "E",
    "status": "Assigned to Contractor",
    "contractor": "Waste Pro",
    "rowid": "1250264",
    "final_x": "3700704.84772",
    "final_y": "561531.844895",
    "longitude": "-90.0063312439081",
    "latitude": "30.037420011653847",
    "geocoded_column": {
      "latitude": "30.037420011653847",
      "longitude": "-90.0063312439081"
    }
  },
  {
    "service_request": "2026-1250263",
    "request_type": "Trash/Recycling",
    "request_reason": "Repair Recycling Cart",
    "date_created": "2026-01-07T14:53:08.000",
    "date_modified": "2026-01-07T14:53:10.000",
    "request_status": "Pending",
    "responsible_agency": "Department of Sanitation",
    "final_address": "120 Lakewood Estates Dr",
    "address_councildis": "C",
    "status": "Pending",
    "rowid": "1250263",
    "final_x": "3701664.71338",
    "final_y": "512262.005361",
    "longitude": "-90.0051027461412",
    "latitude": "29.90191521470931",
    "geocoded_column": {
      "latitude": "29.90191521470931",
      "longitude": "-90.0051027461412"
    }
  },
  {
    "service_request": "2026-1250262",
    "request_type": "Trash/Recycling",
    "request_reason": "Replace Trash Cart",
    "date_created": "2026-01-07T14:50:38.000",
    "date_modified": "2026-01-07T14:50:39.000",
    "request_status": "Pending",
    "responsible_agency": "Department of Sanitation",
    "final_address": "3309 Elysian Fields Ave",
    "address_councildis": "D",
    "status": "Assigned to Contractor",
    "contractor": "IV Waste",
    "rowid": "1250262",
    "final_x": "3684450.57417",
    "final_y": "544866.832719",
    "longitude": "-90.05828451808105",
    "latitude": "29.992104901808638",
    "geocoded_column": {
      "latitude": "29.992104901808638",
      "longitude": "-90.05828451808105"
    }
  },
  {
    "service_request": "2026-1250261",
    "request_type": "Trash/Recycling",
    "request_reason": "Order Recycling Cart",
    "date_created": "2026-01-07T14:49:07.000",
    "date_modified": "2026-01-07T14:49:08.000",
    "request_status": "Pending",
    "responsible_agency": "Department of Sanitation",
    "final_address": "4821 Prytania St",
    "address_councildis": "B",
    "status": "Pending",
    "rowid": "1250261",
    "final_x": "3669264.07866",
    "final_y": "520199.877816",
    "longitude": "-90.10708960302084",
    "latitude": "29.92473484641953",
    "geocoded_column": {
      "latitude": "29.92473484641953",
      "longitude": "-90.10708960302084"
    }
  },
  {
    "service_request": "2026-1250260",
    "request_type": "Trash/Recycling",
    "request_reason": "Order Second Trash Cart",
    "date_created": "2026-01-07T14:48:46.000",
    "date_modified": "2026-01-07T14:48:47.000",
    "request_status": "Pending",
    "responsible_agency": "Department of Sanitation",
    "final_address": "4821 Prytania St",
    "address_councildis": "B",
    "status": "Assigned to Contractor",
    "contractor": "IV Waste",
    "rowid": "1250260",
    "final_x": "3669264.07866",
    "final_y": "520199.877816",
    "longitude": "-90.10708960302084",
    "latitude": "29.92473484641953",
    "geocoded_column": {
      "latitude": "29.92473484641953",
      "longitude": "-90.10708960302084"
    }
  },
  {
    "service_request": "2026-1250259",
    "request_type": "Trash/Recycling",
    "request_reason": "Order Trash Cart",
    "date_created": "2026-01-07T14:48:18.000",
    "date_modified": "2026-01-07T14:48:19.000",
    "request_status": "Pending",
    "responsible_agency": "Department of Sanitation",
    "final_address": "4821 Prytania St",
    "address_councildis": "B",
    "status": "Assigned to Contractor",
    "contractor": "IV Waste",
    "rowid": "1250259",
    "final_x": "3669264.07866",
    "final_y": "520199.877816",
    "longitude": "-90.10708960302084",
    "latitude": "29.92473484641953",
    "geocoded_column": {
      "latitude": "29.92473484641953",
      "longitude": "-90.10708960302084"
    }
  },
  {
    "service_request": "2026-1250258",
    "request_type": "Health Related Request",
    "request_reason": "Homeless Encampment Complaint",
    "date_created": "2026-01-07T14:47:30.000",
    "date_modified": "2026-01-07T14:47:31.000",
    "request_status": "Pending",
    "responsible_agency": "Office Of Homeless Services And Strategy",
    "final_address": "800 BLK N Derbigny St",
    "address_councildis": "D",
    "status": "Pending",
    "rowid": "1250258",
    "final_x": "3679774.11679",
    "final_y": "535288.759591",
    "longitude": "-90.07338918388304",
    "latitude": "29.96591078066911",
    "geocoded_column": {
      "latitude": "29.96591078066911",
      "longitude": "-90.07338918388304"
    }
  },
  {
    "service_request": "2026-1250257",
    "request_type": "Property Maintenance",
    "request_reason": "Property Maintenance",
    "date_created": "2026-01-07T14:47:22.000",
    "date_modified": "2026-01-07T14:47:23.000",
    "request_status": "Pending",
    "responsible_agency": "Department of Code Enforcement",
    "final_address": "900 Belleville St",
    "address_councildis": "C",
    "status": "Pending",
    "rowid": "1250257",
    "final_x": "3687825.74703",
    "final_y": "528308.904896",
    "longitude": "-90.04820966247249",
    "latitude": "29.946472690784088",
    "geocoded_column": {
      "latitude": "29.946472690784088",
      "longitude": "-90.04820966247249"
    }
  },
  {
    "service_request": "2026-1250256",
    "request_type": "Trash/Recycling",
    "request_reason": "Request a Large Item Pick Up",
    "date_created": "2026-01-07T14:46:25.000",
    "date_modified": "2026-01-07T14:46:26.000",
    "request_status": "Pending",
    "responsible_agency": "Department of Sanitation",
    "final_address": "1847 Gentilly Blvd Apt C",
    "address_councildis": "A",
    "status": "Assigned to Contractor",
    "contractor": "IV Waste",
    "rowid": "1250256",
    "final_x": "3678697.58632",
    "final_y": "542730.187981",
    "longitude": "-90.07653107971944",
    "latitude": "29.986404647153375",
    "geocoded_column": {
      "latitude": "29.986404647153375",
      "longitude": "-90.07653107971944"
    }
  },
  {
    "service_request": "2026-1250255",
    "request_type": "Trash/Recycling",
    "request_reason": "Request a Large Item Pick Up",
    "date_created": "2026-01-07T14:45:55.000",
    "date_modified": "2026-01-07T14:45:56.000",
    "request_status": "Pending",
    "responsible_agency": "Department of Sanitation",
    "final_address": "2851 Grand-Route St John St",
    "address_councildis": "A",
    "status": "Assigned to Contractor",
    "contractor": "IV Waste",
    "rowid": "1250255",
    "final_x": "3677884.15061",
    "final_y": "540321.747467",
    "longitude": "-90.07918367780833",
    "latitude": "29.97980677893554",
    "geocoded_column": {
      "latitude": "29.97980677893554",
      "longitude": "-90.07918367780833"
    }
  },
  {
    "service_request": "2026-1250254",
    "request_type": "Trash/Recycling",
    "request_reason": "Request a Large Item Pick Up",
    "date_created": "2026-01-07T14:45:26.000",
    "date_modified": "2026-01-07T14:45:27.000",
    "request_status": "Pending",
    "responsible_agency": "Department of Sanitation",
    "final_address": "4550 Louisa Dr",
    "address_councildis": "D",
    "status": "Assigned to Contractor",
    "contractor": "IV Waste",
    "rowid": "1250254",
    "final_x": "3690854.84323",
    "final_y": "550740.237973",
    "longitude": "-90.03784503503093",
    "latitude": "30.008057116901597",
    "geocoded_column": {
      "latitude": "30.008057116901597",
      "longitude": "-90.03784503503093"
    }
  },
  {
    "service_request": "2026-1250253",
    "request_type": "Trash/Recycling",
    "request_reason": "Repair Trash Cart",
    "date_created": "2026-01-07T14:43:18.000",
    "date_modified": "2026-01-07T14:43:19.000",
    "request_status": "Pending",
    "responsible_agency": "Department of Sanitation",
    "final_address": "5810 S Front St",
    "address_councildis": "A",
    "status": "Assigned to Contractor",
    "contractor": "IV Waste",
    "rowid": "1250253",
    "final_x": "3664941.78727",
    "final_y": "516913.198901",
    "longitude": "-90.12084347952094",
    "latitude": "29.915823987803144",
    "geocoded_column": {
      "latitude": "29.915823987803144",
      "longitude": "-90.12084347952094"
    }
  },
  {
    "service_request": "2026-1250252",
    "request_type": "Trash/Recycling",
    "request_reason": "Request a Large Item Pick Up",
    "date_created": "2026-01-07T14:42:52.000",
    "date_modified": "2026-01-07T16:33:58.000",
    "case_close_date": "2026-01-07T10:33:57.000",
    "request_status": "Closed",
    "responsible_agency": "Department of Sanitation",
    "final_address": "1434 Forstall St",
    "address_councildis": "E",
    "status": "Assigned to Contractor",
    "contractor": "Waste Pro",
    "contractor_action": "Completed",
    "rowid": "1250252",
    "final_x": "3696557.00784",
    "final_y": "535621.120006",
    "longitude": "-90.02037758207251",
    "latitude": "29.96630655550426",
    "geocoded_column": {
      "latitude": "29.96630655550426",
      "longitude": "-90.02037758207251"
    }
  },
  {
    "service_request": "2026-1250251",
    "request_type": "Parks & Parkways",
    "request_reason": "Request Tree Service (Right of Way/Public Property)",
    "date_created": "2026-01-07T14:42:46.000",
    "date_modified": "2026-01-07T14:45:17.000",
    "request_status": "Pending",
    "responsible_agency": "Department of Parks & Parkway",
    "final_address": "5641 Painters St",
    "address_councildis": "D",
    "status": "Pending",
    "rowid": "1250251",
    "final_x": "3686209.71113",
    "final_y": "553947.939928",
    "longitude": "-90.05240709908674",
    "latitude": "30.01702070961983",
    "geocoded_column": {
      "latitude": "30.01702070961983",
      "longitude": "-90.05240709908674"
    }
  },
  {
    "service_request": "2026-1250250",
    "request_type": "Trash/Recycling",
    "request_reason": "Request a Large Item Pick Up",
    "date_created": "2026-01-07T14:41:24.000",
    "date_modified": "2026-01-07T14:41:25.000",
    "request_status": "Pending",
    "responsible_agency": "Department of Sanitation",
    "final_address": "5441 Urquhart St",
    "address_councildis": "E",
    "status": "Assigned to Contractor",
    "contractor": "Waste Pro",
    "rowid": "1250250",
    "final_x": "3697705.59242",
    "final_y": "534643.904646",
    "longitude": "-90.01678585117743",
    "latitude": "29.963583323530717",
    "geocoded_column": {
      "latitude": "29.963583323530717",
      "longitude": "-90.01678585117743"
    }
  },
  {
    "service_request": "2026-1250249",
    "request_type": "Trash/Recycling",
    "request_reason": "Repair Trash Cart",
    "date_created": "2026-01-07T14:40:38.000",
    "date_modified": "2026-01-07T14:40:40.000",
    "request_status": "Pending",
    "responsible_agency": "Department of Sanitation",
    "final_address": "3518 Gentilly Blvd",
    "address_councildis": "D",
    "status": "Assigned to Contractor",
    "contractor": "IV Waste",
    "rowid": "1250249",
    "final_x": "3685631.41372",
    "final_y": "548656.356499",
    "longitude": "-90.05442088594712",
    "latitude": "30.00248854753401",
    "geocoded_column": {
      "latitude": "30.00248854753401",
      "longitude": "-90.05442088594712"
    }
  },
  {
    "service_request": "2026-1250248",
    "request_type": "Trash/Recycling",
    "request_reason": "Replace Trash Cart",
    "date_created": "2026-01-07T14:39:43.000",
    "date_modified": "2026-01-07T14:39:45.000",
    "request_status": "Pending",
    "responsible_agency": "Department of Sanitation",
    "final_address": "6861 Norwood Ct",
    "address_councildis": "E",
    "status": "Assigned to Contractor",
    "contractor": "Waste Pro",
    "rowid": "1250248",
    "final_x": "3701156.25597",
    "final_y": "557310.026331",
    "longitude": "-90.00505935904049",
    "latitude": "30.025797264706203",
    "geocoded_column": {
      "latitude": "30.025797264706203",
      "longitude": "-90.00505935904049"
    }
  },
  {
    "service_request": "2026-1250247",
    "request_type": "Trash/Recycling",
    "request_reason": "Start Trash Service",
    "date_created": "2026-01-07T14:39:20.000",
    "date_modified": "2026-01-07T14:39:22.000",
    "request_status": "Pending",
    "responsible_agency": "Department of Sanitation",
    "final_address": "1100 Milton St",
    "address_councildis": "D",
    "status": "Assigned to Contractor",
    "contractor": "IV Waste",
    "rowid": "1250247",
    "final_x": "3676273.71758",
    "final_y": "545961.403984",
    "longitude": "-90.08407588901012",
    "latitude": "29.995362243362468",
    "geocoded_column": {
      "latitude": "29.995362243362468",
      "longitude": "-90.08407588901012"
    }
  },
  {
    "service_request": "2026-1250246",
    "request_type": "Trash/Recycling",
    "request_reason": "Request a Large Item Pick Up",
    "date_created": "2026-01-07T14:36:46.000",
    "date_modified": "2026-01-07T14:36:47.000",
    "request_status": "Pending",
    "responsible_agency": "Department of Sanitation",
    "final_address": "4510 Chantilly Dr",
    "address_councildis": "E",
    "status": "Assigned to Contractor",
    "contractor": "Waste Pro",
    "rowid": "1250246",
    "final_x": "3700920.47805",
    "final_y": "552926.678807",
    "longitude": "-90.00596483108241",
    "latitude": "30.013752247103366",
    "geocoded_column": {
      "latitude": "30.013752247103366",
      "longitude": "-90.00596483108241"
    }
  },
  {
    "service_request": "2026-1250245",
    "request_type": "Streetlights",
    "request_reason": "Streetlight Outage/Malfunction",
    "date_created": "2026-01-07T14:36:37.000",
    "date_modified": "2026-01-07T14:36:39.000",
    "request_status": "Pending",
    "responsible_agency": "Department of Public Works",
    "final_address": "1420 Philip St",
    "address_councildis": "B",
    "status": "Pending",
    "rowid": "1250245",
    "final_x": "3677769.5323",
    "final_y": "522790.746171",
    "longitude": "-90.08015126074933",
    "latitude": "29.93160586720302",
    "geocoded_column": {
      "latitude": "29.93160586720302",
      "longitude": "-90.08015126074933"
    }
  },
  {
    "service_request": "2026-1250244",
    "request_type": "Streetlights",
    "request_reason": "Streetlight Outage/Malfunction",
    "date_created": "2026-01-07T14:35:24.000",
    "date_modified": "2026-01-07T14:35:26.000",
    "request_status": "Pending",
    "responsible_agency": "Department of Public Works",
    "final_address": "3018 Allen St",
    "address_councildis": "D",
    "status": "Pending",
    "rowid": "1250244",
    "final_x": "3682133.08636",
    "final_y": "543753.342222",
    "longitude": "-90.06564390225826",
    "latitude": "29.989113901422677",
    "geocoded_column": {
      "latitude": "29.989113901422677",
      "longitude": "-90.06564390225826"
    }
  },
  {
    "service_request": "2026-1250243",
    "request_type": "Streetlights",
    "request_reason": "Streetlight Outage/Malfunction",
    "date_created": "2026-01-07T14:33:40.000",
    "date_modified": "2026-01-07T14:33:42.000",
    "request_status": "Pending",
    "responsible_agency": "Department of Public Works",
    "final_address": "1323 N Rendon St",
    "address_councildis": "A",
    "status": "Pending",
    "rowid": "1250243",
    "final_x": "3676098.91899",
    "final_y": "540158.578379",
    "longitude": "-90.08482779057957",
    "latitude": "29.979411726957505",
    "geocoded_column": {
      "latitude": "29.979411726957505",
      "longitude": "-90.08482779057957"
    }
  },
  {
    "service_request": "2026-1250242",
    "request_type": "Trash/Recycling",
    "request_reason": "Request a Large Item Pick Up",
    "date_created": "2026-01-07T14:32:56.000",
    "date_modified": "2026-01-07T14:32:58.000",
    "request_status": "Pending",
    "responsible_agency": "Department of Sanitation",
    "final_address": "5360 Chestnut St",
    "address_councildis": "B",
    "status": "Assigned to Contractor",
    "contractor": "IV Waste",
    "rowid": "1250242",
    "final_x": "3667092.52199",
    "final_y": "519384.759735",
    "longitude": "-90.11397189037513",
    "latitude": "29.922557250929447",
    "geocoded_column": {
      "latitude": "29.922557250929447",
      "longitude": "-90.11397189037513"
    }
  },
  {
    "service_request": "2026-1250241",
    "request_type": "Health Related Request",
    "request_reason": "Homeless Encampment Complaint",
    "date_created": "2026-01-07T14:30:29.000",
    "date_modified": "2026-01-07T14:30:30.000",
    "request_status": "Pending",
    "responsible_agency": "Office Of Homeless Services And Strategy",
    "final_address": "800 BLK N Derbigny St",
    "address_councildis": "D",
    "status": "Pending",
    "rowid": "1250241",
    "final_x": "3679774.11679",
    "final_y": "535288.759591",
    "longitude": "-90.07338918388304",
    "latitude": "29.96591078066911",
    "geocoded_column": {
      "latitude": "29.96591078066911",
      "longitude": "-90.07338918388304"
    }
  },
  {
    "service_request": "2026-1250240",
    "request_type": "Trash/Recycling",
    "request_reason": "Request a Large Item Pick Up",
    "date_created": "2026-01-07T14:29:57.000",
    "date_modified": "2026-01-07T14:29:59.000",
    "request_status": "Pending",
    "responsible_agency": "Department of Sanitation",
    "final_address": "7811 Pebble Dr",
    "address_councildis": "E",
    "status": "Assigned to Contractor",
    "contractor": "Waste Pro",
    "rowid": "1250240",
    "final_x": "3714747.82898",
    "final_y": "569625.646374",
    "longitude": "-89.96164643648557",
    "latitude": "30.05922001521166",
    "geocoded_column": {
      "latitude": "30.05922001521166",
      "longitude": "-89.96164643648557"
    }
  },
  {
    "service_request": "2026-1250239",
    "request_type": "Trash/Recycling",
    "request_reason": "Repair Trash Cart",
    "date_created": "2026-01-07T14:22:29.000",
    "date_modified": "2026-01-07T14:22:30.000",
    "request_status": "Pending",
    "responsible_agency": "Department of Sanitation",
    "final_address": "1028 Pacific Ave",
    "address_councildis": "C",
    "status": "Assigned to Contractor",
    "contractor": "Richards Disposal",
    "rowid": "1250239",
    "final_x": "3688457.59695",
    "final_y": "527696.673087",
    "longitude": "-90.04623640727698",
    "latitude": "29.94476976145952",
    "geocoded_column": {
      "latitude": "29.94476976145952",
      "longitude": "-90.04623640727698"
    }
  },
  {
    "service_request": "2026-1250238",
    "request_type": "Trash/Recycling",
    "request_reason": "Order Trash Cart",
    "date_created": "2026-01-07T14:21:33.000",
    "date_modified": "2026-01-07T14:21:35.000",
    "request_status": "Pending",
    "responsible_agency": "Department of Sanitation",
    "final_address": "404 S Hennessey St",
    "address_councildis": "A",
    "status": "Assigned to Contractor",
    "contractor": "IV Waste",
    "rowid": "1250238",
    "final_x": "3669540.19425",
    "final_y": "537895.928457",
    "longitude": "-90.10561947583037",
    "latitude": "29.973385073686295",
    "geocoded_column": {
      "latitude": "29.973385073686295",
      "longitude": "-90.10561947583037"
    }
  },
  {
    "service_request": "2026-1250237",
    "request_type": "Streetlights",
    "request_reason": "Streetlight Outage/Malfunction",
    "date_created": "2026-01-07T14:18:10.000",
    "date_modified": "2026-01-07T14:18:12.000",
    "request_status": "Pending",
    "responsible_agency": "Department of Public Works",
    "final_address": "2820 Donner Dr",
    "address_councildis": "C",
    "status": "Pending",
    "rowid": "1250237",
    "final_x": "3692592.23107",
    "final_y": "519446.840887",
    "longitude": "-90.03347766027451",
    "latitude": "29.921957178159698",
    "geocoded_column": {
      "latitude": "29.921957178159698",
      "longitude": "-90.03347766027451"
    }
  },
  {
    "service_request": "2026-1250236",
    "request_type": "Trash/Recycling",
    "request_reason": "Repair Recycling Cart",
    "date_created": "2026-01-07T14:17:26.000",
    "date_modified": "2026-01-07T14:17:27.000",
    "request_status": "Pending",
    "responsible_agency": "Department of Sanitation",
    "final_address": "586 Walnut St",
    "address_councildis": "A",
    "status": "Pending",
    "rowid": "1250236",
    "final_x": "3663183.05024",
    "final_y": "524127.912572",
    "longitude": "-90.12615484235931",
    "latitude": "29.935713246786555",
    "geocoded_column": {
      "latitude": "29.935713246786555",
      "longitude": "-90.12615484235931"
    }
  },
  {
    "service_request": "2026-1250235",
    "request_type": "Trash/Recycling",
    "request_reason": "Order Recycling Cart",
    "date_created": "2026-01-07T14:15:57.000",
    "date_modified": "2026-01-07T14:15:58.000",
    "request_status": "Pending",
    "responsible_agency": "Department of Sanitation",
    "final_address": "586 Walnut St",
    "address_councildis": "A",
    "status": "Pending",
    "rowid": "1250235",
    "final_x": "3663183.05024",
    "final_y": "524127.912572",
    "longitude": "-90.12615484235931",
    "latitude": "29.935713246786555",
    "geocoded_column": {
      "latitude": "29.935713246786555",
      "longitude": "-90.12615484235931"
    }
  },
  {
    "service_request": "2026-1250234",
    "request_type": "Trash/Recycling",
    "request_reason": "Return Recycling Cart",
    "date_created": "2026-01-07T14:14:35.000",
    "date_modified": "2026-01-07T14:14:37.000",
    "request_status": "Pending",
    "responsible_agency": "Department of Sanitation",
    "final_address": "16 Heron St",
    "address_councildis": "D",
    "status": "Pending",
    "rowid": "1250234",
    "final_x": "3675306.15387",
    "final_y": "555422.109337",
    "longitude": "-90.0868072162499",
    "latitude": "30.021404790954225",
    "geocoded_column": {
      "latitude": "30.021404790954225",
      "longitude": "-90.0868072162499"
    }
  },