[
  {
    "service_request": "2024-1150240",
    "request_type": "Trash/Recycling",
    "request_reason": "Order Trash Cart",
    "date_created": "2024-11-20T23:41:19.000",
    "date_modified": "2024-11-20T23:41:21.000",
    "request_status": "Pending",
    "responsible_agency": "Department of Sanitation",
    "final_address": "10320 Chevy Chase Dr",
    "address_councildis": "E",
    "status": "Assigned to Contractor",
    "contractor": "Waste Pro",
    "rowid": "1150240",
    "final_x": "3710389.94443",
    "final_y": "563344.337184",
    "longitude": "-89.97565650206668",
    "latitude": "30.042091677870282",
    "geocoded_column": {
      "latitude": "30.042091677870282",
      "longitude": "-89.97565650206668"
    }
  },
  {
    "service_request": "2024-1150239",
    "request_type": "Safety & Permits",
    "request_reason": "Licenses & Permits",
    "date_created": "2024-11-20T22:20:11.000",
    "date_modified": "2024-11-20T22:20:11.000",
    "request_status": "Pending",
    "responsible_agency": "Safety and Permits",
    "final_address": "600 BLK S Carrollton Ave",
    "address_councildis": "A",
    "status": "Pending",
    "rowid": "1150239",
    "final_x": "3660712.12834",
    "final_y": "526951.098116",
    "longitude": "-90.13386232001955",
    "latitude": "29.943547462454497",
    "geocoded_column": {
      "latitude": "29.943547462454497",
      "longitude": "-90.13386232001955"
    }
  },
  {
    "service_request": "2024-1150238",
    "request_type": "Trash/Recycling",
    "request_reason": "Request a Large Item Pick Up",
    "date_created": "2024-11-20T22:14:11.000",
    "date_modified": "2024-11-20T22:14:12.000",
    "request_status": "Pending",
    "responsible_agency": "Department of Sanitation",
    "final_address": "4343 Genoa St",
    "address_councildis": "E",
    "status": "Assigned to Contractor",
    "contractor": "Waste Pro",
    "rowid": "1150238",
    "final_x": "3760916.38589",
    "final_y": "573658.667946",
    "longitude": "-89.8155461661284",
    "latitude": "30.068708476580923",
    "geocoded_column": {
      "latitude": "30.068708476580923",
      "longitude": "-89.8155461661284"
    }
  },
  {
    "service_request": "2024-1150237",
    "request_type": "Traffic Signals",
    "request_reason": "Traffic Signal Malfunctioning or Damaged",
    "date_created": "2024-11-20T21:22:54.000",
    "date_modified": "2024-11-20T21:22:54.000",
    "request_status": "Pending",
    "responsible_agency": "Department of Public Works",
    "final_address": "0 General De Gaulle Dr",
    "address_councildis": "C",
    "status": "Pending",
    "rowid": "1150237",
    "final_x": "3697018.31735",
    "final_y": "519731.228088",
    "longitude": "-90.01949615286618",
    "latitude": "29.922600343135908",
    "geocoded_column": {
      "latitude": "29.922600343135908",
      "longitude": "-90.01949615286618"
    }
  },
  {
    "service_request": "2024-1150236",
    "request_type": "Parks & Parkways",
    "request_reason": "Request Tree Service (Right of Way/Public Property)",
    "date_created": "2024-11-20T20:27:24.000",
    "date_modified": "2024-11-20T20:27:24.000",
    "request_status": "Pending",
    "responsible_agency": "Department of Parks & Parkway",
    "final_address": "1127 N Dorgenois St",
    "address_councildis": "D",
    "status": "Pending",
    "rowid": "1150236",
    "final_x": "3678168.34222",
    "final_y": "538043.304713",
    "longitude": "-90.07836490024344",
    "latitude": "29.97353329054808",
    "geocoded_column": {
      "latitude": "29.97353329054808",
      "longitude": "-90.07836490024344"
    }
  },
  {
    "service_request": "2024-1150235",
    "request_type": "Parks & Parkways",
    "request_reason": "Request Tree Service (Right of Way/Public Property)",
    "date_created": "2024-11-20T20:24:04.000",
    "date_modified": "2024-11-20T20:24:04.000",
    "request_status": "Pending",
    "responsible_agency": "Department of Parks & Parkway",
    "final_address": "10 N Dorgenois St",
    "address_councildis": "D",
    "status": "Pending",
    "rowid": "1150235",
    "final_x": "3680737.5636",
    "final_y": "541233.653068",
    "longitude": "-90.0701396843491",
    "latitude": "29.982228017805596",
    "geocoded_column": {
      "latitude": "29.982228017805596",
      "longitude": "-90.0701396843491"
    }
  },
  {
    "service_request": "2024-1150234",
    "request_type": "Streetlights",
    "request_reason": "Streetlight Outage/Malfunction",
    "date_created": "2024-11-20T20:13:18.000",
    "date_modified": "2024-11-20T20:13:19.000",
    "request_status": "Pending",
    "responsible_agency": "Department of Public Works",
    "final_address": "5500 BLK Loyola Ave",
    "address_councildis": "A",
    "status": "Pending",
    "contractor": "Legacy Professional Services",
    "rowid": "1150234",
    "final_x": "3667201.79942",
    "final_y": "523068.187575",
    "longitude": "-90.11350316516896",
    "latitude": "29.932682311876253",
    "geocoded_column": {
      "latitude": "29.932682311876253",
      "longitude": "-90.11350316516896"
    }
  },
  {
    "service_request": "2024-1150233",
    "request_type": "Streetlights",
    "request_reason": "Streetlight Outage/Malfunction",
    "date_created": "2024-11-20T19:27:39.000",
    "date_modified": "2024-11-20T19:27:40.000",
    "request_status": "Pending",
    "responsible_agency": "Department of Public Works",
    "final_address": "1700 BLK Rosiere St",
    "address_councildis": "D",
    "status": "Pending",
    "contractor": "Legacy Professional Services",
    "rowid": "1150233",
    "final_x": "3678777.99379",
    "final_y": "542125.986402",
    "longitude": "-90.07629803960361",
    "latitude": "29.98474087823362",
    "geocoded_column": {
      "latitude": "29.98474087823362",
      "longitude": "-90.07629803960361"
    }
  },
  {
    "service_request": "2024-1150232",
    "request_type": "Trash/Recycling",
    "request_reason": "Replace Trash Cart",
    "date_created": "2024-11-20T19:04:03.000",
    "date_modified": "2024-11-20T19:04:04.000",
    "request_status": "Pending",
    "responsible_agency": "Department of Sanitation",
    "final_address": "1611 Audubon St",
    "address_councildis": "A",
    "status": "Assigned to Contractor",
    "contractor": "IV Waste",
    "rowid": "1150232",
    "final_x": "3665308.40692",
    "final_y": "527580.831935",
    "longitude": "-90.11932953973314",
    "latitude": "29.94514592980606",
    "geocoded_column": {
      "latitude": "29.94514592980606",
      "longitude": "-90.11932953973314"
    }
  },
  {
    "service_request": "2024-1150231",
    "request_type": "Streetlights",
    "request_reason": "Streetlight Outage/Malfunction",
    "date_created": "2024-11-20T19:02:22.000",
    "date_modified": "2024-11-20T19:02:23.000",
    "request_status": "Pending",
    "responsible_agency": "Department of Public Works",
    "final_address": "3133 Prytania St",
    "address_councildis": "B",
    "status": "Pending",
    "contractor": "Legacy Professional Services",
    "rowid": "1150231",
    "final_x": "3675109.71438",
    "final_y": "521425.563577",
    "longitude": "-90.08859482525607",
    "latitude": "29.9279317773479",
    "geocoded_column": {
      "latitude": "29.9279317773479",
      "longitude": "-90.08859482525607"
    }
  },
  {
    "service_request": "2024-1150230",
    "request_type": "Abandoned Vehicles",
    "request_reason": "Abandoned/Junk Vehicles",
    "date_created": "2024-11-20T18:57:52.000",
    "date_modified": "2024-11-20T18:57:52.000",
    "request_status": "Pending",
    "responsible_agency": "Department of Public Works",
    "final_address": "907 Washington Ave",
    "address_councildis": "B",
    "status": "Pending",
    "rowid": "1150230",
    "final_x": "3677458.32354",
    "final_y": "520288.516152",
    "longitude": "-90.08122003009265",
    "latitude": "29.92473490447262",
    "geocoded_column": {
      "latitude": "29.92473490447262",
      "longitude": "-90.08122003009265"
    }
  },
  {
    "service_request": "2024-1150229",
    "request_type": "Trash/Recycling",
    "request_reason": "Replace Trash Cart",
    "date_created": "2024-11-20T18:43:31.000",
    "date_modified": "2024-11-20T18:43:32.000",
    "request_status": "Pending",
    "responsible_agency": "Department of Sanitation",
    "final_address": "2139 Third St",
    "address_councildis": "B",
    "status": "Assigned to Contractor",
    "contractor": "IV Waste",
    "rowid": "1150229",
    "final_x": "3675306.39381",
    "final_y": "524648.421308",
    "longitude": "-90.08786336901053",
    "latitude": "29.936787711428913",
    "geocoded_column": {
      "latitude": "29.936787711428913",
      "longitude": "-90.08786336901053"
    }
  },
  {
    "service_request": "2024-1150228",
    "request_type": "Trash/Recycling",
    "request_reason": "Missed Trash Pick-Up",
    "date_created": "2024-11-20T18:34:34.000",
    "date_modified": "2024-11-20T18:34:35.000",
    "request_status": "Pending",
    "responsible_agency": "Department of Sanitation",
    "final_address": "7811 St Charles Ave",
    "address_councildis": "A",
    "status": "Assigned to Contractor",
    "contractor": "IV Waste",
    "rowid": "1150228",
    "final_x": "3661369.38669",
    "final_y": "526185.045118",
    "longitude": "-90.13181253396668",
    "latitude": "29.941422125431757",
    "geocoded_column": {
      "latitude": "29.941422125431757",
      "longitude": "-90.13181253396668"
    }
  },
  {
    "service_request": "2024-1150227",
    "request_type": "Street and Traffic Signs",
    "request_reason": "Traffic or Parking Sign Damaged or Missing",
    "date_created": "2024-11-20T18:28:43.000",
    "date_modified": "2024-11-20T18:28:43.000",
    "request_status": "Pending",
    "responsible_agency": "Department of Public Works",
    "final_address": "702 Touro St",
    "address_councildis": "C",
    "status": "Pending",
    "rowid": "1150227",
    "final_x": "3684317.21455",
    "final_y": "534844.378438",
    "longitude": "-90.05905784847549",
    "latitude": "29.964550744592923",
    "geocoded_column": {
      "latitude": "29.964550744592923",
      "longitude": "-90.05905784847549"
    }
  },
  {
    "service_request": "2024-1150226",
    "request_type": "Street and Traffic Signs",
    "request_reason": "Street Name Sign Damaged or Missing",
    "date_created": "2024-11-20T18:27:14.000",
    "date_modified": "2024-11-20T18:27:14.000",
    "request_status": "Pending",
    "responsible_agency": "Department of Public Works",
    "final_address": "702 Touro St",
    "address_councildis": "C",
    "status": "Pending",
    "rowid": "1150226",
    "final_x": "3684317.21455",
    "final_y": "534844.378438",
    "longitude": "-90.05905784847549",
    "latitude": "29.964550744592923",
    "geocoded_column": {
      "latitude": "29.964550744592923",
      "longitude": "-90.05905784847549"
    }
  },
  {
    "service_request": "2024-1150225",
    "request_type": "Streetlights",
    "request_reason": "Streetlight Outage/Malfunction",
    "date_created": "2024-11-20T18:25:01.000",
    "date_modified": "2024-11-20T18:25:02.000",
    "request_status": "Pending",
    "responsible_agency": "Department of Public Works",
    "final_address": "5100 BLK Cucullu St",
    "address_councildis": "B",
    "status": "Pending",
    "contractor": "Legacy Professional Services",
    "rowid": "1150225",
    "final_x": "3668430.25661",
    "final_y": "525592.162186",
    "longitude": "-90.10953991321716",
    "latitude": "29.939586414808716",
    "geocoded_column": {
      "latitude": "29.939586414808716",
      "longitude": "-90.10953991321716"
    }
  },
  {
    "service_request": "2024-1150224",
    "request_type": "Streetlights",
    "request_reason": "Streetlight Outage/Malfunction",
    "date_created": "2024-11-20T18:22:09.000",
    "date_modified": "2024-11-20T18:22:10.000",
    "request_status": "Pending",
    "responsible_agency": "Department of Public Works",
    "final_address": "0 BLK Park Island Dr",
    "address_councildis": "A",
    "status": "Pending",
    "contractor": "Legacy Professional Services",
    "rowid": "1150224",
    "final_x": "3676114.98008",
    "final_y": "548451.895666",
    "longitude": "-90.08449158147806",
    "latitude": "30.00221497657492",
    "geocoded_column": {
      "latitude": "30.00221497657492",
      "longitude": "-90.08449158147806"
    }
  },
  {
    "service_request": "2024-1150223",
    "request_type": "General Services",
    "request_reason": "General Service Request",
    "date_created": "2024-11-20T18:21:28.000",
    "date_modified": "2024-11-20T18:21:28.000",
    "request_status": "Pending",
    "responsible_agency": "Orleans Parish Communication District",
    "final_address": "421 S Telemachus St",
    "address_councildis": "B",
    "status": "Pending",
    "rowid": "1150223",
    "final_x": "3671407.1611",
    "final_y": "536277.771399",
    "longitude": "-90.09977821289688",
    "latitude": "29.96888055148437",
    "geocoded_column": {
      "latitude": "29.96888055148437",
      "longitude": "-90.09977821289688"
    }
  },
  {
    "service_request": "2024-1150222",
    "request_type": "Trash/Recycling",
    "request_reason": "Request a Large Item Pick Up",
    "date_created": "2024-11-20T18:19:50.000",
    "date_modified": "2024-11-20T18:19:51.000",
    "request_status": "Pending",
    "responsible_agency": "Department of Sanitation",
    "final_address": "2813 Soniat St",
    "address_councildis": "B",
    "status": "Assigned to Contractor",
    "contractor": "IV Waste",
    "rowid": "1150222",
    "final_x": "3668612.45185",
    "final_y": "525772.875773",
    "longitude": "-90.10895859971995",
    "latitude": "29.94007796703019",
    "geocoded_column": {
      "latitude": "29.94007796703019",
      "longitude": "-90.10895859971995"
    }
  },
  {
    "service_request": "2024-1150221",
    "request_type": "Abandoned Vehicles",
    "request_reason": "Abandoned/Junk Vehicles",
    "date_created": "2024-11-20T18:17:49.000",
    "date_modified": "2024-11-20T18:17:49.000",
    "request_status": "Pending",
    "responsible_agency": "Department of Public Works",
    "final_address": "2100 BLK Toledano St",
    "address_councildis": "B",
    "status": "Pending",
    "rowid": "1150221",
    "final_x": "3673783.16618",
    "final_y": "523507.088928",
    "longitude": "-90.09271129267421",
    "latitude": "29.933694856043235",
    "geocoded_column": {
      "latitude": "29.933694856043235",
      "longitude": "-90.09271129267421"
    }
  },
  {
    "service_request": "2024-1150220",
    "request_type": "Streetlights",
    "request_reason": "Streetlight Outage/Malfunction",
    "date_created": "2024-11-20T18:17:47.000",
    "date_modified": "2024-11-20T18:17:48.000",
    "request_status": "Pending",
    "responsible_agency": "Department of Public Works",
    "final_address": "0 BLK Park Island Dr",
    "address_councildis": "A",
    "status": "Pending",
    "contractor": "Legacy Professional Services",
    "rowid": "1150220",
    "final_x": "3676114.98008",
    "final_y": "548451.895666",
    "longitude": "-90.08449158147806",
    "latitude": "30.00221497657492",
    "geocoded_column": {
      "latitude": "30.00221497657492",
      "longitude": "-90.08449158147806"
    }
  },
  {
    "service_request": "2024-1150219",
    "request_type": "Streetlights",
    "request_reason": "Streetlight Outage/Malfunction",
    "date_created": "2024-11-20T18:04:42.000",
    "date_modified": "2024-11-20T18:04:43.000",
    "request_status": "Pending",
    "responsible_agency": "Department of Public Works",
    "final_address": "1900 BLK Music St",
    "address_councildis": "D",
    "status": "Pending",
    "contractor": "Legacy Professional Services",
    "rowid": "1150219",
    "final_x": "3686596.60577",
    "final_y": "539581.444575",
    "longitude": "-90.05169239292265",
    "latitude": "29.977506123753976",
    "geocoded_column": {
      "latitude": "29.977506123753976",
      "longitude": "-90.05169239292265"
    }
  },
  {
    "service_request": "2024-1150218",
    "request_type": "Abandoned Vehicles",
    "request_reason": "Abandoned/Junk Vehicles",
    "date_created": "2024-11-20T17:55:50.000",
    "date_modified": "2024-11-20T17:55:50.000",
    "request_status": "Pending",
    "responsible_agency": "Department of Public Works",
    "final_address": "3200 BLK Loyola Ave",
    "address_councildis": "B",
    "status": "Pending",
    "rowid": "1150218",
    "final_x": "3673798.238",
    "final_y": "523707.477635",
    "longitude": "-90.09265686184722",
    "latitude": "29.934245411217198",
    "geocoded_column": {
      "latitude": "29.934245411217198",
      "longitude": "-90.09265686184722"
    }
  },
  {
    "service_request": "2024-1150217",
    "request_type": "Mosquito, Termite & Rodent Control",
    "request_reason": "Mosquito Complaint",
    "date_created": "2024-11-20T17:54:48.000",
    "date_modified": "2024-11-20T17:54:48.000",
    "request_status": "Pending",
    "responsible_agency": "Mosquito, Termite & Rodent Control Board",
    "final_address": "14830 Emory Rd",
    "address_councildis": "E",
    "status": "Pending",
    "rowid": "1150217",
    "final_x": "3720771.19666",
    "final_y": "573891.03441",
    "longitude": "-89.94244361510943",
    "latitude": "30.070748399709473",
    "geocoded_column": {
      "latitude": "30.070748399709473",
      "longitude": "-89.94244361510943"
    }
  },
  {
    "service_request": "2024-1150216",
    "request_type": "Mosquito, Termite & Rodent Control",
    "request_reason": "Mosquito Complaint",
    "date_created": "2024-11-20T17:42:31.000",
    "date_modified": "2024-11-20T17:42:31.000",
    "request_status": "Pending",
    "responsible_agency": "Mosquito, Termite & Rodent Control Board",
    "final_address": "7590 Rochon Ave",
    "address_councildis": "E",
    "status": "Pending",
    "rowid": "1150216",
    "final_x": "3718722.31173",
    "final_y": "571523.185256",
    "longitude": "-89.94901108851373",
    "latitude": "30.064306033983275",
    "geocoded_column": {
      "latitude": "30.064306033983275",
      "longitude": "-89.94901108851373"
    }
  },
  {
    "service_request": "2024-1150215",
    "request_type": "Mosquito, Termite & Rodent Control",
    "request_reason": "Mosquito Complaint",
    "date_created": "2024-11-20T17:41:01.000",
    "date_modified": "2024-11-20T17:41:01.000",
    "request_status": "Pending",
    "responsible_agency": "Mosquito, Termite & Rodent Control Board",
    "final_address": "14830 Emory Rd",
    "address_councildis": "E",
    "status": "Pending",
    "rowid": "1150215",
    "final_x": "3720771.19666",
    "final_y": "573891.03441",
    "longitude": "-89.94244361510943",
    "latitude": "30.070748399709473",
    "geocoded_column": {
      "latitude": "30.070748399709473",
      "longitude": "-89.94244361510943"
    }
  },
  {
    "service_request": "2024-1150214",
    "request_type": "Abandoned Vehicles",
    "request_reason": "Abandoned/Junk Vehicles",
    "date_created": "2024-11-20T17:39:36.000",
    "date_modified": "2024-11-20T17:39:36.000",
    "request_status": "Pending",
    "responsible_agency": "Department of Public Works",
    "final_address": "1834 St Philip St",
    "address_councildis": "D",
    "status": "Pending",
    "rowid": "1150214",
    "final_x": "3679878.36424",
    "final_y": "535860.772935",
    "longitude": "-90.07304010534864",
    "latitude": "29.96748046939176",
    "geocoded_column": {
      "latitude": "29.96748046939176",
      "longitude": "-90.07304010534864"
    }
  },
  {
    "service_request": "2024-1150213",
    "request_type": "Utility Poles",
    "request_reason": "Wires Sagging/Hanging Low",
    "date_created": "2024-11-20T17:37:34.000",
    "date_modified": "2024-11-20T17:37:37.000",
    "request_status": "Pending",
    "responsible_agency": "Utility Company Collective",
    "final_address": "0 BLK Versailles Blvd",
    "address_councildis": "A",
    "status": "Pending",
    "rowid": "1150213",
    "final_x": "3667180.42774",
    "final_y": "529212.44694",
    "longitude": "-90.11336411596746",
    "latitude": "29.949577672824397",
    "geocoded_column": {
      "latitude": "29.949577672824397",
      "longitude": "-90.11336411596746"
    }
  },
  {
    "service_request": "2024-1150212",
    "request_type": "Abandoned Vehicles",
    "request_reason": "Abandoned/Junk Vehicles",
    "date_created": "2024-11-20T17:32:35.000",
    "date_modified": "2024-11-20T17:32:35.000",
    "request_status": "Pending",
    "responsible_agency": "Department of Public Works",
    "final_address": "2036 St Ann St",
    "address_councildis": "D",
    "status": "Pending",
    "rowid": "1150212",
    "final_x": "3678860.47707",
    "final_y": "535693.540679",
    "longitude": "-90.0762604067727",
    "latitude": "29.967051382583463",
    "geocoded_column": {
      "latitude": "29.967051382583463",
      "longitude": "-90.0762604067727"
    }
  },
  {
    "service_request": "2024-1150211",
    "request_type": "Roads and Streets",
    "request_reason": "Pothole",
    "date_created": "2024-11-20T17:19:42.000",
    "date_modified": "2024-11-20T17:19:42.000",
    "request_status": "Pending",
    "responsible_agency": "Department of Public Works",
    "final_address": "1528 General Collins Ave",
    "address_councildis": "C",
    "status": "Pending",
    "rowid": "1150211",
    "final_x": "3698620.25872",
    "final_y": "525481.480253",
    "longitude": "-90.01423053775062",
    "latitude": "29.938360952932232",
    "geocoded_column": {
      "latitude": "29.938360952932232",
      "longitude": "-90.01423053775062"
    }
  },
  {
    "service_request": "2024-1150210",
    "request_type": "Utility Poles",
    "request_reason": "Utility Pole Leaning",
    "date_created": "2024-11-20T17:11:32.000",
    "date_modified": "2024-11-20T17:11:37.000",
    "request_status": "Pending",
    "responsible_agency": "Utility Company Collective",
    "final_address": "0 BLK Versailles Blvd",
    "address_councildis": "A",
    "status": "Pending",
    "rowid": "1150210",
    "final_x": "3667180.42774",
    "final_y": "529212.44694",
    "longitude": "-90.11336411596746",
    "latitude": "29.949577672824397",
    "geocoded_column": {
      "latitude": "29.949577672824397",
      "longitude": "-90.11336411596746"
    }
  },
  {
    "service_request": "2024-1150209",
    "request_type": "Trash/Recycling",
    "request_reason": "Request a Large Item Pick Up",
    "date_created": "2024-11-20T16:58:22.000",
    "date_modified": "2024-11-20T16:58:34.000",
    "request_status": "Pending",
    "responsible_agency": "Department of Sanitation",
    "final_address": "1419 Socrates St",
    "address_councildis": "C",
    "status": "Assigned to Contractor",
    "contractor": "Richards Disposal",
    "rowid": "1150209",
    "final_x": "3689876.66569",
    "final_y": "526297.91027",
    "longitude": "-90.0418057735709",
    "latitude": "29.940879735047876",
    "geocoded_column": {
      "latitude": "29.940879735047876",
      "longitude": "-90.0418057735709"
    }
  },
  {
    "service_request": "2024-1150208",
    "request_type": "Trash/Recycling",
    "request_reason": "Request a Large Item Pick Up",
    "date_created": "2024-11-20T16:56:00.000",
    "date_modified": "2024-11-20T16:56:01.000",
    "request_status": "Pending",
    "responsible_agency": "Department of Sanitation",
    "final_address": "6600 Peony St",
    "address_councildis": "C",
    "status": "Assigned to Contractor",
    "contractor": "Richards Disposal",
    "rowid": "1150208",
    "final_x": "3708071.22411",
    "final_y": "516465.260981",
    "longitude": "-89.98472820484612",
    "latitude": "29.9132669666957",
    "geocoded_column": {
      "latitude": "29.9132669666957",
      "longitude": "-89.98472820484612"
    }
  },
  {
    "service_request": "2024-1150207",
    "request_type": "Trash/Recycling",
    "request_reason": "Request a Large Item Pick Up",
    "date_created": "2024-11-20T16:53:09.000",
    "date_modified": "2024-11-20T16:53:11.000",
    "request_status": "Pending",
    "responsible_agency": "Department of Sanitation",
    "final_address": "7401 Ebbtide Dr",
    "address_councildis": "E",
    "status": "Assigned to Contractor",
    "contractor": "Waste Pro",
    "rowid": "1150207",
    "final_x": "3702540.99114",
    "final_y": "560784.60227",
    "longitude": "-90.00055610998504",
    "latitude": "30.035306789511317",
    "geocoded_column": {
      "latitude": "30.035306789511317",
      "longitude": "-90.00055610998504"
    }
  },
  {
    "service_request": "2024-1150206",
    "request_type": "Roads and Streets",
    "request_reason": "Pothole",
    "date_created": "2024-11-20T16:52:06.000",
    "date_modified": "2024-11-20T16:52:07.000",
    "request_status": "Pending",
    "responsible_agency": "Department of Public Works",
    "final_address": "916 Pacific Ave",
    "address_councildis": "C",
    "status": "Pending",
    "rowid": "1150206",
    "final_x": "3688477.22044",
    "final_y": "528140.737535",
    "longitude": "-90.04615870040463",
    "latitude": "29.945990181092505",
    "geocoded_column": {
      "latitude": "29.945990181092505",
      "longitude": "-90.04615870040463"
    }
  },
  {
    "service_request": "2024-1150205",
    "request_type": "Trash/Recycling",
    "request_reason": "Replace Recycling Cart",
    "date_created": "2024-11-20T16:51:58.000",
    "date_modified": "2024-11-20T16:51:58.000",
    "request_status": "Pending",
    "responsible_agency": "Department of Sanitation",
    "final_address": "3425 Robert St",
    "address_councildis": "B",
    "status": "Pending",
    "rowid": "1150205",
    "final_x": "3668983.79201",
    "final_y": "527564.306239",
    "longitude": "-90.10772572324899",
    "latitude": "29.94499290492857",
    "geocoded_column": {
      "latitude": "29.94499290492857",
      "longitude": "-90.10772572324899"
    }
  },
  {
    "service_request": "2024-1150204",
    "request_type": "Trash/Recycling",
    "request_reason": "Order Second Trash Cart",
    "date_created": "2024-11-20T16:46:46.000",
    "date_modified": "2024-11-20T16:46:47.000",
    "request_status": "Pending",
    "responsible_agency": "Department of Sanitation",
    "final_address": "7829 Lacombe St",
    "address_councildis": "E",
    "status": "Assigned to Contractor",
    "contractor": "Waste Pro",
    "rowid": "1150204",
    "final_x": "3709280.92376",
    "final_y": "565994.702051",
    "longitude": "-89.97906240040643",
    "latitude": "30.049415202627276",
    "geocoded_column": {
      "latitude": "30.049415202627276",
      "longitude": "-89.97906240040643"
    }
  },
  {
    "service_request": "2024-1150203",
    "request_type": "Trash/Recycling",
    "request_reason": "Request a Large Item Pick Up",
    "date_created": "2024-11-20T16:45:47.000",
    "date_modified": "2024-11-20T16:45:48.000",
    "request_status": "Pending",
    "responsible_agency": "Department of Sanitation",
    "final_address": "5 Yellowstone Dr",
    "address_councildis": "C",
    "status": "Assigned to Contractor",
    "contractor": "Richards Disposal",
    "rowid": "1150203",
    "final_x": "3699445.66224",
    "final_y": "518034.435638",
    "longitude": "-90.01189581435474",
    "latitude": "29.91785799047102",
    "geocoded_column": {
      "latitude": "29.91785799047102",
      "longitude": "-90.01189581435474"
    }
  },
  {
    "service_request": "2024-1150202",
    "request_type": "Abandoned Vehicles",
    "request_reason": "Abandoned/Junk Vehicles",
    "date_created": "2024-11-20T16:43:58.000",
    "date_modified": "2024-11-20T16:43:59.000",
    "request_status": "Pending",
    "responsible_agency": "Department of Public Works",
    "final_address": "7600 Michigan St",
    "address_councildis": "E",
    "status": "Pending",
    "rowid": "1150202",
    "final_x": "3711820.17739",
    "final_y": "566309.779491",
    "longitude": "-89.97102504167553",
    "latitude": "30.050198773358773",
    "geocoded_column": {
      "latitude": "30.050198773358773",
      "longitude": "-89.97102504167553"
    }
  },
  {
    "service_request": "2024-1150201",
    "request_type": "Trash/Recycling",
    "request_reason": "Request a Large Item Pick Up",
    "date_created": "2024-11-20T16:42:00.000",
    "date_modified": "2024-11-20T16:42:32.000",
    "request_status": "Pending",
    "responsible_agency": "Department of Sanitation",
    "final_address": "3125 Toulouse St",
    "address_councildis": "A",
    "status": "Assigned to Contractor",
    "contractor": "IV Waste",
    "rowid": "1150201",
    "final_x": "3675028.47739",
    "final_y": "537680.21844",
    "longitude": "-90.08829372732383",
    "latitude": "29.97262911132872",
    "geocoded_column": {
      "latitude": "29.97262911132872",
      "longitude": "-90.08829372732383"
    }
  },
  {
    "service_request": "2024-1150200",
    "request_type": "Mosquito, Termite & Rodent Control",
    "request_reason": "Mosquito Complaint",
    "date_created": "2024-11-20T16:40:58.000",
    "date_modified": "2024-11-20T16:40:58.000",
    "request_status": "Pending",
    "responsible_agency": "Mosquito, Termite & Rodent Control Board",
    "final_address": "3231 Jackson Ave",
    "address_councildis": "B",
    "status": "Pending",
    "rowid": "1150200",
    "final_x": "3673823.405",
    "final_y": "528710.883648",
    "longitude": "-90.09240634649098",
    "latitude": "29.948002390796503",
    "geocoded_column": {
      "latitude": "29.948002390796503",
      "longitude": "-90.09240634649098"
    }
  },
  {
    "service_request": "2024-1150199",
    "request_type": "Trash/Recycling",
    "request_reason": "Missed Trash Pick-Up",
    "date_created": "2024-11-20T16:40:34.000",
    "date_modified": "2024-11-20T16:40:49.000",
    "request_status": "Pending",
    "responsible_agency": "Department of Sanitation",
    "final_address": "14512 Hayne Blvd",
    "address_councildis": "E",
    "rowid": "1150199",
    "final_x": "3718990.29548",
    "final_y": "574330.822763",
    "longitude": "-89.94805668232095",
    "latitude": "30.072016951664434",
    "geocoded_column": {
      "latitude": "30.072016951664434",
      "longitude": "-89.94805668232095"
    }
  },
  {
    "service_request": "2024-1150198",
    "request_type": "Trash/Recycling",
    "request_reason": "Request a Large Item Pick Up",
    "date_created": "2024-11-20T16:32:29.000",
    "date_modified": "2024-11-20T16:32:30.000",
    "request_status": "Pending",
    "responsible_agency": "Department of Sanitation",
    "final_address": "2132 Lizardi St",
    "address_councildis": "E",
    "status": "Assigned to Contractor",
    "contractor": "Waste Pro",
    "rowid": "1150198",
    "final_x": "3697623.52394",
    "final_y": "538114.795657",
    "longitude": "-90.01691909002827",
    "latitude": "29.973129624283953",
    "geocoded_column": {
      "latitude": "29.973129624283953",
      "longitude": "-90.01691909002827"
    }
  },
  {
    "service_request": "2024-1150197",
    "request_type": "Trash/Recycling",
    "request_reason": "Request a Large Item Pick Up",
    "date_created": "2024-11-20T16:32:21.000",
    "date_modified": "2024-11-20T16:32:22.000",
    "request_status": "Pending",
    "responsible_agency": "Department of Sanitation",
    "final_address": "6644 Harbourview Dr",
    "address_councildis": "E",
    "status": "Assigned to Contractor",
    "contractor": "Waste Pro",
    "rowid": "1150197",
    "final_x": "3699261.60176",
    "final_y": "555955.863193",
    "longitude": "-90.01109555194596",
    "latitude": "30.022134088306757",
    "geocoded_column": {
      "latitude": "30.022134088306757",
      "longitude": "-90.01109555194596"
    }
  },
  {
    "service_request": "2024-1150196",
    "request_type": "Trash/Recycling",
    "request_reason": "Request a Large Item Pick Up",
    "date_created": "2024-11-20T16:31:45.000",
    "date_modified": "2024-11-20T16:31:55.000",
    "request_status": "Pending",
    "responsible_agency": "Department of Sanitation",
    "final_address": "2331 Deslonde St",
    "address_councildis": "E",
    "status": "Assigned to Contractor",
    "contractor": "Waste Pro",
    "rowid": "1150196",
    "final_x": "3696737.83479",
    "final_y": "539140.46177",
    "longitude": "-90.01967911996856",
    "latitude": "29.975977786284428",
    "geocoded_column": {
      "latitude": "29.975977786284428",
      "longitude": "-90.01967911996856"
    }
  },
  {
    "service_request": "2024-1150195",
    "request_type": "Trash/Recycling",
    "request_reason": "Order Recycling Cart",
    "date_created": "2024-11-20T16:31:28.000",
    "date_modified": "2024-11-20T16:31:28.000",
    "request_status": "Pending",
    "responsible_agency": "Department of Sanitation",
    "final_address": "5209 Perrier St",
    "address_councildis": "B",
    "status": "Pending",
    "rowid": "1150195",
    "final_x": "3667984.57537",
    "final_y": "519962.996856",
    "longitude": "-90.11113655805326",
    "latitude": "29.9241210876722",
    "geocoded_column": {
      "latitude": "29.9241210876722",
      "longitude": "-90.11113655805326"
    }
  },
  {
    "service_request": "2024-1150194",
    "request_type": "Trash/Recycling",
    "request_reason": "Repair Recycling Cart",
    "date_created": "2024-11-20T16:31:01.000",
    "date_modified": "2024-11-20T16:31:31.000",
    "request_status": "Pending",
    "responsible_agency": "Department of Sanitation",
    "final_address": "1631 Arabella St",
    "address_councildis": "A",
    "status": "Pending",
    "rowid": "1150194",
    "final_x": "3666665.24449",
    "final_y": "522353.870138",
    "longitude": "-90.11522100430835",
    "latitude": "29.930733861377874",
    "geocoded_column": {
      "latitude": "29.930733861377874",
      "longitude": "-90.11522100430835"
    }
  },
  {
    "service_request": "2024-1150193",
    "request_type": "Trash/Recycling",
    "request_reason": "Request a Large Item Pick Up",
    "date_created": "2024-11-20T16:29:55.000",
    "date_modified": "2024-11-20T16:29:57.000",
    "request_status": "Pending",
    "responsible_agency": "Department of Sanitation",
    "final_address": "7853 Gannon Rd",
    "address_councildis": "E",
    "status": "Assigned to Contractor",
    "contractor": "Waste Pro",
    "rowid": "1150193",
    "final_x": "3716008.57164",
    "final_y": "570549.062375",
    "longitude": "-89.95762632581305",
    "latitude": "30.061717468436274",
    "geocoded_column": {
      "latitude": "30.061717468436274",
      "longitude": "-89.95762632581305"
    }
  },
  {
    "service_request": "2024-1150192",
    "request_type": "Utility Poles",
    "request_reason": "Wires Sagging/Hanging Low",
    "date_created": "2024-11-20T16:28:46.000",
    "date_modified": "2024-11-20T16:28:51.000",
    "request_status": "Pending",
    "responsible_agency": "Utility Company Collective",
    "final_address": "S CLAIBORNE AVE & VERSAILLES BLVD",
    "address_councildis": "A",
    "status": "Pending",
    "rowid": "1150192",
    "final_x": "3666716.3",
    "final_y": "528626.18",
    "longitude": "-90.11484926747346",
    "latitude": "29.947979208350496",
    "geocoded_column": {
      "latitude": "29.947979208350496",
      "longitude": "-90.11484926747346"
    }
  },
  {
    "service_request": "2024-1150191",
    "request_type": "Trash/Recycling",
    "request_reason": "Request a Large Item Pick Up",
    "date_created": "2024-11-20T16:24:32.000",
    "date_modified": "2024-11-20T16:24:34.000",
    "request_status": "Pending",
    "responsible_agency": "Department of Sanitation",
    "final_address": "4666 Lurline St",
    "address_councildis": "E",
    "status": "Assigned to Contractor",
    "contractor": "Waste Pro",
    "rowid": "1150191",
    "final_x": "3711940.13611",
    "final_y": "555689.569049",
    "longitude": "-89.97104497154652",
    "latitude": "30.02099350993239",
    "geocoded_column": {
      "latitude": "30.02099350993239",
      "longitude": "-89.97104497154652"
    }
  },
  {
    "service_request": "2024-1150190",
    "request_type": "Trash/Recycling",
    "request_reason": "Request a Large Item Pick Up",
    "date_created": "2024-11-20T16:19:01.000",
    "date_modified": "2024-11-20T16:19:02.000",
    "request_status": "Pending",
    "responsible_agency": "Department of Sanitation",
    "final_address": "5334 Magazine St",
    "address_councildis": "B",
    "status": "Assigned to Contractor",
    "contractor": "IV Waste",
    "rowid": "1150190",
    "final_x": "3667206.32141",
    "final_y": "518644.953975",
    "longitude": "-90.11363752798941",
    "latitude": "29.920519687606777",
    "geocoded_column": {
      "latitude": "29.920519687606777",
      "longitude": "-90.11363752798941"
    }
  },
  {
    "service_request": "2024-1150189",
    "request_type": "Trash/Recycling",
    "request_reason": "Request a Large Item Pick Up",
    "date_created": "2024-11-20T16:16:51.000",
    "date_modified": "2024-11-20T16:16:52.000",
    "request_status": "Pending",
    "responsible_agency": "Department of Sanitation",
    "final_address": "927 S Telemachus St",
    "address_councildis": "B",
    "status": "Assigned to Contractor",
    "contractor": "IV Waste",
    "rowid": "1150189",
    "final_x": "3669993.45575",
    "final_y": "534346.264005",
    "longitude": "-90.10430822303466",
    "latitude": "29.963611322862555",
    "geocoded_column": {
      "latitude": "29.963611322862555",
      "longitude": "-90.10430822303466"
    }
  },
  {
    "service_request": "2024-1150188",
    "request_type": "Property Maintenance",
    "request_reason": "Property Maintenance",
    "date_created": "2024-11-20T16:15:01.000",
    "date_modified": "2024-11-20T16:15:02.000",
    "request_status": "Pending",
    "responsible_agency": "Department of Code Enforcement",
    "final_address": "1942 Tupelo St",
    "address_councildis": "E",
    "status": "Pending",
    "rowid": "1150188",
    "final_x": "3700630.59837",
    "final_y": "536531.618055",
    "longitude": "-90.00748007167249",
    "latitude": "29.968681122828958",
    "geocoded_column": {
      "latitude": "29.968681122828958",
      "longitude": "-90.00748007167249"
    }
  },
  {
    "service_request": "2024-1150187",
    "request_type": "Trash/Recycling",
    "request_reason": "Request a Large Item Pick Up",
    "date_created": "2024-11-20T16:14:35.000",
    "date_modified": "2024-11-20T16:14:36.000",
    "request_status": "Pending",
    "responsible_agency": "Department of Sanitation",
    "final_address": "7340 Hansbrough Ave",
    "address_councildis": "E",
    "status": "Assigned to Contractor",
    "contractor": "Waste Pro",
    "rowid": "1150187",
    "final_x": "3708077.68497",
    "final_y": "563581.758432",
    "longitude": "-89.98295521686077",
    "latitude": "30.042819621217635",
    "geocoded_column": {
      "latitude": "30.042819621217635",
      "longitude": "-89.98295521686077"
    }
  },
  {
    "service_request": "2024-1150186",
    "request_type": "Trash/Recycling",
    "request_reason": "Request a Large Item Pick Up",
    "date_created": "2024-11-20T16:13:43.000",
    "date_modified": "2024-11-20T16:13:44.000",
    "request_status": "Pending",
    "responsible_agency": "Department of Sanitation",
    "final_address": "7010 Salem Dr",
    "address_councildis": "E",
    "status": "Assigned to Contractor",
    "contractor": "Waste Pro",
    "rowid": "1150186",
    "final_x": "3706668.04644",
    "final_y": "560705.19107",
    "longitude": "-89.9875169847343",
    "latitude": "30.03495580244382",
    "geocoded_column": {
      "latitude": "30.03495580244382",
      "longitude": "-89.9875169847343"
    }
  },
  {
    "service_request": "2024-1150185",
    "request_type": "Parks & Parkways",
    "request_reason": "Request Tree Service (Right of Way/Public Property)",
    "date_created": "2024-11-20T16:13:23.000",
    "date_modified": "2024-11-20T16:14:43.000",
    "request_status": "Pending",
    "responsible_agency": "Department of Parks & Parkway",
    "final_address": "4667 Arts St",
    "address_councildis": "D",
    "status": "Pending",
    "rowid": "1150185",
    "final_x": "3686042.89295",
    "final_y": "550087.3037",
    "longitude": "-90.0530704646955",
    "latitude": "30.006410498769885",
    "geocoded_column": {
      "latitude": "30.006410498769885",
      "longitude": "-90.0530704646955"
    }
  },
  {
    "service_request": "2024-1150184",
    "request_type": "Trash/Recycling",
    "request_reason": "Request a Large Item Pick Up",
    "date_created": "2024-11-20T16:10:05.000",
    "date_modified": "2024-11-20T16:10:07.000",
    "request_status": "Pending",
    "responsible_agency": "Department of Sanitation",
    "final_address": "15706 Chef Menteur Hwy",
    "address_councildis": "E",
    "status": "Assigned to Contractor",
    "contractor": "Waste Pro",
    "rowid": "1150184",
    "final_x": "3736436.81613",
    "final_y": "564185.852897",
    "longitude": "-89.89330653062652",
    "latitude": "30.043531170109098",
    "geocoded_column": {
      "latitude": "30.043531170109098",
      "longitude": "-89.89330653062652"
    }
  },
  {
    "service_request": "2024-1150183",
    "request_type": "Trash/Recycling",
    "request_reason": "Request a Large Item Pick Up",
    "date_created": "2024-11-20T16:06:22.000",
    "date_modified": "2024-11-20T16:06:23.000",
    "request_status": "Pending",
    "responsible_agency": "Department of Sanitation",
    "final_address": "4701 Bright Dr",
    "address_councildis": "E",
    "status": "Assigned to Contractor",
    "contractor": "Waste Pro",
    "rowid": "1150183",
    "final_x": "3715922.91474",
    "final_y": "556716.453018",
    "longitude": "-89.95842174481385",
    "latitude": "30.023686234078657",
    "geocoded_column": {
      "latitude": "30.023686234078657",
      "longitude": "-89.95842174481385"
    }
  },
  {
    "service_request": "2024-1150182",
    "request_type": "Streetlights",
    "request_reason": "Streetlight Outage/Malfunction",
    "date_created": "2024-11-20T16:04:45.000",
    "date_modified": "2024-11-20T16:04:46.000",
    "request_status": "Pending",
    "responsible_agency": "Department of Public Works",
    "final_address": "4524 N Rampart St",
    "address_councildis": "C",
    "status": "Pending",
    "contractor": "Legacy Professional Services",
    "rowid": "1150182",
    "final_x": "3693434.66358",
    "final_y": "534400.886149",
    "longitude": "-90.03028166763228",
    "latitude": "29.963049348501354",
    "geocoded_column": {
      "latitude": "29.963049348501354",
      "longitude": "-90.03028166763228"
    }
  },
  {
    "service_request": "2024-1150181",
    "request_type": "Health Related Request",
    "request_reason": "Homeless Encampment Complaint",
    "date_created": "2024-11-20T16:03:08.000",
    "date_modified": "2024-11-20T16:03:08.000",
    "request_status": "Pending",
    "responsible_agency": "Health Department",
    "final_address": "0 BLK Audubon Blvd",
    "address_councildis": "A",
    "status": "Pending",
    "rowid": "1150181",
    "final_x": "3665721.60225",
    "final_y": "527591.816651",
    "longitude": "-90.11802457989006",
    "latitude": "29.945164090388623",
    "geocoded_column": {
      "latitude": "29.945164090388623",
      "longitude": "-90.11802457989006"
    }
  },
  {
    "service_request": "2024-1150180",
    "request_type": "Trash/Recycling",
    "request_reason": "Order Second Trash Cart",
    "date_created": "2024-11-20T16:00:17.000",
    "date_modified": "2024-11-20T16:00:19.000",
    "request_status": "Pending",
    "responsible_agency": "Department of Sanitation",
    "final_address": "4709 S Liberty St",
    "address_councildis": "B",
    "status": "Assigned to Contractor",
    "contractor": "IV Waste",
    "rowid": "1150180",
    "final_x": "3669381.2098",
    "final_y": "523256.031675",
    "longitude": "-90.10661657597494",
    "latitude": "29.933134846705318",
    "geocoded_column": {
      "latitude": "29.933134846705318",
      "longitude": "-90.10661657597494"
    }
  },
  {
    "service_request": "2024-1150179",
    "request_type": "Trash/Recycling",
    "request_reason": "Order Recycling Cart",
    "date_created": "2024-11-20T15:59:52.000",
    "date_modified": "2024-11-20T15:59:53.000",
    "request_status": "Pending",
    "responsible_agency": "Department of Sanitation",
    "final_address": "4709 S Liberty St",
    "address_councildis": "B",
    "status": "Pending",
    "rowid": "1150179",
    "final_x": "3669381.2098",
    "final_y": "523256.031675",
    "longitude": "-90.10661657597494",
    "latitude": "29.933134846705318",
    "geocoded_column": {
      "latitude": "29.933134846705318",
      "longitude": "-90.10661657597494"
    }
  },
  {
    "service_request": "2024-1150178",
    "request_type": "Trash/Recycling",
    "request_reason": "Order Trash Cart",
    "date_created": "2024-11-20T15:59:09.000",
    "date_modified": "2024-11-20T15:59:10.000",
    "request_status": "Pending",
    "responsible_agency": "Department of Sanitation",
    "final_address": "4709 S Liberty St",
    "address_councildis": "B",
    "status": "Assigned to Contractor",
    "contractor": "IV Waste",
    "rowid": "1150178",
    "final_x": "3669381.2098",
    "final_y": "523256.031675",
    "longitude": "-90.10661657597494",
    "latitude": "29.933134846705318",
    "geocoded_column": {
      "latitude": "29.933134846705318",
      "longitude": "-90.10661657597494"
    }
  },
  {
    "service_request": "2024-1150177",
    "request_type": "Trash/Recycling",
    "request_reason": "Missed Trash Pick-Up",
    "date_created": "2024-11-20T15:56:06.000",
    "date_modified": "2024-11-20T15:56:07.000",
    "request_status": "Pending",
    "responsible_agency": "Department of Sanitation",
    "final_address": "14600 Hayne Blvd",
    "address_councildis": "E",
    "status": "Assigned to Contractor",
    "contractor": "Waste Pro",
    "rowid": "1150177",
    "final_x": "3719275.02962",
    "final_y": "574590.679083",
    "longitude": "-89.94714661691629",
    "latitude": "30.072721978581978",
    "geocoded_column": {
      "latitude": "30.072721978581978",
      "longitude": "-89.94714661691629"
    }
  },
  {
    "service_request": "2024-1150176",
    "request_type": "Trash/Recycling",
    "request_reason": "Order Second Trash Cart",
    "date_created": "2024-11-20T15:54:03.000",
    "date_modified": "2024-11-20T15:54:19.000",
    "request_status": "Pending",
    "responsible_agency": "Department of Sanitation",
    "final_address": "5892 Macarthur Blvd",
    "address_councildis": "C",
    "status": "Assigned to Contractor",
    "contractor": "Richards Disposal",
    "rowid": "1150176",
    "final_x": "3705451.85476",
    "final_y": "519216.714615",
    "longitude": "-89.99289407098216",
    "latitude": "29.92091702256523",
    "geocoded_column": {
      "latitude": "29.92091702256523",
      "longitude": "-89.99289407098216"
    }
  },
  {
    "service_request": "2024-1150175",
    "request_type": "Trash/Recycling",
    "request_reason": "Request a Large Item Pick Up",
    "date_created": "2024-11-20T15:47:45.000",
    "date_modified": "2024-11-20T15:47:46.000",
    "request_status": "Pending",
    "responsible_agency": "Department of Sanitation",
    "final_address": "5000 N Prieur St",
    "address_councildis": "E",
    "status": "Assigned to Contractor",
    "contractor": "Waste Pro",
    "rowid": "1150175",
    "final_x": "3696820.63101",
    "final_y": "537159.73076",
    "longitude": "-90.01948935629362",
    "latitude": "29.97052887698136",
    "geocoded_column": {
      "latitude": "29.97052887698136",
      "longitude": "-90.01948935629362"
    }
  },
  {
    "service_request": "2024-1150174",
    "request_type": "Trash/Recycling",
    "request_reason": "Repair Trash Cart",
    "date_created": "2024-11-20T15:47:41.000",
    "date_modified": "2024-11-20T15:47:42.000",
    "request_status": "Pending",
    "responsible_agency": "Department of Sanitation",
    "final_address": "7422 W Laverne St",
    "address_councildis": "D",
    "status": "Assigned to Contractor",
    "contractor": "Waste Pro",
    "rowid": "1150174",
    "final_x": "3695259.46877",
    "final_y": "558091.828123",
    "longitude": "-90.02366408746867",
    "latitude": "30.02813355854713",
    "geocoded_column": {
      "latitude": "30.02813355854713",
      "longitude": "-90.02366408746867"
    }
  },
  {
    "service_request": "2024-1150173",
    "request_type": "Trash/Recycling",
    "request_reason": "Request a Large Item Pick Up",
    "date_created": "2024-11-20T15:47:09.000",
    "date_modified": "2024-11-20T15:47:10.000",
    "request_status": "Pending",
    "responsible_agency": "Department of Sanitation",
    "final_address": "5620 Providence Pl",
    "address_councildis": "D",
    "status": "Assigned to Contractor",
    "contractor": "IV Waste",
    "rowid": "1150173",
    "final_x": "3688209.48969",
    "final_y": "554116.883544",
    "longitude": "-90.04608264383462",
    "latitude": "30.01742362132846",
    "geocoded_column": {
      "latitude": "30.01742362132846",
      "longitude": "-90.04608264383462"
    }
  },
  {
    "service_request": "2024-1150172",
    "request_type": "Trash/Recycling",
    "request_reason": "Request a Large Item Pick Up",
    "date_created": "2024-11-20T15:47:07.000",
    "date_modified": "2024-11-20T15:47:08.000",
    "request_status": "Pending",
    "responsible_agency": "Department of Sanitation",
    "final_address": "7422 W Laverne St",
    "address_councildis": "D",
    "status": "Assigned to Contractor",
    "contractor": "Waste Pro",
    "rowid": "1150172",
    "final_x": "3695259.46877",
    "final_y": "558091.828123",
    "longitude": "-90.02366408746867",
    "latitude": "30.02813355854713",
    "geocoded_column": {
      "latitude": "30.02813355854713",
      "longitude": "-90.02366408746867"
    }
  },
  {
    "service_request": "2024-1150171",
    "request_type": "Trash/Recycling",
    "request_reason": "Return Recycling Cart",
    "date_created": "2024-11-20T15:45:40.000",
    "date_modified": "2024-11-20T15:45:54.000",
    "request_status": "Pending",
    "responsible_agency": "Department of Sanitation",
    "final_address": "1828 Bartholomew St",
    "address_councildis": "D",
    "rowid": "1150171",
    "final_x": "3692469.00835",
    "final_y": "538188.914249",
    "longitude": "-90.033195348224",
    "latitude": "29.97349524709874",
    "geocoded_column": {
      "latitude": "29.97349524709874",
      "longitude": "-90.033195348224"
    }
  },
  {
    "service_request": "2024-1150170",
    "request_type": "Abandoned Vehicles",
    "request_reason": "Abandoned/Junk Vehicles",
    "date_created": "2024-11-20T15:45:16.000",
    "date_modified": "2024-11-20T15:45:16.000",
    "request_status": "Pending",
    "responsible_agency": "Department of Public Works",
    "final_address": "5900 BLK Dorothea St",
    "address_councildis": "D",
    "status": "Pending",
    "rowid": "1150170",
    "final_x": "3695266.46409",
    "final_y": "557098.629029",
    "longitude": "-90.02367785410715",
    "latitude": "30.025402418872247",
    "geocoded_column": {
      "latitude": "30.025402418872247",
      "longitude": "-90.02367785410715"
    }
  },
  {
    "service_request": "2024-1150169",
    "request_type": "Trash/Recycling",
    "request_reason": "Request a Large Item Pick Up",
    "date_created": "2024-11-20T15:37:25.000",
    "date_modified": "2024-11-20T15:37:27.000",
    "request_status": "Pending",
    "responsible_agency": "Department of Sanitation",
    "final_address": "5120 Bayouview Ct",
    "address_councildis": "E",
    "status": "Assigned to Contractor",
    "contractor": "Waste Pro",
    "rowid": "1150169",
    "final_x": "3699086.40944",
    "final_y": "556222.448794",
    "longitude": "-90.01163939625833",
    "latitude": "30.02287265450608",
    "geocoded_column": {
      "latitude": "30.02287265450608",
      "longitude": "-90.01163939625833"
    }
  },
  {
    "service_request": "2024-1150168",
    "request_type": "Traffic Signals",
    "request_reason": "Traffic Signal Malfunctioning or Damaged",
    "date_created": "2024-11-20T15:34:06.000",
    "date_modified": "2024-11-20T15:34:07.000",
    "request_status": "Pending",
    "responsible_agency": "Department of Public Works",
    "final_address": "FRANKLIN AVE & LEON C SIMON DR",
    "address_councildis": "D",
    "status": "Pending",
    "rowid": "1150168",
    "final_x": "3686215.6",
    "final_y": "557350.08",
    "longitude": "-90.05226831351399",
    "latitude": "30.026375154078544",
    "geocoded_column": {
      "latitude": "30.026375154078544",
      "longitude": "-90.05226831351399"
    }
  },
  {
    "service_request": "2024-1150167",
    "request_type": "Roads and Streets",
    "request_reason": "Pothole",
    "date_created": "2024-11-20T15:32:40.000",
    "date_modified": "2024-11-20T15:32:40.000",
    "request_status": "Pending",
    "responsible_agency": "Department of Public Works",
    "final_address": "2475 Canal St",
    "address_councildis": "B",
    "status": "Pending",
    "rowid": "1150167",
    "final_x": "3676302.79592",
    "final_y": "534526.621637",
    "longitude": "-90.08437775288529",
    "latitude": "29.963919657063368",
    "geocoded_column": {
      "latitude": "29.963919657063368",
      "longitude": "-90.08437775288529"
    }
  },
  {
    "service_request": "2024-1150166",
    "request_type": "Trash/Recycling",
    "request_reason": "Replace Trash Cart",
    "date_created": "2024-11-20T15:31:42.000",
    "date_modified": "2024-11-20T15:31:43.000",
    "request_status": "Pending",
    "responsible_agency": "Department of Sanitation",
    "final_address": "8026 Dorsett Dr",
    "address_councildis": "E",
    "status": "Assigned to Contractor",
    "contractor": "Waste Pro",
    "rowid": "1150166",
    "final_x": "3712012.06194",
    "final_y": "568490.640933",
    "longitude": "-89.970336577978",
    "latitude": "30.05618898028665",
    "geocoded_column": {
      "latitude": "30.05618898028665",
      "longitude": "-89.970336577978"
    }
  },
  {
    "service_request": "2024-1150165",
    "request_type": "Trash/Recycling",
    "request_reason": "Request a Large Item Pick Up",
    "date_created": "2024-11-20T15:23:59.000",
    "date_modified": "2024-11-20T15:24:00.000",
    "request_status": "Pending",
    "responsible_agency": "Department of Sanitation",
    "final_address": "1222 Lesseps St",
    "address_councildis": "D",
    "status": "Assigned to Contractor",
    "contractor": "IV Waste",
    "rowid": "1150165",
    "final_x": "3692796.56765",
    "final_y": "535617.161606",
    "longitude": "-90.03225307681001",
    "latitude": "29.96641361485591",
    "geocoded_column": {
      "latitude": "29.96641361485591",
      "longitude": "-90.03225307681001"
    }
  },
  {
    "service_request": "2024-1150164",
    "request_type": "Trash/Recycling",
    "request_reason": "Order Recycling Cart",
    "date_created": "2024-11-20T15:23:24.000",
    "date_modified": "2024-11-20T15:23:25.000",
    "request_status": "Pending",
    "responsible_agency": "Department of Sanitation",
    "final_address": "1680 N Miro St",
    "address_councildis": "D",
    "status": "Pending",
    "rowid": "1150164",
    "final_x": "3680943.55983",
    "final_y": "539618.136714",
    "longitude": "-90.06954532670164",
    "latitude": "29.977779664558813",
    "geocoded_column": {
      "latitude": "29.977779664558813",
      "longitude": "-90.06954532670164"
    }
  },
  {
    "service_request": "2024-1150163",
    "request_type": "Trash/Recycling",
    "request_reason": "Order Trash Cart",
    "date_created": "2024-11-20T15:22:09.000",
    "date_modified": "2024-11-20T15:22:11.000",
    "request_status": "Pending",
    "responsible_agency": "Department of Sanitation",
    "final_address": "1680 N Miro St",
    "address_councildis": "D",
    "status": "Assigned to Contractor",
    "contractor": "IV Waste",
    "rowid": "1150163",
    "final_x": "3680943.55983",
    "final_y": "539618.136714",
    "longitude": "-90.06954532670164",
    "latitude": "29.977779664558813",
    "geocoded_column": {
      "latitude": "29.977779664558813",
      "longitude": "-90.06954532670164"
    }
  },
  {
    "service_request": "2024-1150162",
    "request_type": "Trash/Recycling",
    "request_reason": "Request a Large Item Pick Up",
    "date_created": "2024-11-20T15:21:15.000",
    "date_modified": "2024-11-20T15:21:16.000",
    "request_status": "Pending",
    "responsible_agency": "Department of Sanitation",
    "final_address": "4527 S Rocheblave St A",
    "address_councildis": "B",
    "status": "Assigned to Contractor",
    "contractor": "IV Waste",
    "rowid": "1150162",
    "final_x": "3669494.25274",
    "final_y": "528465.852736",
    "longitude": "-90.10608355005657",
    "latitude": "29.94745684122777",
    "geocoded_column": {
      "latitude": "29.94745684122777",
      "longitude": "-90.10608355005657"
    }
  },
  {
    "service_request": "2024-1150161",
    "request_type": "Trash/Recycling",
    "request_reason": "Request a Large Item Pick Up",
    "date_created": "2024-11-20T15:20:57.000",
    "date_modified": "2024-11-20T15:20:58.000",
    "request_status": "Pending",
    "responsible_agency": "Department of Sanitation",
    "final_address": "3733 Delachaise St",
    "address_councildis": "B",
    "status": "Assigned to Contractor",
    "contractor": "IV Waste",
    "rowid": "1150161",
    "final_x": "3671166.86715",
    "final_y": "528592.295872",
    "longitude": "-90.10079815439173",
    "latitude": "29.94775515352373",
    "geocoded_column": {
      "latitude": "29.94775515352373",
      "longitude": "-90.10079815439173"
    }
  },
  {
    "service_request": "2024-1150160",
    "request_type": "Trash/Recycling",
    "request_reason": "Request a Large Item Pick Up",
    "date_created": "2024-11-20T15:12:20.000",
    "date_modified": "2024-11-20T15:12:21.000",
    "request_status": "Pending",
    "responsible_agency": "Department of Sanitation",
    "final_address": "3758 Herald St",
    "address_councildis": "C",
    "status": "Assigned to Contractor",
    "contractor": "Richards Disposal",
    "rowid": "1150160",
    "final_x": "3702237.38404",
    "final_y": "517040.984053",
    "longitude": "-90.0031203520618",
    "latitude": "29.91503751683337",
    "geocoded_column": {
      "latitude": "29.91503751683337",
      "longitude": "-90.0031203520618"
    }
  },
  {
    "service_request": "2024-1150159",
    "request_type": "Trash/Recycling",
    "request_reason": "Repair Trash Cart",
    "date_created": "2024-11-20T15:04:38.000",
    "date_modified": "2024-11-20T15:04:39.000",
    "request_status": "Pending",
    "responsible_agency": "Department of Sanitation",
    "final_address": "2913 Carondelet St",
    "address_councildis": "B",
    "status": "Assigned to Contractor",
    "contractor": "IV Waste",
    "rowid": "1150159",
    "final_x": "3675145.78593",
    "final_y": "522521.863866",
    "longitude": "-90.08844335635379",
    "latitude": "29.930945170315717",
    "geocoded_column": {
      "latitude": "29.930945170315717",
      "longitude": "-90.08844335635379"
    }
  },
  {
    "service_request": "2024-1150158",
    "request_type": "Trash/Recycling",
    "request_reason": "Order Recycling Cart",
    "date_created": "2024-11-20T14:59:29.000",
    "date_modified": "2024-11-20T14:59:29.000",
    "request_status": "Pending",
    "responsible_agency": "Department of Sanitation",
    "final_address": "719 Harmony St",
    "address_councildis": "B",
    "status": "Pending",
    "rowid": "1150158",
    "final_x": "3676432.55624",
    "final_y": "518817.789111",
    "longitude": "-90.08450863706737",
    "latitude": "29.920721661172546",
    "geocoded_column": {
      "latitude": "29.920721661172546",
      "longitude": "-90.08450863706737"
    }
  },
  {
    "service_request": "2024-1150157",
    "request_type": "Trash/Recycling",
    "request_reason": "Order Trash Cart",
    "date_created": "2024-11-20T14:58:14.000",
    "date_modified": "2024-11-20T14:58:15.000",
    "request_status": "Pending",
    "responsible_agency": "Department of Sanitation",
    "final_address": "719 Harmony St",
    "address_councildis": "B",
    "status": "Assigned to Contractor",
    "contractor": "IV Waste",
    "rowid": "1150157",
    "final_x": "3676432.55624",
    "final_y": "518817.789111",
    "longitude": "-90.08450863706737",
    "latitude": "29.920721661172546",
    "geocoded_column": {
      "latitude": "29.920721661172546",
      "longitude": "-90.08450863706737"
    }
  },
  {
    "service_request": "2024-1150156",
    "request_type": "Trash/Recycling",
    "request_reason": "Repair Recycling Cart",
    "date_created": "2024-11-20T14:57:53.000",
    "date_modified": "2024-11-20T14:57:53.000",
    "request_status": "Pending",
    "responsible_agency": "Department of Sanitation",
    "final_address": "6151 Milne Blvd",
    "address_councildis": "A",
    "status": "Pending",
    "rowid": "1150156",
    "final_x": "3667253.08474",
    "final_y": "548485.269138",
    "longitude": "-90.11248633884895",
    "latitude": "30.002569339994423",
    "geocoded_column": {
      "latitude": "30.002569339994423",
      "longitude": "-90.11248633884895"
    }
  },
  {
    "service_request": "2024-1150155",
    "request_type": "Trash/Recycling",
    "request_reason": "Request a Large Item Pick Up",
    "date_created": "2024-11-20T14:56:55.000",
    "date_modified": "2024-11-20T14:56:56.000",
    "request_status": "Pending",
    "responsible_agency": "Department of Sanitation",
    "final_address": "5401 Berkley Dr",
    "address_councildis": "C",
    "status": "Assigned to Contractor",
    "contractor": "Richards Disposal",
    "rowid": "1150155",
    "final_x": "3703907.24663",
    "final_y": "518094.586806",
    "longitude": "-89.99781094420956",
    "latitude": "29.917881152515232",
    "geocoded_column": {
      "latitude": "29.917881152515232",
      "longitude": "-89.99781094420956"
    }
  },
  {
    "service_request": "2024-1150154",
    "request_type": "Trash/Recycling",
    "request_reason": "Request a Large Item Pick Up",
    "date_created": "2024-11-20T14:55:07.000",
    "date_modified": "2024-11-20T14:55:08.000",
    "request_status": "Pending",
    "responsible_agency": "Department of Sanitation",
    "final_address": "4674 Evangeline Dr",
    "address_councildis": "E",
    "status": "Assigned to Contractor",
    "contractor": "Waste Pro",
    "rowid": "1150154",
    "final_x": "3709078.56337",
    "final_y": "555364.542617",
    "longitude": "-89.98009876593483",
    "latitude": "30.020193049104027",
    "geocoded_column": {
      "latitude": "30.020193049104027",
      "longitude": "-89.98009876593483"
    }
  },
  {
    "service_request": "2024-1150153",
    "request_type": "Trash/Recycling",
    "request_reason": "Request a Large Item Pick Up",
    "date_created": "2024-11-20T14:52:19.000",
    "date_modified": "2024-11-20T14:52:20.000",
    "request_status": "Pending",
    "responsible_agency": "Department of Sanitation",
    "final_address": "7900 BLK Elaine St",
    "address_councildis": "E",
    "status": "Assigned to Contractor",
    "contractor": "Waste Pro",
    "rowid": "1150153",
    "final_x": "3704882.85398",
    "final_y": "551604.519938",
    "longitude": "-89.99349471279496",
    "latitude": "30.0099900091757",
    "geocoded_column": {
      "latitude": "30.0099900091757",
      "longitude": "-89.99349471279496"
    }
  },
  {
    "service_request": "2024-1150152",
    "request_type": "Roads and Streets",
    "request_reason": "Pothole",
    "date_created": "2024-11-20T14:51:11.000",
    "date_modified": "2024-11-20T14:51:12.000",
    "request_status": "Pending",
    "responsible_agency": "Department of Public Works",
    "final_address": "2010 Broadway St",
    "address_councildis": "A",
    "status": "Pending",
    "rowid": "1150152",
    "final_x": "3665766.5856",
    "final_y": "528977.557504",
    "longitude": "-90.11783614083187",
    "latitude": "29.948973118212635",
    "geocoded_column": {
      "latitude": "29.948973118212635",
      "longitude": "-90.11783614083187"
    }
  },
  {
    "service_request": "2024-1150151",
    "request_type": "Street and Traffic Signs",
    "request_reason": "Additional Signage Request",
    "date_created": "2024-11-20T14:46:47.000",
    "date_modified": "2024-11-20T14:46:48.000",
    "request_status": "Pending",
    "responsible_agency": "Department of Public Works",
    "final_address": "1830 Bienville Ave Apt B",
    "address_councildis": "B",
    "status": "Pending",
    "rowid": "1150151",
    "final_x": "3678314.23387",
    "final_y": "533743.730309",
    "longitude": "-90.07805290252811",
    "latitude": "29.96170653330921",
    "geocoded_column": {
      "latitude": "29.96170653330921",
      "longitude": "-90.07805290252811"
    }
  },
  {
    "service_request": "2024-1150150",
    "request_type": "Trash/Recycling",
    "request_reason": "Missed Trash Pick-Up",
    "date_created": "2024-11-20T14:44:21.000",
    "date_modified": "2024-11-20T14:44:23.000",
    "request_status": "Pending",
    "responsible_agency": "Department of Sanitation",
    "final_address": "6750 Old Gentilly Rd Unit A",
    "address_councildis": "E",
    "status": "Assigned to Contractor",
    "contractor": "Waste Pro",
    "rowid": "1150150",
    "final_x": "3699953.74794",
    "final_y": "551326.576277",
    "longitude": "-90.00907760662176",
    "latitude": "30.009383326772408",
    "geocoded_column": {
      "latitude": "30.009383326772408",
      "longitude": "-90.00907760662176"
    }
  },
  {
    "service_request": "2024-1150149",
    "request_type": "Trash/Recycling",
    "request_reason": "Illegal Dumping",
    "date_created": "2024-11-20T14:37:04.000",
    "date_modified": "2024-11-20T14:37:04.000",
    "request_status": "Pending",
    "responsible_agency": "Department of Sanitation",
    "final_address": "7020 Crowder Blvd",
    "address_councildis": "E",
    "status": "Pending",
    "rowid": "1150149",
    "final_x": "3704343.54481",
    "final_y": "559531.185309",
    "longitude": "-89.99490605105444",
    "latitude": "30.031802610664503",
    "geocoded_column": {
      "latitude": "30.031802610664503",
      "longitude": "-89.99490605105444"
    }
  },
  {
    "service_request": "2024-1150148",
    "request_type": "Utility Poles",
    "request_reason": "Wires Sagging/Hanging Low",
    "date_created": "2024-11-20T14:36:24.000",
    "date_modified": "2024-11-20T14:36:28.000",
    "request_status": "Pending",
    "responsible_agency": "Utility Company Collective",
    "final_address": "4921 Annunciation St",
    "address_councildis": "B",
    "status": "Pending",
    "rowid": "1150148",
    "final_x": "3668770.32417",
    "final_y": "517574.217014",
    "longitude": "-90.10873680654629",
    "latitude": "29.91752962884782",
    "geocoded_column": {
      "latitude": "29.91752962884782",
      "longitude": "-90.10873680654629"
    }
  },
  {
    "service_request": "2024-1150147",
    "request_type": "Utility Poles",
    "request_reason": "Wires Sagging/Hanging Low",
    "date_created": "2024-11-20T14:35:57.000",
    "date_modified": "2024-11-20T14:43:51.000",
    "request_status": "Pending",
    "responsible_agency": "Utility Company Collective",
    "final_address": "5378 Annunciation St",
    "address_councildis": "B",
    "status": "Pending",
    "rowid": "1150147",
    "final_x": "3666688.181",
    "final_y": "517528.489206",
    "longitude": "-90.11531052338636",
    "latitude": "29.91746491483819",
    "geocoded_column": {
      "latitude": "29.91746491483819",
      "longitude": "-90.11531052338636"
    }
  },
  {
    "service_request": "2024-1150146",
    "request_type": "Trash/Recycling",
    "request_reason": "Missed Trash Pick-Up",
    "date_created": "2024-11-20T14:35:08.000",
    "date_modified": "2024-11-20T14:35:09.000",
    "request_status": "Pending",
    "responsible_agency": "Department of Sanitation",
    "final_address": "104 Constitution St, New Orleans, Louisiana, 70114",
    "address_councildis": "C",
    "status": "Assigned to Contractor",
    "contractor": "Richards Disposal",
    "rowid": "1150146",
    "final_x": "3693206.05846",
    "final_y": "528247.77728",
    "longitude": "-90.03122437871811",
    "latitude": "29.946137590915686",
    "geocoded_column": {
      "latitude": "29.946137590915686",
      "longitude": "-90.03122437871811"
    }
  },
  {
    "service_request": "2024-1150145",
    "request_type": "Trash/Recycling",
    "request_reason": "Order Recycling Cart",
    "date_created": "2024-11-20T14:33:26.000",
    "date_modified": "2024-11-20T14:33:27.000",
    "request_status": "Pending",
    "responsible_agency": "Department of Sanitation",
    "final_address": "230 S Solomon St",
    "address_councildis": "A",
    "status": "Pending",
    "rowid": "1150145",
    "final_x": "3670198.18388",
    "final_y": "538156.233417",
    "longitude": "-90.1035325800464",
    "latitude": "29.97408142300583",
    "geocoded_column": {
      "latitude": "29.97408142300583",
      "longitude": "-90.1035325800464"
    }
  },
  {
    "service_request": "2024-1150144",
    "request_type": "Trash/Recycling",
    "request_reason": "Replace Trash Cart",
    "date_created": "2024-11-20T14:33:22.000",
    "date_modified": "2024-11-20T14:33:23.000",
    "request_status": "Pending",
    "responsible_agency": "Department of Sanitation",
    "final_address": "4751 Galahad Dr",
    "address_councildis": "E",
    "status": "Assigned to Contractor",
    "contractor": "Waste Pro",
    "rowid": "1150144",
    "final_x": "3707277.34078",
    "final_y": "555535.842713",
    "longitude": "-89.98578365249598",
    "latitude": "30.020722426060345",
    "geocoded_column": {
      "latitude": "30.020722426060345",
      "longitude": "-89.98578365249598"
    }
  },
  {
    "service_request": "2024-1150143",
    "request_type": "Trash/Recycling",
    "request_reason": "Request a Large Item Pick Up",
    "date_created": "2024-11-20T14:31:08.000",
    "date_modified": "2024-11-20T14:31:09.000",
    "request_status": "Pending",
    "responsible_agency": "Department of Sanitation",
    "final_address": "7511 Sheffield St",
    "address_councildis": "E",
    "status": "Assigned to Contractor",
    "contractor": "Waste Pro",
    "rowid": "1150143",
    "final_x": "3699440.82506",
    "final_y": "559841.163421",
    "longitude": "-90.01038751411255",
    "latitude": "30.03281148328883",
    "geocoded_column": {
      "latitude": "30.03281148328883",
      "longitude": "-90.01038751411255"
    }
  },
  {
    "service_request": "2024-1150142",
    "request_type": "Abandoned Vehicles",
    "request_reason": "Abandoned/Junk Vehicles",
    "date_created": "2024-11-20T14:30:04.000",
    "date_modified": "2024-11-20T14:30:04.000",
    "request_status": "Pending",
    "responsible_agency": "Department of Public Works",
    "final_address": "2614 S Miro St",
    "address_councildis": "B",
    "status": "Pending",
    "rowid": "1150142",
    "final_x": "3672449.40308",
    "final_y": "528650.975616",
    "longitude": "-90.09674667416719",
    "latitude": "29.94787850754181",
    "geocoded_column": {
      "latitude": "29.94787850754181",
      "longitude": "-90.09674667416719"
    }
  },
  {
    "service_request": "2024-1150141",
    "request_type": "Trash/Recycling",
    "request_reason": "Order Recycling Cart",
    "date_created": "2024-11-20T14:28:34.000",
    "date_modified": "2024-11-20T14:28:34.000",
    "request_status": "Pending",
    "responsible_agency": "Department of Sanitation",
    "final_address": "4843 Charmes Ct",
    "address_councildis": "E",
    "status": "Pending",
    "rowid": "1150141",
    "final_x": "3726412.52601",
    "final_y": "561495.895583",
    "longitude": "-89.92509157972256",
    "latitude": "30.036477486321786",
    "geocoded_column": {
      "latitude": "30.036477486321786",
      "longitude": "-89.92509157972256"
    }
  },
  {
    "service_request": "2024-1150140",
    "request_type": "Trash/Recycling",
    "request_reason": "Request a Large Item Pick Up",
    "date_created": "2024-11-20T14:26:43.000",
    "date_modified": "2024-11-20T14:26:44.000",
    "request_status": "Pending",
    "responsible_agency": "Department of Sanitation",
    "final_address": "1707 S Carrollton Ave",
    "address_councildis": "A",
    "status": "Assigned to Contractor",
    "contractor": "IV Waste",
    "rowid": "1150140",
    "final_x": "3663343.28448",
    "final_y": "529603.184193",
    "longitude": "-90.12546676594745",
    "latitude": "29.950763851052347",
    "geocoded_column": {
      "latitude": "29.950763851052347",
      "longitude": "-90.12546676594745"
    }
  },
  {
    "service_request": "2024-1150139",
    "request_type": "Trash/Recycling",
    "request_reason": "Order Trash Cart",
    "date_created": "2024-11-20T14:25:54.000",
    "date_modified": "2024-11-20T14:25:55.000",
    "request_status": "Pending",
    "responsible_agency": "Department of Sanitation",
    "final_address": "4843 Charmes Ct",
    "address_councildis": "E",
    "status": "Assigned to Contractor",
    "contractor": "Waste Pro",
    "rowid": "1150139",
    "final_x": "3726412.52601",
    "final_y": "561495.895583",
    "longitude": "-89.92509157972256",
    "latitude": "30.036477486321786",
    "geocoded_column": {
      "latitude": "30.036477486321786",
      "longitude": "-89.92509157972256"
    }
  },
  {
    "service_request": "2024-1150138",
    "request_type": "Traffic Signals",
    "request_reason": "Traffic Signal Malfunctioning or Damaged",
    "date_created": "2024-11-20T14:24:58.000",
    "date_modified": "2024-11-20T14:24:58.000",
    "request_status": "Pending",
    "responsible_agency": "Department of Public Works",
    "final_address": "2600 BLK Napoleon Ave",
    "address_councildis": "B",
    "status": "Pending",
    "rowid": "1150138",
    "final_x": "3670438.02129",
    "final_y": "524561.878157",
    "longitude": "-90.10323602856222",
    "latitude": "29.936694351512603",
    "geocoded_column": {
      "latitude": "29.936694351512603",
      "longitude": "-90.10323602856222"
    }
  },
  {
    "service_request": "2024-1150137",
    "request_type": "Roads and Streets",
    "request_reason": "Pothole",
    "date_created": "2024-11-20T14:24:19.000",
    "date_modified": "2024-11-20T14:24:19.000",
    "request_status": "Pending",
    "responsible_agency": "Department of Public Works",
    "final_address": "111 Lennox Ct",
    "address_councildis": "C",
    "status": "Pending",
    "rowid": "1150137",
    "final_x": "3706718.01361",
    "final_y": "521365.477945",
    "longitude": "-89.98881782971915",
    "latitude": "29.92678458298396",
    "geocoded_column": {
      "latitude": "29.92678458298396",
      "longitude": "-89.98881782971915"
    }
  },
  {
    "service_request": "2024-1150136",
    "request_type": "Streetlights",
    "request_reason": "Streetlight Outage/Malfunction",
    "date_created": "2024-11-20T14:23:43.000",
    "date_modified": "2024-11-20T14:23:44.000",
    "request_status": "Pending",
    "responsible_agency": "Department of Public Works",
    "final_address": "150 Roselyn Park Pl",
    "address_councildis": "C",
    "status": "Pending",
    "contractor": "Legacy Professional Services",
    "rowid": "1150136",
    "final_x": "3702704.537",
    "final_y": "523744.803515",
    "longitude": "-90.00139989888194",
    "latitude": "29.933455782363545",
    "geocoded_column": {
      "latitude": "29.933455782363545",
      "longitude": "-90.00139989888194"
    }
  },
  {
    "service_request": "2024-1150135",
    "request_type": "Trash/Recycling",
    "request_reason": "Repair Recycling Cart",
    "date_created": "2024-11-20T14:23:05.000",
    "date_modified": "2024-11-20T14:23:06.000",
    "request_status": "Pending",
    "responsible_agency": "Department of Sanitation",
    "final_address": "6246 Brighton Pl",
    "address_councildis": "C",
    "status": "Pending",
    "rowid": "1150135",
    "final_x": "3707358.62916",
    "final_y": "520125.720376",
    "longitude": "-89.98684158497751",
    "latitude": "29.923354999224152",
    "geocoded_column": {
      "latitude": "29.923354999224152",
      "longitude": "-89.98684158497751"
    }
  },
  {
    "service_request": "2024-1150134",
    "request_type": "Parks & Parkways",
    "request_reason": "Request Tree Service (Right of Way/Public Property)",
    "date_created": "2024-11-20T14:22:15.000",
    "date_modified": "2024-11-20T14:22:16.000",
    "request_status": "Pending",
    "responsible_agency": "Department of Parks & Parkway",
    "final_address": "4701 Duplessis St",
    "address_councildis": "D",
    "status": "Pending",
    "rowid": "1150134",
    "final_x": "3678260.4541",
    "final_y": "549793.218452",
    "longitude": "-90.07766733673782",
    "latitude": "30.00583866643691",
    "geocoded_column": {
      "latitude": "30.00583866643691",
      "longitude": "-90.07766733673782"
    }
  },
  {
    "service_request": "2024-1150133",
    "request_type": "Trash/Recycling",
    "request_reason": "Request a Large Item Pick Up",
    "date_created": "2024-11-20T14:21:34.000",
    "date_modified": "2024-11-20T14:21:34.000",
    "request_status": "Pending",
    "responsible_agency": "Department of Sanitation",
    "final_address": "6552 Virgilian St",
    "address_councildis": "D",
    "status": "Assigned to Contractor",
    "contractor": "Waste Pro",
    "rowid": "1150133",
    "final_x": "3697192.93136",
    "final_y": "555436.854617",
    "longitude": "-90.01765082661952",
    "latitude": "30.020772486847964",
    "geocoded_column": {
      "latitude": "30.020772486847964",
      "longitude": "-90.01765082661952"
    }
  },
  {
    "service_request": "2024-1150132",
    "request_type": "Trash/Recycling",
    "request_reason": "Repair Recycling Cart",
    "date_created": "2024-11-20T14:16:19.000",
    "date_modified": "2024-11-20T14:16:20.000",
    "request_status": "Pending",
    "responsible_agency": "Department of Sanitation",
    "final_address": "4301 Randolph Ave",
    "address_councildis": "D",
    "status": "Pending",
    "rowid": "1150132",
    "final_x": "3677839.95048",
    "final_y": "548035.402514",
    "longitude": "-90.07905659538741",
    "latitude": "30.001017961145514",
    "geocoded_column": {
      "latitude": "30.001017961145514",
      "longitude": "-90.07905659538741"
    }
  },
  {
    "service_request": "2024-1150131",
    "request_type": "Trash/Recycling",
    "request_reason": "Repair Recycling Cart",
    "date_created": "2024-11-20T14:14:08.000",
    "date_modified": "2024-11-20T14:14:09.000",
    "request_status": "Pending",
    "responsible_agency": "Department of Sanitation",
    "final_address": "3113 State Street Dr",
    "address_councildis": "A",
    "status": "Pending",
    "rowid": "1150131",
    "final_x": "3667428.32199",
    "final_y": "527448.099391",
    "longitude": "-90.11264074652235",
    "latitude": "29.944719029753852",
    "geocoded_column": {
      "latitude": "29.944719029753852",
      "longitude": "-90.11264074652235"
    }
  },
  {
    "service_request": "2024-1150130",
    "request_type": "Streetlights",
    "request_reason": "Streetlight Outage/Malfunction",
    "date_created": "2024-11-20T14:13:00.000",
    "date_modified": "2024-11-20T14:13:01.000",
    "request_status": "Pending",
    "responsible_agency": "Department of Public Works",
    "final_address": "1909 N Lopez St",
    "address_councildis": "A",
    "status": "Pending",
    "contractor": "Legacy Professional Services",
    "rowid": "1150130",
    "final_x": "3676981.16411",
    "final_y": "543033.311053",
    "longitude": "-90.08194214931677",
    "latitude": "29.987289784521888",
    "geocoded_column": {
      "latitude": "29.987289784521888",
      "longitude": "-90.08194214931677"
    }
  },
  {
    "service_request": "2024-1150129",
    "request_type": "Streetlights",
    "request_reason": "Streetlight Outage/Malfunction",
    "date_created": "2024-11-20T14:12:00.000",
    "date_modified": "2024-11-20T14:12:01.000",
    "request_status": "Pending",
    "responsible_agency": "Department of Public Works",
    "final_address": "1909 N Lopez St",
    "address_councildis": "A",
    "status": "Pending",
    "contractor": "Legacy Professional Services",
    "rowid": "1150129",
    "final_x": "3676981.16411",
    "final_y": "543033.311053",
    "longitude": "-90.08194214931677",
    "latitude": "29.987289784521888",
    "geocoded_column": {
      "latitude": "29.987289784521888",
      "longitude": "-90.08194214931677"
    }
  },
  {
    "service_request": "2024-1150128",
    "request_type": "Roads and Streets",
    "request_reason": "Street Subsidence (Sinking)",
    "date_created": "2024-11-20T14:10:04.000",
    "date_modified": "2024-11-20T14:10:05.000",
    "request_status": "Pending",
    "responsible_agency": "Department of Public Works",
    "final_address": "10301 Chevy Chase Dr",
    "address_councildis": "E",
    "status": "Pending",
    "rowid": "1150128",
    "final_x": "3710200.78104",
    "final_y": "563398.777696",
    "longitude": "-89.97625228715108",
    "latitude": "30.04224752897532",
    "geocoded_column": {
      "latitude": "30.04224752897532",
      "longitude": "-89.97625228715108"
    }
  },
  {
    "service_request": "2024-1150127",
    "request_type": "Parks & Parkways",
    "request_reason": "Request Tree Service (Right of Way/Public Property)",
    "date_created": "2024-11-20T14:09:57.000",
    "date_modified": "2024-11-20T14:09:59.000",
    "request_status": "Pending",
    "responsible_agency": "Department of Parks & Parkway",
    "final_address": "13100 Curran Rd",
    "address_councildis": "E",
    "status": "Pending",
    "rowid": "1150127",
    "final_x": "3715728.06623",
    "final_y": "569707.607846",
    "longitude": "-89.95854490727325",
    "latitude": "30.05941307385292",
    "geocoded_column": {
      "latitude": "30.05941307385292",
      "longitude": "-89.95854490727325"
    }
  },
  {
    "service_request": "2024-1150126",
    "request_type": "Streetlights",
    "request_reason": "Streetlight Outage/Malfunction",
    "date_created": "2024-11-20T14:09:21.000",
    "date_modified": "2024-11-20T14:09:22.000",
    "request_status": "Pending",
    "responsible_agency": "Department of Public Works",
    "final_address": "5618 Tullis Dr",
    "address_councildis": "C",
    "status": "Pending",
    "contractor": "Legacy Professional Services",
    "rowid": "1150126",
    "final_x": "3704772.12023",
    "final_y": "512466.057585",
    "longitude": "-89.99528849780482",
    "latitude": "29.90237687919337",
    "geocoded_column": {
      "latitude": "29.90237687919337",
      "longitude": "-89.99528849780482"
    }
  },
  {
    "service_request": "2024-1150125",
    "request_type": "Roads and Streets",
    "request_reason": "Street Subsidence (Sinking)",
    "date_created": "2024-11-20T14:06:04.000",
    "date_modified": "2024-11-20T14:06:43.000",
    "request_status": "Pending",
    "responsible_agency": "Department of Public Works",
    "final_address": "TCHOUPITOULAS ST & EUTERPE ST",
    "address_councildis": "B",
    "status": "Pending",
    "rowid": "1150125",
    "final_x": "3682200.1",
    "final_y": "523739.48",
    "longitude": "-90.06613136176709",
    "latitude": "29.934080588849568",
    "geocoded_column": {
      "latitude": "29.934080588849568",
      "longitude": "-90.06613136176709"
    }
  },
  {
    "service_request": "2024-1150124",
    "request_type": "Trash/Recycling",
    "request_reason": "Illegal Dumping",
    "date_created": "2024-11-20T14:00:12.000",
    "date_modified": "2024-11-20T14:00:13.000",
    "request_status": "Pending",
    "responsible_agency": "Department of Sanitation",
    "final_address": "922 Deslonde St",
    "address_councildis": "E",
    "status": "Pending",
    "rowid": "1150124",
    "final_x": "3695156.20355",
    "final_y": "533789.192069",
    "longitude": "-90.02486733765485",
    "latitude": "29.961313462528775",
    "geocoded_column": {
      "latitude": "29.961313462528775",
      "longitude": "-90.02486733765485"
    }
  },
  {
    "service_request": "2024-1150123",
    "request_type": "Streetlights",
    "request_reason": "Streetlight Outage/Malfunction",
    "date_created": "2024-11-20T13:59:28.000",
    "date_modified": "2024-11-20T13:59:29.000",
    "request_status": "Pending",
    "responsible_agency": "Department of Public Works",
    "final_address": "814 Wilson Dr",
    "address_councildis": "A",
    "status": "Pending",
    "contractor": "Legacy Professional Services",
    "rowid": "1150123",
    "final_x": "3674065.57281",
    "final_y": "539340.674634",
    "longitude": "-90.09127791642366",
    "latitude": "29.977223534037932",
    "geocoded_column": {
      "latitude": "29.977223534037932",
      "longitude": "-90.09127791642366"
    }
  },
  {
    "service_request": "2024-1150122",
    "request_type": "Trash/Recycling",
    "request_reason": "Replace Recycling Cart",
    "date_created": "2024-11-20T13:59:18.000",
    "date_modified": "2024-11-20T13:59:18.000",
    "request_status": "Pending",
    "responsible_agency": "Department of Sanitation",
    "final_address": "3821 Red Cypress Dr",
    "address_councildis": "C",
    "status": "Pending",
    "rowid": "1150122",
    "final_x": "3703700.52458",
    "final_y": "512165.306481",
    "longitude": "-89.99868144065317",
    "latitude": "29.901584280033312",
    "geocoded_column": {
      "latitude": "29.901584280033312",
      "longitude": "-89.99868144065317"
    }
  },
  {
    "service_request": "2024-1150121",
    "request_type": "Trash/Recycling",
    "request_reason": "Missed Trash Pick-Up",
    "date_created": "2024-11-20T13:54:05.000",
    "date_modified": "2024-11-20T13:56:19.000",
    "request_status": "Pending",
    "responsible_agency": "Department of Sanitation",
    "final_address": "4845 Sierra Madre Dr",
    "address_councildis": "E",
    "status": "Assigned to Contractor",
    "contractor": "Waste Pro",
    "rowid": "1150121",
    "final_x": "3713926.23045",
    "final_y": "556878.853082",
    "longitude": "-89.96472466745894",
    "latitude": "30.024198495808044",
    "geocoded_column": {
      "latitude": "30.024198495808044",
      "longitude": "-89.96472466745894"
    }
  },
  {
    "service_request": "2024-1150120",
    "request_type": "Abandoned Vehicles",
    "request_reason": "Abandoned/Junk Vehicles",
    "date_created": "2024-11-20T13:53:42.000",
    "date_modified": "2024-11-20T13:57:09.000",
    "request_status": "Pending",
    "responsible_agency": "Department of Public Works",
    "final_address": "2430 Burgundy St",
    "address_councildis": "C",
    "status": "Pending",
    "rowid": "1150120",
    "final_x": "3686104.3629",
    "final_y": "535608.564486",
    "longitude": "-90.05338722054668",
    "latitude": "29.966597221628632",
    "geocoded_column": {
      "latitude": "29.966597221628632",
      "longitude": "-90.05338722054668"
    }
  },
  {
    "service_request": "2024-1150119",
    "request_type": "Trash/Recycling",
    "request_reason": "Order Recycling Cart",
    "date_created": "2024-11-20T13:52:54.000",
    "date_modified": "2024-11-20T13:52:56.000",
    "request_status": "Pending",
    "responsible_agency": "Department of Sanitation",
    "final_address": "929 N Gayoso St",
    "address_councildis": "A",
    "status": "Pending",
    "rowid": "1150119",
    "final_x": "3676297.66933",
    "final_y": "538501.513993",
    "longitude": "-90.08425710960114",
    "latitude": "29.974849412577896",
    "geocoded_column": {
      "latitude": "29.974849412577896",
      "longitude": "-90.08425710960114"
    }
  },
  {
    "service_request": "2024-1150118",
    "request_type": "Streetlights",
    "request_reason": "Streetlight Outage/Malfunction",
    "date_created": "2024-11-20T13:47:02.000",
    "date_modified": "2024-11-20T13:49:09.000",
    "request_status": "Pending",
    "responsible_agency": "Department of Public Works",
    "final_address": "1800 Rosiere St",
    "address_councildis": "D",
    "status": "Pending",
    "contractor": "Legacy Professional Services",
    "rowid": "1150118",
    "final_x": "3678916.71387",
    "final_y": "542243.231821",
    "longitude": "-90.07585581902677",
    "latitude": "29.98505907707149",
    "geocoded_column": {
      "latitude": "29.98505907707149",
      "longitude": "-90.07585581902677"
    }
  },
  {
    "service_request": "2024-1150117",
    "request_type": "Street and Traffic Signs",
    "request_reason": "Street Name Sign Damaged or Missing",
    "date_created": "2024-11-20T13:46:05.000",
    "date_modified": "2024-11-20T13:46:07.000",
    "request_status": "Pending",
    "responsible_agency": "Department of Public Works",
    "final_address": "CARLSON DR & LEON C SIMON DR",
    "address_councildis": "D",
    "status": "Pending",
    "rowid": "1150117",
    "final_x": "3679774.5",
    "final_y": "555951.08",
    "longitude": "-90.07267007706785",
    "latitude": "30.022724850929745",
    "geocoded_column": {
      "latitude": "30.022724850929745",
      "longitude": "-90.07267007706785"
    }
  },
  {
    "service_request": "2024-1150116",
    "request_type": "Property Maintenance",
    "request_reason": "Property Maintenance",
    "date_created": "2024-11-20T13:45:49.000",
    "date_modified": "2024-11-20T14:05:14.000",
    "request_status": "Pending",
    "responsible_agency": "Department of Code Enforcement",
    "final_address": "4719 Louisa Dr",
    "address_councildis": "D",
    "status": "Pending",
    "rowid": "1150116",
    "final_x": "3690962.19376",
    "final_y": "551066.792405",
    "longitude": "-90.03749421592853",
    "latitude": "30.008951683532665",
    "geocoded_column": {
      "latitude": "30.008951683532665",
      "longitude": "-90.03749421592853"
    }
  },
  {
    "service_request": "2024-1150115",
    "request_type": "Abandoned Vehicles",
    "request_reason": "Abandoned/Junk Vehicles",
    "date_created": "2024-11-20T13:45:00.000",
    "date_modified": "2024-11-20T13:45:01.000",
    "request_status": "Pending",
    "responsible_agency": "Department of Public Works",
    "final_address": "7917 Forshey St",
    "address_councildis": "B",
    "status": "Pending",
    "rowid": "1150115",
    "final_x": "3667538.117",
    "final_y": "533557.479493",
    "longitude": "-90.11208850441433",
    "latitude": "29.96151461241125",
    "geocoded_column": {
      "latitude": "29.96151461241125",
      "longitude": "-90.11208850441433"
    }
  },
  {
    "service_request": "2024-1150114",
    "request_type": "Trash/Recycling",
    "request_reason": "Illegal Dumping",
    "date_created": "2024-11-20T13:43:18.000",
    "date_modified": "2024-11-20T13:43:19.000",
    "request_status": "Pending",
    "responsible_agency": "Department of Sanitation",
    "final_address": "1600 BLK Gordon St",
    "address_councildis": "E",
    "status": "Pending",
    "rowid": "1150114",
    "final_x": "3699942.64174",
    "final_y": "535390.187866",
    "longitude": "-90.00969430434834",
    "latitude": "29.96556447029479",
    "geocoded_column": {
      "latitude": "29.96556447029479",
      "longitude": "-90.00969430434834"
    }
  },
  {
    "service_request": "2024-1150113",
    "request_type": "Trash/Recycling",
    "request_reason": "Request a Large Item Pick Up",
    "date_created": "2024-11-20T13:42:56.000",
    "date_modified": "2024-11-20T13:42:57.000",
    "request_status": "Pending",
    "responsible_agency": "Department of Sanitation",
    "final_address": "4964 Chrysler St",
    "address_councildis": "E",
    "status": "Assigned to Contractor",
    "contractor": "Waste Pro",
    "rowid": "1150113",
    "final_x": "3715132.84299",
    "final_y": "557950.983899",
    "longitude": "-89.96087146077576",
    "latitude": "30.027106746827315",
    "geocoded_column": {
      "latitude": "30.027106746827315",
      "longitude": "-89.96087146077576"
    }
  },
  {
    "service_request": "2024-1150112",
    "request_type": "Abandoned Vehicles",
    "request_reason": "Abandoned/Junk Vehicles",
    "date_created": "2024-11-20T13:41:05.000",
    "date_modified": "2024-11-20T13:41:06.000",
    "request_status": "Pending",
    "responsible_agency": "Department of Public Works",
    "final_address": "2600 BLK Allen St",
    "address_councildis": "D",
    "status": "Pending",
    "rowid": "1150112",
    "final_x": "3682319.2413",
    "final_y": "541833.331803",
    "longitude": "-90.06512301872134",
    "latitude": "29.983828884461918",
    "geocoded_column": {
      "latitude": "29.983828884461918",
      "longitude": "-90.06512301872134"
    }
  },
  {
    "service_request": "2024-1150111",
    "request_type": "Trash/Recycling",
    "request_reason": "Request a Large Item Pick Up",
    "date_created": "2024-11-20T13:38:12.000",
    "date_modified": "2024-11-20T13:38:13.000",
    "request_status": "Pending",
    "responsible_agency": "Department of Sanitation",
    "final_address": "9 Vivian Ct",
    "address_councildis": "C",
    "status": "Assigned to Contractor",
    "contractor": "Richards Disposal",
    "rowid": "1150111",
    "final_x": "3701970.30372",
    "final_y": "521311.793273",
    "longitude": "-90.00380693635731",
    "latitude": "29.926789296285406",
    "geocoded_column": {
      "latitude": "29.926789296285406",
      "longitude": "-90.00380693635731"
    }
  },
  {
    "service_request": "2024-1150110",
    "request_type": "Trash/Recycling",
    "request_reason": "Request a Large Item Pick Up",
    "date_created": "2024-11-20T13:37:34.000",
    "date_modified": "2024-11-20T13:37:35.000",
    "request_status": "Pending",
    "responsible_agency": "Department of Sanitation",
    "final_address": "4940 Galahad Dr",
    "address_councildis": "E",
    "status": "Assigned to Contractor",
    "contractor": "Waste Pro",
    "rowid": "1150110",
    "final_x": "3707016.93118",
    "final_y": "556726.543258",
    "longitude": "-89.98656224298708",
    "latitude": "30.024004807984443",
    "geocoded_column": {
      "latitude": "30.024004807984443",
      "longitude": "-89.98656224298708"
    }
  },
  {
    "service_request": "2024-1150109",
    "request_type": "Drainage",
    "request_reason": "Catch Basin Clogged",
    "date_created": "2024-11-20T13:33:36.000",
    "date_modified": "2024-11-20T13:36:09.000",
    "case_close_date": "2024-11-20T07:36:09.000",
    "request_status": "Closed",
    "responsible_agency": "Department of Public Works",
    "final_address": "725 Napoleon Ave",
    "address_councildis": "B",
    "status": "Resolved",
    "rowid": "1150109",
    "final_x": "3671210.86254",
    "final_y": "518268.895926",
    "longitude": "-90.10100979535594",
    "latitude": "29.91936783071306",
    "geocoded_column": {
      "latitude": "29.91936783071306",
      "longitude": "-90.10100979535594"
    }
  },
  {
    "service_request": "2024-1150108",
    "request_type": "Drainage",
    "request_reason": "Catch Basin Clogged",
    "date_created": "2024-11-20T13:32:03.000",
    "date_modified": "2024-11-20T13:32:30.000",
    "case_close_date": "2024-11-20T07:32:30.000",
    "request_status": "Closed",
    "responsible_agency": "Department of Public Works",
    "final_address": "840 Napoleon Ave",
    "address_councildis": "B",
    "status": "Resolved",
    "rowid": "1150108",
    "final_x": "3670968.38164",
    "final_y": "518740.472119",
    "longitude": "-90.1017591884774",
    "latitude": "29.92067168404816",
    "geocoded_column": {
      "latitude": "29.92067168404816",
      "longitude": "-90.1017591884774"
    }
  },
  {
    "service_request": "2024-1150107",
    "request_type": "Trash/Recycling",
    "request_reason": "Request a Large Item Pick Up",
    "date_created": "2024-11-20T13:31:40.000",
    "date_modified": "2024-11-20T13:31:41.000",
    "request_status": "Pending",
    "responsible_agency": "Department of Sanitation",
    "final_address": "8006 Mullet St",
    "address_councildis": "E",
    "status": "Assigned to Contractor",
    "contractor": "Waste Pro",
    "rowid": "1150107",
    "final_x": "3698656.93104",
    "final_y": "561170.798622",
    "longitude": "-90.01281625046893",
    "latitude": "30.0364923281965",
    "geocoded_column": {
      "latitude": "30.0364923281965",
      "longitude": "-90.01281625046893"
    }
  },
  {
    "service_request": "2024-1150106",
    "request_type": "Streetlights",
    "request_reason": "Streetlight Outage/Malfunction",
    "date_created": "2024-11-20T13:31:26.000",
    "date_modified": "2024-11-20T13:31:27.000",
    "request_status": "Pending",
    "responsible_agency": "Department of Public Works",
    "final_address": "139 Danny Dr",
    "address_councildis": "C",
    "status": "Pending",
    "contractor": "Legacy Professional Services",
    "rowid": "1150106",
    "final_x": "3701881.19095",
    "final_y": "524114.87206",
    "longitude": "-90.00398558300022",
    "latitude": "29.934499632245863",
    "geocoded_column": {
      "latitude": "29.934499632245863",
      "longitude": "-90.00398558300022"
    }
  },
  {
    "service_request": "2024-1150105",
    "request_type": "Drainage",
    "request_reason": "Catch Basin Clogged",
    "date_created": "2024-11-20T13:30:44.000",
    "date_modified": "2024-11-20T13:31:09.000",
    "case_close_date": "2024-11-20T07:31:09.000",
    "request_status": "Closed",
    "responsible_agency": "Department of Public Works",
    "final_address": "3720 Napoleon Ave",
    "address_councildis": "B",
    "status": "Resolved",
    "rowid": "1150105",
    "final_x": "3669972.90215",
    "final_y": "528297.017152",
    "longitude": "-90.10457798168643",
    "latitude": "29.946978493455532",
    "geocoded_column": {
      "latitude": "29.946978493455532",
      "longitude": "-90.10457798168643"
    }
  },
  {
    "service_request": "2024-1150104",
    "request_type": "Drainage",
    "request_reason": "Catch Basin Clogged",
    "date_created": "2024-11-20T13:29:08.000",
    "date_modified": "2024-11-20T13:29:35.000",
    "case_close_date": "2024-11-20T07:29:35.000",
    "request_status": "Closed",
    "responsible_agency": "Department of Public Works",
    "final_address": "2929 Napoleon Ave",
    "address_councildis": "B",
    "status": "Resolved",
    "rowid": "1150104",
    "final_x": "3670526.8315",
    "final_y": "525656.961341",
    "longitude": "-90.10291852591874",
    "latitude": "29.939702854127233",
    "geocoded_column": {
      "latitude": "29.939702854127233",
      "longitude": "-90.10291852591874"
    }
  },
  {
    "service_request": "2024-1150103",
    "request_type": "Drainage",
    "request_reason": "Catch Basin Clogged",
    "date_created": "2024-11-20T13:27:39.000",
    "date_modified": "2024-11-20T13:28:11.000",
    "case_close_date": "2024-11-20T07:28:11.000",
    "request_status": "Closed",
    "responsible_agency": "Department of Public Works",
    "final_address": "1314 Napoleon Ave Unit 19",
    "address_councildis": "B",
    "status": "Resolved",
    "rowid": "1150103",
    "final_x": "3670705.05185",
    "final_y": "520116.61164",
    "longitude": "-90.10254374238664",
    "latitude": "29.92446340995594",
    "geocoded_column": {
      "latitude": "29.92446340995594",
      "longitude": "-90.10254374238664"
    }
  },