[
  {
    "service_request": "2025-1244752",
    "request_type": "Trash/Recycling",
    "request_reason": "Request a Large Item Pick Up",
    "date_created": "2025-12-09T22:58:14.000",
    "date_modified": "2025-12-09T22:58:16.000",
    "request_status": "Pending",
    "responsible_agency": "Department of Sanitation",
    "final_address": "329 Crystal St",
    "address_councildis": "D",
    "status": "Assigned to Contractor",
    "contractor": "IV Waste",
    "rowid": "1244752",
    "final_x": "3667641.46202",
    "final_y": "556174.278938",
    "longitude": "-90.1110002785698",
    "latitude": "30.02370003300121",
    "geocoded_column": {
      "latitude": "30.02370003300121",
      "longitude": "-90.1110002785698"
    }
  },
  {
    "service_request": "2025-1244751",
    "request_type": "Property Maintenance",
    "request_reason": "Property Maintenance",
    "date_created": "2025-12-09T22:20:37.000",
    "date_modified": "2025-12-09T22:20:39.000",
    "request_status": "Pending",
    "responsible_agency": "Department of Code Enforcement",
    "final_address": "4826 Lurline St",
    "address_councildis": "E",
    "status": "Pending",
    "rowid": "1244751",
    "final_x": "3711854.12702",
    "final_y": "556558.751962",
    "longitude": "-89.97128408713846",
    "latitude": "30.023386232812246",
    "geocoded_column": {
      "latitude": "30.023386232812246",
      "longitude": "-89.97128408713846"
    }
  },
  {
    "service_request": "2025-1244750",
    "request_type": "Trash/Recycling",
    "request_reason": "Start Trash Service",
    "date_created": "2025-12-09T22:01:28.000",
    "date_modified": "2025-12-09T22:01:30.000",
    "request_status": "Pending",
    "responsible_agency": "Department of Sanitation",
    "final_address": "6918 Catina St",
    "address_councildis": "A",
    "status": "Assigned to Contractor",
    "contractor": "IV Waste",
    "rowid": "1244750",
    "final_x": "3667074.15348",
    "final_y": "553795.789207",
    "longitude": "-90.11287291620187",
    "latitude": "30.017176656007194",
    "geocoded_column": {
      "latitude": "30.017176656007194",
      "longitude": "-90.11287291620187"
    }
  },
  {
    "service_request": "2025-1244749",
    "request_type": "Streetlights",
    "request_reason": "Streetlight Outage/Malfunction",
    "date_created": "2025-12-09T21:43:25.000",
    "date_modified": "2025-12-09T21:43:27.000",
    "request_status": "Pending",
    "responsible_agency": "Department of Public Works",
    "final_address": "4700 Mithra St",
    "address_councildis": "D",
    "status": "Pending",
    "rowid": "1244749",
    "final_x": "3691133.04355",
    "final_y": "553457.592663",
    "longitude": "-90.0368689843811",
    "latitude": "30.015520184986656",
    "geocoded_column": {
      "latitude": "30.015520184986656",
      "longitude": "-90.0368689843811"
    }
  },
  {
    "service_request": "2025-1244748",
    "request_type": "Trash/Recycling",
    "request_reason": "Request a Large Item Pick Up",
    "date_created": "2025-12-09T21:37:12.000",
    "date_modified": "2025-12-09T21:37:13.000",
    "request_status": "Pending",
    "responsible_agency": "Department of Sanitation",
    "final_address": "4709 Coliseum St",
    "address_councildis": "B",
    "status": "Assigned to Contractor",
    "contractor": "IV Waste",
    "rowid": "1244748",
    "final_x": "3669742.06106",
    "final_y": "519738.286776",
    "longitude": "-90.10559637986229",
    "latitude": "29.923451543877018",
    "geocoded_column": {
      "latitude": "29.923451543877018",
      "longitude": "-90.10559637986229"
    }
  },
  {
    "service_request": "2025-1244747",
    "request_type": "Roads and Streets",
    "request_reason": "Pothole",
    "date_created": "2025-12-09T20:47:48.000",
    "date_modified": "2025-12-09T20:47:50.000",
    "request_status": "Pending",
    "responsible_agency": "Department of Public Works",
    "final_address": "3200 Elmwood Park Dr",
    "address_councildis": "C",
    "status": "Pending",
    "rowid": "1244747",
    "final_x": "3694922.50397",
    "final_y": "518460.455734",
    "longitude": "-90.02615752518848",
    "latitude": "29.919172059042957",
    "geocoded_column": {
      "latitude": "29.919172059042957",
      "longitude": "-90.02615752518848"
    }
  },
  {
    "service_request": "2025-1244746",
    "request_type": "Trash/Recycling",
    "request_reason": "Repair Trash Cart",
    "date_created": "2025-12-09T20:36:54.000",
    "date_modified": "2025-12-09T20:36:56.000",
    "request_status": "Pending",
    "responsible_agency": "Department of Sanitation",
    "final_address": "1829 Valence St Apt B",
    "address_councildis": "B",
    "status": "Assigned to Contractor",
    "contractor": "IV Waste",
    "rowid": "1244746",
    "final_x": "3669716.26599",
    "final_y": "521745.170426",
    "longitude": "-90.10560992856688",
    "latitude": "29.928970594651155",
    "geocoded_column": {
      "latitude": "29.928970594651155",
      "longitude": "-90.10560992856688"
    }
  },
  {
    "service_request": "2025-1244745",
    "request_type": "Trash/Recycling",
    "request_reason": "Repair Recycling Cart",
    "date_created": "2025-12-09T20:25:01.000",
    "date_modified": "2025-12-09T20:25:03.000",
    "request_status": "Pending",
    "responsible_agency": "Department of Sanitation",
    "final_address": "3221 Grand-Route St John St",
    "address_councildis": "A",
    "status": "Pending",
    "rowid": "1244745",
    "final_x": "3675842.63867",
    "final_y": "540372.609035",
    "longitude": "-90.08562986546033",
    "latitude": "29.98000791337058",
    "geocoded_column": {
      "latitude": "29.98000791337058",
      "longitude": "-90.08562986546033"
    }
  },
  {
    "service_request": "2025-1244744",
    "request_type": "Trash/Recycling",
    "request_reason": "Request a Large Item Pick Up",
    "date_created": "2025-12-09T20:03:32.000",
    "date_modified": "2025-12-09T20:03:34.000",
    "request_status": "Pending",
    "responsible_agency": "Department of Sanitation",
    "final_address": "4700 Cardenas Dr",
    "address_councildis": "E",
    "status": "Assigned to Contractor",
    "contractor": "Waste Pro",
    "rowid": "1244744",
    "final_x": "3713644.22271",
    "final_y": "556044.230809",
    "longitude": "-89.965647228498",
    "latitude": "30.021912872819005",
    "geocoded_column": {
      "latitude": "30.021912872819005",
      "longitude": "-89.965647228498"
    }
  },
  {
    "service_request": "2025-1244743",
    "request_type": "Trash/Recycling",
    "request_reason": "Request a Large Item Pick Up",
    "date_created": "2025-12-09T19:34:26.000",
    "date_modified": "2025-12-09T19:34:27.000",
    "request_status": "Pending",
    "responsible_agency": "Department of Sanitation",
    "final_address": "2523 Peniston St",
    "address_councildis": "B",
    "status": "Assigned to Contractor",
    "contractor": "IV Waste",
    "rowid": "1244743",
    "final_x": "3672124.21947",
    "final_y": "524445.772156",
    "longitude": "-90.09791656559842",
    "latitude": "29.936325215687415",
    "geocoded_column": {
      "latitude": "29.936325215687415",
      "longitude": "-90.09791656559842"
    }
  },
  {
    "service_request": "2025-1244742",
    "request_type": "Trash/Recycling",
    "request_reason": "Order Trash Cart",
    "date_created": "2025-12-09T19:16:30.000",
    "date_modified": "2025-12-09T19:16:31.000",
    "request_status": "Pending",
    "responsible_agency": "Department of Sanitation",
    "final_address": "1321 Chartres St",
    "address_councildis": "C",
    "status": "Assigned to Contractor",
    "contractor": "Empire Services",
    "rowid": "1244742",
    "final_x": "3684216.63042",
    "final_y": "534124.654021",
    "longitude": "-90.05940075440654",
    "latitude": "29.962574825718793",
    "geocoded_column": {
      "latitude": "29.962574825718793",
      "longitude": "-90.05940075440654"
    }
  },
  {
    "service_request": "2025-1244741",
    "request_type": "Trash/Recycling",
    "request_reason": "Order Second Trash Cart",
    "date_created": "2025-12-09T19:13:56.000",
    "date_modified": "2025-12-09T19:13:59.000",
    "request_status": "Pending",
    "responsible_agency": "Department of Sanitation",
    "final_address": "7801 Doyle Ct",
    "address_councildis": "E",
    "status": "Assigned to Contractor",
    "contractor": "Waste Pro",
    "rowid": "1244741",
    "final_x": "3700398.92196",
    "final_y": "561220.14115",
    "longitude": "-90.00730943413681",
    "latitude": "30.03657268590262",
    "geocoded_column": {
      "latitude": "30.03657268590262",
      "longitude": "-90.00730943413681"
    }
  },
  {
    "service_request": "2025-1244740",
    "request_type": "Mosquito, Termite & Rodent Control",
    "request_reason": "Rodent Complaint (Mice & Rats)",
    "date_created": "2025-12-09T19:09:03.000",
    "date_modified": "2025-12-09T19:09:04.000",
    "request_status": "Pending",
    "responsible_agency": "Mosquito, Termite & Rodent Control Board",
    "final_address": "6123 Shirley Taylor St",
    "address_councildis": "E",
    "status": "Pending",
    "rowid": "1244740",
    "final_x": "3701558.14986",
    "final_y": "537918.580169",
    "longitude": "-90.00450003538901",
    "latitude": "29.972465222533202",
    "geocoded_column": {
      "latitude": "29.972465222533202",
      "longitude": "-90.00450003538901"
    }
  },
  {
    "service_request": "2025-1244739",
    "request_type": "Street and Traffic Signs",
    "request_reason": "Traffic or Parking Sign Damaged or Missing",
    "date_created": "2025-12-09T18:41:56.000",
    "date_modified": "2025-12-09T18:41:58.000",
    "request_status": "Pending",
    "responsible_agency": "Department of Public Works",
    "final_address": "511 Toulouse St",
    "address_councildis": "C",
    "status": "Pending",
    "rowid": "1244739",
    "final_x": "3682859.96668",
    "final_y": "531798.952835",
    "longitude": "-90.06376628182879",
    "latitude": "29.95622134624073",
    "geocoded_column": {
      "latitude": "29.95622134624073",
      "longitude": "-90.06376628182879"
    }
  },
  {
    "service_request": "2025-1244738",
    "request_type": "Trash/Recycling",
    "request_reason": "Repair Trash Cart",
    "date_created": "2025-12-09T18:28:38.000",
    "date_modified": "2025-12-09T18:28:40.000",
    "request_status": "Pending",
    "responsible_agency": "Department of Sanitation",
    "final_address": "2306 Laharpe St",
    "address_councildis": "D",
    "status": "Assigned to Contractor",
    "contractor": "IV Waste",
    "rowid": "1244738",
    "final_x": "3679885.55419",
    "final_y": "538969.20673",
    "longitude": "-90.0729094179838",
    "latitude": "29.976027375338436",
    "geocoded_column": {
      "latitude": "29.976027375338436",
      "longitude": "-90.0729094179838"
    }
  },
  {
    "service_request": "2025-1244737",
    "request_type": "Streetlights",
    "request_reason": "New Streetlight Request",
    "date_created": "2025-12-09T18:16:19.000",
    "date_modified": "2025-12-09T18:16:21.000",
    "request_status": "Pending",
    "responsible_agency": "Department of Public Works",
    "final_address": "7300 BLK Colapissa St",
    "address_councildis": "B",
    "status": "Pending",
    "rowid": "1244737",
    "final_x": "3667602.89114",
    "final_y": "532428.838145",
    "longitude": "-90.11192194916458",
    "latitude": "29.95840932201153",
    "geocoded_column": {
      "latitude": "29.95840932201153",
      "longitude": "-90.11192194916458"
    }
  },
  {
    "service_request": "2025-1244736",
    "request_type": "Trash/Recycling",
    "request_reason": "Repair Trash Cart",
    "date_created": "2025-12-09T18:08:07.000",
    "date_modified": "2025-12-09T18:08:08.000",
    "request_status": "Pending",
    "responsible_agency": "Department of Sanitation",
    "final_address": "7510 Zimple St",
    "address_councildis": "A",
    "status": "Assigned to Contractor",
    "contractor": "IV Waste",
    "rowid": "1244736",
    "final_x": "3663201.57504",
    "final_y": "526728.436414",
    "longitude": "-90.12600985476145",
    "latitude": "29.94286332366857",
    "geocoded_column": {
      "latitude": "29.94286332366857",
      "longitude": "-90.12600985476145"
    }
  },
  {
    "service_request": "2025-1244735",
    "request_type": "Streetlights",
    "request_reason": "Streetlight Outage/Malfunction",
    "date_created": "2025-12-09T17:51:27.000",
    "date_modified": "2025-12-09T17:51:29.000",
    "request_status": "Pending",
    "responsible_agency": "Department of Public Works",
    "final_address": "834 Ursulines Ave",
    "address_councildis": "C",
    "status": "Pending",
    "rowid": "1244735",
    "final_x": "3682915.16629",
    "final_y": "534004.666501",
    "longitude": "-90.06351479538789",
    "latitude": "29.96228462328931",
    "geocoded_column": {
      "latitude": "29.96228462328931",
      "longitude": "-90.06351479538789"
    }
  },
  {
    "service_request": "2025-1244734",
    "request_type": "Trash/Recycling",
    "request_reason": "Replace Recycling Cart",
    "date_created": "2025-12-09T17:47:26.000",
    "date_modified": "2025-12-09T17:47:27.000",
    "request_status": "Pending",
    "responsible_agency": "Department of Sanitation",
    "final_address": "7510 Zimple St",
    "address_councildis": "A",
    "status": "Pending",
    "rowid": "1244734",
    "final_x": "3663201.57504",
    "final_y": "526728.436414",
    "longitude": "-90.12600985476145",
    "latitude": "29.94286332366857",
    "geocoded_column": {
      "latitude": "29.94286332366857",
      "longitude": "-90.12600985476145"
    }
  },
  {
    "service_request": "2025-1244733",
    "request_type": "Trash/Recycling",
    "request_reason": "Replace Trash Cart",
    "date_created": "2025-12-09T17:43:12.000",
    "date_modified": "2025-12-09T17:43:14.000",
    "request_status": "Pending",
    "responsible_agency": "Department of Sanitation",
    "final_address": "7510 Zimple St",
    "address_councildis": "A",
    "status": "Assigned to Contractor",
    "contractor": "IV Waste",
    "rowid": "1244733",
    "final_x": "3663201.57504",
    "final_y": "526728.436414",
    "longitude": "-90.12600985476145",
    "latitude": "29.94286332366857",
    "geocoded_column": {
      "latitude": "29.94286332366857",
      "longitude": "-90.12600985476145"
    }
  },
  {
    "service_request": "2025-1244732",
    "request_type": "Streetlights",
    "request_reason": "Streetlight Outage/Malfunction",
    "date_created": "2025-12-09T17:18:42.000",
    "date_modified": "2025-12-09T17:18:43.000",
    "request_status": "Pending",
    "responsible_agency": "Department of Public Works",
    "final_address": "6030 Garfield St",
    "address_councildis": "A",
    "status": "Pending",
    "rowid": "1244732",
    "final_x": "3665148.02496",
    "final_y": "521473.515833",
    "longitude": "-90.12004009640124",
    "latitude": "29.928357428008884",
    "geocoded_column": {
      "latitude": "29.928357428008884",
      "longitude": "-90.12004009640124"
    }
  },
  {
    "service_request": "2025-1244731",
    "request_type": "Property Maintenance",
    "request_reason": "Property Maintenance",
    "date_created": "2025-12-09T17:14:54.000",
    "date_modified": "2025-12-09T17:14:57.000",
    "request_status": "Pending",
    "responsible_agency": "Department of Code Enforcement",
    "final_address": "9300 Morrison Rd, New Orleans, Louisiana, 70127",
    "address_councildis": "E",
    "status": "Pending",
    "rowid": "1244731",
    "final_x": "3706968.38264",
    "final_y": "562168.677535",
    "longitude": "-89.9865135234826",
    "latitude": "30.038970109208226",
    "geocoded_column": {
      "latitude": "30.038970109208226",
      "longitude": "-89.9865135234826"
    }
  },
  {
    "service_request": "2025-1244730",
    "request_type": "Street and Traffic Signs",
    "request_reason": "Stop Sign Missing or Damaged",
    "date_created": "2025-12-09T17:02:11.000",
    "date_modified": "2025-12-09T17:02:17.000",
    "request_status": "Pending",
    "responsible_agency": "Department of Public Works",
    "final_address": "8015 Trapier Ave",
    "address_councildis": "E",
    "status": "Pending",
    "rowid": "1244730",
    "final_x": "3706172.26091",
    "final_y": "564440.376161",
    "longitude": "-89.98894524065851",
    "latitude": "30.04524208495352",
    "geocoded_column": {
      "latitude": "30.04524208495352",
      "longitude": "-89.98894524065851"
    }
  },
  {
    "service_request": "2025-1244729",
    "request_type": "Trash/Recycling",
    "request_reason": "Request a Large Item Pick Up",
    "date_created": "2025-12-09T16:58:16.000",
    "date_modified": "2025-12-09T16:58:19.000",
    "request_status": "Pending",
    "responsible_agency": "Department of Sanitation",
    "final_address": "1926 Reynes St",
    "address_councildis": "E",
    "status": "Assigned to Contractor",
    "contractor": "Waste Pro",
    "rowid": "1244729",
    "final_x": "3696823.50506",
    "final_y": "537469.857096",
    "longitude": "-90.01946904943799",
    "latitude": "29.971381522711297",
    "geocoded_column": {
      "latitude": "29.971381522711297",
      "longitude": "-90.01946904943799"
    }
  },
  {
    "service_request": "2025-1244728",
    "request_type": "Trash/Recycling",
    "request_reason": "Request a Large Item Pick Up",
    "date_created": "2025-12-09T16:56:17.000",
    "date_modified": "2025-12-09T16:56:19.000",
    "request_status": "Pending",
    "responsible_agency": "Department of Sanitation",
    "final_address": "2226 St Thomas St",
    "address_councildis": "B",
    "status": "Assigned to Contractor",
    "contractor": "IV Waste",
    "rowid": "1244728",
    "final_x": "3679773.36335",
    "final_y": "520450.523128",
    "longitude": "-90.07390660084303",
    "latitude": "29.925110607864415",
    "geocoded_column": {
      "latitude": "29.925110607864415",
      "longitude": "-90.07390660084303"
    }
  },
  {
    "service_request": "2025-1244727",
    "request_type": "Trash/Recycling",
    "request_reason": "Missed Trash Pick-Up",
    "date_created": "2025-12-09T16:52:41.000",
    "date_modified": "2025-12-09T17:02:29.000",
    "case_close_date": "2025-12-09T11:02:29.000",
    "request_status": "Closed",
    "responsible_agency": "Department of Sanitation",
    "final_address": "6006 St Anthony Ave",
    "address_councildis": "D",
    "status": "Invalid Request",
    "contractor": "IV Waste",
    "contractor_action": "Invalid Request",
    "rowid": "1244727",
    "final_x": "3681945.16469",
    "final_y": "554746.0262",
    "longitude": "-90.06585340377346",
    "latitude": "30.019345549513027",
    "geocoded_column": {
      "latitude": "30.019345549513027",
      "longitude": "-90.06585340377346"
    }
  },
  {
    "service_request": "2025-1244726",
    "request_type": "Trash/Recycling",
    "request_reason": "Missed Trash Pick-Up",
    "date_created": "2025-12-09T16:47:15.000",
    "date_modified": "2025-12-09T16:47:17.000",
    "request_status": "Pending",
    "responsible_agency": "Department of Sanitation",
    "final_address": "11511 Morrison Rd",
    "address_councildis": "E",
    "status": "Assigned to Contractor",
    "contractor": "Waste Pro",
    "rowid": "1244726",
    "final_x": "3712545.59979",
    "final_y": "566033.916643",
    "longitude": "-89.96874265081156",
    "latitude": "30.04941652807791",
    "geocoded_column": {
      "latitude": "30.04941652807791",
      "longitude": "-89.96874265081156"
    }
  },
  {
    "service_request": "2025-1244725",
    "request_type": "Trash/Recycling",
    "request_reason": "Request a Large Item Pick Up",
    "date_created": "2025-12-09T16:46:38.000",
    "date_modified": "2025-12-09T16:46:40.000",
    "request_status": "Pending",
    "responsible_agency": "Department of Sanitation",
    "final_address": "1224 Mandeville St",
    "address_councildis": "C",
    "status": "Assigned to Contractor",
    "contractor": "IV Waste",
    "rowid": "1244725",
    "final_x": "3685699.56476",
    "final_y": "536936.395016",
    "longitude": "-90.05461877162014",
    "latitude": "29.970260721009602",
    "geocoded_column": {
      "latitude": "29.970260721009602",
      "longitude": "-90.05461877162014"
    }
  },
  {
    "service_request": "2025-1244724",
    "request_type": "Trash/Recycling",
    "request_reason": "Order Second Trash Cart",
    "date_created": "2025-12-09T16:43:08.000",
    "date_modified": "2025-12-09T16:43:10.000",
    "request_status": "Pending",
    "responsible_agency": "Department of Sanitation",
    "final_address": "8823 Fig St",
    "address_councildis": "A",
    "status": "Assigned to Contractor",
    "contractor": "IV Waste",
    "rowid": "1244724",
    "final_x": "3664328.03444",
    "final_y": "534987.721478",
    "longitude": "-90.12217770616955",
    "latitude": "29.965540993156626",
    "geocoded_column": {
      "latitude": "29.965540993156626",
      "longitude": "-90.12217770616955"
    }
  },
  {
    "service_request": "2025-1244723",
    "request_type": "Trash/Recycling",
    "request_reason": "Order Recycling Cart",
    "date_created": "2025-12-09T16:36:01.000",
    "date_modified": "2025-12-09T16:36:02.000",
    "request_status": "Pending",
    "responsible_agency": "Department of Sanitation",
    "final_address": "1717 Dufossat St",
    "address_councildis": "B",
    "status": "Pending",
    "rowid": "1244723",
    "final_x": "3668208.43674",
    "final_y": "521948.332346",
    "longitude": "-90.11036301569239",
    "latitude": "29.92957356234371",
    "geocoded_column": {
      "latitude": "29.92957356234371",
      "longitude": "-90.11036301569239"
    }
  },
  {
    "service_request": "2025-1244721",
    "request_type": "Streetlights",
    "request_reason": "Streetlight Outage/Malfunction",
    "date_created": "2025-12-09T16:32:10.000",
    "date_modified": "2025-12-09T16:32:12.000",
    "request_status": "Pending",
    "responsible_agency": "Department of Public Works",
    "final_address": "5701 Laurel St",
    "address_councildis": "A",
    "status": "Pending",
    "rowid": "1244721",
    "final_x": "3665548.42023",
    "final_y": "517976.964854",
    "longitude": "-90.11889311771719",
    "latitude": "29.91873134765509",
    "geocoded_column": {
      "latitude": "29.91873134765509",
      "longitude": "-90.11889311771719"
    }
  },
  {
    "service_request": "2025-1244720",
    "request_type": "Drainage",
    "request_reason": "Catch Basin Not Draining",
    "date_created": "2025-12-09T16:30:12.000",
    "date_modified": "2025-12-09T16:30:14.000",
    "request_status": "Pending",
    "responsible_agency": "Sewerage & Water Board",
    "final_address": "3000 BLK Danneel St",
    "address_councildis": "B",
    "status": "Pending",
    "rowid": "1244720",
    "final_x": "3674329.88687",
    "final_y": "523203.570835",
    "longitude": "-90.09099570898653",
    "latitude": "29.9328439920267",
    "geocoded_column": {
      "latitude": "29.9328439920267",
      "longitude": "-90.09099570898653"
    }
  },
  {
    "service_request": "2025-1244719",
    "request_type": "Trash/Recycling",
    "request_reason": "Request a Large Item Pick Up",
    "date_created": "2025-12-09T16:22:55.000",
    "date_modified": "2025-12-09T16:42:44.000",
    "request_status": "Pending",
    "responsible_agency": "Department of Sanitation",
    "final_address": "211 Norland Ave",
    "address_councildis": "C",
    "status": "Assigned to Contractor",
    "contractor": "Richards Disposal",
    "rowid": "1244719",
    "final_x": "3706548.65579",
    "final_y": "520320.839288",
    "longitude": "-89.98939111990023",
    "latitude": "29.9239176549099",
    "geocoded_column": {
      "latitude": "29.9239176549099",
      "longitude": "-89.98939111990023"
    }
  },
  {
    "service_request": "2025-1244718",
    "request_type": "Trash/Recycling",
    "request_reason": "Request a Large Item Pick Up",
    "date_created": "2025-12-09T16:11:54.000",
    "date_modified": "2025-12-09T16:11:59.000",
    "request_status": "Pending",
    "responsible_agency": "Department of Sanitation",
    "final_address": "6013 Beechcraft St",
    "address_councildis": "D",
    "status": "Assigned to Contractor",
    "contractor": "Waste Pro",
    "rowid": "1244718",
    "final_x": "3696530.00771",
    "final_y": "553203.736087",
    "longitude": "-90.01982634433101",
    "latitude": "30.014653166775418",
    "geocoded_column": {
      "latitude": "30.014653166775418",
      "longitude": "-90.01982634433101"
    }
  },
  {
    "service_request": "2025-1244717",
    "request_type": "Abandoned Vehicles",
    "request_reason": "Abandoned/Junk Vehicles",
    "date_created": "2025-12-09T15:53:22.000",
    "date_modified": "2025-12-09T15:53:23.000",
    "request_status": "Pending",
    "responsible_agency": "Department of Public Works",
    "final_address": "2508 Jena St",
    "address_councildis": "B",
    "status": "Pending",
    "rowid": "1244717",
    "final_x": "3670082.6969",
    "final_y": "524094.156476",
    "longitude": "-90.10437364409184",
    "latitude": "29.935418751581096",
    "geocoded_column": {
      "latitude": "29.935418751581096",
      "longitude": "-90.10437364409184"
    }
  },
  {
    "service_request": "2025-1244716",
    "request_type": "Trash/Recycling",
    "request_reason": "Request a Large Item Pick Up",
    "date_created": "2025-12-09T15:52:34.000",
    "date_modified": "2025-12-09T15:52:36.000",
    "request_status": "Pending",
    "responsible_agency": "Department of Sanitation",
    "final_address": "5107 Burgundy St",
    "address_councildis": "E",
    "status": "Assigned to Contractor",
    "contractor": "Waste Pro",
    "rowid": "1244716",
    "final_x": "3696117.21546",
    "final_y": "533444.33178",
    "longitude": "-90.02184511142157",
    "latitude": "29.960335008809494",
    "geocoded_column": {
      "latitude": "29.960335008809494",
      "longitude": "-90.02184511142157"
    }
  },
  {
    "service_request": "2025-1244715",
    "request_type": "Trash/Recycling",
    "request_reason": "Request a Large Item Pick Up",
    "date_created": "2025-12-09T15:51:05.000",
    "date_modified": "2025-12-09T15:51:07.000",
    "request_status": "Pending",
    "responsible_agency": "Department of Sanitation",
    "final_address": "921 Washington Ave",
    "address_councildis": "B",
    "status": "Assigned to Contractor",
    "contractor": "IV Waste",
    "rowid": "1244715",
    "final_x": "3677387.54446",
    "final_y": "520394.939384",
    "longitude": "-90.08143978583527",
    "latitude": "29.925029660352816",
    "geocoded_column": {
      "latitude": "29.925029660352816",
      "longitude": "-90.08143978583527"
    }
  },
  {
    "service_request": "2025-1244714",
    "request_type": "Trash/Recycling",
    "request_reason": "Request a Large Item Pick Up",
    "date_created": "2025-12-09T15:50:12.000",
    "date_modified": "2025-12-09T15:50:14.000",
    "request_status": "Pending",
    "responsible_agency": "Department of Sanitation",
    "final_address": "1511 Marais St",
    "address_councildis": "C",
    "status": "Assigned to Contractor",
    "contractor": "IV Waste",
    "rowid": "1244714",
    "final_x": "3682732.48668",
    "final_y": "536479.546055",
    "longitude": "-90.06400509476751",
    "latitude": "29.969095255826545",
    "geocoded_column": {
      "latitude": "29.969095255826545",
      "longitude": "-90.06400509476751"
    }
  },
  {
    "service_request": "2025-1244713",
    "request_type": "Trash/Recycling",
    "request_reason": "Request a Large Item Pick Up",
    "date_created": "2025-12-09T15:50:12.000",
    "date_modified": "2025-12-09T15:50:14.000",
    "request_status": "Pending",
    "responsible_agency": "Department of Sanitation",
    "final_address": "1030 France St",
    "address_councildis": "C",
    "status": "Assigned to Contractor",
    "contractor": "IV Waste",
    "rowid": "1244713",
    "final_x": "3692337.86768",
    "final_y": "535061.66695",
    "longitude": "-90.03372153536841",
    "latitude": "29.96490051367773",
    "geocoded_column": {
      "latitude": "29.96490051367773",
      "longitude": "-90.03372153536841"
    }
  },
  {
    "service_request": "2025-1244712",
    "request_type": "Trash/Recycling",
    "request_reason": "Request a Large Item Pick Up",
    "date_created": "2025-12-09T15:49:22.000",
    "date_modified": "2025-12-09T15:49:24.000",
    "request_status": "Pending",
    "responsible_agency": "Department of Sanitation",
    "final_address": "11251 S Idlewood Ct",
    "address_councildis": "E",
    "status": "Assigned to Contractor",
    "contractor": "Waste Pro",
    "rowid": "1244712",
    "final_x": "3716646.03839",
    "final_y": "559729.755741",
    "longitude": "-89.95602239854368",
    "latitude": "30.031947734069494",
    "geocoded_column": {
      "latitude": "30.031947734069494",
      "longitude": "-89.95602239854368"
    }
  },
  {
    "service_request": "2025-1244711",
    "request_type": "Property Maintenance",
    "request_reason": "Property Maintenance",
    "date_created": "2025-12-09T15:48:31.000",
    "date_modified": "2025-12-09T15:49:13.000",
    "request_status": "Pending",
    "responsible_agency": "Department of Code Enforcement",
    "final_address": "1463 Henriette Delille St",
    "address_councildis": "C",
    "status": "Pending",
    "rowid": "1244711",
    "final_x": "3682919.46184",
    "final_y": "536004.002503",
    "longitude": "-90.06343125875148",
    "latitude": "29.967781978697996",
    "geocoded_column": {
      "latitude": "29.967781978697996",
      "longitude": "-90.06343125875148"
    }
  },
  {
    "service_request": "2025-1244710",
    "request_type": "Trash/Recycling",
    "request_reason": "Order Recycling Cart",
    "date_created": "2025-12-09T15:45:57.000",
    "date_modified": "2025-12-09T15:45:59.000",
    "request_status": "Pending",
    "responsible_agency": "Department of Sanitation",
    "final_address": "5809 Elysian Fields Ave",
    "address_councildis": "D",
    "status": "Pending",
    "rowid": "1244710",
    "final_x": "3683701.78959",
    "final_y": "554341.895384",
    "longitude": "-90.060317257723",
    "latitude": "30.01818079276915",
    "geocoded_column": {
      "latitude": "30.01818079276915",
      "longitude": "-90.060317257723"
    }
  },
  {
    "service_request": "2025-1244709",
    "request_type": "Trash/Recycling",
    "request_reason": "Request a Large Item Pick Up",
    "date_created": "2025-12-09T15:44:40.000",
    "date_modified": "2025-12-09T15:44:42.000",
    "request_status": "Pending",
    "responsible_agency": "Department of Sanitation",
    "final_address": "4516 Mithra St",
    "address_councildis": "D",
    "status": "Assigned to Contractor",
    "contractor": "IV Waste",
    "rowid": "1244709",
    "final_x": "3690582.831",
    "final_y": "553303.853207",
    "longitude": "-90.03861288561465",
    "latitude": "30.0151145646414",
    "geocoded_column": {
      "latitude": "30.0151145646414",
      "longitude": "-90.03861288561465"
    }
  },
  {
    "service_request": "2025-1244708",
    "request_type": "Trash/Recycling",
    "request_reason": "Order Recycling Cart",
    "date_created": "2025-12-09T15:44:08.000",
    "date_modified": "2025-12-09T15:44:10.000",
    "request_status": "Pending",
    "responsible_agency": "Department of Sanitation",
    "final_address": "5807 Elysian Fields Ave",
    "address_councildis": "D",
    "status": "Pending",
    "rowid": "1244708",
    "final_x": "3683701.78914",
    "final_y": "554320.710616",
    "longitude": "-90.06031800279469",
    "latitude": "30.018122542437133",
    "geocoded_column": {
      "latitude": "30.018122542437133",
      "longitude": "-90.06031800279469"
    }
  },
  {
    "service_request": "2025-1244707",
    "request_type": "Trash/Recycling",
    "request_reason": "Dead Animal Pick Up",
    "date_created": "2025-12-09T15:42:24.000",
    "date_modified": "2025-12-09T15:42:25.000",
    "request_status": "Pending",
    "responsible_agency": "Department of Sanitation",
    "final_address": "4503 Danneel St",
    "address_councildis": "B",
    "status": "Assigned to Contractor",
    "contractor": "IV Waste",
    "rowid": "1244707",
    "final_x": "3670215.28071",
    "final_y": "522275.945722",
    "longitude": "-90.10401665804706",
    "latitude": "29.930415345526526",
    "geocoded_column": {
      "latitude": "29.930415345526526",
      "longitude": "-90.10401665804706"
    }
  },
  {
    "service_request": "2025-1244706",
    "request_type": "Trash/Recycling",
    "request_reason": "Repair Trash Cart",
    "date_created": "2025-12-09T15:41:52.000",
    "date_modified": "2025-12-09T15:41:53.000",
    "request_status": "Pending",
    "responsible_agency": "Department of Sanitation",
    "final_address": "1008 Dublin St",
    "address_councildis": "A",
    "status": "Assigned to Contractor",
    "contractor": "IV Waste",
    "rowid": "1244706",
    "final_x": "3661258.78944",
    "final_y": "528185.496704",
    "longitude": "-90.13209550112308",
    "latitude": "29.946925918940146",
    "geocoded_column": {
      "latitude": "29.946925918940146",
      "longitude": "-90.13209550112308"
    }
  },
  {
    "service_request": "2025-1244705",
    "request_type": "Trash/Recycling",
    "request_reason": "Request a Large Item Pick Up",
    "date_created": "2025-12-09T15:40:09.000",
    "date_modified": "2025-12-09T15:40:10.000",
    "request_status": "Pending",
    "responsible_agency": "Department of Sanitation",
    "final_address": "11401 Campbell Ln",
    "address_councildis": "E",
    "status": "Assigned to Contractor",
    "contractor": "Waste Pro",
    "rowid": "1244705",
    "final_x": "3717778.47993",
    "final_y": "561276.701022",
    "longitude": "-89.95238494384124",
    "latitude": "30.036163732709124",
    "geocoded_column": {
      "latitude": "30.036163732709124",
      "longitude": "-89.95238494384124"
    }
  },
  {
    "service_request": "2025-1244704",
    "request_type": "Drainage",
    "request_reason": "Catch Basin Frame and Cover Missing or Damaged",
    "date_created": "2025-12-09T15:38:41.000",
    "date_modified": "2025-12-09T15:38:43.000",
    "request_status": "Pending",
    "responsible_agency": "Sewerage & Water Board",
    "final_address": "100 Conti St",
    "address_councildis": "C",
    "status": "Pending",
    "rowid": "1244704",
    "final_x": "3682802.93679",
    "final_y": "530831.36877",
    "longitude": "-90.06398020920791",
    "latitude": "29.95356255631566",
    "geocoded_column": {
      "latitude": "29.95356255631566",
      "longitude": "-90.06398020920791"
    }
  },
  {
    "service_request": "2025-1244703",
    "request_type": "Trash/Recycling",
    "request_reason": "Request a Large Item Pick Up",
    "date_created": "2025-12-09T15:35:02.000",
    "date_modified": "2025-12-09T15:35:04.000",
    "request_status": "Pending",
    "responsible_agency": "Department of Sanitation",
    "final_address": "2435 Alvar St",
    "address_councildis": "D",
    "status": "Assigned to Contractor",
    "contractor": "IV Waste",
    "rowid": "1244703",
    "final_x": "3692822.18755",
    "final_y": "540560.044683",
    "longitude": "-90.03199489142852",
    "latitude": "29.98000398560768",
    "geocoded_column": {
      "latitude": "29.98000398560768",
      "longitude": "-90.03199489142852"
    }
  },
  {
    "service_request": "2025-1244702",
    "request_type": "Drainage",
    "request_reason": "Catch Basin Frame and Cover Missing or Damaged",
    "date_created": "2025-12-09T15:34:47.000",
    "date_modified": "2025-12-09T15:34:49.000",
    "request_status": "Pending",
    "responsible_agency": "Sewerage & Water Board",
    "final_address": "300 BLK N Front St",
    "address_councildis": "C",
    "status": "Pending",
    "rowid": "1244702",
    "final_x": "3682803.5694",
    "final_y": "530653.045437",
    "longitude": "-90.0639844493162",
    "latitude": "29.953072208392683",
    "geocoded_column": {
      "latitude": "29.953072208392683",
      "longitude": "-90.0639844493162"
    }
  },
  {
    "service_request": "2025-1244700",
    "request_type": "Trash/Recycling",
    "request_reason": "Illegal Dumping",
    "date_created": "2025-12-09T15:32:08.000",
    "date_modified": "2025-12-09T15:33:37.000",
    "request_status": "Pending",
    "responsible_agency": "Department of Sanitation",
    "final_address": "2401 Mazant St",
    "address_councildis": "D",
    "status": "Pending",
    "rowid": "1244700",
    "final_x": "3693367.33981",
    "final_y": "540150.941643",
    "longitude": "-90.03028777544714",
    "latitude": "29.978862063694496",
    "geocoded_column": {
      "latitude": "29.978862063694496",
      "longitude": "-90.03028777544714"
    }
  },
  {
    "service_request": "2025-1244699",
    "request_type": "Safety & Permits",
    "request_reason": "Construction permit",
    "date_created": "2025-12-09T15:30:54.000",
    "date_modified": "2025-12-09T15:30:55.000",
    "request_status": "Pending",
    "responsible_agency": "Safety and Permits",
    "final_address": "1806 Old Roman St",
    "address_councildis": "D",
    "status": "Pending",
    "rowid": "1244699",
    "final_x": "3682348.19138",
    "final_y": "539138.757322",
    "longitude": "-90.06512577702394",
    "latitude": "29.976418865290373",
    "geocoded_column": {
      "latitude": "29.976418865290373",
      "longitude": "-90.06512577702394"
    }
  },
  {
    "service_request": "2025-1244698",
    "request_type": "Trash/Recycling",
    "request_reason": "Request a Large Item Pick Up",
    "date_created": "2025-12-09T15:30:41.000",
    "date_modified": "2025-12-09T15:30:43.000",
    "request_status": "Pending",
    "responsible_agency": "Department of Sanitation",
    "final_address": "7563 Berg Rd",
    "address_councildis": "E",
    "status": "Assigned to Contractor",
    "contractor": "Waste Pro",
    "rowid": "1244698",
    "final_x": "3712238.64696",
    "final_y": "566369.623267",
    "longitude": "-89.96970017315964",
    "latitude": "30.050349632787682",
    "geocoded_column": {
      "latitude": "30.050349632787682",
      "longitude": "-89.96970017315964"
    }
  },
  {
    "service_request": "2025-1244697",
    "request_type": "Street and Traffic Signs",
    "request_reason": "Additional Signage Request",
    "date_created": "2025-12-09T15:29:08.000",
    "date_modified": "2025-12-09T15:29:10.000",
    "request_status": "Pending",
    "responsible_agency": "Department of Public Works",
    "final_address": "751 French St",
    "address_councildis": "A",
    "status": "Pending",
    "rowid": "1244697",
    "final_x": "3669027.91796",
    "final_y": "548614.739859",
    "longitude": "-90.10687501486507",
    "latitude": "30.002873223847303",
    "geocoded_column": {
      "latitude": "30.002873223847303",
      "longitude": "-90.10687501486507"
    }
  },
  {
    "service_request": "2025-1244696",
    "request_type": "Abandoned Vehicles",
    "request_reason": "Abandoned/Junk Vehicles",
    "date_created": "2025-12-09T15:29:03.000",
    "date_modified": "2025-12-09T15:29:05.000",
    "request_status": "Pending",
    "responsible_agency": "Department of Public Works",
    "final_address": "1800 Aubry St",
    "address_councildis": "D",
    "status": "Pending",
    "rowid": "1244696",
    "final_x": "3682209.79874",
    "final_y": "539103.835146",
    "longitude": "-90.06556408269893",
    "latitude": "29.976327052426377",
    "geocoded_column": {
      "latitude": "29.976327052426377",
      "longitude": "-90.06556408269893"
    }
  },
  {
    "service_request": "2025-1244695",
    "request_type": "Trash/Recycling",
    "request_reason": "Order Recycling Cart",
    "date_created": "2025-12-09T15:28:17.000",
    "date_modified": "2025-12-09T15:28:18.000",
    "request_status": "Pending",
    "responsible_agency": "Department of Sanitation",
    "final_address": "2524 Valence St",
    "address_councildis": "B",
    "status": "Pending",
    "rowid": "1244695",
    "final_x": "3669347.64506",
    "final_y": "524145.718076",
    "longitude": "-90.10669247050184",
    "latitude": "29.93558218659783",
    "geocoded_column": {
      "latitude": "29.93558218659783",
      "longitude": "-90.10669247050184"
    }
  },
  {
    "service_request": "2025-1244694",
    "request_type": "Mosquito, Termite & Rodent Control",
    "request_reason": "Rodent Complaint (Mice & Rats)",
    "date_created": "2025-12-09T15:27:37.000",
    "date_modified": "2025-12-09T15:31:53.000",
    "request_status": "Pending",
    "responsible_agency": "Mosquito, Termite & Rodent Control Board",
    "final_address": "4967 Brittany Ct",
    "address_councildis": "E",
    "status": "Pending",
    "rowid": "1244694",
    "final_x": "3727130.80051",
    "final_y": "561486.925791",
    "longitude": "-89.92282206941199",
    "latitude": "30.0364285309876",
    "geocoded_column": {
      "latitude": "30.0364285309876",
      "longitude": "-89.92282206941199"
    }
  },
  {
    "service_request": "2025-1244693",
    "request_type": "Trash/Recycling",
    "request_reason": "Replace Trash Cart",
    "date_created": "2025-12-09T15:23:03.000",
    "date_modified": "2025-12-09T15:23:04.000",
    "request_status": "Pending",
    "responsible_agency": "Department of Sanitation",
    "final_address": "1235 Decatur St",
    "address_councildis": "C",
    "status": "Assigned to Contractor",
    "contractor": "IV Waste",
    "rowid": "1244693",
    "final_x": "3684418.16514",
    "final_y": "533686.487685",
    "longitude": "-90.0587797271726",
    "latitude": "29.9613638565018",
    "geocoded_column": {
      "latitude": "29.9613638565018",
      "longitude": "-90.0587797271726"
    }
  },
  {
    "service_request": "2025-1244692",
    "request_type": "Trash/Recycling",
    "request_reason": "Order Recycling Cart",
    "date_created": "2025-12-09T15:22:58.000",
    "date_modified": "2025-12-09T15:22:59.000",
    "request_status": "Pending",
    "responsible_agency": "Department of Sanitation",
    "final_address": "5814 Louisville St",
    "address_councildis": "A",
    "status": "Pending",
    "rowid": "1244692",
    "final_x": "3667616.62849",
    "final_y": "546204.189456",
    "longitude": "-90.11141469982117",
    "latitude": "29.996286503005575",
    "geocoded_column": {
      "latitude": "29.996286503005575",
      "longitude": "-90.11141469982117"
    }
  },
  {
    "service_request": "2025-1244691",
    "request_type": "Trash/Recycling",
    "request_reason": "Order Second Trash Cart",
    "date_created": "2025-12-09T15:19:58.000",
    "date_modified": "2025-12-09T15:20:00.000",
    "request_status": "Pending",
    "responsible_agency": "Department of Sanitation",
    "final_address": "1512 Baronne St",
    "address_councildis": "B",
    "status": "Assigned to Contractor",
    "contractor": "IV Waste",
    "rowid": "1244691",
    "final_x": "3678392.05864",
    "final_y": "525887.336253",
    "longitude": "-90.07807892646588",
    "latitude": "29.940101735099606",
    "geocoded_column": {
      "latitude": "29.940101735099606",
      "longitude": "-90.07807892646588"
    }
  },
  {
    "service_request": "2025-1244690",
    "request_type": "Trash/Recycling",
    "request_reason": "Request a Large Item Pick Up",
    "date_created": "2025-12-09T15:09:17.000",
    "date_modified": "2025-12-09T15:09:19.000",
    "request_status": "Pending",
    "responsible_agency": "Department of Sanitation",
    "final_address": "4957 Pentland Dr",
    "address_councildis": "E",
    "status": "Assigned to Contractor",
    "contractor": "Waste Pro",
    "rowid": "1244690",
    "final_x": "3718733.56044",
    "final_y": "558333.340828",
    "longitude": "-89.94947907835831",
    "latitude": "30.02803899599615",
    "geocoded_column": {
      "latitude": "30.02803899599615",
      "longitude": "-89.94947907835831"
    }
  },
  {
    "service_request": "2025-1244689",
    "request_type": "Abandoned Vehicles",
    "request_reason": "Abandoned/Junk Vehicles",
    "date_created": "2025-12-09T15:09:01.000",
    "date_modified": "2025-12-09T15:09:33.000",
    "request_status": "Pending",
    "responsible_agency": "Department of Public Works",
    "final_address": "2620 Jasmine St",
    "address_councildis": "D",
    "status": "Pending",
    "rowid": "1244689",
    "final_x": "3687189.34338",
    "final_y": "548066.48949",
    "longitude": "-90.0495200779705",
    "latitude": "30.000818722649065",
    "geocoded_column": {
      "latitude": "30.000818722649065",
      "longitude": "-90.0495200779705"
    }
  },
  {
    "service_request": "2025-1244688",
    "request_type": "Trash/Recycling",
    "request_reason": "Request a Large Item Pick Up",
    "date_created": "2025-12-09T15:05:02.000",
    "date_modified": "2025-12-09T15:05:04.000",
    "request_status": "Pending",
    "responsible_agency": "Department of Sanitation",
    "final_address": "5439 N Derbigny St",
    "address_councildis": "E",
    "status": "Assigned to Contractor",
    "contractor": "Waste Pro",
    "rowid": "1244688",
    "final_x": "3698103.23331",
    "final_y": "536168.435783",
    "longitude": "-90.0154747796003",
    "latitude": "29.967762670935134",
    "geocoded_column": {
      "latitude": "29.967762670935134",
      "longitude": "-90.0154747796003"
    }
  },
  {
    "service_request": "2025-1244687",
    "request_type": "Trash/Recycling",
    "request_reason": "Repair Trash Cart",
    "date_created": "2025-12-09T14:59:40.000",
    "date_modified": "2025-12-09T15:03:59.000",
    "request_status": "Pending",
    "responsible_agency": "Department of Sanitation",
    "final_address": "1545 Magazine St",
    "address_councildis": "B",
    "status": "Assigned to Contractor",
    "contractor": "IV Waste",
    "rowid": "1244687",
    "final_x": "3680064.90831",
    "final_y": "523452.087163",
    "longitude": "-90.07288206039478",
    "latitude": "29.933355109692144",
    "geocoded_column": {
      "latitude": "29.933355109692144",
      "longitude": "-90.07288206039478"
    }
  },
  {
    "service_request": "2025-1244686",
    "request_type": "Trash/Recycling",
    "request_reason": "Order Second Trash Cart",
    "date_created": "2025-12-09T14:56:33.000",
    "date_modified": "2025-12-09T14:56:34.000",
    "request_status": "Pending",
    "responsible_agency": "Department of Sanitation",
    "final_address": "6947 Neptune Ct",
    "address_councildis": "E",
    "status": "Assigned to Contractor",
    "contractor": "Waste Pro",
    "rowid": "1244686",
    "final_x": "3702203.68701",
    "final_y": "558569.81878",
    "longitude": "-90.00170337898435",
    "latitude": "30.02922777936295",
    "geocoded_column": {
      "latitude": "30.02922777936295",
      "longitude": "-90.00170337898435"
    }
  },
  {
    "service_request": "2025-1244685",
    "request_type": "Trash/Recycling",
    "request_reason": "Illegal Dumping",
    "date_created": "2025-12-09T14:56:02.000",
    "date_modified": "2025-12-09T14:56:04.000",
    "request_status": "Pending",
    "responsible_agency": "Department of Sanitation",
    "final_address": "6401 Florida Ave",
    "address_councildis": "E",
    "status": "Pending",
    "rowid": "1244685",
    "final_x": "3702982.03838",
    "final_y": "538679.735753",
    "longitude": "-89.99997520434388",
    "latitude": "29.97451264148602",
    "geocoded_column": {
      "latitude": "29.97451264148602",
      "longitude": "-89.99997520434388"
    }
  },
  {
    "service_request": "2025-1244684",
    "request_type": "Trash/Recycling",
    "request_reason": "Replace Trash Cart",
    "date_created": "2025-12-09T14:55:57.000",
    "date_modified": "2025-12-09T14:55:58.000",
    "request_status": "Pending",
    "responsible_agency": "Department of Sanitation",
    "final_address": "2218 Lafreniere St",
    "address_councildis": "D",
    "status": "Assigned to Contractor",
    "contractor": "IV Waste",
    "rowid": "1244684",
    "final_x": "3684512.71273",
    "final_y": "545452.15304",
    "longitude": "-90.0580676577337",
    "latitude": "29.993712422597895",
    "geocoded_column": {
      "latitude": "29.993712422597895",
      "longitude": "-90.0580676577337"
    }
  },
  {
    "service_request": "2025-1244683",
    "request_type": "Street and Traffic Signs",
    "request_reason": "Street Name Sign Damaged or Missing",
    "date_created": "2025-12-09T14:55:45.000",
    "date_modified": "2025-12-09T14:55:46.000",
    "request_status": "Pending",
    "responsible_agency": "Department of Public Works",
    "final_address": "2477 N Miro St",
    "address_councildis": "D",
    "status": "Pending",
    "rowid": "1244683",
    "final_x": "3686752.23951",
    "final_y": "540611.582027",
    "longitude": "-90.05116444422364",
    "latitude": "29.980333850922264",
    "geocoded_column": {
      "latitude": "29.980333850922264",
      "longitude": "-90.05116444422364"
    }
  },
  {
    "service_request": "2025-1244682",
    "request_type": "Trash/Recycling",
    "request_reason": "Request a Large Item Pick Up",
    "date_created": "2025-12-09T14:55:13.000",
    "date_modified": "2025-12-09T14:55:15.000",
    "request_status": "Pending",
    "responsible_agency": "Department of Sanitation",
    "final_address": "4642 Hauck Dr",
    "address_councildis": "E",
    "status": "Assigned to Contractor",
    "contractor": "Waste Pro",
    "rowid": "1244682",
    "final_x": "3714544.51538",
    "final_y": "556215.81385",
    "longitude": "-89.96279608228528",
    "latitude": "30.02235508020616",
    "geocoded_column": {
      "latitude": "30.02235508020616",
      "longitude": "-89.96279608228528"
    }
  },
  {
    "service_request": "2025-1244681",
    "request_type": "Trash/Recycling",
    "request_reason": "Repair Recycling Cart",
    "date_created": "2025-12-09T14:53:35.000",
    "date_modified": "2025-12-09T14:53:37.000",
    "request_status": "Pending",
    "responsible_agency": "Department of Sanitation",
    "final_address": "1603 Charlton Dr",
    "address_councildis": "D",
    "status": "Pending",
    "rowid": "1244681",
    "final_x": "3679424.57205",
    "final_y": "550801.379157",
    "longitude": "-90.07395461033096",
    "latitude": "30.008575618736614",
    "geocoded_column": {
      "latitude": "30.008575618736614",
      "longitude": "-90.07395461033096"
    }
  },
  {
    "service_request": "2025-1244680",
    "request_type": "General Services",
    "request_reason": "General Service Request",
    "date_created": "2025-12-09T14:53:11.000",
    "date_modified": "2025-12-09T14:55:41.000",
    "case_close_date": "2025-12-09T08:55:40.000",
    "request_status": "Closed",
    "responsible_agency": "Orleans Parish Communication District",
    "final_address": "2477 N Miro St",
    "address_councildis": "D",
    "status": "Referred to External Agency",
    "rowid": "1244680",
    "final_x": "3686752.23951",
    "final_y": "540611.582027",
    "longitude": "-90.05116444422364",
    "latitude": "29.980333850922264",
    "geocoded_column": {
      "latitude": "29.980333850922264",
      "longitude": "-90.05116444422364"
    }
  },
  {
    "service_request": "2025-1244679",
    "request_type": "Trash/Recycling",
    "request_reason": "Request a Large Item Pick Up",
    "date_created": "2025-12-09T14:49:09.000",
    "date_modified": "2025-12-09T14:49:11.000",
    "request_status": "Pending",
    "responsible_agency": "Department of Sanitation",
    "final_address": "2141 Mazant St",
    "address_councildis": "D",
    "status": "Assigned to Contractor",
    "contractor": "IV Waste",
    "rowid": "1244679",
    "final_x": "3693160.65302",
    "final_y": "539316.39777",
    "longitude": "-90.0309705264886",
    "latitude": "29.97657382782199",
    "geocoded_column": {
      "latitude": "29.97657382782199",
      "longitude": "-90.0309705264886"
    }
  },
  {
    "service_request": "2025-1244678",
    "request_type": "Trash/Recycling",
    "request_reason": "Request a Large Item Pick Up",
    "date_created": "2025-12-09T14:44:08.000",
    "date_modified": "2025-12-09T16:41:43.000",
    "request_status": "Pending",
    "responsible_agency": "Department of Sanitation",
    "final_address": "3765 Inwood Ave",
    "address_councildis": "C",
    "status": "Assigned to Contractor",
    "contractor": "Richards Disposal",
    "rowid": "1244678",
    "final_x": "3704885.12523",
    "final_y": "514588.910131",
    "longitude": "-89.99485360176823",
    "latitude": "29.90821037078622",
    "geocoded_column": {
      "latitude": "29.90821037078622",
      "longitude": "-89.99485360176823"
    }
  },
  {
    "service_request": "2025-1244677",
    "request_type": "Trash/Recycling",
    "request_reason": "Request a Large Item Pick Up",
    "date_created": "2025-12-09T14:37:02.000",
    "date_modified": "2025-12-09T14:37:04.000",
    "request_status": "Pending",
    "responsible_agency": "Department of Sanitation",
    "final_address": "4501 Laine Ave",
    "address_councildis": "E",
    "status": "Assigned to Contractor",
    "contractor": "Waste Pro",
    "rowid": "1244677",
    "final_x": "3705899.38679",
    "final_y": "553811.082199",
    "longitude": "-89.99020142494736",
    "latitude": "30.016024486653752",
    "geocoded_column": {
      "latitude": "30.016024486653752",
      "longitude": "-89.99020142494736"
    }
  },
  {
    "service_request": "2025-1244676",
    "request_type": "Trash/Recycling",
    "request_reason": "Request a Large Item Pick Up",
    "date_created": "2025-12-09T14:36:35.000",
    "date_modified": "2025-12-09T14:36:37.000",
    "request_status": "Pending",
    "responsible_agency": "Department of Sanitation",
    "final_address": "4400 Dodt Ave",
    "address_councildis": "E",
    "status": "Assigned to Contractor",
    "contractor": "Waste Pro",
    "rowid": "1244676",
    "final_x": "3705547.19121",
    "final_y": "553369.434647",
    "longitude": "-89.99133054046223",
    "latitude": "30.014821472401433",
    "geocoded_column": {
      "latitude": "30.014821472401433",
      "longitude": "-89.99133054046223"
    }
  },
  {
    "service_request": "2025-1244675",
    "request_type": "Trash/Recycling",
    "request_reason": "Request a Large Item Pick Up",
    "date_created": "2025-12-09T14:31:43.000",
    "date_modified": "2025-12-09T14:31:45.000",
    "request_status": "Pending",
    "responsible_agency": "Department of Sanitation",
    "final_address": "7767 Scottwood Dr",
    "address_councildis": "E",
    "status": "Assigned to Contractor",
    "contractor": "Waste Pro",
    "rowid": "1244675",
    "final_x": "3716792.82738",
    "final_y": "571531.341416",
    "longitude": "-89.95510997266844",
    "latitude": "30.06439241389713",
    "geocoded_column": {
      "latitude": "30.06439241389713",
      "longitude": "-89.95510997266844"
    }
  },
  {
    "service_request": "2025-1244674",
    "request_type": "Trash/Recycling",
    "request_reason": "Request a Large Item Pick Up",
    "date_created": "2025-12-09T14:25:43.000",
    "date_modified": "2025-12-09T14:25:45.000",
    "request_status": "Pending",
    "responsible_agency": "Department of Sanitation",
    "final_address": "5306 Lafaye St",
    "address_councildis": "D",
    "status": "Assigned to Contractor",
    "contractor": "IV Waste",
    "rowid": "1244674",
    "final_x": "3687290.73974",
    "final_y": "552715.23439",
    "longitude": "-90.04903515739596",
    "latitude": "30.013597950583854",
    "geocoded_column": {
      "latitude": "30.013597950583854",
      "longitude": "-90.04903515739596"
    }
  },
  {
    "service_request": "2025-1244673",
    "request_type": "Trash/Recycling",
    "request_reason": "Order Recycling Cart",
    "date_created": "2025-12-09T14:25:41.000",
    "date_modified": "2025-12-09T14:25:42.000",
    "request_status": "Pending",
    "responsible_agency": "Department of Sanitation",
    "final_address": "423 S Lopez St",
    "address_councildis": "B",
    "status": "Pending",
    "rowid": "1244673",
    "final_x": "3672982.17371",
    "final_y": "535121.811398",
    "longitude": "-90.09484367152817",
    "latitude": "29.965655333873386",
    "geocoded_column": {
      "latitude": "29.965655333873386",
      "longitude": "-90.09484367152817"
    }
  },
  {
    "service_request": "2025-1244672",
    "request_type": "Trash/Recycling",
    "request_reason": "Illegal Dumping",
    "date_created": "2025-12-09T14:25:30.000",
    "date_modified": "2025-12-09T14:25:31.000",
    "request_status": "Pending",
    "responsible_agency": "Department of Sanitation",
    "final_address": "ARTS ST & BENEFIT ST",
    "address_councildis": "D",
    "status": "Pending",
    "rowid": "1244672",
    "final_x": "3686555.3",
    "final_y": "544581.18",
    "longitude": "-90.05164622076124",
    "latitude": "29.991254892731117",
    "geocoded_column": {
      "latitude": "29.991254892731117",
      "longitude": "-90.05164622076124"
    }
  },
  {
    "service_request": "2025-1244671",
    "request_type": "Roads and Streets",
    "request_reason": "Pothole",
    "date_created": "2025-12-09T14:22:58.000",
    "date_modified": "2025-12-09T14:23:00.000",
    "request_status": "Pending",
    "responsible_agency": "Department of Public Works",
    "final_address": "5226 Conti St",
    "address_councildis": "A",
    "status": "Pending",
    "rowid": "1244671",
    "final_x": "3668428.6955",
    "final_y": "541800.77422",
    "longitude": "-90.10899805779543",
    "latitude": "29.9841547811201",
    "geocoded_column": {
      "latitude": "29.9841547811201",
      "longitude": "-90.10899805779543"
    }
  },
  {
    "service_request": "2025-1244670",
    "request_type": "Abandoned Vehicles",
    "request_reason": "Abandoned/Junk Vehicles",
    "date_created": "2025-12-09T14:13:53.000",
    "date_modified": "2025-12-09T14:13:55.000",
    "request_status": "Pending",
    "responsible_agency": "Department of Public Works",
    "final_address": "1430 N Rampart St",
    "address_councildis": "C",
    "status": "Pending",
    "rowid": "1244670",
    "final_x": "3683090.88194",
    "final_y": "535508.564102",
    "longitude": "-90.06290725705152",
    "latitude": "29.966414469069665",
    "geocoded_column": {
      "latitude": "29.966414469069665",
      "longitude": "-90.06290725705152"
    }
  },
  {
    "service_request": "2025-1244669",
    "request_type": "Abandoned Vehicles",
    "request_reason": "Abandoned/Junk Vehicles",
    "date_created": "2025-12-09T14:02:42.000",
    "date_modified": "2025-12-09T14:02:44.000",
    "request_status": "Pending",
    "responsible_agency": "Department of Public Works",
    "final_address": "5148 Westlake Dr",
    "address_councildis": "E",
    "status": "Pending",
    "rowid": "1244669",
    "final_x": "3699375.85303",
    "final_y": "556416.82569",
    "longitude": "-90.01071773648651",
    "latitude": "30.023397933449278",
    "geocoded_column": {
      "latitude": "30.023397933449278",
      "longitude": "-90.01071773648651"
    }
  },
  {
    "service_request": "2025-1244668",
    "request_type": "Trash/Recycling",
    "request_reason": "Return Recycling Cart",
    "date_created": "2025-12-09T14:01:19.000",
    "date_modified": "2025-12-09T14:01:21.000",
    "request_status": "Pending",
    "responsible_agency": "Department of Sanitation",
    "final_address": "15 Eagle Point Ln",
    "address_councildis": "C",
    "status": "Pending",
    "rowid": "1244668",
    "final_x": "3715589.83692",
    "final_y": "514673.608755",
    "longitude": "-89.96106517195838",
    "latitude": "29.90809509316282",
    "geocoded_column": {
      "latitude": "29.90809509316282",
      "longitude": "-89.96106517195838"
    }
  },
  {
    "service_request": "2025-1244667",
    "request_type": "Trash/Recycling",
    "request_reason": "Request a Large Item Pick Up",
    "date_created": "2025-12-09T13:59:24.000",
    "date_modified": "2025-12-09T13:59:28.000",
    "request_status": "Pending",
    "responsible_agency": "Department of Sanitation",
    "final_address": "4553 Shalimar Dr",
    "address_councildis": "D",
    "status": "Assigned to Contractor",
    "contractor": "Waste Pro",
    "rowid": "1244667",
    "final_x": "3697329.7864",
    "final_y": "553321.686231",
    "longitude": "-90.01729516730981",
    "latitude": "30.014952252135526",
    "geocoded_column": {
      "latitude": "30.014952252135526",
      "longitude": "-90.01729516730981"
    }
  },
  {
    "service_request": "2025-1244666",
    "request_type": "Abandoned Vehicles",
    "request_reason": "Abandoned/Junk Vehicles",
    "date_created": "2025-12-09T13:58:42.000",
    "date_modified": "2025-12-09T13:58:43.000",
    "request_status": "Pending",
    "responsible_agency": "Department of Public Works",
    "final_address": "5132 Westlake Dr",
    "address_councildis": "E",
    "status": "Pending",
    "rowid": "1244666",
    "final_x": "3699403.5793",
    "final_y": "556323.892762",
    "longitude": "-90.0106335175709",
    "latitude": "30.02314152341408",
    "geocoded_column": {
      "latitude": "30.02314152341408",
      "longitude": "-90.0106335175709"
    }
  },
  {
    "service_request": "2025-1244665",
    "request_type": "Trash/Recycling",
    "request_reason": "Repair Trash Cart",
    "date_created": "2025-12-09T13:58:33.000",
    "date_modified": "2025-12-09T14:07:13.000",
    "request_status": "Pending",
    "responsible_agency": "Department of Sanitation",
    "final_address": "15 Eagle Point Ln",
    "address_councildis": "C",
    "status": "Assigned to Contractor",
    "contractor": "Richards Disposal",
    "rowid": "1244665",
    "final_x": "3715589.83692",
    "final_y": "514673.608755",
    "longitude": "-89.96106517195838",
    "latitude": "29.90809509316282",
    "geocoded_column": {
      "latitude": "29.90809509316282",
      "longitude": "-89.96106517195838"
    }
  },
  {
    "service_request": "2025-1244664",
    "request_type": "Trash/Recycling",
    "request_reason": "Illegal Dumping",
    "date_created": "2025-12-09T13:54:17.000",
    "date_modified": "2025-12-09T13:54:18.000",
    "request_status": "Pending",
    "responsible_agency": "Department of Sanitation",
    "final_address": "1128 Leboeuf St",
    "address_councildis": "C",
    "status": "Pending",
    "rowid": "1244664",
    "final_x": "3689785.34774",
    "final_y": "527147.528447",
    "longitude": "-90.0420638512203",
    "latitude": "29.94321872518187",
    "geocoded_column": {
      "latitude": "29.94321872518187",
      "longitude": "-90.0420638512203"
    }
  },
  {
    "service_request": "2025-1244663",
    "request_type": "Property Maintenance",
    "request_reason": "Property Maintenance",
    "date_created": "2025-12-09T13:51:21.000",
    "date_modified": "2025-12-09T14:42:01.000",
    "case_close_date": "2025-12-09T08:41:59.000",
    "request_status": "Closed",
    "responsible_agency": "Department of Code Enforcement",
    "final_address": "1309 Gordon St",
    "address_councildis": "E",
    "status": "Referred to Code Enforcement",
    "rowid": "1244663",
    "final_x": "3699513.13648",
    "final_y": "534212.219461",
    "longitude": "-90.01109358207447",
    "latitude": "29.962339114064644",
    "geocoded_column": {
      "latitude": "29.962339114064644",
      "longitude": "-90.01109358207447"
    }
  },
  {
    "service_request": "2025-1244662",
    "request_type": "Trash/Recycling",
    "request_reason": "Request a Large Item Pick Up",
    "date_created": "2025-12-09T13:46:30.000",
    "date_modified": "2025-12-09T14:30:08.000",
    "request_status": "Pending",
    "responsible_agency": "Department of Sanitation",
    "final_address": "5116 Dauphine St",
    "address_councildis": "E",
    "status": "Assigned to Contractor",
    "contractor": "Waste Pro",
    "rowid": "1244662",
    "final_x": "3696062.88605",
    "final_y": "533001.757188",
    "longitude": "-90.02203266520762",
    "latitude": "29.959119794684064",
    "geocoded_column": {
      "latitude": "29.959119794684064",
      "longitude": "-90.02203266520762"
    }
  },
  {
    "service_request": "2025-1244661",
    "request_type": "Trash/Recycling",
    "request_reason": "Request a Large Item Pick Up",
    "date_created": "2025-12-09T13:43:16.000",
    "date_modified": "2025-12-09T13:52:06.000",
    "request_status": "Pending",
    "responsible_agency": "Department of Sanitation",
    "final_address": "4758 Camelot Dr",
    "address_councildis": "E",
    "status": "Assigned to Contractor",
    "contractor": "Waste Pro",
    "rowid": "1244661",
    "final_x": "3708291.78628",
    "final_y": "555690.003289",
    "longitude": "-89.98257259101992",
    "latitude": "30.021113464904975",
    "geocoded_column": {
      "latitude": "30.021113464904975",
      "longitude": "-89.98257259101992"
    }
  },
  {
    "service_request": "2025-1244660",
    "request_type": "Trash/Recycling",
    "request_reason": "Illegal Dumping",
    "date_created": "2025-12-09T13:43:11.000",
    "date_modified": "2025-12-09T13:49:22.000",
    "request_status": "Pending",
    "responsible_agency": "Department of Sanitation",
    "final_address": "2215 First St",
    "address_councildis": "B",
    "status": "Pending",
    "rowid": "1244660",
    "final_x": "3675717.64129",
    "final_y": "525124.588349",
    "longitude": "-90.08654868242292",
    "latitude": "29.938084717278464",
    "geocoded_column": {
      "latitude": "29.938084717278464",
      "longitude": "-90.08654868242292"
    }
  },
  {
    "service_request": "2025-1244659",
    "request_type": "Trash/Recycling",
    "request_reason": "Order Recycling Cart",
    "date_created": "2025-12-09T13:42:18.000",
    "date_modified": "2025-12-09T13:42:20.000",
    "request_status": "Pending",
    "responsible_agency": "Department of Sanitation",
    "final_address": "212 S Scott St",
    "address_councildis": "A",
    "status": "Pending",
    "rowid": "1244659",
    "final_x": "3671480.7243",
    "final_y": "537358.768328",
    "longitude": "-90.0995091351663",
    "latitude": "29.9718507514004",
    "geocoded_column": {
      "latitude": "29.9718507514004",
      "longitude": "-90.0995091351663"
    }
  },
  {
    "service_request": "2025-1244658",
    "request_type": "Trash/Recycling",
    "request_reason": "Order Trash Cart",
    "date_created": "2025-12-09T13:41:40.000",
    "date_modified": "2025-12-09T13:41:41.000",
    "request_status": "Pending",
    "responsible_agency": "Department of Sanitation",
    "final_address": "5457 Grand Bayou Dr",
    "address_councildis": "E",
    "status": "Assigned to Contractor",
    "contractor": "Waste Pro",
    "rowid": "1244658",
    "final_x": "3725800.76256",
    "final_y": "563751.375009",
    "longitude": "-89.9269373629689",
    "latitude": "30.042699781204877",
    "geocoded_column": {
      "latitude": "30.042699781204877",
      "longitude": "-89.9269373629689"
    }
  },
  {
    "service_request": "2025-1244657",
    "request_type": "Trash/Recycling",
    "request_reason": "Illegal Dumping",
    "date_created": "2025-12-09T13:38:58.000",
    "date_modified": "2025-12-09T13:38:59.000",
    "request_status": "Pending",
    "responsible_agency": "Department of Sanitation",
    "final_address": "2215 First St",
    "address_councildis": "B",
    "status": "Pending",
    "rowid": "1244657",
    "final_x": "3675717.64129",
    "final_y": "525124.588349",
    "longitude": "-90.08654868242292",
    "latitude": "29.938084717278464",
    "geocoded_column": {
      "latitude": "29.938084717278464",
      "longitude": "-90.08654868242292"
    }
  },
  {
    "service_request": "2025-1244656",
    "request_type": "Trash/Recycling",
    "request_reason": "Request a Large Item Pick Up",
    "date_created": "2025-12-09T13:36:18.000",
    "date_modified": "2025-12-09T13:36:20.000",
    "request_status": "Pending",
    "responsible_agency": "Department of Sanitation",
    "final_address": "1440 Cabrini Ct",
    "address_councildis": "D",
    "status": "Assigned to Contractor",
    "contractor": "IV Waste",
    "rowid": "1244656",
    "final_x": "3678086.38843",
    "final_y": "553018.271383",
    "longitude": "-90.07810563746192",
    "latitude": "30.01471164961152",
    "geocoded_column": {
      "latitude": "30.01471164961152",
      "longitude": "-90.07810563746192"
    }
  },
  {
    "service_request": "2025-1244655",
    "request_type": "Trash/Recycling",
    "request_reason": "Order Trash Cart",
    "date_created": "2025-12-09T13:35:42.000",
    "date_modified": "2025-12-09T13:35:44.000",
    "request_status": "Pending",
    "responsible_agency": "Department of Sanitation",
    "final_address": "269 West Robert E Lee Blvd",
    "address_councildis": "A",
    "status": "Assigned to Contractor",
    "contractor": "IV Waste",
    "rowid": "1244655",
    "final_x": "3665592.28794",
    "final_y": "555101.886873",
    "longitude": "-90.11751123899994",
    "latitude": "30.020811280981196",
    "geocoded_column": {
      "latitude": "30.020811280981196",
      "longitude": "-90.11751123899994"
    }
  },
  {
    "service_request": "2025-1244654",
    "request_type": "Abandoned Vehicles",
    "request_reason": "Abandoned/Junk Vehicles",
    "date_created": "2025-12-09T13:32:35.000",
    "date_modified": "2025-12-09T13:33:51.000",
    "request_status": "Pending",
    "responsible_agency": "Department of Public Works",
    "final_address": "20159 Old Spanish Trl",
    "address_councildis": "E",
    "status": "Pending",
    "rowid": "1244654",
    "final_x": "3759425.108",
    "final_y": "572782.236585",
    "longitude": "-89.8202968909289",
    "latitude": "30.06635292246256",
    "geocoded_column": {
      "latitude": "30.06635292246256",
      "longitude": "-89.8202968909289"
    }
  },
  {
    "service_request": "2025-1244653",
    "request_type": "Trash/Recycling",
    "request_reason": "Request a Large Item Pick Up",
    "date_created": "2025-12-09T13:31:45.000",
    "date_modified": "2025-12-09T13:31:47.000",
    "request_status": "Pending",
    "responsible_agency": "Department of Sanitation",
    "final_address": "4737 Laurel St",
    "address_councildis": "B",
    "status": "Assigned to Contractor",
    "contractor": "IV Waste",
    "rowid": "1244653",
    "final_x": "3669695.33953",
    "final_y": "517989.883126",
    "longitude": "-90.10580298799337",
    "latitude": "29.91864536390826",
    "geocoded_column": {
      "latitude": "29.91864536390826",
      "longitude": "-90.10580298799337"
    }
  },
  {
    "service_request": "2025-1244652",
    "request_type": "Trash/Recycling",
    "request_reason": "Request a Large Item Pick Up",
    "date_created": "2025-12-09T13:26:01.000",
    "date_modified": "2025-12-09T13:26:03.000",
    "request_status": "Pending",
    "responsible_agency": "Department of Sanitation",
    "final_address": "321 S Norman C Francis Prkwy",
    "address_councildis": "B",
    "status": "Assigned to Contractor",
    "contractor": "IV Waste",
    "rowid": "1244652",
    "final_x": "3672501.15457",
    "final_y": "536035.553863",
    "longitude": "-90.09633156308993",
    "latitude": "29.968182105644075",
    "geocoded_column": {
      "latitude": "29.968182105644075",
      "longitude": "-90.09633156308993"
    }
  },
  {
    "service_request": "2025-1244651",
    "request_type": "Trash/Recycling",
    "request_reason": "Request a Large Item Pick Up",
    "date_created": "2025-12-09T13:18:15.000",
    "date_modified": "2025-12-09T13:18:17.000",
    "request_status": "Pending",
    "responsible_agency": "Department of Sanitation",
    "final_address": "7310 Lake Barrington Dr",
    "address_councildis": "E",
    "status": "Assigned to Contractor",
    "contractor": "Waste Pro",
    "rowid": "1244651",
    "final_x": "3712107.21547",
    "final_y": "564855.999586",
    "longitude": "-89.97017249046482",
    "latitude": "30.04619208062829",
    "geocoded_column": {
      "latitude": "30.04619208062829",
      "longitude": "-89.97017249046482"
    }
  },
  {
    "service_request": "2025-1244650",
    "request_type": "Trash/Recycling",
    "request_reason": "Request a Large Item Pick Up",
    "date_created": "2025-12-09T13:13:19.000",
    "date_modified": "2025-12-09T13:13:20.000",
    "request_status": "Pending",
    "responsible_agency": "Department of Sanitation",
    "final_address": "4507 Annette St",
    "address_councildis": "D",
    "status": "Assigned to Contractor",
    "contractor": "IV Waste",
    "rowid": "1244650",
    "final_x": "3682147.33941",
    "final_y": "549123.585939",
    "longitude": "-90.0654111781239",
    "latitude": "30.003879725965255",
    "geocoded_column": {
      "latitude": "30.003879725965255",
      "longitude": "-90.0654111781239"
    }
  },
  {
    "service_request": "2025-1244649",
    "request_type": "Trash/Recycling",
    "request_reason": "Replace Trash Cart",
    "date_created": "2025-12-09T13:12:39.000",
    "date_modified": "2025-12-09T13:12:41.000",
    "request_status": "Pending",
    "responsible_agency": "Department of Sanitation",
    "final_address": "2712 Edge St",
    "address_councildis": "D",
    "status": "Assigned to Contractor",
    "contractor": "IV Waste",
    "rowid": "1244649",
    "final_x": "3687951.33897",
    "final_y": "545022.196175",
    "longitude": "-90.04722082802822",
    "latitude": "29.992424517967052",
    "geocoded_column": {
      "latitude": "29.992424517967052",
      "longitude": "-90.04722082802822"
    }
  },
  {
    "service_request": "2025-1244648",
    "request_type": "Trash/Recycling",
    "request_reason": "Repair Trash Cart",
    "date_created": "2025-12-09T13:09:47.000",
    "date_modified": "2025-12-09T14:06:49.000",
    "request_status": "Pending",
    "responsible_agency": "Department of Sanitation",
    "final_address": "6836 Milne Blvd",
    "address_councildis": "A",
    "status": "Assigned to Contractor",
    "contractor": "IV Waste",
    "rowid": "1244648",
    "final_x": "3667452.46593",
    "final_y": "552982.329943",
    "longitude": "-90.11170500073122",
    "latitude": "30.01492884450777",
    "geocoded_column": {
      "latitude": "30.01492884450777",
      "longitude": "-90.11170500073122"
    }
  },
  {
    "service_request": "2025-1244647",
    "request_type": "Trash/Recycling",
    "request_reason": "Repair Recycling Cart",
    "date_created": "2025-12-09T13:05:51.000",
    "date_modified": "2025-12-09T13:05:53.000",
    "request_status": "Pending",
    "responsible_agency": "Department of Sanitation",
    "final_address": "7040 E Renaissance Ct",
    "address_councildis": "E",
    "status": "Pending",
    "rowid": "1244647",
    "final_x": "3717428.9182",
    "final_y": "567408.516196",
    "longitude": "-89.95325622446245",
    "latitude": "30.053035301464238",
    "geocoded_column": {
      "latitude": "30.053035301464238",
      "longitude": "-89.95325622446245"
    }
  },
  {
    "service_request": "2025-1244646",
    "request_type": "Trash/Recycling",
    "request_reason": "Illegal Dumping",
    "date_created": "2025-12-09T13:02:18.000",
    "date_modified": "2025-12-09T13:02:19.000",
    "request_status": "Pending",
    "responsible_agency": "Department of Sanitation",
    "final_address": "CHEF MENTEUR HWY & I 10 E",
    "address_councildis": "E",
    "status": "Pending",
    "rowid": "1244646",
    "final_x": "3698751.3",
    "final_y": "551852.98",
    "longitude": "-90.01285736696903",
    "latitude": "30.010868895310914",
    "geocoded_column": {
      "latitude": "30.010868895310914",
      "longitude": "-90.01285736696903"
    }
  },
  {
    "service_request": "2025-1244645",
    "request_type": "Trash/Recycling",
    "request_reason": "Request a Large Item Pick Up",
    "date_created": "2025-12-09T12:59:51.000",
    "date_modified": "2025-12-09T13:02:33.000",
    "request_status": "Pending",
    "responsible_agency": "Department of Sanitation",
    "final_address": "4624 Annunciation St",
    "address_councildis": "B",
    "status": "Assigned to Contractor",
    "contractor": "IV Waste",
    "rowid": "1244645",
    "final_x": "3670197.64558",
    "final_y": "517620.651574",
    "longitude": "-90.10422996916266",
    "latitude": "29.917615287790653",
    "geocoded_column": {
      "latitude": "29.917615287790653",
      "longitude": "-90.10422996916266"
    }
  },
  {
    "service_request": "2025-1244644",
    "request_type": "Trash/Recycling",
    "request_reason": "Request a Large Item Pick Up",
    "date_created": "2025-12-09T12:55:16.000",
    "date_modified": "2025-12-09T12:55:18.000",
    "request_status": "Pending",
    "responsible_agency": "Department of Sanitation",
    "final_address": "13228 St Helena Pl",
    "address_councildis": "E",
    "status": "Assigned to Contractor",
    "contractor": "Waste Pro",
    "rowid": "1244644",
    "final_x": "3726854.71795",
    "final_y": "564386.342113",
    "longitude": "-89.9235818023424",
    "latitude": "30.04441006485853",
    "geocoded_column": {
      "latitude": "30.04441006485853",
      "longitude": "-89.9235818023424"
    }
  },
  {
    "service_request": "2025-1244643",
    "request_type": "Trash/Recycling",
    "request_reason": "Replace Trash Cart",
    "date_created": "2025-12-09T12:45:15.000",
    "date_modified": "2025-12-09T12:45:16.000",
    "request_status": "Pending",
    "responsible_agency": "Department of Sanitation",
    "final_address": "3424 Camphor St",
    "address_councildis": "A",
    "status": "Assigned to Contractor",
    "contractor": "IV Waste",
    "rowid": "1244643",
    "final_x": "3663591.35405",
    "final_y": "537934.015241",
    "longitude": "-90.12440595694639",
    "latitude": "29.973663719264934",
    "geocoded_column": {
      "latitude": "29.973663719264934",
      "longitude": "-90.12440595694639"
    }
  },
  {
    "service_request": "2025-1244642",
    "request_type": "Trash/Recycling",
    "request_reason": "Order Trash Cart",
    "date_created": "2025-12-09T12:44:20.000",
    "date_modified": "2025-12-09T12:44:21.000",
    "request_status": "Pending",
    "responsible_agency": "Department of Sanitation",
    "final_address": "1222 Baronne St",
    "address_councildis": "B",
    "status": "Assigned to Contractor",
    "contractor": "IV Waste",
    "rowid": "1244642",
    "final_x": "3678883.02626",
    "final_y": "526653.975422",
    "longitude": "-90.07650231801424",
    "latitude": "29.942194940485205",
    "geocoded_column": {
      "latitude": "29.942194940485205",
      "longitude": "-90.07650231801424"
    }
  },
  {
    "service_request": "2025-1244641",
    "request_type": "Trash/Recycling",
    "request_reason": "Request a Large Item Pick Up",
    "date_created": "2025-12-09T12:43:59.000",
    "date_modified": "2025-12-09T12:44:00.000",
    "request_status": "Pending",
    "responsible_agency": "Department of Sanitation",
    "final_address": "5715 Clara St",
    "address_councildis": "A",
    "status": "Assigned to Contractor",
    "contractor": "IV Waste",
    "rowid": "1244641",
    "final_x": "3667298.12385",
    "final_y": "525205.131389",
    "longitude": "-90.11312723580134",
    "latitude": "29.938555403636897",
    "geocoded_column": {
      "latitude": "29.938555403636897",
      "longitude": "-90.11312723580134"
    }
  },
  {
    "service_request": "2025-1244640",
    "request_type": "Trash/Recycling",
    "request_reason": "Replace Trash Cart",
    "date_created": "2025-12-09T12:43:30.000",
    "date_modified": "2025-12-09T12:43:32.000",
    "request_status": "Pending",
    "responsible_agency": "Department of Sanitation",
    "final_address": "1319 Feliciana St",
    "address_councildis": "C",
    "status": "Assigned to Contractor",
    "contractor": "IV Waste",
    "rowid": "1244640",
    "final_x": "3688985.67407",
    "final_y": "536950.48948",
    "longitude": "-90.04424041661866",
    "latitude": "29.970198232042723",
    "geocoded_column": {
      "latitude": "29.970198232042723",
      "longitude": "-90.04424041661866"
    }
  },
  {
    "service_request": "2025-1244639",
    "request_type": "Streetlights",
    "request_reason": "Streetlight Outage/Malfunction",
    "date_created": "2025-12-09T12:23:11.000",
    "date_modified": "2025-12-09T12:23:12.000",
    "request_status": "Pending",
    "responsible_agency": "Department of Public Works",
    "final_address": "CHESTNUT ST & ST MARY ST",
    "address_councildis": "B",
    "status": "Pending",
    "rowid": "1244639",
    "final_x": "3679260.8",
    "final_y": "523353.38",
    "longitude": "-90.07542400254123",
    "latitude": "29.933107994848196",
    "geocoded_column": {
      "latitude": "29.933107994848196",
      "longitude": "-90.07542400254123"
    }
  },
  {
    "service_request": "2025-1244638",
    "request_type": "Property Maintenance",
    "request_reason": "Property Maintenance",
    "date_created": "2025-12-09T12:18:13.000",
    "date_modified": "2025-12-09T12:45:38.000",
    "case_close_date": "2025-12-09T06:45:37.000",
    "request_status": "Closed",
    "responsible_agency": "Department of Code Enforcement",
    "final_address": "2100 France St",
    "address_councildis": "D",
    "status": "Referred to Code Enforcement",
    "rowid": "1244638",
    "final_x": "3693303.22173",
    "final_y": "538971.332682",
    "longitude": "-90.03053264375475",
    "latitude": "29.975620565675747",
    "geocoded_column": {
      "latitude": "29.975620565675747",
      "longitude": "-90.03053264375475"
    }
  },
  {
    "service_request": "2025-1244637",
    "request_type": "Trash/Recycling",
    "request_reason": "Request a Large Item Pick Up",
    "date_created": "2025-12-09T12:18:06.000",
    "date_modified": "2025-12-09T12:18:08.000",
    "request_status": "Pending",
    "responsible_agency": "Department of Sanitation",
    "final_address": "5504 Annunciation St",
    "address_councildis": "A",
    "status": "Assigned to Contractor",
    "contractor": "IV Waste",
    "rowid": "1244637",
    "final_x": "3666080.06311",
    "final_y": "517509.981046",
    "longitude": "-90.11723063672471",
    "latitude": "29.917431783832857",
    "geocoded_column": {
      "latitude": "29.917431783832857",
      "longitude": "-90.11723063672471"
    }
  },
  {
    "service_request": "2025-1244636",
    "request_type": "Trash/Recycling",
    "request_reason": "Request a Large Item Pick Up",
    "date_created": "2025-12-09T12:12:28.000",
    "date_modified": "2025-12-09T12:12:29.000",
    "request_status": "Pending",
    "responsible_agency": "Department of Sanitation",
    "final_address": "702 River Oaks Dr",
    "address_councildis": "C",
    "status": "Assigned to Contractor",
    "contractor": "IV Waste",
    "rowid": "1244636",
    "final_x": "3701522.6209",
    "final_y": "520052.737016",
    "longitude": "-90.00526620688225",
    "latitude": "29.92334160145821",
    "geocoded_column": {
      "latitude": "29.92334160145821",
      "longitude": "-90.00526620688225"
    }
  },
  {
    "service_request": "2025-1244635",
    "request_type": "Trash/Recycling",
    "request_reason": "Order Recycling Cart",
    "date_created": "2025-12-09T12:12:05.000",
    "date_modified": "2025-12-09T12:12:06.000",
    "request_status": "Pending",
    "responsible_agency": "Department of Sanitation",
    "final_address": "3470 Vespasian St",
    "address_councildis": "C",
    "status": "Pending",
    "rowid": "1244635",
    "final_x": "3696060.74736",
    "final_y": "522692.726778",
    "longitude": "-90.02241185147143",
    "latitude": "29.93077361091219",
    "geocoded_column": {
      "latitude": "29.93077361091219",
      "longitude": "-90.02241185147143"
    }
  },
  {
    "service_request": "2025-1244634",
    "request_type": "Trash/Recycling",
    "request_reason": "Replace Trash Cart",
    "date_created": "2025-12-09T12:11:01.000",
    "date_modified": "2025-12-09T12:12:14.000",
    "request_status": "Pending",
    "responsible_agency": "Department of Sanitation",
    "final_address": "103 Sherwood Forest Dr",
    "address_councildis": "A",
    "status": "Assigned to Contractor",
    "contractor": "IV Waste",
    "rowid": "1244634",
    "final_x": "3673256.92436",
    "final_y": "541280.025036",
    "longitude": "-90.09376563636803",
    "latitude": "29.982580161976518",
    "geocoded_column": {
      "latitude": "29.982580161976518",
      "longitude": "-90.09376563636803"
    }
  },
  {
    "service_request": "2025-1244633",
    "request_type": "Trash/Recycling",
    "request_reason": "Request a Large Item Pick Up",
    "date_created": "2025-12-09T12:05:45.000",
    "date_modified": "2025-12-09T12:05:46.000",
    "request_status": "Pending",
    "responsible_agency": "Department of Sanitation",
    "final_address": "5439 N Derbigny St",
    "address_councildis": "E",
    "status": "Assigned to Contractor",
    "contractor": "Waste Pro",
    "rowid": "1244633",
    "final_x": "3698103.23331",
    "final_y": "536168.435783",
    "longitude": "-90.0154747796003",
    "latitude": "29.967762670935134",
    "geocoded_column": {
      "latitude": "29.967762670935134",
      "longitude": "-90.0154747796003"
    }
  },
  {
    "service_request": "2025-1244632",
    "request_type": "Streetlights",
    "request_reason": "Streetlight Outage/Malfunction",
    "date_created": "2025-12-09T12:02:20.000",
    "date_modified": "2025-12-09T12:03:11.000",
    "request_status": "Pending",
    "responsible_agency": "Department of Public Works",
    "final_address": "1818 Magazine St",
    "address_councildis": "B",
    "status": "Pending",
    "rowid": "1244632",
    "final_x": "3679810.00763",
    "final_y": "522804.744699",
    "longitude": "-90.07370923182951",
    "latitude": "29.931582838462727",
    "geocoded_column": {
      "latitude": "29.931582838462727",
      "longitude": "-90.07370923182951"
    }
  },
  {
    "service_request": "2025-1244631",
    "request_type": "Trash/Recycling",
    "request_reason": "Request a Large Item Pick Up",
    "date_created": "2025-12-09T11:59:58.000",
    "date_modified": "2025-12-09T12:00:00.000",
    "request_status": "Pending",
    "responsible_agency": "Department of Sanitation",
    "final_address": "14311 Sai Gon Dr",
    "address_councildis": "E",
    "status": "Assigned to Contractor",
    "contractor": "Waste Pro",
    "rowid": "1244631",
    "final_x": "3729639.65536",
    "final_y": "563055.20752",
    "longitude": "-89.91483235429105",
    "latitude": "30.040655495786627",
    "geocoded_column": {
      "latitude": "30.040655495786627",
      "longitude": "-89.91483235429105"
    }
  },
  {
    "service_request": "2025-1244630",
    "request_type": "Trash/Recycling",
    "request_reason": "Repair Recycling Cart",
    "date_created": "2025-12-09T11:57:11.000",
    "date_modified": "2025-12-09T11:57:12.000",
    "request_status": "Pending",
    "responsible_agency": "Department of Sanitation",
    "final_address": "4031 Athis Ct",
    "address_councildis": "D",
    "status": "Pending",
    "rowid": "1244630",
    "final_x": "3688451.64841",
    "final_y": "554623.349016",
    "longitude": "-90.0452995330909",
    "latitude": "30.01880873123938",
    "geocoded_column": {
      "latitude": "30.01880873123938",
      "longitude": "-90.0452995330909"
    }
  },
  {
    "service_request": "2025-1244629",
    "request_type": "Roads and Streets",
    "request_reason": "Pothole",
    "date_created": "2025-12-09T11:50:35.000",
    "date_modified": "2025-12-09T11:50:38.000",
    "request_status": "Pending",
    "responsible_agency": "Department of Public Works",
    "final_address": "1031 S Carrollton Ave",
    "address_councildis": "A",
    "status": "Pending",
    "rowid": "1244629",
    "final_x": "3661802.12902",
    "final_y": "527925.366399",
    "longitude": "-90.13038859147233",
    "latitude": "29.94619497020936",
    "geocoded_column": {
      "latitude": "29.94619497020936",
      "longitude": "-90.13038859147233"
    }
  },
  {
    "service_request": "2025-1244628",
    "request_type": "Trash/Recycling",
    "request_reason": "Order Trash Cart",
    "date_created": "2025-12-09T11:47:26.000",
    "date_modified": "2025-12-09T11:47:28.000",
    "request_status": "Pending",
    "responsible_agency": "Department of Sanitation",
    "final_address": "3529 Broadway St",
    "address_councildis": "B",
    "status": "Assigned to Contractor",
    "contractor": "IV Waste",
    "rowid": "1244628",
    "final_x": "3668907.12052",
    "final_y": "533456.024068",
    "longitude": "-90.10776883694085",
    "latitude": "29.96119545239538",
    "geocoded_column": {
      "latitude": "29.96119545239538",
      "longitude": "-90.10776883694085"
    }
  },
  {
    "service_request": "2025-1244627",
    "request_type": "Roads and Streets",
    "request_reason": "Pothole",
    "date_created": "2025-12-09T11:42:28.000",
    "date_modified": "2025-12-09T11:42:30.000",
    "request_status": "Pending",
    "responsible_agency": "Department of Public Works",
    "final_address": "1031 S Carrollton Ave",
    "address_councildis": "A",
    "status": "Pending",
    "rowid": "1244627",
    "final_x": "3661802.12902",
    "final_y": "527925.366399",
    "longitude": "-90.13038859147233",
    "latitude": "29.94619497020936",
    "geocoded_column": {
      "latitude": "29.94619497020936",
      "longitude": "-90.13038859147233"
    }
  },
  {
    "service_request": "2025-1244626",
    "request_type": "Streetlights",
    "request_reason": "Streetlight Outage/Malfunction",
    "date_created": "2025-12-09T11:39:12.000",
    "date_modified": "2025-12-09T11:39:16.000",
    "request_status": "Pending",
    "responsible_agency": "Department of Public Works",
    "final_address": "908 N Hennessey St",
    "address_councildis": "A",
    "status": "Pending",
    "rowid": "1244626",
    "final_x": "3672187.03406",
    "final_y": "541387.804236",
    "longitude": "-90.09714121628043",
    "latitude": "29.982908299153753",
    "geocoded_column": {
      "latitude": "29.982908299153753",
      "longitude": "-90.09714121628043"
    }
  },
  {
    "service_request": "2025-1244625",
    "request_type": "Trash/Recycling",
    "request_reason": "Request a Large Item Pick Up",
    "date_created": "2025-12-09T11:36:47.000",
    "date_modified": "2025-12-09T11:36:50.000",
    "request_status": "Pending",
    "responsible_agency": "Department of Sanitation",
    "final_address": "2433 Lark St",
    "address_councildis": "D",
    "status": "Assigned to Contractor",
    "contractor": "IV Waste",
    "rowid": "1244625",
    "final_x": "3684873.90953",
    "final_y": "558006.319643",
    "longitude": "-90.05648478543553",
    "latitude": "30.028220746225468",
    "geocoded_column": {
      "latitude": "30.028220746225468",
      "longitude": "-90.05648478543553"
    }
  },
  {
    "service_request": "2025-1244624",
    "request_type": "Trash/Recycling",
    "request_reason": "Request a Large Item Pick Up",
    "date_created": "2025-12-09T11:34:51.000",
    "date_modified": "2025-12-09T11:34:53.000",
    "request_status": "Pending",
    "responsible_agency": "Department of Sanitation",
    "final_address": "3104 St Anthony Ave",
    "address_councildis": "D",
    "status": "Assigned to Contractor",
    "contractor": "IV Waste",
    "rowid": "1244624",
    "final_x": "3682776.00034",
    "final_y": "543996.682702",
    "longitude": "-90.06360461206106",
    "latitude": "29.98976342827713",
    "geocoded_column": {
      "latitude": "29.98976342827713",
      "longitude": "-90.06360461206106"
    }
  },
  {
    "service_request": "2025-1244623",
    "request_type": "Safety & Permits",
    "request_reason": "Licenses & Permits",
    "date_created": "2025-12-09T11:32:12.000",
    "date_modified": "2025-12-09T11:34:45.000",
    "request_status": "Pending",
    "responsible_agency": "Safety and Permits",
    "final_address": "3111 Conti St",
    "address_councildis": "B",
    "status": "Pending",
    "rowid": "1244623",
    "final_x": "3674724.79924",
    "final_y": "537111.411848",
    "longitude": "-90.08927230333406",
    "latitude": "29.971074156014595",
    "geocoded_column": {
      "latitude": "29.971074156014595",
      "longitude": "-90.08927230333406"
    }
  },
  {
    "service_request": "2025-1244622",
    "request_type": "Trash/Recycling",
    "request_reason": "Request a Large Item Pick Up",
    "date_created": "2025-12-09T11:31:01.000",
    "date_modified": "2025-12-09T16:46:18.000",
    "request_status": "Pending",
    "responsible_agency": "Department of Sanitation",
    "final_address": "3525 Silver Maple Ct",
    "address_councildis": "C",
    "status": "Assigned to Contractor",
    "contractor": "Richards Disposal",
    "rowid": "1244622",
    "final_x": "3703311.50346",
    "final_y": "512431.923825",
    "longitude": "-89.99989936500494",
    "latitude": "29.902329841186162",
    "geocoded_column": {
      "latitude": "29.902329841186162",
      "longitude": "-89.99989936500494"
    }
  },
  {
    "service_request": "2025-1244621",
    "request_type": "Trash/Recycling",
    "request_reason": "Request a Large Item Pick Up",
    "date_created": "2025-12-09T11:29:47.000",
    "date_modified": "2025-12-09T11:29:48.000",
    "request_status": "Pending",
    "responsible_agency": "Department of Sanitation",
    "final_address": "1811 Frenchmen St",
    "address_councildis": "D",
    "status": "Assigned to Contractor",
    "contractor": "IV Waste",
    "rowid": "1244621",
    "final_x": "3684407.02018",
    "final_y": "538956.37729",
    "longitude": "-90.05862979195312",
    "latitude": "29.97585456708767",
    "geocoded_column": {
      "latitude": "29.97585456708767",
      "longitude": "-90.05862979195312"
    }
  },
  {
    "service_request": "2025-1244620",
    "request_type": "Trash/Recycling",
    "request_reason": "Order Second Trash Cart",
    "date_created": "2025-12-09T11:26:18.000",
    "date_modified": "2025-12-09T11:26:19.000",
    "request_status": "Pending",
    "responsible_agency": "Department of Sanitation",
    "final_address": "6625 Center St",
    "address_councildis": "A",
    "status": "Assigned to Contractor",
    "contractor": "IV Waste",
    "rowid": "1244620",
    "final_x": "3664993.87015",
    "final_y": "552126.396054",
    "longitude": "-90.11950166812443",
    "latitude": "30.012647170100962",
    "geocoded_column": {
      "latitude": "30.012647170100962",
      "longitude": "-90.11950166812443"
    }
  },
  {
    "service_request": "2025-1244619",
    "request_type": "Trash/Recycling",
    "request_reason": "Replace Trash Cart",
    "date_created": "2025-12-09T11:25:23.000",
    "date_modified": "2025-12-09T11:25:26.000",
    "request_status": "Pending",
    "responsible_agency": "Department of Sanitation",
    "final_address": "921 N Miro St",
    "address_councildis": "D",
    "status": "Assigned to Contractor",
    "contractor": "IV Waste",
    "rowid": "1244619",
    "final_x": "3678648.73947",
    "final_y": "551142.778581",
    "longitude": "-90.07639388268083",
    "latitude": "30.00953776837034",
    "geocoded_column": {
      "latitude": "30.00953776837034",
      "longitude": "-90.07639388268083"
    }
  },
  {
    "service_request": "2025-1244618",
    "request_type": "Trash/Recycling",
    "request_reason": "Repair Trash Cart",
    "date_created": "2025-12-09T11:22:33.000",
    "date_modified": "2025-12-09T11:22:35.000",
    "request_status": "Pending",
    "responsible_agency": "Department of Sanitation",
    "final_address": "6625 Center St",
    "address_councildis": "A",
    "status": "Assigned to Contractor",
    "contractor": "IV Waste",
    "rowid": "1244618",
    "final_x": "3664993.87015",
    "final_y": "552126.396054",
    "longitude": "-90.11950166812443",
    "latitude": "30.012647170100962",
    "geocoded_column": {
      "latitude": "30.012647170100962",
      "longitude": "-90.11950166812443"
    }
  },
  {
    "service_request": "2025-1244617",
    "request_type": "Trash/Recycling",
    "request_reason": "Replace Trash Cart",
    "date_created": "2025-12-09T11:19:47.000",
    "date_modified": "2025-12-09T11:19:49.000",
    "request_status": "Pending",
    "responsible_agency": "Department of Sanitation",
    "final_address": "500 N St Patrick St",
    "address_councildis": "A",
    "status": "Assigned to Contractor",
    "contractor": "IV Waste",
    "rowid": "1244617",
    "final_x": "3670121.17735",
    "final_y": "541042.478476",
    "longitude": "-90.1036779629343",
    "latitude": "29.98201989211854",
    "geocoded_column": {
      "latitude": "29.98201989211854",
      "longitude": "-90.1036779629343"
    }
  },
  {
    "service_request": "2025-1244616",
    "request_type": "Trash/Recycling",
    "request_reason": "Order Second Trash Cart",
    "date_created": "2025-12-09T11:17:44.000",
    "date_modified": "2025-12-09T11:17:45.000",
    "request_status": "Pending",
    "responsible_agency": "Department of Sanitation",
    "final_address": "5411 Piety Dr",
    "address_councildis": "D",
    "status": "Assigned to Contractor",
    "contractor": "IV Waste",
    "rowid": "1244616",
    "final_x": "3690838.52848",
    "final_y": "553616.376407",
    "longitude": "-90.03779384102687",
    "latitude": "30.01596594059401",
    "geocoded_column": {
      "latitude": "30.01596594059401",
      "longitude": "-90.03779384102687"
    }
  },
  {
    "service_request": "2025-1244615",
    "request_type": "Trash/Recycling",
    "request_reason": "Replace Trash Cart",
    "date_created": "2025-12-09T11:14:34.000",
    "date_modified": "2025-12-09T11:14:36.000",
    "request_status": "Pending",
    "responsible_agency": "Department of Sanitation",
    "final_address": "859 Chapelle St",
    "address_councildis": "A",
    "status": "Assigned to Contractor",
    "contractor": "IV Waste",
    "rowid": "1244615",
    "final_x": "3670123.67246",
    "final_y": "552655.00367",
    "longitude": "-90.10327634519585",
    "latitude": "30.01395023592151",
    "geocoded_column": {
      "latitude": "30.01395023592151",
      "longitude": "-90.10327634519585"
    }
  },
  {
    "service_request": "2025-1244614",
    "request_type": "Streetlights",
    "request_reason": "Streetlight Knocked Down/Leaning",
    "date_created": "2025-12-09T11:14:09.000",
    "date_modified": "2025-12-09T11:14:10.000",
    "request_status": "Pending",
    "responsible_agency": "Department of Public Works",
    "final_address": "CHARTRES ST & TOULOUSE ST",
    "address_councildis": "C",
    "status": "Pending",
    "rowid": "1244614",
    "final_x": "3682604.6",
    "final_y": "531944.08",
    "longitude": "-90.06456756863",
    "latitude": "29.956628173994527",
    "geocoded_column": {
      "latitude": "29.956628173994527",
      "longitude": "-90.06456756863"
    }
  },
  {
    "service_request": "2025-1244613",
    "request_type": "Trash/Recycling",
    "request_reason": "Request a Large Item Pick Up",
    "date_created": "2025-12-09T11:12:33.000",
    "date_modified": "2025-12-09T11:12:34.000",
    "request_status": "Pending",
    "responsible_agency": "Department of Sanitation",
    "final_address": "859 Chapelle St",
    "address_councildis": "A",
    "status": "Assigned to Contractor",
    "contractor": "IV Waste",
    "rowid": "1244613",
    "final_x": "3670123.67246",
    "final_y": "552655.00367",
    "longitude": "-90.10327634519585",
    "latitude": "30.01395023592151",
    "geocoded_column": {
      "latitude": "30.01395023592151",
      "longitude": "-90.10327634519585"
    }
  },