[
  {
    "service_request": "2023-970083",
    "request_type": "Trash/Recycling",
    "request_reason": "MIssed Recycling Pick-Up",
    "date_created": "2023-01-24T23:57:48.000",
    "date_modified": "2023-01-24T23:57:48.000",
    "request_status": "Pending",
    "responsible_agency": "Department of Sanitation",
    "final_address": "728 S Hennessey St",
    "address_councildis": "A",
    "status": "Assigned to Contractor",
    "contractor": "Richards Disposal",
    "rowid": "970083",
    "final_x": "3668745.21543",
    "final_y": "536854.329864",
    "longitude": "-90.10816536387033",
    "latitude": "29.970544423651113",
    "geocoded_column": {
      "latitude": "29.970544423651113",
      "longitude": "-90.10816536387033"
    }
  },
  {
    "service_request": "2023-970082",
    "request_type": "Traffic Signals/Signs/Striping/Streetlights",
    "request_reason": "Street Name Sign Damaged or Missing",
    "date_created": "2023-01-24T22:56:53.000",
    "date_modified": "2023-01-24T22:56:53.000",
    "request_status": "Pending",
    "responsible_agency": "Department of Public Works",
    "final_address": "DESLONDE ST & MARAIS ST",
    "address_councildis": "E",
    "status": "Pending",
    "rowid": "970082",
    "final_x": "3695480.3",
    "final_y": "534766.98",
    "longitude": "-90.02380861571385",
    "latitude": "29.963991853144492",
    "geocoded_column": {
      "latitude": "29.963991853144492",
      "longitude": "-90.02380861571385"
    }
  },
  {
    "service_request": "2023-970081",
    "request_type": "Trash/Recycling",
    "request_reason": "Missed Trash Pick-Up",
    "date_created": "2023-01-24T22:13:55.000",
    "date_modified": "2023-01-24T22:13:56.000",
    "request_status": "Pending",
    "responsible_agency": "Department of Sanitation",
    "final_address": "4216 Perrier St, New Orleans, Louisiana, 70115",
    "address_councildis": "B",
    "status": "Assigned to Contractor",
    "contractor": "Richards Disposal",
    "rowid": "970081",
    "final_x": "3671527.95975",
    "final_y": "520102.497912",
    "longitude": "-90.0999465769127",
    "latitude": "29.92440027123842",
    "geocoded_column": {
      "latitude": "29.92440027123842",
      "longitude": "-90.0999465769127"
    }
  },
  {
    "service_request": "2023-970080",
    "request_type": "Trash/Recycling",
    "request_reason": "Request a Large Item Pick Up",
    "date_created": "2023-01-24T21:52:12.000",
    "date_modified": "2023-01-24T21:52:13.000",
    "request_status": "Pending",
    "responsible_agency": "Department of Sanitation",
    "final_address": "1622 Nie Prkwy",
    "address_councildis": "C",
    "status": "Assigned to Contractor",
    "contractor": "Richards Disposal",
    "rowid": "970080",
    "final_x": "3701271.35332",
    "final_y": "524920.133372",
    "longitude": "-90.00588136125636",
    "latitude": "29.93673326004419",
    "geocoded_column": {
      "latitude": "29.93673326004419",
      "longitude": "-90.00588136125636"
    }
  },
  {
    "service_request": "2023-970079",
    "request_type": "Traffic Signals/Signs/Striping/Streetlights",
    "request_reason": "Traffic Sign Missing/Damaged",
    "date_created": "2023-01-24T21:35:14.000",
    "date_modified": "2023-01-24T21:35:14.000",
    "request_status": "Pending",
    "responsible_agency": "Department of Public Works",
    "final_address": "ODEON ST & HOMER ST",
    "address_councildis": "C",
    "status": "Pending",
    "rowid": "970079",
    "final_x": "3696070.5",
    "final_y": "528175.68",
    "longitude": "-90.02218300377007",
    "latitude": "29.945849533644743",
    "geocoded_column": {
      "latitude": "29.945849533644743",
      "longitude": "-90.02218300377007"
    }
  },
  {
    "service_request": "2023-970078",
    "request_type": "Trash/Recycling",
    "request_reason": "Request a Large Item Pick Up",
    "date_created": "2023-01-24T21:25:57.000",
    "date_modified": "2023-01-24T21:25:58.000",
    "request_status": "Pending",
    "responsible_agency": "Department of Sanitation",
    "final_address": "614 N Alexander St",
    "address_councildis": "A",
    "status": "Assigned to Contractor",
    "contractor": "Richards Disposal",
    "rowid": "970078",
    "final_x": "3671196.85025",
    "final_y": "540692.280715",
    "longitude": "-90.10029236678956",
    "latitude": "29.981025182996394",
    "geocoded_column": {
      "latitude": "29.981025182996394",
      "longitude": "-90.10029236678956"
    }
  },
  {
    "service_request": "2023-970077",
    "request_type": "Trash/Recycling",
    "request_reason": "Start Trash Service",
    "date_created": "2023-01-24T21:20:16.000",
    "date_modified": "2023-01-24T21:20:17.000",
    "request_status": "Pending",
    "responsible_agency": "Department of Sanitation",
    "final_address": "2315 Fourth St",
    "address_councildis": "B",
    "status": "Assigned to Contractor",
    "contractor": "Richards Disposal",
    "rowid": "970077",
    "final_x": "3674766.15867",
    "final_y": "524906.893116",
    "longitude": "-90.08956006208399",
    "latitude": "29.93751455971264",
    "geocoded_column": {
      "latitude": "29.93751455971264",
      "longitude": "-90.08956006208399"
    }
  },
  {
    "service_request": "2023-970075",
    "request_type": "Trash/Recycling",
    "request_reason": "Request a Large Item Pick Up",
    "date_created": "2023-01-24T21:08:59.000",
    "date_modified": "2023-01-24T21:08:59.000",
    "request_status": "Pending",
    "responsible_agency": "Department of Sanitation",
    "final_address": "3055 Grand Route St John St",
    "address_councildis": "A",
    "status": "Assigned to Contractor",
    "contractor": "IV Waste",
    "rowid": "970075",
    "final_x": "3676728.70702",
    "final_y": "540350.677131",
    "longitude": "-90.08283204716338",
    "latitude": "29.979921048732304",
    "geocoded_column": {
      "latitude": "29.979921048732304",
      "longitude": "-90.08283204716338"
    }
  },
  {
    "service_request": "2023-970074",
    "request_type": "Traffic Signals/Signs/Striping/Streetlights",
    "request_reason": "Street Light Outage/Malfunction",
    "date_created": "2023-01-24T20:42:31.000",
    "date_modified": "2023-01-24T20:42:31.000",
    "request_status": "Pending",
    "responsible_agency": "Department of Public Works",
    "final_address": "4926 Tynecastle Dr",
    "address_councildis": "E",
    "status": "Assigned to Contractor",
    "contractor": "Legacy Professional Services",
    "rowid": "970074",
    "final_x": "3718344.84569",
    "final_y": "558013.616219",
    "longitude": "-89.95071956789378",
    "latitude": "30.027172784199486",
    "geocoded_column": {
      "latitude": "30.027172784199486",
      "longitude": "-89.95071956789378"
    }
  },
  {
    "service_request": "2023-970073",
    "request_type": "Property Maintenance",
    "request_reason": "Property Maintenance",
    "date_created": "2023-01-24T20:32:25.000",
    "date_modified": "2023-01-24T20:32:25.000",
    "request_status": "Pending",
    "responsible_agency": "Department of Code Enforcement",
    "final_address": "6767 Bundy Rd",
    "address_councildis": "E",
    "status": "Pending",
    "rowid": "970073",
    "final_x": "3707943.71448",
    "final_y": "559384.518173",
    "longitude": "-89.98353487492832",
    "latitude": "30.031283213315767",
    "geocoded_column": {
      "latitude": "30.031283213315767",
      "longitude": "-89.98353487492832"
    }
  },
  {
    "service_request": "2023-970072",
    "request_type": "Trash/Recycling",
    "request_reason": "MIssed Recycling Pick-Up",
    "date_created": "2023-01-24T20:14:04.000",
    "date_modified": "2023-01-24T20:14:05.000",
    "request_status": "Pending",
    "responsible_agency": "Department of Sanitation",
    "final_address": "220 S Solomon St",
    "address_councildis": "A",
    "status": "Assigned to Contractor",
    "contractor": "Richards Disposal",
    "rowid": "970072",
    "final_x": "3670248.74311",
    "final_y": "538208.997833",
    "longitude": "-90.10337111327594",
    "latitude": "29.974225015194648",
    "geocoded_column": {
      "latitude": "29.974225015194648",
      "longitude": "-90.10337111327594"
    }
  },
  {
    "service_request": "2023-970070",
    "request_type": "Trash/Recycling",
    "request_reason": "Replace Trash Cart",
    "date_created": "2023-01-24T20:03:08.000",
    "date_modified": "2023-01-24T20:03:08.000",
    "request_status": "Pending",
    "responsible_agency": "Department of Sanitation",
    "final_address": "129 S Cortez St",
    "address_councildis": "A",
    "status": "Assigned to Contractor",
    "contractor": "Richards Disposal",
    "rowid": "970070",
    "final_x": "3671850.55585",
    "final_y": "537387.873736",
    "longitude": "-90.09834015560085",
    "latitude": "29.97191982632383",
    "geocoded_column": {
      "latitude": "29.97191982632383",
      "longitude": "-90.09834015560085"
    }
  },
  {
    "service_request": "2023-970069",
    "request_type": "Trash/Recycling",
    "request_reason": "MIssed Recycling Pick-Up",
    "date_created": "2023-01-24T20:01:54.000",
    "date_modified": "2023-01-24T20:01:55.000",
    "request_status": "Pending",
    "responsible_agency": "Department of Sanitation",
    "final_address": "129 S Cortez St",
    "address_councildis": "A",
    "status": "Assigned to Contractor",
    "contractor": "Richards Disposal",
    "rowid": "970069",
    "final_x": "3671850.55585",
    "final_y": "537387.873736",
    "longitude": "-90.09834015560085",
    "latitude": "29.97191982632383",
    "geocoded_column": {
      "latitude": "29.97191982632383",
      "longitude": "-90.09834015560085"
    }
  },
  {
    "service_request": "2023-970068",
    "request_type": "Trash/Recycling",
    "request_reason": "Return Trash Cart",
    "date_created": "2023-01-24T19:54:20.000",
    "date_modified": "2023-01-24T19:54:21.000",
    "request_status": "Pending",
    "responsible_agency": "Department of Sanitation",
    "final_address": "7541 Briarheath Dr",
    "address_councildis": "E",
    "status": "Assigned to Contractor",
    "contractor": "Waste Pro",
    "rowid": "970068",
    "final_x": "3714914.68735",
    "final_y": "566751.645731",
    "longitude": "-89.96122779905973",
    "latitude": "30.051312200476033",
    "geocoded_column": {
      "latitude": "30.051312200476033",
      "longitude": "-89.96122779905973"
    }
  },
  {
    "service_request": "2023-970067",
    "request_type": "Trash/Recycling",
    "request_reason": "Return Recycling Cart",
    "date_created": "2023-01-24T19:50:18.000",
    "date_modified": "2023-01-24T19:50:18.000",
    "request_status": "Pending",
    "responsible_agency": "Department of Sanitation",
    "final_address": "7541 Briarheath Dr",
    "address_councildis": "E",
    "status": "Pending",
    "rowid": "970067",
    "final_x": "3714914.68735",
    "final_y": "566751.645731",
    "longitude": "-89.96122779905973",
    "latitude": "30.051312200476033",
    "geocoded_column": {
      "latitude": "30.051312200476033",
      "longitude": "-89.96122779905973"
    }
  },
  {
    "service_request": "2023-970066",
    "request_type": "Trash/Recycling",
    "request_reason": "Request a Large Item Pick Up",
    "date_created": "2023-01-24T19:47:20.000",
    "date_modified": "2023-01-24T19:47:21.000",
    "request_status": "Pending",
    "responsible_agency": "Department of Sanitation",
    "final_address": "812 Jefferson Ave",
    "address_councildis": "A",
    "status": "Assigned to Contractor",
    "contractor": "Richards Disposal",
    "rowid": "970066",
    "final_x": "3666615.90957",
    "final_y": "518558.428535",
    "longitude": "-90.11550409258915",
    "latitude": "29.920299037431576",
    "geocoded_column": {
      "latitude": "29.920299037431576",
      "longitude": "-90.11550409258915"
    }
  },
  {
    "service_request": "2023-970065",
    "request_type": "Trash/Recycling",
    "request_reason": "Missed Trash Pick-Up",
    "date_created": "2023-01-24T18:53:22.000",
    "date_modified": "2023-01-24T18:53:23.000",
    "request_status": "Pending",
    "responsible_agency": "Department of Sanitation",
    "final_address": "3344 Bell St",
    "address_councildis": "A",
    "status": "Assigned to Contractor",
    "contractor": "Richards Disposal",
    "rowid": "970065",
    "final_x": "3675141.5483",
    "final_y": "539730.624138",
    "longitude": "-90.08786624253099",
    "latitude": "29.97826364784087",
    "geocoded_column": {
      "latitude": "29.97826364784087",
      "longitude": "-90.08786624253099"
    }
  },
  {
    "service_request": "2023-970064",
    "request_type": "Trash/Recycling",
    "request_reason": "Request a Large Item Pick Up",
    "date_created": "2023-01-24T18:23:29.000",
    "date_modified": "2023-01-24T18:23:29.000",
    "request_status": "Pending",
    "responsible_agency": "Department of Sanitation",
    "final_address": "420 Thayer St",
    "address_councildis": "C",
    "status": "Assigned to Contractor",
    "contractor": "Richards Disposal",
    "rowid": "970064",
    "final_x": "3689593.16719",
    "final_y": "530069.441857",
    "longitude": "-90.04256669149369",
    "latitude": "29.951258939063447",
    "geocoded_column": {
      "latitude": "29.951258939063447",
      "longitude": "-90.04256669149369"
    }
  },
  {
    "service_request": "2023-970063",
    "request_type": "Trash/Recycling",
    "request_reason": "MIssed Recycling Pick-Up",
    "date_created": "2023-01-24T18:19:29.000",
    "date_modified": "2023-01-24T18:19:30.000",
    "request_status": "Pending",
    "responsible_agency": "Department of Sanitation",
    "final_address": "7667 Avalon Way",
    "address_councildis": "E",
    "status": "Assigned to Contractor",
    "contractor": "Waste Pro",
    "rowid": "970063",
    "final_x": "3708889.39448",
    "final_y": "564900.86077",
    "longitude": "-89.98034068409923",
    "latitude": "30.04642029666581",
    "geocoded_column": {
      "latitude": "30.04642029666581",
      "longitude": "-89.98034068409923"
    }
  },
  {
    "service_request": "2023-970062",
    "request_type": "Trash/Recycling",
    "request_reason": "Illegal Dumping",
    "date_created": "2023-01-24T18:18:56.000",
    "date_modified": "2023-01-24T18:18:56.000",
    "request_status": "Pending",
    "responsible_agency": "Department of Sanitation",
    "final_address": "1422 Eliza St",
    "address_councildis": "C",
    "status": "Pending",
    "rowid": "970062",
    "final_x": "3690049.49628",
    "final_y": "529874.296257",
    "longitude": "-90.04113278328676",
    "latitude": "29.95070821350268",
    "geocoded_column": {
      "latitude": "29.95070821350268",
      "longitude": "-90.04113278328676"
    }
  },
  {
    "service_request": "2023-970061",
    "request_type": "Traffic Signals/Signs/Striping/Streetlights",
    "request_reason": "Street Light Outage/Malfunction",
    "date_created": "2023-01-24T18:17:30.000",
    "date_modified": "2023-01-24T18:17:31.000",
    "request_status": "Pending",
    "responsible_agency": "Department of Public Works",
    "final_address": "7113 Barrington Ct",
    "address_councildis": "E",
    "status": "Assigned to Contractor",
    "contractor": "Legacy Professional Services",
    "rowid": "970061",
    "final_x": "3713977.05483",
    "final_y": "565261.965986",
    "longitude": "-89.96424757488111",
    "latitude": "30.04724702642408",
    "geocoded_column": {
      "latitude": "30.04724702642408",
      "longitude": "-89.96424757488111"
    }
  },
  {
    "service_request": "2023-970060",
    "request_type": "Traffic Signals/Signs/Striping/Streetlights",
    "request_reason": "Street Light Knocked Down/Leaning",
    "date_created": "2023-01-24T18:16:36.000",
    "date_modified": "2023-01-24T18:16:36.000",
    "request_status": "Pending",
    "responsible_agency": "Department of Public Works",
    "final_address": "332 Seguin St",
    "address_councildis": "C",
    "status": "Pending",
    "contractor": "Legacy Professional Services",
    "rowid": "970060",
    "final_x": "3686159.17762",
    "final_y": "530353.357826",
    "longitude": "-90.0533994968914",
    "latitude": "29.95214553001041",
    "geocoded_column": {
      "latitude": "29.95214553001041",
      "longitude": "-90.0533994968914"
    }
  },
  {
    "service_request": "2023-970059",
    "request_type": "Roads/Drainage",
    "request_reason": "Pothole",
    "date_created": "2023-01-24T18:16:06.000",
    "date_modified": "2023-01-24T18:16:06.000",
    "request_status": "Pending",
    "responsible_agency": "Department of Public Works",
    "final_address": "400 Thayer St",
    "address_councildis": "C",
    "status": "Pending",
    "rowid": "970059",
    "final_x": "3689599.41718",
    "final_y": "530227.087937",
    "longitude": "-90.0425413498096",
    "latitude": "29.951692217900163",
    "geocoded_column": {
      "latitude": "29.951692217900163",
      "longitude": "-90.0425413498096"
    }
  },
  {
    "service_request": "2023-970058",
    "request_type": "Trash/Recycling",
    "request_reason": "Order Trash Cart",
    "date_created": "2023-01-24T18:14:56.000",
    "date_modified": "2023-01-24T18:14:57.000",
    "request_status": "Pending",
    "responsible_agency": "Department of Sanitation",
    "final_address": "7113 Barrington Ct",
    "address_councildis": "E",
    "status": "Assigned to Contractor",
    "contractor": "Waste Pro",
    "rowid": "970058",
    "final_x": "3713977.05483",
    "final_y": "565261.965986",
    "longitude": "-89.96424757488111",
    "latitude": "30.04724702642408",
    "geocoded_column": {
      "latitude": "30.04724702642408",
      "longitude": "-89.96424757488111"
    }
  },
  {
    "service_request": "2023-970057",
    "request_type": "Roads/Drainage",
    "request_reason": "Street Subsidence (Sinking)",
    "date_created": "2023-01-24T18:13:46.000",
    "date_modified": "2023-01-24T18:21:38.000",
    "request_status": "Pending",
    "responsible_agency": "Department of Public Works",
    "final_address": "NAPOLEON AVE & ST CHARLES AVE",
    "address_councildis": "B",
    "status": "Pending",
    "rowid": "970057",
    "final_x": "3670814.1",
    "final_y": "520818.48",
    "longitude": "-90.10217570850496",
    "latitude": "29.926390102746048",
    "geocoded_column": {
      "latitude": "29.926390102746048",
      "longitude": "-90.10217570850496"
    }
  },
  {
    "service_request": "2023-970056",
    "request_type": "Trash/Recycling",
    "request_reason": "Order Recycling Cart",
    "date_created": "2023-01-24T18:12:36.000",
    "date_modified": "2023-01-24T18:12:36.000",
    "request_status": "Pending",
    "responsible_agency": "Department of Sanitation",
    "final_address": "4913 Treves St",
    "address_councildis": "E",
    "status": "Pending",
    "rowid": "970056",
    "final_x": "3729960.86694",
    "final_y": "562805.118496",
    "longitude": "-89.91382702539946",
    "latitude": "30.03995691779173",
    "geocoded_column": {
      "latitude": "30.03995691779173",
      "longitude": "-89.91382702539946"
    }
  },
  {
    "service_request": "2023-970055",
    "request_type": "Traffic Signals/Signs/Striping/Streetlights",
    "request_reason": "Traffic Sign Missing/Damaged",
    "date_created": "2023-01-24T17:46:38.000",
    "date_modified": "2023-01-24T17:46:38.000",
    "request_status": "Pending",
    "responsible_agency": "Department of Public Works",
    "final_address": "6801 Chef Menteur Hwy",
    "address_councildis": "E",
    "status": "Pending",
    "rowid": "970055",
    "final_x": "3700058.91645",
    "final_y": "552087.764374",
    "longitude": "-90.00871754448603",
    "latitude": "30.011472964400397",
    "geocoded_column": {
      "latitude": "30.011472964400397",
      "longitude": "-90.00871754448603"
    }
  },
  {
    "service_request": "2023-970054",
    "request_type": "Traffic Signals/Signs/Striping/Streetlights",
    "request_reason": "Traffic Signal Malfunctioning/Damaged",
    "date_created": "2023-01-24T17:41:06.000",
    "date_modified": "2023-01-24T17:41:06.000",
    "request_status": "Pending",
    "responsible_agency": "Department of Public Works",
    "final_address": "LAKE FOREST BLVD & BUNDY RD",
    "address_councildis": "E",
    "status": "Pending",
    "rowid": "970054",
    "final_x": "3708241.1",
    "final_y": "558620.78",
    "longitude": "-89.98262358286844",
    "latitude": "30.02917359783767",
    "geocoded_column": {
      "latitude": "30.02917359783767",
      "longitude": "-89.98262358286844"
    }
  },
  {
    "service_request": "2023-970053",
    "request_type": "Traffic Signals/Signs/Striping/Streetlights",
    "request_reason": "Street Name Sign Damaged or Missing",
    "date_created": "2023-01-24T17:34:24.000",
    "date_modified": "2023-01-24T17:34:24.000",
    "request_status": "Pending",
    "responsible_agency": "Department of Public Works",
    "final_address": "6733 Chef Menteur Hwy",
    "address_councildis": "E",
    "status": "Pending",
    "rowid": "970053",
    "final_x": "3699796.45104",
    "final_y": "552111.595542",
    "longitude": "-90.00954590571766",
    "latitude": "30.01154683132184",
    "geocoded_column": {
      "latitude": "30.01154683132184",
      "longitude": "-90.00954590571766"
    }
  },
  {
    "service_request": "2023-970052",
    "request_type": "Trash/Recycling",
    "request_reason": "Missed Trash Pick-Up",
    "date_created": "2023-01-24T17:29:40.000",
    "date_modified": "2023-01-24T17:29:40.000",
    "request_status": "Pending",
    "responsible_agency": "Department of Sanitation",
    "final_address": "1506 Mandolin St",
    "address_councildis": "D",
    "status": "Assigned to Contractor",
    "contractor": "IV Waste",
    "rowid": "970052",
    "final_x": "3678903.39867",
    "final_y": "547988.429458",
    "longitude": "-90.07569870486829",
    "latitude": "30.00085675079337",
    "geocoded_column": {
      "latitude": "30.00085675079337",
      "longitude": "-90.07569870486829"
    }
  },
  {
    "service_request": "2023-970051",
    "request_type": "Roads/Drainage",
    "request_reason": "Catch Basin - Broken/Damage",
    "date_created": "2023-01-24T17:25:23.000",
    "date_modified": "2023-01-24T17:25:23.000",
    "request_status": "Pending",
    "responsible_agency": "Department of Public Works",
    "final_address": "1700 Pauline St",
    "address_councildis": "D",
    "status": "Pending",
    "rowid": "970051",
    "final_x": "3691710.82576",
    "final_y": "537773.93844",
    "longitude": "-90.03560468154517",
    "latitude": "29.972377843641027",
    "geocoded_column": {
      "latitude": "29.972377843641027",
      "longitude": "-90.03560468154517"
    }
  },
  {
    "service_request": "2023-970049",
    "request_type": "Trash/Recycling",
    "request_reason": "Missed Trash Pick-Up",
    "date_created": "2023-01-24T17:15:04.000",
    "date_modified": "2023-01-24T17:15:05.000",
    "request_status": "Pending",
    "responsible_agency": "Department of Sanitation",
    "final_address": "2612 Upperline St",
    "address_councildis": "B",
    "status": "Assigned to Contractor",
    "contractor": "Richards Disposal",
    "rowid": "970049",
    "final_x": "3669142.09876",
    "final_y": "524382.858748",
    "longitude": "-90.10733337386532",
    "latitude": "29.93624029598878",
    "geocoded_column": {
      "latitude": "29.93624029598878",
      "longitude": "-90.10733337386532"
    }
  },
  {
    "service_request": "2023-970048",
    "request_type": "Traffic Signals/Signs/Striping/Streetlights",
    "request_reason": "Street Name Sign Damaged or Missing",
    "date_created": "2023-01-24T17:14:28.000",
    "date_modified": "2023-01-24T17:14:28.000",
    "request_status": "Pending",
    "responsible_agency": "Department of Public Works",
    "final_address": "6601 Chef Menteur Hwy",
    "address_councildis": "E",
    "status": "Pending",
    "rowid": "970048",
    "final_x": "3699080.57975",
    "final_y": "551994.204438",
    "longitude": "-90.01181190335211",
    "latitude": "30.01124677130967",
    "geocoded_column": {
      "latitude": "30.01124677130967",
      "longitude": "-90.01181190335211"
    }
  },
  {
    "service_request": "2023-970047",
    "request_type": "Roads/Drainage",
    "request_reason": "Man hole cover issue",
    "date_created": "2023-01-24T17:14:26.000",
    "date_modified": "2023-01-24T17:14:27.000",
    "request_status": "Pending",
    "responsible_agency": "Department of Public Works",
    "final_address": "DECATUR ST & SPAIN ST",
    "address_councildis": "C",
    "status": "Pending",
    "rowid": "970047",
    "final_x": "3686309.2",
    "final_y": "534249.78",
    "longitude": "-90.05278830296433",
    "latitude": "29.96285474229105",
    "geocoded_column": {
      "latitude": "29.96285474229105",
      "longitude": "-90.05278830296433"
    }
  },
  {
    "service_request": "2023-970045",
    "request_type": "Trash/Recycling",
    "request_reason": "Missed Trash Pick-Up",
    "date_created": "2023-01-24T17:07:43.000",
    "date_modified": "2023-01-24T17:07:43.000",
    "request_status": "Pending",
    "responsible_agency": "Department of Sanitation",
    "final_address": "631 Lowerline St",
    "address_councildis": "A",
    "status": "Assigned to Contractor",
    "contractor": "Richards Disposal",
    "rowid": "970045",
    "final_x": "3662728.34439",
    "final_y": "525250.602237",
    "longitude": "-90.12755306452846",
    "latitude": "29.93881345197646",
    "geocoded_column": {
      "latitude": "29.93881345197646",
      "longitude": "-90.12755306452846"
    }
  },
  {
    "service_request": "2023-970044",
    "request_type": "Trash/Recycling",
    "request_reason": "Replace Trash Cart",
    "date_created": "2023-01-24T17:05:47.000",
    "date_modified": "2023-01-24T17:16:33.000",
    "request_status": "Pending",
    "responsible_agency": "Department of Sanitation",
    "final_address": "7824 Sandy Cove Dr",
    "address_councildis": "E",
    "contractor": "Waste Pro",
    "rowid": "970044",
    "final_x": "3715034.28088",
    "final_y": "570008.361318",
    "longitude": "-89.96072650231936",
    "latitude": "30.06026289143848",
    "geocoded_column": {
      "latitude": "30.06026289143848",
      "longitude": "-89.96072650231936"
    }
  },
  {
    "service_request": "2023-970043",
    "request_type": "Parks & Parkways",
    "request_reason": "Request Tree Service (Right of Way/Public Property)",
    "date_created": "2023-01-24T17:03:31.000",
    "date_modified": "2023-01-24T17:03:31.000",
    "request_status": "Pending",
    "responsible_agency": "Department of Parks & Parkway",
    "final_address": "2733 Constance St",
    "address_councildis": "B",
    "status": "Pending",
    "rowid": "970043",
    "final_x": "3677286.24053",
    "final_y": "520565.019448",
    "longitude": "-90.08175370540431",
    "latitude": "29.92550036831288",
    "geocoded_column": {
      "latitude": "29.92550036831288",
      "longitude": "-90.08175370540431"
    }
  },
  {
    "service_request": "2023-970042",
    "request_type": "Trash/Recycling",
    "request_reason": "MIssed Recycling Pick-Up",
    "date_created": "2023-01-24T16:57:54.000",
    "date_modified": "2023-01-24T16:57:54.000",
    "request_status": "Pending",
    "responsible_agency": "Department of Sanitation",
    "final_address": "5670 New England Dr",
    "address_councildis": "E",
    "status": "Assigned to Contractor",
    "contractor": "Waste Pro",
    "rowid": "970042",
    "final_x": "3723553.15507",
    "final_y": "564478.714849",
    "longitude": "-89.9340125325536",
    "latitude": "30.04477532708266",
    "geocoded_column": {
      "latitude": "30.04477532708266",
      "longitude": "-89.9340125325536"
    }
  },
  {
    "service_request": "2023-970041",
    "request_type": "Trash/Recycling",
    "request_reason": "Missed Trash Pick-Up",
    "date_created": "2023-01-24T16:53:02.000",
    "date_modified": "2023-01-24T16:53:03.000",
    "request_status": "Pending",
    "responsible_agency": "Department of Sanitation",
    "final_address": "1907 Bordeaux St",
    "address_councildis": "B",
    "status": "Assigned to Contractor",
    "contractor": "Richards Disposal",
    "rowid": "970041",
    "final_x": "3669299.35937",
    "final_y": "521891.38489",
    "longitude": "-90.1069210833639",
    "latitude": "29.929384913943508",
    "geocoded_column": {
      "latitude": "29.929384913943508",
      "longitude": "-90.1069210833639"
    }
  },
  {
    "service_request": "2023-970040",
    "request_type": "Trash/Recycling",
    "request_reason": "Request a Large Item Pick Up",
    "date_created": "2023-01-24T16:51:15.000",
    "date_modified": "2023-01-24T16:51:16.000",
    "request_status": "Pending",
    "responsible_agency": "Department of Sanitation",
    "final_address": "RICHLAND RD & GENERAL MEYER AVE",
    "address_councildis": "C",
    "status": "Assigned to Contractor",
    "contractor": "Richards Disposal",
    "rowid": "970040",
    "final_x": "3697944.9",
    "final_y": "525263.98",
    "longitude": "-90.01637059110129",
    "latitude": "29.937784263413842",
    "geocoded_column": {
      "latitude": "29.937784263413842",
      "longitude": "-90.01637059110129"
    }
  },
  {
    "service_request": "2023-970039",
    "request_type": "Trash/Recycling",
    "request_reason": "Order Trash Cart",
    "date_created": "2023-01-24T16:48:14.000",
    "date_modified": "2023-01-24T16:48:15.000",
    "request_status": "Pending",
    "responsible_agency": "Department of Sanitation",
    "final_address": "3114 Mandeville St",
    "address_councildis": "D",
    "status": "Assigned to Contractor",
    "contractor": "IV Waste",
    "rowid": "970039",
    "final_x": "3685103.85973",
    "final_y": "544235.684238",
    "longitude": "-90.05624314455868",
    "latitude": "29.990349463602737",
    "geocoded_column": {
      "latitude": "29.990349463602737",
      "longitude": "-90.05624314455868"
    }
  },
  {
    "service_request": "2023-970038",
    "request_type": "Property Maintenance",
    "request_reason": "Property Maintenance",
    "date_created": "2023-01-24T16:46:20.000",
    "date_modified": "2023-01-24T16:46:21.000",
    "request_status": "Pending",
    "responsible_agency": "Department of Code Enforcement",
    "final_address": "4527 Urquhart St",
    "address_councildis": "D",
    "status": "Pending",
    "rowid": "970038",
    "final_x": "3693722.08617",
    "final_y": "535646.311622",
    "longitude": "-90.02932926829774",
    "latitude": "29.966464838269097",
    "geocoded_column": {
      "latitude": "29.966464838269097",
      "longitude": "-90.02932926829774"
    }
  },
  {
    "service_request": "2023-970037",
    "request_type": "Trash/Recycling",
    "request_reason": "MIssed Recycling Pick-Up",
    "date_created": "2023-01-24T16:33:41.000",
    "date_modified": "2023-01-24T16:33:42.000",
    "request_status": "Pending",
    "responsible_agency": "Department of Sanitation",
    "final_address": "10920 Zenith St",
    "address_councildis": "E",
    "status": "Assigned to Contractor",
    "contractor": "Waste Pro",
    "rowid": "970037",
    "final_x": "3710575.90904",
    "final_y": "565329.583778",
    "longitude": "-89.97499441196027",
    "latitude": "30.04754424812881",
    "geocoded_column": {
      "latitude": "30.04754424812881",
      "longitude": "-89.97499441196027"
    }
  },
  {
    "service_request": "2023-970036",
    "request_type": "Trash/Recycling",
    "request_reason": "Return Trash Cart",
    "date_created": "2023-01-24T16:28:15.000",
    "date_modified": "2023-01-24T16:28:16.000",
    "request_status": "Pending",
    "responsible_agency": "Department of Sanitation",
    "final_address": "10330 Flossmoor Dr",
    "address_councildis": "E",
    "status": "Assigned to Contractor",
    "contractor": "Waste Pro",
    "rowid": "970036",
    "final_x": "3710150.18072",
    "final_y": "563864.551841",
    "longitude": "-89.97639477007321",
    "latitude": "30.043529868968744",
    "geocoded_column": {
      "latitude": "30.043529868968744",
      "longitude": "-89.97639477007321"
    }
  },
  {
    "service_request": "2023-970035",
    "request_type": "Trash/Recycling",
    "request_reason": "Repair Trash Cart",
    "date_created": "2023-01-24T16:25:49.000",
    "date_modified": "2023-01-24T16:25:49.000",
    "request_status": "Pending",
    "responsible_agency": "Department of Sanitation",
    "final_address": "2414 Octavia St",
    "address_councildis": "A",
    "status": "Assigned to Contractor",
    "contractor": "Richards Disposal",
    "rowid": "970035",
    "final_x": "3667642.84205",
    "final_y": "524553.89926",
    "longitude": "-90.11206083444011",
    "latitude": "29.936754626028385",
    "geocoded_column": {
      "latitude": "29.936754626028385",
      "longitude": "-90.11206083444011"
    }
  },
  {
    "service_request": "2023-970034",
    "request_type": "Trash/Recycling",
    "request_reason": "Request a Large Item Pick Up",
    "date_created": "2023-01-24T16:24:22.000",
    "date_modified": "2023-01-24T16:24:22.000",
    "request_status": "Pending",
    "responsible_agency": "Department of Sanitation",
    "final_address": "1415 Hillary St",
    "address_councildis": "A",
    "status": "Assigned to Contractor",
    "contractor": "Richards Disposal",
    "rowid": "970034",
    "final_x": "3663921.61011",
    "final_y": "527719.117631",
    "longitude": "-90.12370350125111",
    "latitude": "29.945566498990246",
    "geocoded_column": {
      "latitude": "29.945566498990246",
      "longitude": "-90.12370350125111"
    }
  },
  {
    "service_request": "2023-970033",
    "request_type": "Trash/Recycling",
    "request_reason": "Replace Trash Cart",
    "date_created": "2023-01-24T16:23:20.000",
    "date_modified": "2023-01-24T16:23:21.000",
    "request_status": "Pending",
    "responsible_agency": "Department of Sanitation",
    "final_address": "7331 Nelson St",
    "address_councildis": "A",
    "status": "Assigned to Contractor",
    "contractor": "Richards Disposal",
    "rowid": "970033",
    "final_x": "3666387.46804",
    "final_y": "530781.208386",
    "longitude": "-90.11581522674318",
    "latitude": "29.953914447072098",
    "geocoded_column": {
      "latitude": "29.953914447072098",
      "longitude": "-90.11581522674318"
    }
  },
  {
    "service_request": "2023-970032",
    "request_type": "Trash/Recycling",
    "request_reason": "Replace Trash Cart",
    "date_created": "2023-01-24T16:19:01.000",
    "date_modified": "2023-01-24T16:19:02.000",
    "request_status": "Pending",
    "responsible_agency": "Department of Sanitation",
    "final_address": "980 S Telemachus St",
    "address_councildis": "B",
    "status": "Assigned to Contractor",
    "contractor": "Richards Disposal",
    "rowid": "970032",
    "final_x": "3669859.37057",
    "final_y": "533960.585221",
    "longitude": "-90.10474471026191",
    "latitude": "29.9625547882771",
    "geocoded_column": {
      "latitude": "29.9625547882771",
      "longitude": "-90.10474471026191"
    }
  },
  {
    "service_request": "2023-970031",
    "request_type": "Trash/Recycling",
    "request_reason": "MIssed Recycling Pick-Up",
    "date_created": "2023-01-24T16:18:31.000",
    "date_modified": "2023-01-24T16:18:32.000",
    "request_status": "Pending",
    "responsible_agency": "Department of Sanitation",
    "final_address": "7531 Burke Ave",
    "address_councildis": "E",
    "status": "Assigned to Contractor",
    "contractor": "Waste Pro",
    "rowid": "970031",
    "final_x": "3705584.50948",
    "final_y": "562775.619232",
    "longitude": "-89.99086444613232",
    "latitude": "30.04068361180892",
    "geocoded_column": {
      "latitude": "30.04068361180892",
      "longitude": "-89.99086444613232"
    }
  },
  {
    "service_request": "2023-970030",
    "request_type": "Trash/Recycling",
    "request_reason": "Request a Large Item Pick Up",
    "date_created": "2023-01-24T16:18:07.000",
    "date_modified": "2023-01-24T16:20:53.000",
    "request_status": "Pending",
    "responsible_agency": "Department of Sanitation",
    "final_address": "2600 Constance St",
    "address_councildis": "B",
    "status": "Assigned to Contractor",
    "contractor": "Richards Disposal",
    "rowid": "970030",
    "final_x": "3677763.17941",
    "final_y": "520813.640185",
    "longitude": "-90.08023957323277",
    "latitude": "29.926169661467476",
    "geocoded_column": {
      "latitude": "29.926169661467476",
      "longitude": "-90.08023957323277"
    }
  },
  {
    "service_request": "2023-970029",
    "request_type": "Trash/Recycling",
    "request_reason": "Illegal Dumping",
    "date_created": "2023-01-24T16:15:03.000",
    "date_modified": "2023-01-24T16:15:04.000",
    "request_status": "Pending",
    "responsible_agency": "Department of Code Enforcement",
    "final_address": "PALMETTO ST & STROELITZ ST",
    "address_councildis": "A",
    "status": "Pending",
    "rowid": "970029",
    "final_x": "3663860.9",
    "final_y": "538687.28",
    "longitude": "-90.12352955129293",
    "latitude": "29.975727124740356",
    "geocoded_column": {
      "latitude": "29.975727124740356",
      "longitude": "-90.12352955129293"
    }
  },
  {
    "service_request": "2023-970028",
    "request_type": "Property Maintenance",
    "request_reason": "Property Maintenance",
    "date_created": "2023-01-24T16:12:43.000",
    "date_modified": "2023-01-24T16:12:43.000",
    "request_status": "Pending",
    "responsible_agency": "Department of Code Enforcement",
    "final_address": "4901 Perrault Walk",
    "address_councildis": "E",
    "status": "Pending",
    "rowid": "970028",
    "final_x": "3709782.54693",
    "final_y": "556601.03497",
    "longitude": "-89.97782820068133",
    "latitude": "30.02357004045313",
    "geocoded_column": {
      "latitude": "30.02357004045313",
      "longitude": "-89.97782820068133"
    }
  },
  {
    "service_request": "2023-970027",
    "request_type": "Trash/Recycling",
    "request_reason": "Missed Trash Pick-Up",
    "date_created": "2023-01-24T16:10:52.000",
    "date_modified": "2023-01-24T16:10:53.000",
    "request_status": "Pending",
    "responsible_agency": "Department of Sanitation",
    "final_address": "8823 Belfast St",
    "address_councildis": "A",
    "status": "Assigned to Contractor",
    "contractor": "Richards Disposal",
    "rowid": "970027",
    "final_x": "3663636.17677",
    "final_y": "534189.158021",
    "longitude": "-90.12438918073792",
    "latitude": "29.963365295535922",
    "geocoded_column": {
      "latitude": "29.963365295535922",
      "longitude": "-90.12438918073792"
    }
  },
  {
    "service_request": "2023-970026",
    "request_type": "Traffic Signals/Signs/Striping/Streetlights",
    "request_reason": "Traffic Signal Malfunctioning/Damaged",
    "date_created": "2023-01-24T16:08:02.000",
    "date_modified": "2023-01-24T16:08:02.000",
    "request_status": "Pending",
    "responsible_agency": "Department of Public Works",
    "final_address": "6100 BLK Canal Blvd",
    "address_councildis": "A",
    "status": "Pending",
    "rowid": "970026",
    "final_x": "3668628.69191",
    "final_y": "548257.751697",
    "longitude": "-90.10814828841973",
    "latitude": "30.001903374004232",
    "geocoded_column": {
      "latitude": "30.001903374004232",
      "longitude": "-90.10814828841973"
    }
  },
  {
    "service_request": "2023-970025",
    "request_type": "Trash/Recycling",
    "request_reason": "Return Recycling Cart",
    "date_created": "2023-01-24T16:07:08.000",
    "date_modified": "2023-01-24T16:07:08.000",
    "request_status": "Pending",
    "responsible_agency": "Department of Sanitation",
    "final_address": "1809 Deslonde St",
    "address_councildis": "E",
    "status": "Pending",
    "rowid": "970025",
    "final_x": "3696175.17744",
    "final_y": "537083.686664",
    "longitude": "-90.02153051201125",
    "latitude": "29.970340117015585",
    "geocoded_column": {
      "latitude": "29.970340117015585",
      "longitude": "-90.02153051201125"
    }
  },
  {
    "service_request": "2023-970024",
    "request_type": "Trash/Recycling",
    "request_reason": "Missed Trash Pick-Up",
    "date_created": "2023-01-24T16:05:44.000",
    "date_modified": "2023-01-24T16:05:45.000",
    "request_status": "Pending",
    "responsible_agency": "Department of Sanitation",
    "final_address": "11121 Zenith St",
    "address_councildis": "E",
    "status": "Assigned to Contractor",
    "contractor": "Waste Pro",
    "rowid": "970024",
    "final_x": "3711103.29195",
    "final_y": "565825.517411",
    "longitude": "-89.97330900189193",
    "latitude": "30.048890664492923",
    "geocoded_column": {
      "latitude": "30.048890664492923",
      "longitude": "-89.97330900189193"
    }
  },
  {
    "service_request": "2023-970022",
    "request_type": "Trash/Recycling",
    "request_reason": "Missed Trash Pick-Up",
    "date_created": "2023-01-24T16:03:39.000",
    "date_modified": "2023-01-24T16:03:40.000",
    "request_status": "Pending",
    "responsible_agency": "Department of Sanitation",
    "final_address": "7828 Mercier St",
    "address_councildis": "E",
    "status": "Assigned to Contractor",
    "contractor": "Waste Pro",
    "rowid": "970022",
    "final_x": "3710972.83921",
    "final_y": "567137.170212",
    "longitude": "-89.97367211454346",
    "latitude": "30.052501435261128",
    "geocoded_column": {
      "latitude": "30.052501435261128",
      "longitude": "-89.97367211454346"
    }
  },
  {
    "service_request": "2023-970021",
    "request_type": "Trash/Recycling",
    "request_reason": "Missed Trash Pick-Up",
    "date_created": "2023-01-24T16:02:44.000",
    "date_modified": "2023-01-24T16:02:45.000",
    "request_status": "Pending",
    "responsible_agency": "Department of Sanitation",
    "final_address": "10330 Flossmoor Dr",
    "address_councildis": "E",
    "status": "Assigned to Contractor",
    "contractor": "Waste Pro",
    "rowid": "970021",
    "final_x": "3710150.18072",
    "final_y": "563864.551841",
    "longitude": "-89.97639477007321",
    "latitude": "30.043529868968744",
    "geocoded_column": {
      "latitude": "30.043529868968744",
      "longitude": "-89.97639477007321"
    }
  },
  {
    "service_request": "2023-970020",
    "request_type": "Trash/Recycling",
    "request_reason": "MIssed Recycling Pick-Up",
    "date_created": "2023-01-24T16:00:40.000",
    "date_modified": "2023-01-24T16:00:41.000",
    "request_status": "Pending",
    "responsible_agency": "Department of Sanitation",
    "final_address": "1213 N Robertson St",
    "address_councildis": "D",
    "status": "Assigned to Contractor",
    "contractor": "Richards Disposal",
    "rowid": "970020",
    "final_x": "3681289.44981",
    "final_y": "536031.065031",
    "longitude": "-90.06857793693486",
    "latitude": "29.967905963108247",
    "geocoded_column": {
      "latitude": "29.967905963108247",
      "longitude": "-90.06857793693486"
    }
  },
  {
    "service_request": "2023-970019",
    "request_type": "Trash/Recycling",
    "request_reason": "Request a Large Item Pick Up",
    "date_created": "2023-01-24T15:56:19.000",
    "date_modified": "2023-01-24T15:56:20.000",
    "request_status": "Pending",
    "responsible_agency": "Department of Sanitation",
    "final_address": "4128 State Street Dr",
    "address_councildis": "B",
    "status": "Assigned to Contractor",
    "contractor": "Richards Disposal",
    "rowid": "970019",
    "final_x": "3668365.84257",
    "final_y": "530892.819074",
    "longitude": "-90.10956454726572",
    "latitude": "29.95416339000644",
    "geocoded_column": {
      "latitude": "29.95416339000644",
      "longitude": "-90.10956454726572"
    }
  },
  {
    "service_request": "2023-970018",
    "request_type": "Abandoned Vehicles",
    "request_reason": "Abandoned/Junk Vehicles",
    "date_created": "2023-01-24T15:52:59.000",
    "date_modified": "2023-01-24T15:55:33.000",
    "request_status": "Pending",
    "responsible_agency": "Department of Public Works",
    "final_address": "703 Napoleon Ave",
    "address_councildis": "B",
    "status": "Pending",
    "rowid": "970018",
    "final_x": "3671218.58747",
    "final_y": "518100.022838",
    "longitude": "-90.10099114446429",
    "latitude": "29.918903254845503",
    "geocoded_column": {
      "latitude": "29.918903254845503",
      "longitude": "-90.10099114446429"
    }
  },
  {
    "service_request": "2023-970017",
    "request_type": "Trash/Recycling",
    "request_reason": "MIssed Recycling Pick-Up",
    "date_created": "2023-01-24T15:44:13.000",
    "date_modified": "2023-01-24T15:44:16.000",
    "request_status": "Pending",
    "responsible_agency": "Department of Sanitation",
    "final_address": "4826 Brittany Ct",
    "address_councildis": "E",
    "status": "Assigned to Contractor",
    "contractor": "Waste Pro",
    "rowid": "970017",
    "final_x": "3726840.02022",
    "final_y": "561510.524383",
    "longitude": "-89.92374006261865",
    "latitude": "30.036503256297053",
    "geocoded_column": {
      "latitude": "30.036503256297053",
      "longitude": "-89.92374006261865"
    }
  },
  {
    "service_request": "2023-970016",
    "request_type": "Trash/Recycling",
    "request_reason": "Repair Trash Cart",
    "date_created": "2023-01-24T15:43:19.000",
    "date_modified": "2023-01-24T15:43:20.000",
    "request_status": "Pending",
    "responsible_agency": "Department of Sanitation",
    "final_address": "7033 Queensway Dr",
    "address_councildis": "E",
    "status": "Assigned to Contractor",
    "contractor": "Waste Pro",
    "rowid": "970016",
    "final_x": "3719270.10917",
    "final_y": "569466.316838",
    "longitude": "-89.94735812069753",
    "latitude": "30.058632296219063",
    "geocoded_column": {
      "latitude": "30.058632296219063",
      "longitude": "-89.94735812069753"
    }
  },
  {
    "service_request": "2023-970015",
    "request_type": "Trash/Recycling",
    "request_reason": "Missed Trash Pick-Up",
    "date_created": "2023-01-24T15:42:18.000",
    "date_modified": "2023-01-24T15:42:18.000",
    "request_status": "Pending",
    "responsible_agency": "Department of Sanitation",
    "final_address": "432 Wagner St",
    "address_councildis": "C",
    "status": "Assigned to Contractor",
    "contractor": "Richards Disposal",
    "rowid": "970015",
    "final_x": "3690645.51299",
    "final_y": "529911.979073",
    "longitude": "-90.03924953026606",
    "latitude": "29.95079333302307",
    "geocoded_column": {
      "latitude": "29.95079333302307",
      "longitude": "-90.03924953026606"
    }
  },
  {
    "service_request": "2023-970014",
    "request_type": "Traffic Signals/Signs/Striping/Streetlights",
    "request_reason": "Traffic Signal Malfunctioning/Damaged",
    "date_created": "2023-01-24T15:41:57.000",
    "date_modified": "2023-01-24T15:41:58.000",
    "request_status": "Pending",
    "responsible_agency": "Department of Public Works",
    "final_address": "FRERET ST & NAPOLEON AVE",
    "address_councildis": "B",
    "status": "Pending",
    "rowid": "970014",
    "final_x": "3670575.6",
    "final_y": "524047.98",
    "longitude": "-90.10281910815539",
    "latitude": "29.935277235589393",
    "geocoded_column": {
      "latitude": "29.935277235589393",
      "longitude": "-90.10281910815539"
    }
  },
  {
    "service_request": "2023-970012",
    "request_type": "Trash/Recycling",
    "request_reason": "MIssed Recycling Pick-Up",
    "date_created": "2023-01-24T15:39:48.000",
    "date_modified": "2023-01-24T15:39:49.000",
    "request_status": "Pending",
    "responsible_agency": "Department of Sanitation",
    "final_address": "6227 Magazine St",
    "address_councildis": "A",
    "status": "Assigned to Contractor",
    "contractor": "Richards Disposal",
    "rowid": "970012",
    "final_x": "3663587.86605",
    "final_y": "519717.036664",
    "longitude": "-90.12502367117801",
    "latitude": "29.923572993451124",
    "geocoded_column": {
      "latitude": "29.923572993451124",
      "longitude": "-90.12502367117801"
    }
  },
  {
    "service_request": "2023-970011",
    "request_type": "Trash/Recycling",
    "request_reason": "Repair Trash Cart",
    "date_created": "2023-01-24T15:38:16.000",
    "date_modified": "2023-01-24T15:38:17.000",
    "request_status": "Pending",
    "responsible_agency": "Department of Sanitation",
    "final_address": "2214 Touro St",
    "address_councildis": "D",
    "status": "Assigned to Contractor",
    "contractor": "IV Waste",
    "rowid": "970011",
    "final_x": "3683863.80393",
    "final_y": "540423.138059",
    "longitude": "-90.06029395392092",
    "latitude": "29.97990425121575",
    "geocoded_column": {
      "latitude": "29.97990425121575",
      "longitude": "-90.06029395392092"
    }
  },
  {
    "service_request": "2023-970010",
    "request_type": "Abandoned Vehicles",
    "request_reason": "Abandoned/Junk Vehicles",
    "date_created": "2023-01-24T15:35:32.000",
    "date_modified": "2023-01-24T15:35:32.000",
    "request_status": "Pending",
    "responsible_agency": "Department of Public Works",
    "final_address": "1659 N Rocheblave St",
    "address_councildis": "D",
    "status": "Pending",
    "rowid": "970010",
    "final_x": "3680228.89333",
    "final_y": "539951.295946",
    "longitude": "-90.07179090465783",
    "latitude": "29.978717391121254",
    "geocoded_column": {
      "latitude": "29.978717391121254",
      "longitude": "-90.07179090465783"
    }
  },
  {
    "service_request": "2023-970009",
    "request_type": "Trash/Recycling",
    "request_reason": "Missed Trash Pick-Up",
    "date_created": "2023-01-24T15:35:15.000",
    "date_modified": "2023-01-24T15:35:16.000",
    "request_status": "Pending",
    "responsible_agency": "Department of Sanitation",
    "final_address": "6020 Kingston Ct",
    "address_councildis": "C",
    "status": "Assigned to Contractor",
    "contractor": "Richards Disposal",
    "rowid": "970009",
    "final_x": "3706195.97233",
    "final_y": "517830.12991",
    "longitude": "-89.99059653829742",
    "latitude": "29.91708043908798",
    "geocoded_column": {
      "latitude": "29.91708043908798",
      "longitude": "-89.99059653829742"
    }
  },
  {
    "service_request": "2023-970008",
    "request_type": "Roads/Drainage",
    "request_reason": "Street Subsidence (Sinking)",
    "date_created": "2023-01-24T15:34:36.000",
    "date_modified": "2023-01-24T15:34:37.000",
    "request_status": "Pending",
    "responsible_agency": "Department of Public Works",
    "final_address": "7616 Kingsport Blvd",
    "address_councildis": "E",
    "status": "Pending",
    "rowid": "970008",
    "final_x": "3719930.09062",
    "final_y": "572871.757417",
    "longitude": "-89.94514159878175",
    "latitude": "30.06797386425145",
    "geocoded_column": {
      "latitude": "30.06797386425145",
      "longitude": "-89.94514159878175"
    }
  },
  {
    "service_request": "2023-970007",
    "request_type": "Trash/Recycling",
    "request_reason": "Missed Trash Pick-Up",
    "date_created": "2023-01-24T15:31:59.000",
    "date_modified": "2023-01-24T15:32:00.000",
    "request_status": "Pending",
    "responsible_agency": "Department of Sanitation",
    "final_address": "4147 Orleans Ave",
    "address_councildis": "A",
    "status": "Assigned to Contractor",
    "contractor": "Richards Disposal",
    "rowid": "970007",
    "final_x": "3672336.97262",
    "final_y": "540556.633803",
    "longitude": "-90.0966959661021",
    "latitude": "29.9806184158687",
    "geocoded_column": {
      "latitude": "29.9806184158687",
      "longitude": "-90.0966959661021"
    }
  },
  {
    "service_request": "2023-970006",
    "request_type": "Roads/Drainage",
    "request_reason": "Street Subsidence (Sinking)",
    "date_created": "2023-01-24T15:31:58.000",
    "date_modified": "2023-01-24T15:31:58.000",
    "request_status": "Pending",
    "responsible_agency": "Department of Public Works",
    "final_address": "PRENTISS AVE & CABRINI CT",
    "address_councildis": "D",
    "status": "Pending",
    "rowid": "970006",
    "final_x": "3677827.1",
    "final_y": "553307.18",
    "longitude": "-90.07891487032674",
    "latitude": "30.015513851758303",
    "geocoded_column": {
      "latitude": "30.015513851758303",
      "longitude": "-90.07891487032674"
    }
  },
  {
    "service_request": "2023-970005",
    "request_type": "Trash/Recycling",
    "request_reason": "Order Recycling Cart",
    "date_created": "2023-01-24T15:31:52.000",
    "date_modified": "2023-01-24T15:31:52.000",
    "request_status": "Pending",
    "responsible_agency": "Department of Sanitation",
    "final_address": "6017 Bellaire Dr",
    "address_councildis": "A",
    "status": "Pending",
    "rowid": "970005",
    "final_x": "3664336.33364",
    "final_y": "547736.97301",
    "longitude": "-90.1217257722286",
    "latitude": "30.000596910557114",
    "geocoded_column": {
      "latitude": "30.000596910557114",
      "longitude": "-90.1217257722286"
    }
  },
  {
    "service_request": "2023-970004",
    "request_type": "Mosquito, Termite & Rodent Control",
    "request_reason": "Rodent Complaint (Rats)",
    "date_created": "2023-01-24T15:30:50.000",
    "date_modified": "2023-01-24T15:32:04.000",
    "request_status": "Pending",
    "responsible_agency": "Mosquito, Termite & Rodent Control Board",
    "final_address": "1935 Lapeyrouse St",
    "address_councildis": "D",
    "status": "Pending",
    "rowid": "970004",
    "final_x": "3681140.89858",
    "final_y": "538641.538825",
    "longitude": "-90.06895609834228",
    "latitude": "29.975088373083757",
    "geocoded_column": {
      "latitude": "29.975088373083757",
      "longitude": "-90.06895609834228"
    }
  },
  {
    "service_request": "2023-970003",
    "request_type": "Trash/Recycling",
    "request_reason": "Replace Trash Cart",
    "date_created": "2023-01-24T15:30:17.000",
    "date_modified": "2023-01-24T15:30:17.000",
    "request_status": "Pending",
    "responsible_agency": "Department of Sanitation",
    "final_address": "6017 Bellaire Dr",
    "address_councildis": "A",
    "status": "Assigned to Contractor",
    "contractor": "IV Waste",
    "rowid": "970003",
    "final_x": "3664336.33364",
    "final_y": "547736.97301",
    "longitude": "-90.1217257722286",
    "latitude": "30.000596910557114",
    "geocoded_column": {
      "latitude": "30.000596910557114",
      "longitude": "-90.1217257722286"
    }
  },
  {
    "service_request": "2023-970002",
    "request_type": "Trash/Recycling",
    "request_reason": "MIssed Recycling Pick-Up",
    "date_created": "2023-01-24T15:27:18.000",
    "date_modified": "2023-01-24T15:27:19.000",
    "request_status": "Pending",
    "responsible_agency": "Department of Sanitation",
    "final_address": "7401 Burke Road",
    "status": "Assigned to Contractor",
    "rowid": "970002",
    "longitude": "0.0",
    "latitude": "0.0",
    "geocoded_column": {
      "latitude": "0.0",
      "longitude": "0.0"
    }
  },
  {
    "service_request": "2023-969998",
    "request_type": "Property Maintenance",
    "request_reason": "Property Maintenance",
    "date_created": "2023-01-24T15:21:51.000",
    "date_modified": "2023-01-24T15:21:51.000",
    "request_status": "Pending",
    "responsible_agency": "Department of Code Enforcement",
    "final_address": "1939 Lapeyrouse St",
    "address_councildis": "D",
    "status": "Pending",
    "rowid": "969998",
    "final_x": "3681114.61499",
    "final_y": "538662.417225",
    "longitude": "-90.06903838114329",
    "latitude": "29.975146578896293",
    "geocoded_column": {
      "latitude": "29.975146578896293",
      "longitude": "-90.06903838114329"
    }
  },
  {
    "service_request": "2023-969996",
    "request_type": "Parks & Parkways",
    "request_reason": "Request Tree Service (Right of Way/Public Property)",
    "date_created": "2023-01-24T15:21:22.000",
    "date_modified": "2023-01-24T15:25:34.000",
    "case_close_date": "2023-01-24T09:25:34.000",
    "request_status": "Closed",
    "responsible_agency": "Department of Parks & Parkway",
    "final_address": "7806 Belfast St",
    "address_councildis": "A",
    "status": "Duplicate Request",
    "rowid": "969996",
    "final_x": "3666365.80263",
    "final_y": "531598.989315",
    "longitude": "-90.11585620090798",
    "latitude": "29.95616371061033",
    "geocoded_column": {
      "latitude": "29.95616371061033",
      "longitude": "-90.11585620090798"
    }
  },
  {
    "service_request": "2023-969995",
    "request_type": "Trash/Recycling",
    "request_reason": "Missed Trash Pick-Up",
    "date_created": "2023-01-24T15:20:31.000",
    "date_modified": "2023-01-24T15:20:32.000",
    "request_status": "Pending",
    "responsible_agency": "Department of Sanitation",
    "final_address": "7841 Pebble Dr",
    "address_councildis": "E",
    "status": "Assigned to Contractor",
    "contractor": "Waste Pro",
    "rowid": "969995",
    "final_x": "3714637.81567",
    "final_y": "569775.320486",
    "longitude": "-89.96198851428137",
    "latitude": "30.059635177989165",
    "geocoded_column": {
      "latitude": "30.059635177989165",
      "longitude": "-89.96198851428137"
    }
  },
  {
    "service_request": "2023-969994",
    "request_type": "Trash/Recycling",
    "request_reason": "Repair Trash Cart",
    "date_created": "2023-01-24T15:17:57.000",
    "date_modified": "2023-01-24T17:10:50.000",
    "case_close_date": "2023-01-24T11:10:50.000",
    "request_status": "Closed",
    "responsible_agency": "Department of Sanitation",
    "final_address": "4729 Papania Dr",
    "address_councildis": "E",
    "status": "Duplicate Request",
    "contractor": "Waste Pro",
    "rowid": "969994",
    "final_x": "3715665.94111",
    "final_y": "556874.664666",
    "longitude": "-89.95922772541303",
    "latitude": "30.02412972915125",
    "geocoded_column": {
      "latitude": "30.02412972915125",
      "longitude": "-89.95922772541303"
    }
  },
  {
    "service_request": "2023-969993",
    "request_type": "Trash/Recycling",
    "request_reason": "Repair Trash Cart",
    "date_created": "2023-01-24T15:17:57.000",
    "date_modified": "2023-01-24T15:17:58.000",
    "request_status": "Pending",
    "responsible_agency": "Department of Sanitation",
    "final_address": "4729 Papania Dr",
    "address_councildis": "E",
    "status": "Assigned to Contractor",
    "contractor": "Waste Pro",
    "rowid": "969993",
    "final_x": "3715665.94111",
    "final_y": "556874.664666",
    "longitude": "-89.95922772541303",
    "latitude": "30.02412972915125",
    "geocoded_column": {
      "latitude": "30.02412972915125",
      "longitude": "-89.95922772541303"
    }
  },
  {
    "service_request": "2023-969992",
    "request_type": "Traffic Signals/Signs/Striping/Streetlights",
    "request_reason": "Request for Stop Sign",
    "date_created": "2023-01-24T15:17:23.000",
    "date_modified": "2023-01-24T15:17:23.000",
    "request_status": "Pending",
    "responsible_agency": "Department of Public Works",
    "final_address": "7806 Belfast St",
    "address_councildis": "A",
    "status": "Pending",
    "rowid": "969992",
    "final_x": "3666365.80263",
    "final_y": "531598.989315",
    "longitude": "-90.11585620090798",
    "latitude": "29.95616371061033",
    "geocoded_column": {
      "latitude": "29.95616371061033",
      "longitude": "-90.11585620090798"
    }
  },
  {
    "service_request": "2023-969991",
    "request_type": "Trash/Recycling",
    "request_reason": "Request a Large Item Pick Up",
    "date_created": "2023-01-24T15:13:50.000",
    "date_modified": "2023-01-24T15:13:50.000",
    "request_status": "Pending",
    "responsible_agency": "Department of Sanitation",
    "final_address": "8840 Tilford Rd",
    "address_councildis": "E",
    "status": "Assigned to Contractor",
    "contractor": "Waste Pro",
    "rowid": "969991",
    "final_x": "3707826.61624",
    "final_y": "557201.901147",
    "longitude": "-89.98398612770484",
    "latitude": "30.025285664423023",
    "geocoded_column": {
      "latitude": "30.025285664423023",
      "longitude": "-89.98398612770484"
    }
  },
  {
    "service_request": "2023-969990",
    "request_type": "Roads/Drainage",
    "request_reason": "Street Subsidence (Sinking)",
    "date_created": "2023-01-24T15:12:18.000",
    "date_modified": "2023-01-24T15:12:18.000",
    "request_status": "Pending",
    "responsible_agency": "Department of Public Works",
    "final_address": "7806 Belfast St",
    "address_councildis": "A",
    "status": "Pending",
    "rowid": "969990",
    "final_x": "3666365.80263",
    "final_y": "531598.989315",
    "longitude": "-90.11585620090798",
    "latitude": "29.95616371061033",
    "geocoded_column": {
      "latitude": "29.95616371061033",
      "longitude": "-90.11585620090798"
    }
  },
  {
    "service_request": "2023-969988",
    "request_type": "Roads/Drainage",
    "request_reason": "Street Flooding / Drainage",
    "date_created": "2023-01-24T15:08:50.000",
    "date_modified": "2023-01-24T15:08:50.000",
    "request_status": "Pending",
    "responsible_agency": "Department of Public Works",
    "final_address": "2512 State St",
    "address_councildis": "A",
    "status": "Pending",
    "rowid": "969988",
    "final_x": "3666785.57786",
    "final_y": "525893.633661",
    "longitude": "-90.11472228554123",
    "latitude": "29.9404635619371",
    "geocoded_column": {
      "latitude": "29.9404635619371",
      "longitude": "-90.11472228554123"
    }
  },
  {
    "service_request": "2023-969987",
    "request_type": "Trash/Recycling",
    "request_reason": "Repair Trash Cart",
    "date_created": "2023-01-24T15:08:17.000",
    "date_modified": "2023-01-24T15:08:18.000",
    "request_status": "Pending",
    "responsible_agency": "Department of Sanitation",
    "final_address": "9728 Andover Dr",
    "address_councildis": "E",
    "status": "Assigned to Contractor",
    "contractor": "Waste Pro",
    "rowid": "969987",
    "final_x": "3708609.10398",
    "final_y": "561759.133215",
    "longitude": "-89.98134369830854",
    "latitude": "30.03779089644976",
    "geocoded_column": {
      "latitude": "30.03779089644976",
      "longitude": "-89.98134369830854"
    }
  },
  {
    "service_request": "2023-969986",
    "request_type": "Traffic Signals/Signs/Striping/Streetlights",
    "request_reason": "Traffic Signal Malfunctioning/Damaged",
    "date_created": "2023-01-24T15:06:21.000",
    "date_modified": "2023-01-24T15:06:21.000",
    "request_status": "Pending",
    "responsible_agency": "Department of Public Works",
    "final_address": "MIRABEAU AVE & ST ANTHONY AVE",
    "address_councildis": "D",
    "status": "Pending",
    "rowid": "969986",
    "final_x": "3682329.0",
    "final_y": "550551.88",
    "longitude": "-90.06478732741007",
    "latitude": "30.00780149179829",
    "geocoded_column": {
      "latitude": "30.00780149179829",
      "longitude": "-90.06478732741007"
    }
  },
  {
    "service_request": "2023-969985",
    "request_type": "Trash/Recycling",
    "request_reason": "Missed Trash Pick-Up",
    "date_created": "2023-01-24T15:05:44.000",
    "date_modified": "2023-01-24T15:05:45.000",
    "request_status": "Pending",
    "responsible_agency": "Department of Sanitation",
    "final_address": "108 Cambridge Ct",
    "address_councildis": "C",
    "status": "Assigned to Contractor",
    "contractor": "Richards Disposal",
    "rowid": "969985",
    "final_x": "3705943.38795",
    "final_y": "518481.599607",
    "longitude": "-89.99136971256061",
    "latitude": "29.918879891370096",
    "geocoded_column": {
      "latitude": "29.918879891370096",
      "longitude": "-89.99136971256061"
    }
  },
  {
    "service_request": "2023-969984",
    "request_type": "Trash/Recycling",
    "request_reason": "Order Recycling Cart",
    "date_created": "2023-01-24T15:05:17.000",
    "date_modified": "2023-01-24T15:05:17.000",
    "request_status": "Pending",
    "responsible_agency": "Department of Sanitation",
    "final_address": "11721 Morrison Rd",
    "address_councildis": "E",
    "status": "Pending",
    "rowid": "969984",
    "final_x": "3713001.69502",
    "final_y": "566411.600227",
    "longitude": "-89.9672868938889",
    "latitude": "30.05044006152106",
    "geocoded_column": {
      "latitude": "30.05044006152106",
      "longitude": "-89.9672868938889"
    }
  },
  {
    "service_request": "2023-969983",
    "request_type": "Traffic Signals/Signs/Striping/Streetlights",
    "request_reason": "Striping/Road Surface Markings",
    "date_created": "2023-01-24T15:04:57.000",
    "date_modified": "2023-01-24T15:04:57.000",
    "request_status": "Pending",
    "responsible_agency": "Department of Public Works",
    "final_address": "211 S Rampart St",
    "address_councildis": "B",
    "status": "Pending",
    "rowid": "969983",
    "final_x": "3679551.01851",
    "final_y": "530937.520386",
    "longitude": "-90.0742447130598",
    "latitude": "29.95395309208869",
    "geocoded_column": {
      "latitude": "29.95395309208869",
      "longitude": "-90.0742447130598"
    }
  },
  {
    "service_request": "2023-969982",
    "request_type": "Parks & Parkways",
    "request_reason": "Request Tree Service (Right of Way/Public Property)",
    "date_created": "2023-01-24T15:02:57.000",
    "date_modified": "2023-01-24T15:02:57.000",
    "request_status": "Pending",
    "responsible_agency": "Department of Parks & Parkway",
    "final_address": "922 Lamanche St",
    "address_councildis": "E",
    "status": "Pending",
    "rowid": "969982",
    "final_x": "3698140.68087",
    "final_y": "533000.483844",
    "longitude": "-90.01547158383516",
    "latitude": "29.959050747717228",
    "geocoded_column": {
      "latitude": "29.959050747717228",
      "longitude": "-90.01547158383516"
    }
  },
  {
    "service_request": "2023-969981",
    "request_type": "Trash/Recycling",
    "request_reason": "MIssed Recycling Pick-Up",
    "date_created": "2023-01-24T15:01:23.000",
    "date_modified": "2023-01-24T15:01:23.000",
    "request_status": "Pending",
    "responsible_agency": "Department of Sanitation",
    "final_address": "4702 St Anthony Ave",
    "address_councildis": "D",
    "status": "Assigned to Contractor",
    "contractor": "IV Waste",
    "rowid": "969981",
    "final_x": "3682295.6806",
    "final_y": "549850.843412",
    "longitude": "-90.06491711021701",
    "latitude": "30.005874908161054",
    "geocoded_column": {
      "latitude": "30.005874908161054",
      "longitude": "-90.06491711021701"
    }
  },
  {
    "service_request": "2023-969980",
    "request_type": "Trash/Recycling",
    "request_reason": "Replace Trash Cart",
    "date_created": "2023-01-24T15:01:20.000",
    "date_modified": "2023-01-24T15:01:21.000",
    "request_status": "Pending",
    "responsible_agency": "Department of Sanitation",
    "final_address": "7833 Means Ave",
    "address_councildis": "E",
    "status": "Assigned to Contractor",
    "contractor": "Waste Pro",
    "rowid": "969980",
    "final_x": "3707739.4259",
    "final_y": "565420.449954",
    "longitude": "-89.98395581098059",
    "latitude": "30.047886244829495",
    "geocoded_column": {
      "latitude": "30.047886244829495",
      "longitude": "-89.98395581098059"
    }
  },
  {
    "service_request": "2023-969979",
    "request_type": "Roads/Drainage",
    "request_reason": "Pothole",
    "date_created": "2023-01-24T14:57:31.000",
    "date_modified": "2023-01-24T14:57:31.000",
    "request_status": "Pending",
    "responsible_agency": "Department of Public Works",
    "final_address": "4720 N Rampart St",
    "address_councildis": "E",
    "status": "Pending",
    "rowid": "969979",
    "final_x": "3694704.54435",
    "final_y": "534086.910853",
    "longitude": "-90.0262828669721",
    "latitude": "29.962146258118686",
    "geocoded_column": {
      "latitude": "29.962146258118686",
      "longitude": "-90.0262828669721"
    }
  },
  {
    "service_request": "2023-969978",
    "request_type": "Trash/Recycling",
    "request_reason": "Missed Trash Pick-Up",
    "date_created": "2023-01-24T14:52:43.000",
    "date_modified": "2023-01-24T14:52:43.000",
    "request_status": "Pending",
    "responsible_agency": "Department of Sanitation",
    "final_address": "7500 Afton Dr",
    "address_councildis": "E",
    "status": "Assigned to Contractor",
    "contractor": "Waste Pro",
    "rowid": "969978",
    "final_x": "3704881.06686",
    "final_y": "562468.056543",
    "longitude": "-89.99309891349083",
    "latitude": "30.039860578189543",
    "geocoded_column": {
      "latitude": "30.039860578189543",
      "longitude": "-89.99309891349083"
    }
  },
  {
    "service_request": "2023-969977",
    "request_type": "Abandoned Vehicles",
    "request_reason": "Abandoned/Junk Vehicles",
    "date_created": "2023-01-24T14:52:23.000",
    "date_modified": "2023-01-24T14:52:23.000",
    "request_status": "Pending",
    "responsible_agency": "Department of Public Works",
    "final_address": "800 N Claiborne Ave",
    "address_councildis": "C",
    "status": "Pending",
    "rowid": "969977",
    "final_x": "3680092.37711",
    "final_y": "534847.461766",
    "longitude": "-90.07239946362338",
    "latitude": "29.964687736093506",
    "geocoded_column": {
      "latitude": "29.964687736093506",
      "longitude": "-90.07239946362338"
    }
  },
  {
    "service_request": "2023-969976",
    "request_type": "Roads/Drainage",
    "request_reason": "Catch Basin - Clogged",
    "date_created": "2023-01-24T14:51:17.000",
    "date_modified": "2023-01-24T14:51:17.000",
    "request_status": "Pending",
    "responsible_agency": "Department of Public Works",
    "final_address": "102 Hathaway Pl",
    "address_councildis": "D",
    "status": "Pending",
    "rowid": "969976",
    "final_x": "3678342.86901",
    "final_y": "543799.168782",
    "longitude": "-90.0776144936951",
    "latitude": "29.98935466419275",
    "geocoded_column": {
      "latitude": "29.98935466419275",
      "longitude": "-90.0776144936951"
    }
  },
  {
    "service_request": "2023-969975",
    "request_type": "Abandoned Vehicles",
    "request_reason": "Abandoned/Junk Vehicles",
    "date_created": "2023-01-24T14:49:35.000",
    "date_modified": "2023-01-24T14:49:35.000",
    "request_status": "Pending",
    "responsible_agency": "Department of Public Works",
    "final_address": "LUCERNE ST & ZENITH ST",
    "address_councildis": "E",
    "status": "Pending",
    "rowid": "969975",
    "final_x": "3710958.5",
    "final_y": "565675.58",
    "longitude": "-89.97377224922869",
    "latitude": "30.04848312180249",
    "geocoded_column": {
      "latitude": "30.04848312180249",
      "longitude": "-89.97377224922869"
    }
  },
  {
    "service_request": "2023-969974",
    "request_type": "Trash/Recycling",
    "request_reason": "MIssed Recycling Pick-Up",
    "date_created": "2023-01-24T14:49:07.000",
    "date_modified": "2023-01-24T14:49:08.000",
    "request_status": "Pending",
    "responsible_agency": "Department of Sanitation",
    "final_address": "3231 Gibson St",
    "address_councildis": "D",
    "status": "Assigned to Contractor",
    "contractor": "IV Waste",
    "rowid": "969974",
    "final_x": "3679075.97653",
    "final_y": "544340.235983",
    "longitude": "-90.07528005391815",
    "latitude": "29.99082029791938",
    "geocoded_column": {
      "latitude": "29.99082029791938",
      "longitude": "-90.07528005391815"
    }
  },
  {
    "service_request": "2023-969973",
    "request_type": "Trash/Recycling",
    "request_reason": "Missed Trash Pick-Up",
    "date_created": "2023-01-24T14:46:07.000",
    "date_modified": "2023-01-24T14:46:08.000",
    "request_status": "Pending",
    "responsible_agency": "Department of Sanitation",
    "final_address": "11120 Zenith St",
    "address_councildis": "E",
    "status": "Assigned to Contractor",
    "contractor": "Waste Pro",
    "rowid": "969973",
    "final_x": "3711138.33041",
    "final_y": "565730.648866",
    "longitude": "-89.97320181968104",
    "latitude": "30.048628670789984",
    "geocoded_column": {
      "latitude": "30.048628670789984",
      "longitude": "-89.97320181968104"
    }
  },
  {
    "service_request": "2023-969972",
    "request_type": "Roads/Drainage",
    "request_reason": "Street Flooding / Drainage",
    "date_created": "2023-01-24T14:45:52.000",
    "date_modified": "2023-01-24T14:45:52.000",
    "request_status": "Pending",
    "responsible_agency": "Department of Public Works",
    "final_address": "1717 S Carrollton Ave",
    "address_councildis": "A",
    "status": "Pending",
    "rowid": "969972",
    "final_x": "3663370.32762",
    "final_y": "529661.931201",
    "longitude": "-90.12537942161161",
    "latitude": "29.95092460250294",
    "geocoded_column": {
      "latitude": "29.95092460250294",
      "longitude": "-90.12537942161161"
    }
  },
  {
    "service_request": "2023-969971",
    "request_type": "Trash/Recycling",
    "request_reason": "Replace Trash Cart",
    "date_created": "2023-01-24T14:43:56.000",
    "date_modified": "2023-01-24T14:43:56.000",
    "request_status": "Pending",
    "responsible_agency": "Department of Sanitation",
    "final_address": "4817 Laurel St",
    "address_councildis": "B",
    "status": "Assigned to Contractor",
    "contractor": "Richards Disposal",
    "rowid": "969971",
    "final_x": "3669494.48327",
    "final_y": "517961.889398",
    "longitude": "-90.10643793358602",
    "latitude": "29.918574305107995",
    "geocoded_column": {
      "latitude": "29.918574305107995",
      "longitude": "-90.10643793358602"
    }
  },
  {
    "service_request": "2023-969970",
    "request_type": "Roads/Drainage",
    "request_reason": "Street Flooding / Drainage",
    "date_created": "2023-01-24T14:40:58.000",
    "date_modified": "2023-01-24T14:40:58.000",
    "request_status": "Pending",
    "responsible_agency": "Department of Public Works",
    "final_address": "7001 Mayo Rd",
    "address_councildis": "E",
    "status": "Pending",
    "rowid": "969970",
    "final_x": "3701814.06794",
    "final_y": "558729.006428",
    "longitude": "-90.00292871615552",
    "latitude": "30.029677928115383",
    "geocoded_column": {
      "latitude": "30.029677928115383",
      "longitude": "-90.00292871615552"
    }
  },
  {
    "service_request": "2023-969969",
    "request_type": "Property Maintenance",
    "request_reason": "Property Maintenance",
    "date_created": "2023-01-24T14:40:55.000",
    "date_modified": "2023-01-24T14:40:55.000",
    "request_status": "Pending",
    "responsible_agency": "Department of Code Enforcement",
    "final_address": "2614 St Claude Ave",
    "address_councildis": "C",
    "status": "Pending",
    "rowid": "969969",
    "final_x": "3687260.29174",
    "final_y": "536391.462983",
    "longitude": "-90.04970911962272",
    "latitude": "29.968714364924857",
    "geocoded_column": {
      "latitude": "29.968714364924857",
      "longitude": "-90.04970911962272"
    }
  },
  {
    "service_request": "2023-969968",
    "request_type": "Trash/Recycling",
    "request_reason": "Request a Large Item Pick Up",
    "date_created": "2023-01-24T14:36:20.000",
    "date_modified": "2023-01-24T14:36:20.000",
    "request_status": "Pending",
    "responsible_agency": "Department of Sanitation",
    "final_address": "5286 Warrington Dr",
    "address_councildis": "D",
    "status": "Assigned to Contractor",
    "contractor": "IV Waste",
    "rowid": "969968",
    "final_x": "3680892.5924",
    "final_y": "551879.259606",
    "longitude": "-90.06927909928092",
    "latitude": "30.0114949544891",
    "geocoded_column": {
      "latitude": "30.0114949544891",
      "longitude": "-90.06927909928092"
    }
  },
  {
    "service_request": "2023-969966",
    "request_type": "Trash/Recycling",
    "request_reason": "Repair Trash Cart",
    "date_created": "2023-01-24T14:34:15.000",
    "date_modified": "2023-01-24T14:34:16.000",
    "request_status": "Pending",
    "responsible_agency": "Department of Sanitation",
    "final_address": "14800 N Little Woods Dr",
    "address_councildis": "E",
    "status": "Assigned to Contractor",
    "contractor": "Waste Pro",
    "rowid": "969966",
    "final_x": "3720020.52473",
    "final_y": "574919.195883",
    "longitude": "-89.94477728860764",
    "latitude": "30.073600441723677",
    "geocoded_column": {
      "latitude": "30.073600441723677",
      "longitude": "-89.94477728860764"
    }
  },
  {
    "service_request": "2023-969965",
    "request_type": "Trash/Recycling",
    "request_reason": "MIssed Recycling Pick-Up",
    "date_created": "2023-01-24T14:33:25.000",
    "date_modified": "2023-01-24T14:33:26.000",
    "request_status": "Pending",
    "responsible_agency": "Department of Sanitation",
    "final_address": "4130 Canal St",
    "address_councildis": "A",
    "status": "Assigned to Contractor",
    "contractor": "Richards Disposal",
    "rowid": "969965",
    "final_x": "3670780.98535",
    "final_y": "538399.754121",
    "longitude": "-90.1016836885314",
    "latitude": "29.974733810586464",
    "geocoded_column": {
      "latitude": "29.974733810586464",
      "longitude": "-90.1016836885314"
    }
  },
  {
    "service_request": "2023-969964",
    "request_type": "Trash/Recycling",
    "request_reason": "Missed Trash Pick-Up",
    "date_created": "2023-01-24T14:32:16.000",
    "date_modified": "2023-01-24T14:32:17.000",
    "request_status": "Pending",
    "responsible_agency": "Department of Sanitation",
    "final_address": "4921 Camp St",
    "address_councildis": "B",
    "status": "Assigned to Contractor",
    "contractor": "Richards Disposal",
    "rowid": "969964",
    "final_x": "3668811.53735",
    "final_y": "519005.842487",
    "longitude": "-90.10855841788846",
    "latitude": "29.921464936195605",
    "geocoded_column": {
      "latitude": "29.921464936195605",
      "longitude": "-90.10855841788846"
    }
  },
  {
    "service_request": "2023-969963",
    "request_type": "Trash/Recycling",
    "request_reason": "Start Trash Service",
    "date_created": "2023-01-24T14:30:32.000",
    "date_modified": "2023-01-24T14:30:32.000",
    "request_status": "Pending",
    "responsible_agency": "Department of Sanitation",
    "final_address": "1015 Dauphine St",
    "address_councildis": "C",
    "status": "Assigned to Contractor",
    "contractor": "Empire Services",
    "rowid": "969963",
    "final_x": "3682709.15752",
    "final_y": "533902.231045",
    "longitude": "-90.0641689233742",
    "latitude": "29.96200923671123",
    "geocoded_column": {
      "latitude": "29.96200923671123",
      "longitude": "-90.0641689233742"
    }
  },
  {
    "service_request": "2023-969962",
    "request_type": "Trash/Recycling",
    "request_reason": "Order Recycling Cart",
    "date_created": "2023-01-24T14:27:25.000",
    "date_modified": "2023-01-24T14:27:26.000",
    "request_status": "Pending",
    "responsible_agency": "Department of Sanitation",
    "final_address": "3008 Calhoun St",
    "address_councildis": "A",
    "status": "Pending",
    "rowid": "969962",
    "final_x": "3666866.24372",
    "final_y": "527667.986111",
    "longitude": "-90.1144080168756",
    "latitude": "29.94534010013706",
    "geocoded_column": {
      "latitude": "29.94534010013706",
      "longitude": "-90.1144080168756"
    }
  },
  {
    "service_request": "2023-969961",
    "request_type": "Trash/Recycling",
    "request_reason": "MIssed Recycling Pick-Up",
    "date_created": "2023-01-24T14:22:51.000",
    "date_modified": "2023-01-24T14:24:06.000",
    "request_status": "Pending",
    "responsible_agency": "Department of Sanitation",
    "final_address": "5018 Revel St",
    "address_councildis": "E",
    "status": "Assigned to Contractor",
    "contractor": "Waste Pro",
    "rowid": "969961",
    "final_x": "3725087.93881",
    "final_y": "562062.662431",
    "longitude": "-89.92925553691377",
    "latitude": "30.038080556849305",
    "geocoded_column": {
      "latitude": "30.038080556849305",
      "longitude": "-89.92925553691377"
    }
  },
  {
    "service_request": "2023-969960",
    "request_type": "Traffic Signals/Signs/Striping/Streetlights",
    "request_reason": "Disabled Parking Sign ",
    "date_created": "2023-01-24T14:22:21.000",
    "date_modified": "2023-01-24T14:22:21.000",
    "request_status": "Pending",
    "responsible_agency": "Department of Public Works",
    "final_address": "8915 Edinburgh St",
    "address_councildis": "A",
    "status": "Pending",
    "rowid": "969960",
    "final_x": "3665309.62778",
    "final_y": "536463.980807",
    "longitude": "-90.11902845779525",
    "latitude": "29.969571652905156",
    "geocoded_column": {
      "latitude": "29.969571652905156",
      "longitude": "-90.11902845779525"
    }
  },
  {
    "service_request": "2023-969959",
    "request_type": "Trash/Recycling",
    "request_reason": "Replace Recycling Cart",
    "date_created": "2023-01-24T14:21:49.000",
    "date_modified": "2023-01-24T14:21:49.000",
    "request_status": "Pending",
    "responsible_agency": "Department of Sanitation",
    "final_address": "2418 Clover St",
    "address_councildis": "D",
    "status": "Pending",
    "rowid": "969959",
    "final_x": "3686274.47471",
    "final_y": "546491.115473",
    "longitude": "-90.0524658419741",
    "latitude": "29.996515164858188",
    "geocoded_column": {
      "latitude": "29.996515164858188",
      "longitude": "-90.0524658419741"
    }
  },
  {
    "service_request": "2023-969958",
    "request_type": "Abandoned Vehicles",
    "request_reason": "Abandoned/Junk Vehicles",
    "date_created": "2023-01-24T14:19:48.000",
    "date_modified": "2023-01-24T14:21:21.000",
    "request_status": "Pending",
    "responsible_agency": "Department of Public Works",
    "final_address": "1432 St Anthony St",
    "address_councildis": "C",
    "status": "Pending",
    "rowid": "969958",
    "final_x": "3683321.49052",
    "final_y": "537554.764808",
    "longitude": "-90.0621073097302",
    "latitude": "29.97203378072538",
    "geocoded_column": {
      "latitude": "29.97203378072538",
      "longitude": "-90.0621073097302"
    }
  },
  {
    "service_request": "2023-969957",
    "request_type": "Trash/Recycling",
    "request_reason": "Repair Trash Cart",
    "date_created": "2023-01-24T14:15:52.000",
    "date_modified": "2023-01-24T14:15:53.000",
    "request_status": "Pending",
    "responsible_agency": "Department of Sanitation",
    "final_address": "2446 Prancer St",
    "address_councildis": "C",
    "status": "Assigned to Contractor",
    "contractor": "Richards Disposal",
    "rowid": "969957",
    "final_x": "3699899.22148",
    "final_y": "522226.610618",
    "longitude": "-90.01031140193976",
    "latitude": "29.92937064323029",
    "geocoded_column": {
      "latitude": "29.92937064323029",
      "longitude": "-90.01031140193976"
    }
  },
  {
    "service_request": "2023-969956",
    "request_type": "Property Maintenance",
    "request_reason": "Property Maintenance",
    "date_created": "2023-01-24T14:14:01.000",
    "date_modified": "2023-01-24T14:14:01.000",
    "request_status": "Pending",
    "responsible_agency": "Department of Code Enforcement",
    "final_address": "4808 St Claude Ave",
    "address_councildis": "E",
    "status": "Pending",
    "rowid": "969956",
    "final_x": "3695140.33008",
    "final_y": "534421.409861",
    "longitude": "-90.0248946657472",
    "latitude": "29.963052336513883",
    "geocoded_column": {
      "latitude": "29.963052336513883",
      "longitude": "-90.0248946657472"
    }
  },
  {
    "service_request": "2023-969955",
    "request_type": "Abandoned Vehicles",
    "request_reason": "Abandoned/Junk Vehicles",
    "date_created": "2023-01-24T14:12:45.000",
    "date_modified": "2023-01-24T14:12:45.000",
    "request_status": "Pending",
    "responsible_agency": "Department of Public Works",
    "final_address": "934 Belleville St",
    "address_councildis": "C",
    "status": "Pending",
    "rowid": "969955",
    "final_x": "3687820.99228",
    "final_y": "528047.797695",
    "longitude": "-90.04823392087414",
    "latitude": "29.94575488161136",
    "geocoded_column": {
      "latitude": "29.94575488161136",
      "longitude": "-90.04823392087414"
    }
  },
  {
    "service_request": "2023-969954",
    "request_type": "Trash/Recycling",
    "request_reason": "MIssed Recycling Pick-Up",
    "date_created": "2023-01-24T14:11:21.000",
    "date_modified": "2023-01-24T14:11:22.000",
    "request_status": "Pending",
    "responsible_agency": "Department of Sanitation",
    "final_address": "3351 Hyman Pl",
    "address_councildis": "C",
    "status": "Assigned to Contractor",
    "contractor": "Richards Disposal",
    "rowid": "969954",
    "final_x": "3700903.62685",
    "final_y": "518722.524791",
    "longitude": "-90.0072687185372",
    "latitude": "29.919703686889477",
    "geocoded_column": {
      "latitude": "29.919703686889477",
      "longitude": "-90.0072687185372"
    }
  },
  {
    "service_request": "2023-969953",
    "request_type": "Trash/Recycling",
    "request_reason": "Replace Trash Cart",
    "date_created": "2023-01-24T14:08:12.000",
    "date_modified": "2023-01-24T14:08:13.000",
    "request_status": "Pending",
    "responsible_agency": "Department of Sanitation",
    "final_address": "810 Topaz St",
    "address_councildis": "D",
    "status": "Assigned to Contractor",
    "contractor": "IV Waste",
    "rowid": "969953",
    "final_x": "3670415.4747",
    "final_y": "556427.189338",
    "longitude": "-90.10222634559595",
    "latitude": "30.024313787093696",
    "geocoded_column": {
      "latitude": "30.024313787093696",
      "longitude": "-90.10222634559595"
    }
  },
  {
    "service_request": "2023-969952",
    "request_type": "Trash/Recycling",
    "request_reason": "Return Recycling Cart",
    "date_created": "2023-01-24T14:05:31.000",
    "date_modified": "2023-01-24T14:05:32.000",
    "request_status": "Pending",
    "responsible_agency": "Department of Sanitation",
    "final_address": "7541 Briarheath Dr",
    "address_councildis": "E",
    "status": "Pending",
    "rowid": "969952",
    "final_x": "3714914.68735",
    "final_y": "566751.645731",
    "longitude": "-89.96122779905973",
    "latitude": "30.051312200476033",
    "geocoded_column": {
      "latitude": "30.051312200476033",
      "longitude": "-89.96122779905973"
    }
  },
  {
    "service_request": "2023-969951",
    "request_type": "Trash/Recycling",
    "request_reason": "Replace Trash Cart",
    "date_created": "2023-01-24T14:05:10.000",
    "date_modified": "2023-01-24T14:05:11.000",
    "request_status": "Pending",
    "responsible_agency": "Department of Sanitation",
    "final_address": "14718 Emory Rd",
    "address_councildis": "E",
    "status": "Assigned to Contractor",
    "contractor": "Waste Pro",
    "rowid": "969951",
    "final_x": "3720400.74585",
    "final_y": "573540.343658",
    "longitude": "-89.94362814825026",
    "latitude": "30.069796507496665",
    "geocoded_column": {
      "latitude": "30.069796507496665",
      "longitude": "-89.94362814825026"
    }
  },
  {
    "service_request": "2023-969950",
    "request_type": "Trash/Recycling",
    "request_reason": "Missed Trash Pick-Up",
    "date_created": "2023-01-24T14:04:36.000",
    "date_modified": "2023-01-24T14:04:37.000",
    "request_status": "Pending",
    "responsible_agency": "Department of Sanitation",
    "final_address": "4921 Camp St",
    "address_councildis": "B",
    "status": "Assigned to Contractor",
    "contractor": "Richards Disposal",
    "rowid": "969950",
    "final_x": "3668811.53735",
    "final_y": "519005.842487",
    "longitude": "-90.10855841788846",
    "latitude": "29.921464936195605",
    "geocoded_column": {
      "latitude": "29.921464936195605",
      "longitude": "-90.10855841788846"
    }
  },
  {
    "service_request": "2023-969949",
    "request_type": "Trash/Recycling",
    "request_reason": "Replace Trash Cart",
    "date_created": "2023-01-24T14:02:41.000",
    "date_modified": "2023-01-24T17:14:32.000",
    "case_close_date": "2023-01-24T11:14:32.000",
    "request_status": "Closed",
    "responsible_agency": "Department of Sanitation",
    "final_address": "14718 Emory Rd",
    "address_councildis": "E",
    "status": "Duplicate Request",
    "contractor": "Waste Pro",
    "rowid": "969949",
    "final_x": "3720400.74585",
    "final_y": "573540.343658",
    "longitude": "-89.94362814825026",
    "latitude": "30.069796507496665",
    "geocoded_column": {
      "latitude": "30.069796507496665",
      "longitude": "-89.94362814825026"
    }
  },
  {
    "service_request": "2023-969948",
    "request_type": "Trash/Recycling",
    "request_reason": "Repair Trash Cart",
    "date_created": "2023-01-24T14:01:42.000",
    "date_modified": "2023-01-24T14:01:42.000",
    "request_status": "Pending",
    "responsible_agency": "Department of Sanitation",
    "final_address": "5810 Brunswick Ct",
    "address_councildis": "C",
    "status": "Assigned to Contractor",
    "contractor": "Richards Disposal",
    "rowid": "969948",
    "final_x": "3705107.47083",
    "final_y": "517220.952885",
    "longitude": "-89.99405475794667",
    "latitude": "29.915440440842023",
    "geocoded_column": {
      "latitude": "29.915440440842023",
      "longitude": "-89.99405475794667"
    }
  },
  {
    "service_request": "2023-969946",
    "request_type": "Traffic Signals/Signs/Striping/Streetlights",
    "request_reason": "Traffic Signal Malfunctioning/Damaged",
    "date_created": "2023-01-24T14:00:32.000",
    "date_modified": "2023-01-24T14:00:32.000",
    "request_status": "Pending",
    "responsible_agency": "Department of Public Works",
    "final_address": "Napoleon Ave & Freret St, New Orleans, Louisiana, 70115",
    "status": "Pending",
    "rowid": "969946",
    "longitude": "0.0",
    "latitude": "0.0",
    "geocoded_column": {
      "latitude": "0.0",
      "longitude": "0.0"
    }
  },
  {
    "service_request": "2023-969947",
    "request_type": "Trash/Recycling",
    "request_reason": "Return Trash Cart",
    "date_created": "2023-01-24T14:00:32.000",
    "date_modified": "2023-01-24T14:00:33.000",
    "request_status": "Pending",
    "responsible_agency": "Department of Sanitation",
    "final_address": "7541 Briarheath Dr",
    "address_councildis": "E",
    "status": "Assigned to Contractor",
    "contractor": "Waste Pro",
    "rowid": "969947",
    "final_x": "3714914.68735",
    "final_y": "566751.645731",
    "longitude": "-89.96122779905973",
    "latitude": "30.051312200476033",
    "geocoded_column": {
      "latitude": "30.051312200476033",
      "longitude": "-89.96122779905973"
    }
  },
  {
    "service_request": "2023-969945",
    "request_type": "Traffic Signals/Signs/Striping/Streetlights",
    "request_reason": "Street Light Outage/Malfunction",
    "date_created": "2023-01-24T13:59:07.000",
    "date_modified": "2023-01-24T13:59:10.000",
    "request_status": "Pending",
    "responsible_agency": "Department of Public Works",
    "final_address": "6318 patton st",
    "address_councildis": "A",
    "status": "Assigned to Contractor",
    "contractor": "Legacy Professional Services",
    "rowid": "969945",
    "final_x": "3663009.41056",
    "final_y": "519136.758775",
    "longitude": "-90.12686893636786",
    "latitude": "29.921994170384522",
    "geocoded_column": {
      "latitude": "29.921994170384522",
      "longitude": "-90.12686893636786"
    }
  },
  {
    "service_request": "2023-969944",
    "request_type": "Trash/Recycling",
    "request_reason": "Illegal Dumping",
    "date_created": "2023-01-24T13:57:44.000",
    "date_modified": "2023-01-24T13:57:44.000",
    "request_status": "Pending",
    "responsible_agency": "Department of Sanitation",
    "final_address": "1303 Jourdan Ave",
    "address_councildis": "E",
    "status": "Pending",
    "rowid": "969944",
    "final_x": "3695303.16483",
    "final_y": "535253.39143",
    "longitude": "-90.02435044224983",
    "latitude": "29.965334877388504",
    "geocoded_column": {
      "latitude": "29.965334877388504",
      "longitude": "-90.02435044224983"
    }
  },
  {
    "service_request": "2023-969943",
    "request_type": "Trash/Recycling",
    "request_reason": "Illegal Dumping",
    "date_created": "2023-01-24T13:56:30.000",
    "date_modified": "2023-01-24T14:18:21.000",
    "request_status": "Pending",
    "responsible_agency": "Department of Sanitation",
    "final_address": "1000 BLK Sister St",
    "address_councildis": "E",
    "status": "Pending",
    "rowid": "969943",
    "final_x": "3694596.93557",
    "final_y": "534372.85952",
    "longitude": "-90.02661238014336",
    "latitude": "29.96293589074982",
    "geocoded_column": {
      "latitude": "29.96293589074982",
      "longitude": "-90.02661238014336"
    }
  },
  {
    "service_request": "2023-969942",
    "request_type": "Abandoned Vehicles",
    "request_reason": "Abandoned/Junk Vehicles",
    "date_created": "2023-01-24T13:56:11.000",
    "date_modified": "2023-01-24T13:56:11.000",
    "request_status": "Pending",
    "responsible_agency": "Department of Public Works",
    "final_address": "934 Belleville St",
    "address_councildis": "C",
    "status": "Pending",
    "rowid": "969942",
    "final_x": "3687820.99228",
    "final_y": "528047.797695",
    "longitude": "-90.04823392087414",
    "latitude": "29.94575488161136",
    "geocoded_column": {
      "latitude": "29.94575488161136",
      "longitude": "-90.04823392087414"
    }
  },
  {
    "service_request": "2023-969941",
    "request_type": "Roads/Drainage",
    "request_reason": "Debris in Roadway",
    "date_created": "2023-01-24T13:55:30.000",
    "date_modified": "2023-01-24T13:55:30.000",
    "request_status": "Pending",
    "responsible_agency": "Department of Public Works",
    "final_address": "1521 St Andrew St",
    "address_councildis": "B",
    "status": "Pending",
    "rowid": "969941",
    "final_x": "3678437.75688",
    "final_y": "523925.83622",
    "longitude": "-90.07800249512528",
    "latitude": "29.934706880168793",
    "geocoded_column": {
      "latitude": "29.934706880168793",
      "longitude": "-90.07800249512528"
    }
  },
  {
    "service_request": "2023-969940",
    "request_type": "Trash/Recycling",
    "request_reason": "Missed Trash Pick-Up",
    "date_created": "2023-01-24T13:48:53.000",
    "date_modified": "2023-01-24T13:48:54.000",
    "request_status": "Pending",
    "responsible_agency": "Department of Sanitation",
    "final_address": "2503 Annunciation St",
    "address_councildis": "B",
    "status": "Assigned to Contractor",
    "contractor": "Richards Disposal",
    "rowid": "969940",
    "final_x": "3678370.0667",
    "final_y": "520423.410488",
    "longitude": "-90.07833729610664",
    "latitude": "29.925078393427984",
    "geocoded_column": {
      "latitude": "29.925078393427984",
      "longitude": "-90.07833729610664"
    }
  },
  {
    "service_request": "2023-969939",
    "request_type": "Roads/Drainage",
    "request_reason": "Pothole",
    "date_created": "2023-01-24T13:48:03.000",
    "date_modified": "2023-01-24T14:32:22.000",
    "request_status": "Pending",
    "responsible_agency": "Department of Public Works",
    "final_address": "FRANCE RD & HAYNE BLVD",
    "address_councildis": "D",
    "status": "Inspected",
    "rowid": "969939",
    "final_x": "3690868.34",
    "final_y": "558794.79",
    "longitude": "-90.03751462024054",
    "latitude": "30.03020370998618",
    "geocoded_column": {
      "latitude": "30.03020370998618",
      "longitude": "-90.03751462024054"
    }
  },
  {
    "service_request": "2023-969938",
    "request_type": "Trash/Recycling",
    "request_reason": "Request a Large Item Pick Up",
    "date_created": "2023-01-24T13:43:23.000",
    "date_modified": "2023-01-24T13:43:24.000",
    "request_status": "Pending",
    "responsible_agency": "Department of Sanitation",
    "final_address": "1229 Calhoun St",
    "address_councildis": "A",
    "status": "Assigned to Contractor",
    "contractor": "Richards Disposal",
    "rowid": "969938",
    "final_x": "3664125.65684",
    "final_y": "521171.328057",
    "longitude": "-90.12327757759233",
    "latitude": "29.92755623380563",
    "geocoded_column": {
      "latitude": "29.92755623380563",
      "longitude": "-90.12327757759233"
    }
  },
  {
    "service_request": "2023-969937",
    "request_type": "Trash/Recycling",
    "request_reason": "MIssed Recycling Pick-Up",
    "date_created": "2023-01-24T13:39:57.000",
    "date_modified": "2023-01-24T13:39:58.000",
    "request_status": "Pending",
    "responsible_agency": "Department of Sanitation",
    "final_address": "4312 Van Ave",
    "address_councildis": "D",
    "status": "Assigned to Contractor",
    "contractor": "IV Waste",
    "rowid": "969937",
    "final_x": "3679933.47567",
    "final_y": "548282.269202",
    "longitude": "-90.07243439950669",
    "latitude": "30.001633578370903",
    "geocoded_column": {
      "latitude": "30.001633578370903",
      "longitude": "-90.07243439950669"
    }
  },
  {
    "service_request": "2023-969936",
    "request_type": "Roads/Drainage",
    "request_reason": "Pothole",
    "date_created": "2023-01-24T13:38:38.000",
    "date_modified": "2023-01-24T14:39:51.000",
    "request_status": "Pending",
    "responsible_agency": "Department of Public Works",
    "final_address": "6700 Pauline Dr",
    "address_councildis": "D",
    "status": "Inspected",
    "rowid": "969936",
    "final_x": "3690730.62518",
    "final_y": "558301.858716",
    "longitude": "-90.0379674075905",
    "latitude": "30.02885261663765",
    "geocoded_column": {
      "latitude": "30.02885261663765",
      "longitude": "-90.0379674075905"
    }
  },
  {
    "service_request": "2023-969935",
    "request_type": "Trash/Recycling",
    "request_reason": "Missed Trash Pick-Up",
    "date_created": "2023-01-24T13:38:05.000",
    "date_modified": "2023-01-24T13:38:06.000",
    "request_status": "Pending",
    "responsible_agency": "Department of Sanitation",
    "final_address": "5100 BLK Marais St",
    "address_councildis": "E",
    "status": "Assigned to Contractor",
    "contractor": "Waste Pro",
    "rowid": "969935",
    "final_x": "3696486.01677",
    "final_y": "534513.152218",
    "longitude": "-90.02064185371763",
    "latitude": "29.963262274428708",
    "geocoded_column": {
      "latitude": "29.963262274428708",
      "longitude": "-90.02064185371763"
    }
  },
  {
    "service_request": "2023-969934",
    "request_type": "Trash/Recycling",
    "request_reason": "Replace Trash Cart",
    "date_created": "2023-01-24T13:36:33.000",
    "date_modified": "2023-01-24T13:36:34.000",
    "request_status": "Pending",
    "responsible_agency": "Department of Sanitation",
    "final_address": "1913 Clouet St",
    "address_councildis": "D",
    "status": "Assigned to Contractor",
    "contractor": "IV Waste",
    "rowid": "969934",
    "final_x": "3689824.79222",
    "final_y": "539119.056522",
    "longitude": "-90.04151319130769",
    "latitude": "29.97613504177113",
    "geocoded_column": {
      "latitude": "29.97613504177113",
      "longitude": "-90.04151319130769"
    }
  },