[
  {
    "service_request": "2024-1099032",
    "request_type": "Roads/Drainage",
    "request_reason": "Pothole",
    "date_created": "2024-06-02T23:42:40.000",
    "date_modified": "2024-06-02T23:42:40.000",
    "request_status": "Pending",
    "responsible_agency": "Department of Public Works",
    "final_address": "1112 Constantinople St",
    "address_councildis": "B",
    "status": "Pending",
    "rowid": "1099032",
    "final_x": "3672348.95259",
    "final_y": "519796.384952",
    "longitude": "-90.09736540233975",
    "latitude": "29.923534233550217",
    "geocoded_column": {
      "latitude": "29.923534233550217",
      "longitude": "-90.09736540233975"
    }
  },
  {
    "service_request": "2024-1099031",
    "request_type": "Trash/Recycling",
    "request_reason": "Order Trash Cart",
    "date_created": "2024-06-02T23:39:46.000",
    "date_modified": "2024-06-02T23:39:47.000",
    "request_status": "Pending",
    "responsible_agency": "Department of Sanitation",
    "final_address": "7807 Sail St",
    "address_councildis": "E",
    "status": "Assigned to Contractor",
    "contractor": "Waste Pro",
    "rowid": "1099031",
    "final_x": "3720229.11967",
    "final_y": "573943.077802",
    "longitude": "-89.94415526110353",
    "latitude": "30.070909578407985",
    "geocoded_column": {
      "latitude": "30.070909578407985",
      "longitude": "-89.94415526110353"
    }
  },
  {
    "service_request": "2024-1099030",
    "request_type": "Traffic Signals/Signs/Striping/Streetlights",
    "request_reason": "Street Light Outage/Malfunction",
    "date_created": "2024-06-02T23:23:13.000",
    "date_modified": "2024-06-02T23:23:14.000",
    "request_status": "Pending",
    "responsible_agency": "Department of Public Works",
    "final_address": "4818 Eunice Dr",
    "address_councildis": "E",
    "status": "Assigned to Contractor",
    "contractor": "Legacy Professional Services",
    "rowid": "1099030",
    "final_x": "3710409.13445",
    "final_y": "556377.89033",
    "longitude": "-89.9758566849988",
    "latitude": "30.02293608397412",
    "geocoded_column": {
      "latitude": "30.02293608397412",
      "longitude": "-89.9758566849988"
    }
  },
  {
    "service_request": "2024-1099029",
    "request_type": "Trash/Recycling",
    "request_reason": "Request a Large Item Pick Up",
    "date_created": "2024-06-02T22:36:25.000",
    "date_modified": "2024-06-02T22:36:26.000",
    "request_status": "Pending",
    "responsible_agency": "Department of Sanitation",
    "final_address": "10131 Brookfield Dr",
    "address_councildis": "E",
    "status": "Assigned to Contractor",
    "contractor": "Waste Pro",
    "rowid": "1099029",
    "final_x": "3710024.50206",
    "final_y": "562913.559072",
    "longitude": "-89.97682754564906",
    "latitude": "30.040919111209387",
    "geocoded_column": {
      "latitude": "30.040919111209387",
      "longitude": "-89.97682754564906"
    }
  },
  {
    "service_request": "2024-1099028",
    "request_type": "Trash/Recycling",
    "request_reason": "Order Trash Cart",
    "date_created": "2024-06-02T22:14:33.000",
    "date_modified": "2024-06-02T22:14:33.000",
    "request_status": "Pending",
    "responsible_agency": "Department of Sanitation",
    "final_address": "14033 Linden St",
    "address_councildis": "E",
    "status": "Assigned to Contractor",
    "contractor": "Waste Pro",
    "rowid": "1099028",
    "final_x": "3718442.30271",
    "final_y": "572567.474729",
    "longitude": "-89.94985635333187",
    "latitude": "30.067186691198465",
    "geocoded_column": {
      "latitude": "30.067186691198465",
      "longitude": "-89.94985635333187"
    }
  },
  {
    "service_request": "2024-1099027",
    "request_type": "Traffic Signals/Signs/Striping/Streetlights",
    "request_reason": "Street Light Outage/Malfunction",
    "date_created": "2024-06-02T22:05:13.000",
    "date_modified": "2024-06-02T22:05:13.000",
    "request_status": "Pending",
    "responsible_agency": "Department of Public Works",
    "final_address": "1001 Allen Toussaint Blvd",
    "address_councildis": "D",
    "status": "Assigned to Contractor",
    "contractor": "Legacy Professional Services",
    "rowid": "1099027",
    "final_x": "3672411.19291",
    "final_y": "554504.725976",
    "longitude": "-90.09598582219596",
    "latitude": "30.018968593026525",
    "geocoded_column": {
      "latitude": "30.018968593026525",
      "longitude": "-90.09598582219596"
    }
  },
  {
    "service_request": "2024-1099026",
    "request_type": "Traffic Signals/Signs/Striping/Streetlights",
    "request_reason": "Street Light Outage/Malfunction",
    "date_created": "2024-06-02T22:04:27.000",
    "date_modified": "2024-06-02T22:04:27.000",
    "request_status": "Pending",
    "responsible_agency": "Department of Public Works",
    "final_address": "1001 Allen Toussaint Blvd",
    "address_councildis": "D",
    "status": "Assigned to Contractor",
    "contractor": "Legacy Professional Services",
    "rowid": "1099026",
    "final_x": "3672411.19291",
    "final_y": "554504.725976",
    "longitude": "-90.09598582219596",
    "latitude": "30.018968593026525",
    "geocoded_column": {
      "latitude": "30.018968593026525",
      "longitude": "-90.09598582219596"
    }
  },
  {
    "service_request": "2024-1099025",
    "request_type": "Traffic Signals/Signs/Striping/Streetlights",
    "request_reason": "Street Light Outage/Malfunction",
    "date_created": "2024-06-02T22:03:30.000",
    "date_modified": "2024-06-02T22:03:31.000",
    "request_status": "Pending",
    "responsible_agency": "Department of Public Works",
    "final_address": "6706 Orleans Ave",
    "address_councildis": "A",
    "status": "Assigned to Contractor",
    "contractor": "Legacy Professional Services",
    "rowid": "1099025",
    "final_x": "3671226.36955",
    "final_y": "551897.61263",
    "longitude": "-90.09981813651997",
    "latitude": "30.01183508387444",
    "geocoded_column": {
      "latitude": "30.01183508387444",
      "longitude": "-90.09981813651997"
    }
  },
  {
    "service_request": "2024-1099024",
    "request_type": "Trash/Recycling",
    "request_reason": "Request a Large Item Pick Up",
    "date_created": "2024-06-02T22:00:40.000",
    "date_modified": "2024-06-02T22:00:41.000",
    "request_status": "Pending",
    "responsible_agency": "Department of Sanitation",
    "final_address": "4736 Donna Dr",
    "address_councildis": "E",
    "status": "Assigned to Contractor",
    "contractor": "Waste Pro",
    "rowid": "1099024",
    "final_x": "3710944.58814",
    "final_y": "555753.646553",
    "longitude": "-89.9741881850872",
    "latitude": "30.021202205141854",
    "geocoded_column": {
      "latitude": "30.021202205141854",
      "longitude": "-89.9741881850872"
    }
  },
  {
    "service_request": "2024-1099023",
    "request_type": "Traffic Signals/Signs/Striping/Streetlights",
    "request_reason": "Street Light Outage/Malfunction",
    "date_created": "2024-06-02T22:00:24.000",
    "date_modified": "2024-06-02T22:00:25.000",
    "request_status": "Pending",
    "responsible_agency": "Department of Public Works",
    "final_address": "6929 Vicksburg St",
    "address_councildis": "A",
    "status": "Assigned to Contractor",
    "contractor": "Legacy Professional Services",
    "rowid": "1099023",
    "final_x": "3669496.98362",
    "final_y": "553537.614231",
    "longitude": "-90.10522648029527",
    "latitude": "30.01639558621508",
    "geocoded_column": {
      "latitude": "30.01639558621508",
      "longitude": "-90.10522648029527"
    }
  },
  {
    "service_request": "2024-1099022",
    "request_type": "Trash/Recycling",
    "request_reason": "Request a Large Item Pick Up",
    "date_created": "2024-06-02T21:40:33.000",
    "date_modified": "2024-06-02T21:40:34.000",
    "request_status": "Pending",
    "responsible_agency": "Department of Sanitation",
    "final_address": "New Orleans,LA",
    "status": "Assigned to Contractor",
    "rowid": "1099022",
    "longitude": "0.0",
    "latitude": "0.0",
    "geocoded_column": {
      "latitude": "0.0",
      "longitude": "0.0"
    }
  },
  {
    "service_request": "2024-1099021",
    "request_type": "Trash/Recycling",
    "request_reason": "Order Trash Cart",
    "date_created": "2024-06-02T21:35:14.000",
    "date_modified": "2024-06-02T21:35:14.000",
    "request_status": "Pending",
    "responsible_agency": "Department of Sanitation",
    "final_address": "2709 Prentiss Ave",
    "address_councildis": "D",
    "status": "Assigned to Contractor",
    "contractor": "IV Waste",
    "rowid": "1099021",
    "final_x": "3687362.63286",
    "final_y": "554200.709592",
    "longitude": "-90.04875539724581",
    "latitude": "30.01768024397973",
    "geocoded_column": {
      "latitude": "30.01768024397973",
      "longitude": "-90.04875539724581"
    }
  },
  {
    "service_request": "2024-1099020",
    "request_type": "Trash/Recycling",
    "request_reason": "Order Recycling Cart",
    "date_created": "2024-06-02T21:33:17.000",
    "date_modified": "2024-06-02T21:33:17.000",
    "request_status": "Pending",
    "responsible_agency": "Department of Sanitation",
    "final_address": "2709 Prentiss Ave",
    "address_councildis": "D",
    "status": "Pending",
    "rowid": "1099020",
    "final_x": "3687362.63286",
    "final_y": "554200.709592",
    "longitude": "-90.04875539724581",
    "latitude": "30.01768024397973",
    "geocoded_column": {
      "latitude": "30.01768024397973",
      "longitude": "-90.04875539724581"
    }
  },
  {
    "service_request": "2024-1099019",
    "request_type": "Traffic Signals/Signs/Striping/Streetlights",
    "request_reason": "Street Light Outage/Malfunction",
    "date_created": "2024-06-02T21:11:27.000",
    "date_modified": "2024-06-02T21:11:31.000",
    "request_status": "Pending",
    "responsible_agency": "Department of Public Works",
    "final_address": "BIENVILLE ST & N SOLOMON ST",
    "address_councildis": "A",
    "status": "Assigned to Contractor",
    "contractor": "Legacy Professional Services",
    "rowid": "1099019",
    "final_x": "3671052.43",
    "final_y": "539334.08",
    "longitude": "-90.10079465565433",
    "latitude": "29.977294864958644",
    "geocoded_column": {
      "latitude": "29.977294864958644",
      "longitude": "-90.10079465565433"
    }
  },
  {
    "service_request": "2024-1099018",
    "request_type": "Traffic Signals/Signs/Striping/Streetlights",
    "request_reason": "Street Light Outage/Malfunction",
    "date_created": "2024-06-02T20:58:44.000",
    "date_modified": "2024-06-02T20:58:49.000",
    "request_status": "Pending",
    "responsible_agency": "Department of Public Works",
    "final_address": "4016 N Rampart St",
    "address_councildis": "C",
    "status": "Assigned to Contractor",
    "contractor": "Legacy Professional Services",
    "rowid": "1099018",
    "final_x": "3691822.12355",
    "final_y": "534798.95847",
    "longitude": "-90.0353596144258",
    "latitude": "29.964194231875553",
    "geocoded_column": {
      "latitude": "29.964194231875553",
      "longitude": "-90.0353596144258"
    }
  },
  {
    "service_request": "2024-1099017",
    "request_type": "Trash/Recycling",
    "request_reason": "Request a Large Item Pick Up",
    "date_created": "2024-06-02T20:46:02.000",
    "date_modified": "2024-06-02T20:46:03.000",
    "request_status": "Pending",
    "responsible_agency": "Department of Sanitation",
    "final_address": "1114 Bordeaux St",
    "address_councildis": "B",
    "status": "Assigned to Contractor",
    "contractor": "IV Waste",
    "rowid": "1099017",
    "final_x": "3669458.60385",
    "final_y": "519504.743927",
    "longitude": "-90.10649904413462",
    "latitude": "29.922817723308707",
    "geocoded_column": {
      "latitude": "29.922817723308707",
      "longitude": "-90.10649904413462"
    }
  },
  {
    "service_request": "2024-1099016",
    "request_type": "Abandoned Vehicles",
    "request_reason": "Abandoned/Junk Vehicles",
    "date_created": "2024-06-02T20:35:54.000",
    "date_modified": "2024-06-02T20:35:54.000",
    "request_status": "Pending",
    "responsible_agency": "Department of Public Works",
    "final_address": "719 N Dorgenois St",
    "address_councildis": "D",
    "status": "Pending",
    "rowid": "1099016",
    "final_x": "3677304.53326",
    "final_y": "536871.044488",
    "longitude": "-90.0811334515116",
    "latitude": "29.970335961432898",
    "geocoded_column": {
      "latitude": "29.970335961432898",
      "longitude": "-90.0811334515116"
    }
  },
  {
    "service_request": "2024-1099015",
    "request_type": "Property Maintenance",
    "request_reason": "Property Maintenance",
    "date_created": "2024-06-02T20:28:58.000",
    "date_modified": "2024-06-02T20:28:58.000",
    "request_status": "Pending",
    "responsible_agency": "Department of Code Enforcement",
    "final_address": "8830 Green St",
    "address_councildis": "A",
    "status": "Pending",
    "rowid": "1099015",
    "final_x": "3661145.95661",
    "final_y": "531437.108931",
    "longitude": "-90.13234415106363",
    "latitude": "29.95587006109095",
    "geocoded_column": {
      "latitude": "29.95587006109095",
      "longitude": "-90.13234415106363"
    }
  },
  {
    "service_request": "2024-1099014",
    "request_type": "Trash/Recycling",
    "request_reason": "Request a Large Item Pick Up",
    "date_created": "2024-06-02T20:19:41.000",
    "date_modified": "2024-06-02T20:19:42.000",
    "request_status": "Pending",
    "responsible_agency": "Department of Sanitation",
    "final_address": "439 40Th St",
    "address_councildis": "A",
    "status": "Assigned to Contractor",
    "contractor": "IV Waste",
    "rowid": "1099014",
    "final_x": "3664734.48199",
    "final_y": "553434.447575",
    "longitude": "-90.12027744382496",
    "latitude": "30.016251407674847",
    "geocoded_column": {
      "latitude": "30.016251407674847",
      "longitude": "-90.12027744382496"
    }
  },
  {
    "service_request": "2024-1099013",
    "request_type": "Property Maintenance",
    "request_reason": "Property Maintenance",
    "date_created": "2024-06-02T20:17:26.000",
    "date_modified": "2024-06-02T20:17:26.000",
    "request_status": "Pending",
    "responsible_agency": "Department of Code Enforcement",
    "final_address": "9017 Green St",
    "address_councildis": "A",
    "status": "Pending",
    "rowid": "1099013",
    "final_x": "3660709.24",
    "final_y": "531947.986755",
    "longitude": "-90.1337062685573",
    "latitude": "29.957287389302227",
    "geocoded_column": {
      "latitude": "29.957287389302227",
      "longitude": "-90.1337062685573"
    }
  },
  {
    "service_request": "2024-1099012",
    "request_type": "Roads/Drainage",
    "request_reason": "Street Subsidence (Sinking)",
    "date_created": "2024-06-02T20:15:14.000",
    "date_modified": "2024-06-02T20:15:14.000",
    "request_status": "Pending",
    "responsible_agency": "Department of Public Works",
    "final_address": "2624 Burgundy St",
    "address_councildis": "C",
    "status": "Pending",
    "rowid": "1099012",
    "final_x": "3687104.97954",
    "final_y": "535526.049606",
    "longitude": "-90.05023020759171",
    "latitude": "29.96633956287267",
    "geocoded_column": {
      "latitude": "29.96633956287267",
      "longitude": "-90.05023020759171"
    }
  },
  {
    "service_request": "2024-1099011",
    "request_type": "Trash/Recycling",
    "request_reason": "Request a Large Item Pick Up",
    "date_created": "2024-06-02T20:14:40.000",
    "date_modified": "2024-06-02T20:14:41.000",
    "request_status": "Pending",
    "responsible_agency": "Department of Sanitation",
    "final_address": "301 Pelican Ave",
    "address_councildis": "C",
    "status": "Assigned to Contractor",
    "contractor": "Richards Disposal",
    "rowid": "1099011",
    "final_x": "3686248.93135",
    "final_y": "530248.372801",
    "longitude": "-90.05311980073412",
    "latitude": "29.951854100028214",
    "geocoded_column": {
      "latitude": "29.951854100028214",
      "longitude": "-90.05311980073412"
    }
  },
  {
    "service_request": "2024-1099010",
    "request_type": "Parks & Parkways",
    "request_reason": "Request Tree Service (Right of Way/Public Property)",
    "date_created": "2024-06-02T19:54:29.000",
    "date_modified": "2024-06-02T19:54:29.000",
    "request_status": "Pending",
    "responsible_agency": "Department of Parks & Parkway",
    "final_address": "1225 N Dupre St",
    "address_councildis": "A",
    "status": "Pending",
    "rowid": "1099010",
    "final_x": "3676991.10126",
    "final_y": "539498.372746",
    "longitude": "-90.08203269412525",
    "latitude": "29.97756962870873",
    "geocoded_column": {
      "latitude": "29.97756962870873",
      "longitude": "-90.08203269412525"
    }
  },
  {
    "service_request": "2024-1099009",
    "request_type": "Abandoned Vehicles",
    "request_reason": "Abandoned/Junk Vehicles",
    "date_created": "2024-06-02T19:52:55.000",
    "date_modified": "2024-06-02T19:52:55.000",
    "request_status": "Pending",
    "responsible_agency": "Department of Public Works",
    "final_address": "9017 Green St",
    "address_councildis": "A",
    "status": "Pending",
    "rowid": "1099009",
    "final_x": "3660709.24",
    "final_y": "531947.986755",
    "longitude": "-90.1337062685573",
    "latitude": "29.957287389302227",
    "geocoded_column": {
      "latitude": "29.957287389302227",
      "longitude": "-90.1337062685573"
    }
  },
  {
    "service_request": "2024-1099008",
    "request_type": "Abandoned Vehicles",
    "request_reason": "Abandoned/Junk Vehicles",
    "date_created": "2024-06-02T19:46:04.000",
    "date_modified": "2024-06-02T19:46:04.000",
    "request_status": "Pending",
    "responsible_agency": "Department of Public Works",
    "final_address": "8941 Green St",
    "address_councildis": "A",
    "status": "Pending",
    "rowid": "1099008",
    "final_x": "3660860.75994",
    "final_y": "531802.477251",
    "longitude": "-90.13323262430151",
    "latitude": "29.956882922413357",
    "geocoded_column": {
      "latitude": "29.956882922413357",
      "longitude": "-90.13323262430151"
    }
  },
  {
    "service_request": "2024-1099007",
    "request_type": "Property Maintenance",
    "request_reason": "Property Maintenance",
    "date_created": "2024-06-02T19:43:15.000",
    "date_modified": "2024-06-02T19:43:15.000",
    "request_status": "Pending",
    "responsible_agency": "Department of Code Enforcement",
    "final_address": "5421 Read Blvd",
    "address_councildis": "E",
    "status": "Pending",
    "rowid": "1099007",
    "final_x": "3712520.79237",
    "final_y": "558281.435164",
    "longitude": "-89.96911278004058",
    "latitude": "30.028101124535663",
    "geocoded_column": {
      "latitude": "30.028101124535663",
      "longitude": "-89.96911278004058"
    }
  },
  {
    "service_request": "2024-1099006",
    "request_type": "Property Maintenance",
    "request_reason": "Property Maintenance",
    "date_created": "2024-06-02T19:40:44.000",
    "date_modified": "2024-06-02T19:40:44.000",
    "request_status": "Pending",
    "responsible_agency": "Department of Code Enforcement",
    "final_address": "4942 Bundy Rd",
    "address_councildis": "E",
    "status": "Pending",
    "rowid": "1099006",
    "final_x": "3709047.57796",
    "final_y": "556892.072794",
    "longitude": "-89.98013967008764",
    "latitude": "30.024394166843155",
    "geocoded_column": {
      "latitude": "30.024394166843155",
      "longitude": "-89.98013967008764"
    }
  },
  {
    "service_request": "2024-1099005",
    "request_type": "Property Maintenance",
    "request_reason": "Property Maintenance",
    "date_created": "2024-06-02T19:38:13.000",
    "date_modified": "2024-06-02T19:38:13.000",
    "request_status": "Pending",
    "responsible_agency": "Department of Code Enforcement",
    "final_address": "4768 Donna Dr",
    "address_councildis": "E",
    "status": "Pending",
    "rowid": "1099005",
    "final_x": "3710920.80293",
    "final_y": "555991.911769",
    "longitude": "-89.97425440942176",
    "latitude": "30.021858116868014",
    "geocoded_column": {
      "latitude": "30.021858116868014",
      "longitude": "-89.97425440942176"
    }
  },
  {
    "service_request": "2024-1099004",
    "request_type": "Property Maintenance",
    "request_reason": "Property Maintenance",
    "date_created": "2024-06-02T19:35:55.000",
    "date_modified": "2024-06-02T19:35:55.000",
    "request_status": "Pending",
    "responsible_agency": "Department of Code Enforcement",
    "final_address": "4789 Donna Dr",
    "address_councildis": "E",
    "status": "Pending",
    "rowid": "1099004",
    "final_x": "3711024.78853",
    "final_y": "556168.125338",
    "longitude": "-89.97391923947067",
    "latitude": "30.022339243365984",
    "geocoded_column": {
      "latitude": "30.022339243365984",
      "longitude": "-89.97391923947067"
    }
  },
  {
    "service_request": "2024-1099003",
    "request_type": "Trash/Recycling",
    "request_reason": "Request a Large Item Pick Up",
    "date_created": "2024-06-02T19:33:36.000",
    "date_modified": "2024-06-02T19:33:36.000",
    "request_status": "Pending",
    "responsible_agency": "Department of Sanitation",
    "final_address": "27 Honeysuckle Ln",
    "address_councildis": "E",
    "status": "Assigned to Contractor",
    "contractor": "Waste Pro",
    "rowid": "1099003",
    "final_x": "3713039.35275",
    "final_y": "568522.473637",
    "longitude": "-89.96708832220801",
    "latitude": "30.056242867478442",
    "geocoded_column": {
      "latitude": "30.056242867478442",
      "longitude": "-89.96708832220801"
    }
  },
  {
    "service_request": "2024-1099002",
    "request_type": "Roads/Drainage",
    "request_reason": "Street Subsidence (Sinking)",
    "date_created": "2024-06-02T19:32:07.000",
    "date_modified": "2024-06-02T19:32:07.000",
    "request_status": "Pending",
    "responsible_agency": "Department of Public Works",
    "final_address": "4757 Music St",
    "address_councildis": "D",
    "status": "Pending",
    "rowid": "1099002",
    "final_x": "3685708.05686",
    "final_y": "550657.129556",
    "longitude": "-90.05410819627038",
    "latitude": "30.0079875953223",
    "geocoded_column": {
      "latitude": "30.0079875953223",
      "longitude": "-90.05410819627038"
    }
  },
  {
    "service_request": "2024-1099001",
    "request_type": "Roads/Drainage",
    "request_reason": "Street Subsidence (Sinking)",
    "date_created": "2024-06-02T19:30:57.000",
    "date_modified": "2024-06-02T19:30:57.000",
    "request_status": "Pending",
    "responsible_agency": "Department of Public Works",
    "final_address": "4757 Music St",
    "address_councildis": "D",
    "status": "Pending",
    "rowid": "1099001",
    "final_x": "3685708.05686",
    "final_y": "550657.129556",
    "longitude": "-90.05410819627038",
    "latitude": "30.0079875953223",
    "geocoded_column": {
      "latitude": "30.0079875953223",
      "longitude": "-90.05410819627038"
    }
  },
  {
    "service_request": "2024-1099000",
    "request_type": "Roads/Drainage",
    "request_reason": "Street Subsidence (Sinking)",
    "date_created": "2024-06-02T19:29:43.000",
    "date_modified": "2024-06-02T19:29:43.000",
    "request_status": "Pending",
    "responsible_agency": "Department of Public Works",
    "final_address": "4757 Music St",
    "address_councildis": "D",
    "status": "Pending",
    "rowid": "1099000",
    "final_x": "3685708.05686",
    "final_y": "550657.129556",
    "longitude": "-90.05410819627038",
    "latitude": "30.0079875953223",
    "geocoded_column": {
      "latitude": "30.0079875953223",
      "longitude": "-90.05410819627038"
    }
  },
  {
    "service_request": "2024-1098999",
    "request_type": "Trash/Recycling",
    "request_reason": "Request a Large Item Pick Up",
    "date_created": "2024-06-02T19:08:42.000",
    "date_modified": "2024-06-02T19:08:43.000",
    "request_status": "Pending",
    "responsible_agency": "Department of Sanitation",
    "final_address": "7806 Breakwater Dr",
    "address_councildis": "A",
    "status": "Assigned to Contractor",
    "contractor": "IV Waste",
    "rowid": "1098999",
    "final_x": "3664815.10087",
    "final_y": "557384.824795",
    "longitude": "-90.1198905435819",
    "latitude": "30.027111205096954",
    "geocoded_column": {
      "latitude": "30.027111205096954",
      "longitude": "-90.1198905435819"
    }
  },
  {
    "service_request": "2024-1098998",
    "request_type": "Roads/Drainage",
    "request_reason": "Street Subsidence (Sinking)",
    "date_created": "2024-06-02T18:59:02.000",
    "date_modified": "2024-06-02T18:59:02.000",
    "request_status": "Pending",
    "responsible_agency": "Department of Public Works",
    "final_address": "600 BLK Conrad St",
    "address_councildis": "A",
    "status": "Pending",
    "rowid": "1098998",
    "final_x": "3668888.5549",
    "final_y": "554313.862945",
    "longitude": "-90.10712261173464",
    "latitude": "30.01854791202854",
    "geocoded_column": {
      "latitude": "30.01854791202854",
      "longitude": "-90.10712261173464"
    }
  },
  {
    "service_request": "2024-1098997",
    "request_type": "Abandoned Vehicles",
    "request_reason": "Abandoned/Junk Vehicles",
    "date_created": "2024-06-02T18:53:45.000",
    "date_modified": "2024-06-02T18:53:45.000",
    "request_status": "Pending",
    "responsible_agency": "Department of Public Works",
    "final_address": "2239 Saint Claude Ave, New Orleans, Louisiana, 70117",
    "status": "Pending",
    "rowid": "1098997",
    "longitude": "0.0",
    "latitude": "0.0",
    "geocoded_column": {
      "latitude": "0.0",
      "longitude": "0.0"
    }
  },
  {
    "service_request": "2024-1098996",
    "request_type": "Trash/Recycling",
    "request_reason": "Repair Recycling Cart",
    "date_created": "2024-06-02T18:50:11.000",
    "date_modified": "2024-06-02T18:50:11.000",
    "request_status": "Pending",
    "responsible_agency": "Department of Sanitation",
    "final_address": "1621 Bordeaux St",
    "address_councildis": "B",
    "status": "Pending",
    "rowid": "1098996",
    "final_x": "3669403.42964",
    "final_y": "520900.215225",
    "longitude": "-90.10662604955981",
    "latitude": "29.92665645023131",
    "geocoded_column": {
      "latitude": "29.92665645023131",
      "longitude": "-90.10662604955981"
    }
  },
  {
    "service_request": "2024-1098995",
    "request_type": "Trash/Recycling",
    "request_reason": "Order Recycling Cart",
    "date_created": "2024-06-02T18:48:08.000",
    "date_modified": "2024-06-02T18:48:08.000",
    "request_status": "Pending",
    "responsible_agency": "Department of Sanitation",
    "final_address": "3501 Silver Maple Ct",
    "address_councildis": "C",
    "status": "Pending",
    "rowid": "1098995",
    "final_x": "3703509.25694",
    "final_y": "512422.170737",
    "longitude": "-89.9992756263009",
    "latitude": "29.902296694216",
    "geocoded_column": {
      "latitude": "29.902296694216",
      "longitude": "-89.9992756263009"
    }
  },
  {
    "service_request": "2024-1098994",
    "request_type": "Trash/Recycling",
    "request_reason": "Order Recycling Cart",
    "date_created": "2024-06-02T18:43:15.000",
    "date_modified": "2024-06-02T18:43:15.000",
    "request_status": "Pending",
    "responsible_agency": "Department of Sanitation",
    "final_address": "2120 Valmont St",
    "address_councildis": "B",
    "status": "Pending",
    "rowid": "1098994",
    "final_x": "3668085.23514",
    "final_y": "523430.270907",
    "longitude": "-90.11070202485854",
    "latitude": "29.933652035545443",
    "geocoded_column": {
      "latitude": "29.933652035545443",
      "longitude": "-90.11070202485854"
    }
  },
  {
    "service_request": "2024-1098993",
    "request_type": "Trash/Recycling",
    "request_reason": "Request a Large Item Pick Up",
    "date_created": "2024-06-02T18:32:05.000",
    "date_modified": "2024-06-02T18:32:05.000",
    "request_status": "Pending",
    "responsible_agency": "Department of Sanitation",
    "final_address": "414 Emerald St",
    "address_councildis": "D",
    "status": "Assigned to Contractor",
    "contractor": "IV Waste",
    "rowid": "1098993",
    "final_x": "3667953.53159",
    "final_y": "555020.623897",
    "longitude": "-90.11005311485661",
    "latitude": "30.020518734251635",
    "geocoded_column": {
      "latitude": "30.020518734251635",
      "longitude": "-90.11005311485661"
    }
  },
  {
    "service_request": "2024-1098992",
    "request_type": "Mosquito, Termite & Rodent Control",
    "request_reason": "Rodent Complaint (Rats)",
    "date_created": "2024-06-02T18:26:04.000",
    "date_modified": "2024-06-02T18:26:04.000",
    "request_status": "Pending",
    "responsible_agency": "Mosquito, Termite & Rodent Control Board",
    "final_address": "2532 Nashville Ave",
    "address_councildis": "A",
    "status": "Pending",
    "rowid": "1098992",
    "final_x": "3667188.00897",
    "final_y": "525478.897661",
    "longitude": "-90.11346567968742",
    "latitude": "29.939311396825637",
    "geocoded_column": {
      "latitude": "29.939311396825637",
      "longitude": "-90.11346567968742"
    }
  },
  {
    "service_request": "2024-1098991",
    "request_type": "Roads/Drainage",
    "request_reason": "Man hole cover issue",
    "date_created": "2024-06-02T17:58:37.000",
    "date_modified": "2024-06-02T17:58:37.000",
    "request_status": "Pending",
    "responsible_agency": "Department of Public Works",
    "final_address": "500 Webster St",
    "address_councildis": "A",
    "status": "Pending",
    "rowid": "1098991",
    "final_x": "3663762.15379",
    "final_y": "518558.032119",
    "longitude": "-90.12451210317536",
    "latitude": "29.920381038023393",
    "geocoded_column": {
      "latitude": "29.920381038023393",
      "longitude": "-90.12451210317536"
    }
  },
  {
    "service_request": "2024-1098990",
    "request_type": "Trash/Recycling",
    "request_reason": "Order Recycling Cart",
    "date_created": "2024-06-02T17:54:09.000",
    "date_modified": "2024-06-02T17:54:09.000",
    "request_status": "Pending",
    "responsible_agency": "Department of Sanitation",
    "final_address": "6633 Milne Blvd B",
    "address_councildis": "A",
    "status": "Pending",
    "rowid": "1098990",
    "final_x": "3667515.85562",
    "final_y": "551728.867797",
    "longitude": "-90.11154694729751",
    "latitude": "30.011480405256535",
    "geocoded_column": {
      "latitude": "30.011480405256535",
      "longitude": "-90.11154694729751"
    }
  },
  {
    "service_request": "2024-1098988",
    "request_type": "Trash/Recycling",
    "request_reason": "Request a Large Item Pick Up",
    "date_created": "2024-06-02T17:46:33.000",
    "date_modified": "2024-06-02T17:46:34.000",
    "request_status": "Pending",
    "responsible_agency": "Department of Sanitation",
    "final_address": "2730 Jefferson Ave",
    "address_councildis": "A",
    "status": "Assigned to Contractor",
    "contractor": "IV Waste",
    "rowid": "1098988",
    "final_x": "3668149.83988",
    "final_y": "525559.197053",
    "longitude": "-90.110426340811",
    "latitude": "29.939504003429434",
    "geocoded_column": {
      "latitude": "29.939504003429434",
      "longitude": "-90.110426340811"
    }
  },
  {
    "service_request": "2024-1098987",
    "request_type": "Abandoned Vehicles",
    "request_reason": "Abandoned/Junk Vehicles",
    "date_created": "2024-06-02T17:43:06.000",
    "date_modified": "2024-06-02T17:43:06.000",
    "request_status": "Pending",
    "responsible_agency": "Department of Public Works",
    "final_address": "700 BLK Girod St",
    "address_councildis": "B",
    "status": "Pending",
    "rowid": "1098987",
    "final_x": "3680326.75512",
    "final_y": "528598.118444",
    "longitude": "-90.07187657702087",
    "latitude": "29.9474970623516",
    "geocoded_column": {
      "latitude": "29.9474970623516",
      "longitude": "-90.07187657702087"
    }
  },
  {
    "service_request": "2024-1098986",
    "request_type": "Parks & Parkways",
    "request_reason": "Request Tree Service (Right of Way/Public Property)",
    "date_created": "2024-06-02T17:40:11.000",
    "date_modified": "2024-06-02T17:40:11.000",
    "request_status": "Pending",
    "responsible_agency": "Department of Parks & Parkway",
    "final_address": "2766 Orchid St",
    "address_councildis": "A",
    "status": "Pending",
    "rowid": "1098986",
    "final_x": "3677304.52258",
    "final_y": "538680.939145",
    "longitude": "-90.08107101808504",
    "latitude": "29.975312552432165",
    "geocoded_column": {
      "latitude": "29.975312552432165",
      "longitude": "-90.08107101808504"
    }
  },
  {
    "service_request": "2024-1098985",
    "request_type": "Trash/Recycling",
    "request_reason": "Replace Recycling Cart",
    "date_created": "2024-06-02T17:28:28.000",
    "date_modified": "2024-06-02T17:28:28.000",
    "request_status": "Pending",
    "responsible_agency": "Department of Sanitation",
    "final_address": "1018 N Robertson St",
    "address_councildis": "C",
    "status": "Pending",
    "rowid": "1098985",
    "final_x": "3680879.13083",
    "final_y": "535363.93447",
    "longitude": "-90.06989696740071",
    "latitude": "29.966084029776816",
    "geocoded_column": {
      "latitude": "29.966084029776816",
      "longitude": "-90.06989696740071"
    }
  },
  {
    "service_request": "2024-1098984",
    "request_type": "Trash/Recycling",
    "request_reason": "Replace Recycling Cart",
    "date_created": "2024-06-02T17:27:29.000",
    "date_modified": "2024-06-02T17:27:29.000",
    "request_status": "Pending",
    "responsible_agency": "Department of Sanitation",
    "final_address": "1020 N Robertson St",
    "address_councildis": "C",
    "status": "Pending",
    "rowid": "1098984",
    "final_x": "3680888.80751",
    "final_y": "535373.468998",
    "longitude": "-90.06986607669583",
    "latitude": "29.96610995307539",
    "geocoded_column": {
      "latitude": "29.96610995307539",
      "longitude": "-90.06986607669583"
    }
  },
  {
    "service_request": "2024-1098983",
    "request_type": "Trash/Recycling",
    "request_reason": "Repair Recycling Cart",
    "date_created": "2024-06-02T17:27:21.000",
    "date_modified": "2024-06-02T17:27:21.000",
    "request_status": "Pending",
    "responsible_agency": "Department of Sanitation",
    "final_address": "3051 St Ann St",
    "address_councildis": "A",
    "status": "Pending",
    "rowid": "1098983",
    "final_x": "3675602.04053",
    "final_y": "538265.976713",
    "longitude": "-90.08646217807333",
    "latitude": "29.974222597893068",
    "geocoded_column": {
      "latitude": "29.974222597893068",
      "longitude": "-90.08646217807333"
    }
  },
  {
    "service_request": "2024-1098982",
    "request_type": "Trash/Recycling",
    "request_reason": "Replace Trash Cart",
    "date_created": "2024-06-02T17:26:25.000",
    "date_modified": "2024-06-02T17:26:26.000",
    "request_status": "Pending",
    "responsible_agency": "Department of Sanitation",
    "final_address": "1020 N Robertson St",
    "address_councildis": "C",
    "status": "Assigned to Contractor",
    "contractor": "IV Waste",
    "rowid": "1098982",
    "final_x": "3680888.80751",
    "final_y": "535373.468998",
    "longitude": "-90.06986607669583",
    "latitude": "29.96610995307539",
    "geocoded_column": {
      "latitude": "29.96610995307539",
      "longitude": "-90.06986607669583"
    }
  },
  {
    "service_request": "2024-1098981",
    "request_type": "Property Maintenance",
    "request_reason": "Property Maintenance",
    "date_created": "2024-06-02T17:18:11.000",
    "date_modified": "2024-06-02T17:18:11.000",
    "request_status": "Pending",
    "responsible_agency": "Department of Code Enforcement",
    "final_address": "8321 Green St",
    "address_councildis": "A",
    "status": "Pending",
    "rowid": "1098981",
    "final_x": "3662499.84621",
    "final_y": "530318.412802",
    "longitude": "-90.12810617342183",
    "latitude": "29.952754919539192",
    "geocoded_column": {
      "latitude": "29.952754919539192",
      "longitude": "-90.12810617342183"
    }
  },
  {
    "service_request": "2024-1098980",
    "request_type": "Trash/Recycling",
    "request_reason": "Replace Trash Cart",
    "date_created": "2024-06-02T17:13:45.000",
    "date_modified": "2024-06-02T17:13:46.000",
    "request_status": "Pending",
    "responsible_agency": "Department of Sanitation",
    "final_address": "2119 Calhoun St",
    "address_councildis": "A",
    "status": "Assigned to Contractor",
    "contractor": "IV Waste",
    "rowid": "1098980",
    "final_x": "3665746.39316",
    "final_y": "524886.796412",
    "longitude": "-90.11803688993534",
    "latitude": "29.93772542965039",
    "geocoded_column": {
      "latitude": "29.93772542965039",
      "longitude": "-90.11803688993534"
    }
  },
  {
    "service_request": "2024-1098979",
    "request_type": "Abandoned Vehicles",
    "request_reason": "Abandoned/Junk Vehicles",
    "date_created": "2024-06-02T17:10:11.000",
    "date_modified": "2024-06-02T17:10:11.000",
    "request_status": "Pending",
    "responsible_agency": "Department of Public Works",
    "final_address": "2800 BLK Joseph St",
    "address_councildis": "A",
    "status": "Pending",
    "rowid": "1098979",
    "final_x": "3667774.42951",
    "final_y": "526344.654447",
    "longitude": "-90.11158512494103",
    "latitude": "29.941674769690184",
    "geocoded_column": {
      "latitude": "29.941674769690184",
      "longitude": "-90.11158512494103"
    }
  },
  {
    "service_request": "2024-1098978",
    "request_type": "Abandoned Vehicles",
    "request_reason": "Abandoned/Junk Vehicles",
    "date_created": "2024-06-02T16:48:26.000",
    "date_modified": "2024-06-02T16:48:26.000",
    "request_status": "Pending",
    "responsible_agency": "Department of Public Works",
    "final_address": "2202 Foucher St",
    "address_councildis": "B",
    "status": "Pending",
    "rowid": "1098978",
    "final_x": "3672738.79112",
    "final_y": "523338.011259",
    "longitude": "-90.09601410301875",
    "latitude": "29.933260998149848",
    "geocoded_column": {
      "latitude": "29.933260998149848",
      "longitude": "-90.09601410301875"
    }
  },
  {
    "service_request": "2024-1098977",
    "request_type": "Abandoned Vehicles",
    "request_reason": "Abandoned/Junk Vehicles",
    "date_created": "2024-06-02T16:30:42.000",
    "date_modified": "2024-06-02T16:30:42.000",
    "request_status": "Pending",
    "responsible_agency": "Department of Public Works",
    "final_address": "3201 St Ann St",
    "address_councildis": "A",
    "status": "Pending",
    "rowid": "1098977",
    "final_x": "3675174.84878",
    "final_y": "538587.846153",
    "longitude": "-90.0878003007831",
    "latitude": "29.97512040407031",
    "geocoded_column": {
      "latitude": "29.97512040407031",
      "longitude": "-90.0878003007831"
    }
  },
  {
    "service_request": "2024-1098976",
    "request_type": "Trash/Recycling",
    "request_reason": "Replace Trash Cart",
    "date_created": "2024-06-02T16:13:57.000",
    "date_modified": "2024-06-02T16:13:57.000",
    "request_status": "Pending",
    "responsible_agency": "Department of Sanitation",
    "final_address": "2929 St Philip St",
    "address_councildis": "A",
    "status": "Assigned to Contractor",
    "contractor": "IV Waste",
    "rowid": "1098976",
    "final_x": "3676506.34542",
    "final_y": "538627.003465",
    "longitude": "-90.08359373465836",
    "latitude": "29.97518820915213",
    "geocoded_column": {
      "latitude": "29.97518820915213",
      "longitude": "-90.08359373465836"
    }
  },
  {
    "service_request": "2024-1098975",
    "request_type": "Trash/Recycling",
    "request_reason": "Replace Trash Cart",
    "date_created": "2024-06-02T16:08:28.000",
    "date_modified": "2024-06-02T16:08:29.000",
    "request_status": "Pending",
    "responsible_agency": "Department of Sanitation",
    "final_address": "2927 St Philip St",
    "address_councildis": "A",
    "status": "Assigned to Contractor",
    "contractor": "IV Waste",
    "rowid": "1098975",
    "final_x": "3676509.26414",
    "final_y": "538639.188937",
    "longitude": "-90.0835840968163",
    "latitude": "29.97522162749264",
    "geocoded_column": {
      "latitude": "29.97522162749264",
      "longitude": "-90.0835840968163"
    }
  },
  {
    "service_request": "2024-1098974",
    "request_type": "Property Maintenance",
    "request_reason": "Property Maintenance",
    "date_created": "2024-06-02T16:05:28.000",
    "date_modified": "2024-06-02T16:05:28.000",
    "request_status": "Pending",
    "responsible_agency": "Department of Code Enforcement",
    "final_address": "2329 Alvar St",
    "address_councildis": "D",
    "status": "Pending",
    "rowid": "1098974",
    "final_x": "3692735.11337",
    "final_y": "540177.917835",
    "longitude": "-90.03228361068493",
    "latitude": "29.978955992458",
    "geocoded_column": {
      "latitude": "29.978955992458",
      "longitude": "-90.03228361068493"
    }
  },
  {
    "service_request": "2024-1098973",
    "request_type": "Roads/Drainage",
    "request_reason": "Street Flooding / Drainage",
    "date_created": "2024-06-02T15:46:48.000",
    "date_modified": "2024-06-02T15:46:48.000",
    "request_status": "Pending",
    "responsible_agency": "Department of Public Works",
    "final_address": "1725 Laharpe St",
    "address_councildis": "D",
    "status": "Pending",
    "rowid": "1098973",
    "final_x": "3681507.9316",
    "final_y": "537864.361481",
    "longitude": "-90.06782402218448",
    "latitude": "29.972940263272132",
    "geocoded_column": {
      "latitude": "29.972940263272132",
      "longitude": "-90.06782402218448"
    }
  },
  {
    "service_request": "2024-1098972",
    "request_type": "Trash/Recycling",
    "request_reason": "Request a Large Item Pick Up",
    "date_created": "2024-06-02T15:44:54.000",
    "date_modified": "2024-06-02T15:44:55.000",
    "request_status": "Pending",
    "responsible_agency": "Department of Sanitation",
    "final_address": "8111 Freret St",
    "address_councildis": "A",
    "status": "Assigned to Contractor",
    "contractor": "IV Waste",
    "rowid": "1098972",
    "final_x": "3661403.0809",
    "final_y": "527992.966335",
    "longitude": "-90.13164629255597",
    "latitude": "29.94639236176137",
    "geocoded_column": {
      "latitude": "29.94639236176137",
      "longitude": "-90.13164629255597"
    }
  },
  {
    "service_request": "2024-1098971",
    "request_type": "Roads/Drainage",
    "request_reason": "Catch Basin - Broken/Damage",
    "date_created": "2024-06-02T15:44:46.000",
    "date_modified": "2024-06-02T15:44:46.000",
    "request_status": "Pending",
    "responsible_agency": "Department of Public Works",
    "final_address": "Laharpe Street & North Prieur Street",
    "address_councildis": "D",
    "status": "Pending",
    "rowid": "1098971",
    "final_x": "3681102.50095",
    "final_y": "538134.563145",
    "longitude": "-90.06909503403037",
    "latitude": "29.97369553041758",
    "geocoded_column": {
      "latitude": "29.97369553041758",
      "longitude": "-90.06909503403037"
    }
  },
  {
    "service_request": "2024-1098970",
    "request_type": "Roads/Drainage",
    "request_reason": "Pothole",
    "date_created": "2024-06-02T15:22:26.000",
    "date_modified": "2024-06-02T15:22:26.000",
    "request_status": "Pending",
    "responsible_agency": "Department of Public Works",
    "final_address": "1312 Milan St",
    "address_councildis": "B",
    "status": "Pending",
    "rowid": "1098970",
    "final_x": "3671625.82823",
    "final_y": "520286.919608",
    "longitude": "-90.09963137110304",
    "latitude": "29.92490447494246",
    "geocoded_column": {
      "latitude": "29.92490447494246",
      "longitude": "-90.09963137110304"
    }
  },
  {
    "service_request": "2024-1098969",
    "request_type": "Trash/Recycling",
    "request_reason": "Request a Large Item Pick Up",
    "date_created": "2024-06-02T15:21:22.000",
    "date_modified": "2024-06-02T15:21:22.000",
    "request_status": "Pending",
    "responsible_agency": "Department of Sanitation",
    "final_address": "1920 Broadway St",
    "address_councildis": "A",
    "status": "Assigned to Contractor",
    "contractor": "IV Waste",
    "rowid": "1098969",
    "final_x": "3665616.95744",
    "final_y": "528757.706816",
    "longitude": "-90.11831594444251",
    "latitude": "29.948372963475745",
    "geocoded_column": {
      "latitude": "29.948372963475745",
      "longitude": "-90.11831594444251"
    }
  },
  {
    "service_request": "2024-1098968",
    "request_type": "Trash/Recycling",
    "request_reason": "Missed Trash Pick-Up",
    "date_created": "2024-06-02T15:20:49.000",
    "date_modified": "2024-06-02T15:20:49.000",
    "request_status": "Pending",
    "responsible_agency": "Department of Sanitation",
    "final_address": "7713 Redfish St",
    "address_councildis": "E",
    "status": "Assigned to Contractor",
    "contractor": "Waste Pro",
    "rowid": "1098968",
    "final_x": "3698778.14557",
    "final_y": "560533.836702",
    "longitude": "-90.01245639422453",
    "latitude": "30.03473708801126",
    "geocoded_column": {
      "latitude": "30.03473708801126",
      "longitude": "-90.01245639422453"
    }
  },
  {
    "service_request": "2024-1098967",
    "request_type": "Trash/Recycling",
    "request_reason": "Request a Large Item Pick Up",
    "date_created": "2024-06-02T15:20:38.000",
    "date_modified": "2024-06-02T15:20:38.000",
    "request_status": "Pending",
    "responsible_agency": "Department of Sanitation",
    "final_address": "1920 Broadway St",
    "address_councildis": "A",
    "status": "Assigned to Contractor",
    "contractor": "IV Waste",
    "rowid": "1098967",
    "final_x": "3665616.95744",
    "final_y": "528757.706816",
    "longitude": "-90.11831594444251",
    "latitude": "29.948372963475745",
    "geocoded_column": {
      "latitude": "29.948372963475745",
      "longitude": "-90.11831594444251"
    }
  },
  {
    "service_request": "2024-1098966",
    "request_type": "Trash/Recycling",
    "request_reason": "Order Recycling Cart",
    "date_created": "2024-06-02T15:17:12.000",
    "date_modified": "2024-06-02T15:17:12.000",
    "request_status": "Pending",
    "responsible_agency": "Department of Sanitation",
    "final_address": "7713 Redfish St",
    "address_councildis": "E",
    "status": "Pending",
    "rowid": "1098966",
    "final_x": "3698778.14557",
    "final_y": "560533.836702",
    "longitude": "-90.01245639422453",
    "latitude": "30.03473708801126",
    "geocoded_column": {
      "latitude": "30.03473708801126",
      "longitude": "-90.01245639422453"
    }
  },
  {
    "service_request": "2024-1098965",
    "request_type": "Roads/Drainage",
    "request_reason": "Pothole",
    "date_created": "2024-06-02T15:13:54.000",
    "date_modified": "2024-06-02T15:13:54.000",
    "request_status": "Pending",
    "responsible_agency": "Department of Public Works",
    "final_address": "4216 Chestnut St",
    "address_councildis": "B",
    "status": "Pending",
    "rowid": "1098965",
    "final_x": "3671574.31393",
    "final_y": "519539.203703",
    "longitude": "-90.09981939416457",
    "latitude": "29.922850019854593",
    "geocoded_column": {
      "latitude": "29.922850019854593",
      "longitude": "-90.09981939416457"
    }
  },
  {
    "service_request": "2024-1098964",
    "request_type": "Trash/Recycling",
    "request_reason": "Request a Large Item Pick Up",
    "date_created": "2024-06-02T15:07:38.000",
    "date_modified": "2024-06-02T15:07:39.000",
    "request_status": "Pending",
    "responsible_agency": "Department of Sanitation",
    "final_address": "7827 Sycamore St",
    "address_councildis": "A",
    "status": "Assigned to Contractor",
    "contractor": "IV Waste",
    "rowid": "1098964",
    "final_x": "3665021.92941",
    "final_y": "530395.365186",
    "longitude": "-90.1201399553739",
    "latitude": "29.95289332949494",
    "geocoded_column": {
      "latitude": "29.95289332949494",
      "longitude": "-90.1201399553739"
    }
  },
  {
    "service_request": "2024-1098963",
    "request_type": "Trash/Recycling",
    "request_reason": "Missed Trash Pick-Up",
    "date_created": "2024-06-02T14:58:34.000",
    "date_modified": "2024-06-02T14:58:35.000",
    "request_status": "Pending",
    "responsible_agency": "Department of Sanitation",
    "final_address": "419 Seguin St",
    "address_councildis": "C",
    "status": "Assigned to Contractor",
    "contractor": "Richards Disposal",
    "rowid": "1098963",
    "final_x": "3686268.87145",
    "final_y": "530105.985409",
    "longitude": "-90.05306186289025",
    "latitude": "29.951461970746035",
    "geocoded_column": {
      "latitude": "29.951461970746035",
      "longitude": "-90.05306186289025"
    }
  },
  {
    "service_request": "2024-1098962",
    "request_type": "Safety & Permits",
    "request_reason": "Licenses & Permits",
    "date_created": "2024-06-02T14:46:26.000",
    "date_modified": "2024-06-02T14:46:26.000",
    "request_status": "Pending",
    "responsible_agency": "Safety and Permits",
    "final_address": "3518 Huntlee Dr",
    "address_councildis": "C",
    "status": "Pending",
    "rowid": "1098962",
    "final_x": "3701780.23601",
    "final_y": "518055.656822",
    "longitude": "-90.0045261251758",
    "latitude": "29.917842104534515",
    "geocoded_column": {
      "latitude": "29.917842104534515",
      "longitude": "-90.0045261251758"
    }
  },
  {
    "service_request": "2024-1098961",
    "request_type": "Parks & Parkways",
    "request_reason": "Request Tree Service (Right of Way/Public Property)",
    "date_created": "2024-06-02T14:44:25.000",
    "date_modified": "2024-06-02T14:44:25.000",
    "request_status": "Pending",
    "responsible_agency": "Department of Parks & Parkway",
    "final_address": "109 Kingston Ct",
    "address_councildis": "C",
    "status": "Pending",
    "rowid": "1098961",
    "final_x": "3705917.67236",
    "final_y": "517703.118582",
    "longitude": "-89.99147965871877",
    "latitude": "29.916740166215465",
    "geocoded_column": {
      "latitude": "29.916740166215465",
      "longitude": "-89.99147965871877"
    }
  },
  {
    "service_request": "2024-1098960",
    "request_type": "Safety & Permits",
    "request_reason": "Licenses & Permits",
    "date_created": "2024-06-02T14:43:44.000",
    "date_modified": "2024-06-02T14:43:44.000",
    "request_status": "Pending",
    "responsible_agency": "Safety and Permits",
    "final_address": "4626 St Charles Ave",
    "address_councildis": "B",
    "status": "Pending",
    "rowid": "1098960",
    "final_x": "3669886.67777",
    "final_y": "520635.569656",
    "longitude": "-90.10510951736264",
    "latitude": "29.925914524874848",
    "geocoded_column": {
      "latitude": "29.925914524874848",
      "longitude": "-90.10510951736264"
    }
  },
  {
    "service_request": "2024-1098959",
    "request_type": "Roads/Drainage",
    "request_reason": "Street Subsidence (Sinking)",
    "date_created": "2024-06-02T14:42:26.000",
    "date_modified": "2024-06-02T14:42:26.000",
    "request_status": "Pending",
    "responsible_agency": "Department of Public Works",
    "final_address": "2770 Lavender St",
    "address_councildis": "D",
    "status": "Pending",
    "rowid": "1098959",
    "final_x": "3688368.49788",
    "final_y": "546996.816849",
    "longitude": "-90.045833020733",
    "latitude": "29.997841131335207",
    "geocoded_column": {
      "latitude": "29.997841131335207",
      "longitude": "-90.045833020733"
    }
  },
  {
    "service_request": "2024-1098958",
    "request_type": "Parks & Parkways",
    "request_reason": "Request Grass Cutting Service (City Owned Property)",
    "date_created": "2024-06-02T14:40:05.000",
    "date_modified": "2024-06-02T14:40:05.000",
    "request_status": "Pending",
    "responsible_agency": "Department of Parks & Parkway",
    "final_address": "107 Kingston Ct",
    "address_councildis": "C",
    "status": "Pending",
    "rowid": "1098958",
    "final_x": "3705824.1715",
    "final_y": "517703.543862",
    "longitude": "-89.99177476798187",
    "latitude": "29.916744346023812",
    "geocoded_column": {
      "latitude": "29.916744346023812",
      "longitude": "-89.99177476798187"
    }
  },
  {
    "service_request": "2024-1098957",
    "request_type": "Property Maintenance",
    "request_reason": "Property Maintenance",
    "date_created": "2024-06-02T14:36:53.000",
    "date_modified": "2024-06-02T14:36:53.000",
    "request_status": "Pending",
    "responsible_agency": "Department of Code Enforcement",
    "final_address": "107 Kingston Ct",
    "address_councildis": "C",
    "status": "Pending",
    "rowid": "1098957",
    "final_x": "3705824.1715",
    "final_y": "517703.543862",
    "longitude": "-89.99177476798187",
    "latitude": "29.916744346023812",
    "geocoded_column": {
      "latitude": "29.916744346023812",
      "longitude": "-89.99177476798187"
    }
  },
  {
    "service_request": "2024-1098956",
    "request_type": "Parks & Parkways",
    "request_reason": "Request Tree Service (Right of Way/Public Property)",
    "date_created": "2024-06-02T14:33:00.000",
    "date_modified": "2024-06-02T14:33:00.000",
    "request_status": "Pending",
    "responsible_agency": "Department of Parks & Parkway",
    "final_address": "5878 Argonne Blvd",
    "address_councildis": "A",
    "status": "Pending",
    "rowid": "1098956",
    "final_x": "3670018.67521",
    "final_y": "546412.726289",
    "longitude": "-90.10381971028173",
    "latitude": "29.996789255330327",
    "geocoded_column": {
      "latitude": "29.996789255330327",
      "longitude": "-90.10381971028173"
    }
  },
  {
    "service_request": "2024-1098955",
    "request_type": "Trash/Recycling",
    "request_reason": "Illegal Dumping",
    "date_created": "2024-06-02T14:32:05.000",
    "date_modified": "2024-06-02T14:32:05.000",
    "request_status": "Pending",
    "responsible_agency": "Department of Sanitation",
    "final_address": "2778 Jonquil St",
    "address_councildis": "D",
    "status": "Pending",
    "rowid": "1098955",
    "final_x": "3688420.94639",
    "final_y": "547245.079249",
    "longitude": "-90.04565852406978",
    "latitude": "29.998522142507678",
    "geocoded_column": {
      "latitude": "29.998522142507678",
      "longitude": "-90.04565852406978"
    }
  },
  {
    "service_request": "2024-1098954",
    "request_type": "Roads/Drainage",
    "request_reason": "Catch Basin - Clogged",
    "date_created": "2024-06-02T13:56:44.000",
    "date_modified": "2024-06-02T13:56:44.000",
    "request_status": "Pending",
    "responsible_agency": "Department of Public Works",
    "final_address": "5801 Chamberlain Dr",
    "address_councildis": "D",
    "status": "Pending",
    "rowid": "1098954",
    "final_x": "3679434.89647",
    "final_y": "553878.261527",
    "longitude": "-90.07381513964442",
    "latitude": "30.017035623392555",
    "geocoded_column": {
      "latitude": "30.017035623392555",
      "longitude": "-90.07381513964442"
    }
  },
  {
    "service_request": "2024-1098953",
    "request_type": "Property Maintenance",
    "request_reason": "Property Maintenance",
    "date_created": "2024-06-02T13:48:09.000",
    "date_modified": "2024-06-02T13:48:09.000",
    "request_status": "Pending",
    "responsible_agency": "Department of Code Enforcement",
    "final_address": "4808 St Claude Ave",
    "address_councildis": "E",
    "status": "Pending",
    "rowid": "1098953",
    "final_x": "3695140.33008",
    "final_y": "534421.409861",
    "longitude": "-90.0248946657472",
    "latitude": "29.963052336513883",
    "geocoded_column": {
      "latitude": "29.963052336513883",
      "longitude": "-90.0248946657472"
    }
  },
  {
    "service_request": "2024-1098952",
    "request_type": "Property Maintenance",
    "request_reason": "Property Maintenance",
    "date_created": "2024-06-02T13:44:23.000",
    "date_modified": "2024-06-02T13:44:23.000",
    "request_status": "Pending",
    "responsible_agency": "Department of Code Enforcement",
    "final_address": "1032 Deslonde St",
    "address_councildis": "E",
    "status": "Pending",
    "rowid": "1098952",
    "final_x": "3695293.28048",
    "final_y": "534245.183173",
    "longitude": "-90.02441802631043",
    "latitude": "29.96256297216016",
    "geocoded_column": {
      "latitude": "29.96256297216016",
      "longitude": "-90.02441802631043"
    }
  },
  {
    "service_request": "2024-1098951",
    "request_type": "Abandoned Vehicles",
    "request_reason": "Abandoned/Junk Vehicles",
    "date_created": "2024-06-02T13:35:59.000",
    "date_modified": "2024-06-02T13:35:59.000",
    "request_status": "Pending",
    "responsible_agency": "Department of Public Works",
    "final_address": "1475 Camp St, New Orleans, Louisiana, 70130",
    "status": "Pending",
    "rowid": "1098951",
    "longitude": "0.0",
    "latitude": "0.0",
    "geocoded_column": {
      "latitude": "0.0",
      "longitude": "0.0"
    }
  },
  {
    "service_request": "2024-1098950",
    "request_type": "Abandoned Vehicles",
    "request_reason": "Abandoned/Junk Vehicles",
    "date_created": "2024-06-02T13:11:06.000",
    "date_modified": "2024-06-02T13:11:06.000",
    "request_status": "Pending",
    "responsible_agency": "Department of Public Works",
    "final_address": "2700 BLK General Ogden St",
    "address_councildis": "A",
    "status": "Pending",
    "rowid": "1098950",
    "final_x": "3663616.50213",
    "final_y": "534394.550749",
    "longitude": "-90.12444446838032",
    "latitude": "29.963930629016097",
    "geocoded_column": {
      "latitude": "29.963930629016097",
      "longitude": "-90.12444446838032"
    }
  },
  {
    "service_request": "2024-1098948",
    "request_type": "Trash/Recycling",
    "request_reason": "Repair Trash Cart",
    "date_created": "2024-06-02T13:03:01.000",
    "date_modified": "2024-06-02T13:03:01.000",
    "request_status": "Pending",
    "responsible_agency": "Department of Sanitation",
    "final_address": "3209 Gravier St B",
    "address_councildis": "B",
    "status": "Assigned to Contractor",
    "contractor": "IV Waste",
    "rowid": "1098948",
    "final_x": "3672252.19758",
    "final_y": "534275.643397",
    "longitude": "-90.09717774066193",
    "latitude": "29.963350329897075",
    "geocoded_column": {
      "latitude": "29.963350329897075",
      "longitude": "-90.09717774066193"
    }
  },
  {
    "service_request": "2024-1098947",
    "request_type": "Traffic Signals/Signs/Striping/Streetlights",
    "request_reason": "Traffic Sign Missing/Damaged",
    "date_created": "2024-06-02T12:59:53.000",
    "date_modified": "2024-06-02T12:59:53.000",
    "request_status": "Pending",
    "responsible_agency": "Department of Public Works",
    "final_address": "S CLAIBORNE AVE & CALHOUN ST",
    "address_councildis": "A",
    "status": "Pending",
    "rowid": "1098947",
    "final_x": "3667123.6",
    "final_y": "527858.28",
    "longitude": "-90.11358906247698",
    "latitude": "29.945855816455847",
    "geocoded_column": {
      "latitude": "29.945855816455847",
      "longitude": "-90.11358906247698"
    }
  },
  {
    "service_request": "2024-1098946",
    "request_type": "Trash/Recycling",
    "request_reason": "Request a Large Item Pick Up",
    "date_created": "2024-06-02T12:54:37.000",
    "date_modified": "2024-06-02T12:54:37.000",
    "request_status": "Pending",
    "responsible_agency": "Department of Sanitation",
    "final_address": "6529 Wuerpel St",
    "address_councildis": "A",
    "status": "Assigned to Contractor",
    "contractor": "IV Waste",
    "rowid": "1098946",
    "final_x": "3667102.01857",
    "final_y": "551076.166421",
    "longitude": "-90.11287639831295",
    "latitude": "30.009697831427466",
    "geocoded_column": {
      "latitude": "30.009697831427466",
      "longitude": "-90.11287639831295"
    }
  },
  {
    "service_request": "2024-1098945",
    "request_type": "Trash/Recycling",
    "request_reason": "Order Recycling Cart",
    "date_created": "2024-06-02T12:47:46.000",
    "date_modified": "2024-06-02T12:47:46.000",
    "request_status": "Pending",
    "responsible_agency": "Department of Sanitation",
    "final_address": "2738 Bruxelles St",
    "address_councildis": "D",
    "status": "Pending",
    "rowid": "1098945",
    "final_x": "3680283.85397",
    "final_y": "542541.958797",
    "longitude": "-90.0715272146362",
    "latitude": "29.985839146834444",
    "geocoded_column": {
      "latitude": "29.985839146834444",
      "longitude": "-90.0715272146362"
    }
  },
  {
    "service_request": "2024-1098944",
    "request_type": "Trash/Recycling",
    "request_reason": "Replace Trash Cart",
    "date_created": "2024-06-02T12:46:35.000",
    "date_modified": "2024-06-02T12:46:35.000",
    "request_status": "Pending",
    "responsible_agency": "Department of Sanitation",
    "final_address": "2738 Bruxelles St",
    "address_councildis": "D",
    "status": "Assigned to Contractor",
    "contractor": "IV Waste",
    "rowid": "1098944",
    "final_x": "3680283.85397",
    "final_y": "542541.958797",
    "longitude": "-90.0715272146362",
    "latitude": "29.985839146834444",
    "geocoded_column": {
      "latitude": "29.985839146834444",
      "longitude": "-90.0715272146362"
    }
  },
  {
    "service_request": "2024-1098943",
    "request_type": "Traffic Signals/Signs/Striping/Streetlights",
    "request_reason": "Traffic Sign Missing/Damaged",
    "date_created": "2024-06-02T12:42:37.000",
    "date_modified": "2024-06-02T12:42:37.000",
    "request_status": "Pending",
    "responsible_agency": "Department of Public Works",
    "final_address": "2738 Bruxelles St",
    "address_councildis": "D",
    "status": "Pending",
    "rowid": "1098943",
    "final_x": "3680283.85397",
    "final_y": "542541.958797",
    "longitude": "-90.0715272146362",
    "latitude": "29.985839146834444",
    "geocoded_column": {
      "latitude": "29.985839146834444",
      "longitude": "-90.0715272146362"
    }
  },
  {
    "service_request": "2024-1098941",
    "request_type": "Roads/Drainage",
    "request_reason": "Road Shoulder Repair",
    "date_created": "2024-06-02T12:34:13.000",
    "date_modified": "2024-06-02T12:34:13.000",
    "request_status": "Pending",
    "responsible_agency": "Department of Public Works",
    "final_address": "8203 Jeannette St",
    "address_councildis": "A",
    "status": "Pending",
    "rowid": "1098941",
    "final_x": "3662403.72397",
    "final_y": "529447.301953",
    "longitude": "-90.12843860944567",
    "latitude": "29.950362424863496",
    "geocoded_column": {
      "latitude": "29.950362424863496",
      "longitude": "-90.12843860944567"
    }
  },
  {
    "service_request": "2024-1098940",
    "request_type": "Parks & Parkways",
    "request_reason": "Request Tree Service (Right of Way/Public Property)",
    "date_created": "2024-06-02T12:28:03.000",
    "date_modified": "2024-06-02T12:28:03.000",
    "request_status": "Pending",
    "responsible_agency": "Department of Parks & Parkway",
    "final_address": "4609 Arts St",
    "address_councildis": "D",
    "status": "Pending",
    "rowid": "1098940",
    "final_x": "3686071.86479",
    "final_y": "549689.374356",
    "longitude": "-90.0529929827977",
    "latitude": "30.00531544753519",
    "geocoded_column": {
      "latitude": "30.00531544753519",
      "longitude": "-90.0529929827977"
    }
  },
  {
    "service_request": "2024-1098939",
    "request_type": "Property Maintenance",
    "request_reason": "Property Maintenance",
    "date_created": "2024-06-02T12:27:59.000",
    "date_modified": "2024-06-02T12:27:59.000",
    "request_status": "Pending",
    "responsible_agency": "Department of Code Enforcement",
    "final_address": "400 BLK Fourth St",
    "address_councildis": "B",
    "status": "Pending",
    "rowid": "1098939",
    "final_x": "3678626.72276",
    "final_y": "519017.122187",
    "longitude": "-90.0775757658692",
    "latitude": "29.921203825273096",
    "geocoded_column": {
      "latitude": "29.921203825273096",
      "longitude": "-90.0775757658692"
    }
  },
  {
    "service_request": "2024-1098938",
    "request_type": "Trash/Recycling",
    "request_reason": "Request a Large Item Pick Up",
    "date_created": "2024-06-02T12:03:34.000",
    "date_modified": "2024-06-02T12:03:34.000",
    "request_status": "Pending",
    "responsible_agency": "Department of Sanitation",
    "final_address": "8019 Redfish St",
    "address_councildis": "E",
    "status": "Assigned to Contractor",
    "contractor": "Waste Pro",
    "rowid": "1098938",
    "final_x": "3698539.55191",
    "final_y": "561220.358046",
    "longitude": "-90.01318538590914",
    "latitude": "30.036632316381038",
    "geocoded_column": {
      "latitude": "30.036632316381038",
      "longitude": "-90.01318538590914"
    }
  },
  {
    "service_request": "2024-1098937",
    "request_type": "Trash/Recycling",
    "request_reason": "Repair Recycling Cart",
    "date_created": "2024-06-02T11:47:33.000",
    "date_modified": "2024-06-02T11:47:33.000",
    "request_status": "Pending",
    "responsible_agency": "Department of Sanitation",
    "final_address": "3823 Magazine St",
    "address_councildis": "B",
    "status": "Pending",
    "rowid": "1098937",
    "final_x": "3673176.70056",
    "final_y": "519054.316599",
    "longitude": "-90.09477782414285",
    "latitude": "29.92146920645654",
    "geocoded_column": {
      "latitude": "29.92146920645654",
      "longitude": "-90.09477782414285"
    }
  },
  {
    "service_request": "2024-1098936",
    "request_type": "Trash/Recycling",
    "request_reason": "Request a Large Item Pick Up",
    "date_created": "2024-06-02T11:29:43.000",
    "date_modified": "2024-06-02T11:29:44.000",
    "request_status": "Pending",
    "responsible_agency": "Department of Sanitation",
    "final_address": "3517 Constance St, New Orleans, Louisiana, 70115",
    "address_councildis": "B",
    "status": "Assigned to Contractor",
    "contractor": "IV Waste",
    "rowid": "1098936",
    "final_x": "3674435.98836",
    "final_y": "519045.944823",
    "longitude": "-90.09080308292806",
    "latitude": "29.92140869858024",
    "geocoded_column": {
      "latitude": "29.92140869858024",
      "longitude": "-90.09080308292806"
    }
  },
  {
    "service_request": "2024-1098935",
    "request_type": "Roads/Drainage",
    "request_reason": "Catch Basin - Clogged",
    "date_created": "2024-06-02T11:28:36.000",
    "date_modified": "2024-06-02T11:28:36.000",
    "request_status": "Pending",
    "responsible_agency": "Department of Public Works",
    "final_address": "4678 St Roch Ave",
    "address_councildis": "D",
    "status": "Pending",
    "rowid": "1098935",
    "final_x": "3685226.76521",
    "final_y": "550114.19426",
    "longitude": "-90.05564786564128",
    "latitude": "30.006509485964013",
    "geocoded_column": {
      "latitude": "30.006509485964013",
      "longitude": "-90.05564786564128"
    }
  },
  {
    "service_request": "2024-1098934",
    "request_type": "Trash/Recycling",
    "request_reason": "Order Recycling Cart",
    "date_created": "2024-06-02T11:24:57.000",
    "date_modified": "2024-06-02T11:24:57.000",
    "request_status": "Pending",
    "responsible_agency": "Department of Sanitation",
    "final_address": "2734 Burgundy St",
    "address_councildis": "C",
    "status": "Pending",
    "rowid": "1098934",
    "final_x": "3687473.23682",
    "final_y": "535509.997126",
    "longitude": "-90.04906782845819",
    "latitude": "29.966284080203405",
    "geocoded_column": {
      "latitude": "29.966284080203405",
      "longitude": "-90.04906782845819"
    }
  },
  {
    "service_request": "2024-1098933",
    "request_type": "Trash/Recycling",
    "request_reason": "Request a Large Item Pick Up",
    "date_created": "2024-06-02T10:41:18.000",
    "date_modified": "2024-06-02T10:41:19.000",
    "request_status": "Pending",
    "responsible_agency": "Department of Sanitation",
    "final_address": "1436 Josephine St Apt 7",
    "address_councildis": "B",
    "status": "Assigned to Contractor",
    "contractor": "IV Waste",
    "rowid": "1098933",
    "final_x": "3678278.19509",
    "final_y": "523329.299835",
    "longitude": "-90.07852685247602",
    "latitude": "29.933071406659707",
    "geocoded_column": {
      "latitude": "29.933071406659707",
      "longitude": "-90.07852685247602"
    }
  },
  {
    "service_request": "2024-1098932",
    "request_type": "Trash/Recycling",
    "request_reason": "Order Recycling Cart",
    "date_created": "2024-06-02T10:37:42.000",
    "date_modified": "2024-06-02T10:37:42.000",
    "request_status": "Pending",
    "responsible_agency": "Department of Sanitation",
    "final_address": "1530 Painters St",
    "address_councildis": "C",
    "status": "Pending",
    "rowid": "1098932",
    "final_x": "3687399.4582",
    "final_y": "538189.277577",
    "longitude": "-90.04920599689585",
    "latitude": "29.97365343804609",
    "geocoded_column": {
      "latitude": "29.97365343804609",
      "longitude": "-90.04920599689585"
    }
  },
  {
    "service_request": "2024-1098931",
    "request_type": "Trash/Recycling",
    "request_reason": "Order Recycling Cart",
    "date_created": "2024-06-02T10:35:30.000",
    "date_modified": "2024-06-02T10:35:30.000",
    "request_status": "Pending",
    "responsible_agency": "Department of Sanitation",
    "final_address": "701 Cadiz St",
    "address_councildis": "B",
    "status": "Pending",
    "rowid": "1098931",
    "final_x": "3670414.36942",
    "final_y": "518019.58271",
    "longitude": "-90.10353237647114",
    "latitude": "29.91870582824868",
    "geocoded_column": {
      "latitude": "29.91870582824868",
      "longitude": "-90.10353237647114"
    }
  },
  {
    "service_request": "2024-1098930",
    "request_type": "Trash/Recycling",
    "request_reason": "Order Trash Cart",
    "date_created": "2024-06-02T10:18:48.000",
    "date_modified": "2024-06-02T10:18:49.000",
    "request_status": "Pending",
    "responsible_agency": "Department of Sanitation",
    "final_address": "11249 Notaway Ln",
    "address_councildis": "E",
    "status": "Assigned to Contractor",
    "contractor": "Waste Pro",
    "rowid": "1098930",
    "final_x": "3717792.43948",
    "final_y": "559556.574109",
    "longitude": "-89.95240634122577",
    "latitude": "30.031433615111368",
    "geocoded_column": {
      "latitude": "30.031433615111368",
      "longitude": "-89.95240634122577"
    }
  },
  {
    "service_request": "2024-1098929",
    "request_type": "Trash/Recycling",
    "request_reason": "Missed Trash Pick-Up",
    "date_created": "2024-06-02T10:15:19.000",
    "date_modified": "2024-06-02T12:07:20.000",
    "case_close_date": "2024-06-02T07:07:20.000",
    "request_status": "Closed",
    "responsible_agency": "Department of Sanitation",
    "final_address": "310 S Murat St, New Orleans, Louisiana, 70119",
    "address_councildis": "A",
    "status": "Invalid Request",
    "contractor": "IV Waste",
    "contractor_action": "Invalid Request",
    "rowid": "1098929",
    "final_x": "3669185.0994",
    "final_y": "538659.157705",
    "longitude": "-90.10671513823718",
    "latitude": "29.975494154184997",
    "geocoded_column": {
      "latitude": "29.975494154184997",
      "longitude": "-90.10671513823718"
    }
  },
  {
    "service_request": "2024-1098928",
    "request_type": "Trash/Recycling",
    "request_reason": "Order Trash Cart",
    "date_created": "2024-06-02T09:26:55.000",
    "date_modified": "2024-06-02T09:26:56.000",
    "request_status": "Pending",
    "responsible_agency": "Department of Sanitation",
    "final_address": "1909 Old Prieur St",
    "address_councildis": "D",
    "status": "Assigned to Contractor",
    "contractor": "IV Waste",
    "rowid": "1098928",
    "final_x": "3682247.06396",
    "final_y": "539689.04449",
    "longitude": "-90.06542593647208",
    "latitude": "29.977935040603363",
    "geocoded_column": {
      "latitude": "29.977935040603363",
      "longitude": "-90.06542593647208"
    }
  },
  {
    "service_request": "2024-1098927",
    "request_type": "Roads/Drainage",
    "request_reason": "Street Subsidence (Sinking)",
    "date_created": "2024-06-02T09:11:22.000",
    "date_modified": "2024-06-02T09:11:22.000",
    "request_status": "Pending",
    "responsible_agency": "Department of Public Works",
    "final_address": "5557 Vermillion Blvd",
    "address_councildis": "D",
    "status": "Pending",
    "rowid": "1098927",
    "final_x": "3683327.89269",
    "final_y": "553464.742039",
    "longitude": "-90.0615293915343",
    "latitude": "30.015780358469488",
    "geocoded_column": {
      "latitude": "30.015780358469488",
      "longitude": "-90.0615293915343"
    }
  },
  {
    "service_request": "2024-1098926",
    "request_type": "Trash/Recycling",
    "request_reason": "Order Recycling Cart",
    "date_created": "2024-06-02T09:07:29.000",
    "date_modified": "2024-06-02T09:07:29.000",
    "request_status": "Pending",
    "responsible_agency": "Department of Sanitation",
    "final_address": "1136 Touro St",
    "address_councildis": "C",
    "status": "Pending",
    "rowid": "1098926",
    "final_x": "3684176.90421",
    "final_y": "536541.628295",
    "longitude": "-90.05944134991715",
    "latitude": "29.969221884624332",
    "geocoded_column": {
      "latitude": "29.969221884624332",
      "longitude": "-90.05944134991715"
    }
  },
  {
    "service_request": "2024-1098925",
    "request_type": "Roads/Drainage",
    "request_reason": "Unpermitted work in ROW",
    "date_created": "2024-06-02T08:58:56.000",
    "date_modified": "2024-06-02T08:58:56.000",
    "request_status": "Pending",
    "responsible_agency": "Department of Public Works",
    "final_address": "2132 Arts St",
    "address_councildis": "D",
    "status": "Pending",
    "rowid": "1098925",
    "final_x": "3686849.92489",
    "final_y": "540429.951307",
    "longitude": "-90.0508623336101",
    "latitude": "29.979831424665228",
    "geocoded_column": {
      "latitude": "29.979831424665228",
      "longitude": "-90.0508623336101"
    }
  },
  {
    "service_request": "2024-1098924",
    "request_type": "Trash/Recycling",
    "request_reason": "Request a Large Item Pick Up",
    "date_created": "2024-06-02T08:50:30.000",
    "date_modified": "2024-06-02T08:50:31.000",
    "request_status": "Pending",
    "responsible_agency": "Department of Sanitation",
    "final_address": "13731 Explorers Ave, New Orleans, Louisiana, 70129",
    "address_councildis": "E",
    "status": "Assigned to Contractor",
    "contractor": "Waste Pro",
    "rowid": "1098924",
    "final_x": "3725966.0423",
    "final_y": "569493.357862",
    "longitude": "-89.92619216898883",
    "latitude": "30.05848225097222",
    "geocoded_column": {
      "latitude": "30.05848225097222",
      "longitude": "-89.92619216898883"
    }
  },
  {
    "service_request": "2024-1098923",
    "request_type": "Trash/Recycling",
    "request_reason": "Request a Large Item Pick Up",
    "date_created": "2024-06-02T08:45:03.000",
    "date_modified": "2024-06-02T08:45:04.000",
    "request_status": "Pending",
    "responsible_agency": "Department of Sanitation",
    "final_address": "13731 Explorers Ave",
    "address_councildis": "E",
    "status": "Assigned to Contractor",
    "contractor": "Waste Pro",
    "rowid": "1098923",
    "final_x": "3725966.0423",
    "final_y": "569493.357862",
    "longitude": "-89.92619216898883",
    "latitude": "30.05848225097222",
    "geocoded_column": {
      "latitude": "30.05848225097222",
      "longitude": "-89.92619216898883"
    }
  },
  {
    "service_request": "2024-1098922",
    "request_type": "Abandoned Vehicles",
    "request_reason": "Abandoned/Junk Vehicles",
    "date_created": "2024-06-02T08:41:43.000",
    "date_modified": "2024-06-02T08:41:43.000",
    "request_status": "Pending",
    "responsible_agency": "Department of Public Works",
    "final_address": "2525 Annunciation St",
    "address_councildis": "B",
    "status": "Pending",
    "rowid": "1098922",
    "final_x": "3678237.78638",
    "final_y": "520347.724088",
    "longitude": "-90.07875747847147",
    "latitude": "29.92487426354185",
    "geocoded_column": {
      "latitude": "29.92487426354185",
      "longitude": "-90.07875747847147"
    }
  },
  {
    "service_request": "2024-1098920",
    "request_type": "Abandoned Vehicles",
    "request_reason": "Abandoned/Junk Vehicles",
    "date_created": "2024-06-02T08:37:16.000",
    "date_modified": "2024-06-02T08:37:16.000",
    "request_status": "Pending",
    "responsible_agency": "Department of Public Works",
    "final_address": "742 Third St",
    "address_councildis": "B",
    "status": "Pending",
    "rowid": "1098920",
    "final_x": "3678117.9268",
    "final_y": "520134.844664",
    "longitude": "-90.07914319122524",
    "latitude": "29.924292522230026",
    "geocoded_column": {
      "latitude": "29.924292522230026",
      "longitude": "-90.07914319122524"
    }
  },
  {
    "service_request": "2024-1098919",
    "request_type": "Traffic Signals/Signs/Striping/Streetlights",
    "request_reason": "Traffic Signal Malfunctioning/Damaged",
    "date_created": "2024-06-02T08:30:08.000",
    "date_modified": "2024-06-02T08:30:08.000",
    "request_status": "Pending",
    "responsible_agency": "Department of Public Works",
    "final_address": "BULLARD AVE & HAYNE BLVD",
    "address_councildis": "E",
    "status": "Pending",
    "rowid": "1098919",
    "final_x": "3712142.2",
    "final_y": "568794.68",
    "longitude": "-89.96991380312626",
    "latitude": "30.057020706348293",
    "geocoded_column": {
      "latitude": "30.057020706348293",
      "longitude": "-89.96991380312626"
    }
  },
  {
    "service_request": "2024-1098918",
    "request_type": "Trash/Recycling",
    "request_reason": "Request a Large Item Pick Up",
    "date_created": "2024-06-02T08:17:49.000",
    "date_modified": "2024-06-02T08:17:50.000",
    "request_status": "Pending",
    "responsible_agency": "Department of Sanitation",
    "final_address": "3242 River Oaks Dr",
    "address_councildis": "C",
    "status": "Assigned to Contractor",
    "contractor": "Richards Disposal",
    "rowid": "1098918",
    "final_x": "3701493.1713",
    "final_y": "519152.097399",
    "longitude": "-90.0053921153944",
    "latitude": "29.920866090745218",
    "geocoded_column": {
      "latitude": "29.920866090745218",
      "longitude": "-90.0053921153944"
    }
  },
  {
    "service_request": "2024-1098917",
    "request_type": "Trash/Recycling",
    "request_reason": "Request a Large Item Pick Up",
    "date_created": "2024-06-02T08:11:47.000",
    "date_modified": "2024-06-02T08:11:47.000",
    "request_status": "Pending",
    "responsible_agency": "Department of Sanitation",
    "final_address": "2529 Aubry St",
    "address_councildis": "D",
    "status": "Assigned to Contractor",
    "contractor": "IV Waste",
    "rowid": "1098917",
    "final_x": "3679981.83797",
    "final_y": "540929.730507",
    "longitude": "-90.07253719498901",
    "latitude": "29.981415222970245",
    "geocoded_column": {
      "latitude": "29.981415222970245",
      "longitude": "-90.07253719498901"
    }
  },
  {
    "service_request": "2024-1098916",
    "request_type": "EMS",
    "request_reason": "EMS General",
    "date_created": "2024-06-02T07:56:12.000",
    "date_modified": "2024-06-02T07:56:12.000",
    "request_status": "Pending",
    "responsible_agency": "Emergency Medical Services",
    "final_address": "5900 BLK Paris Ave",
    "address_councildis": "D",
    "status": "Pending",
    "rowid": "1098916",
    "final_x": "3678942.43014",
    "final_y": "554220.602961",
    "longitude": "-90.07535925551582",
    "latitude": "30.017991813533545",
    "geocoded_column": {
      "latitude": "30.017991813533545",
      "longitude": "-90.07535925551582"
    }
  },
  {
    "service_request": "2024-1098913",
    "request_type": "Roads/Drainage",
    "request_reason": "Street Flooding / Drainage",
    "date_created": "2024-06-02T06:33:17.000",
    "date_modified": "2024-06-02T06:33:17.000",
    "request_status": "Pending",
    "responsible_agency": "Department of Public Works",
    "final_address": "1419 Euterpe St",
    "address_councildis": "B",
    "status": "Pending",
    "rowid": "1098913",
    "final_x": "3679595.76719",
    "final_y": "524598.160124",
    "longitude": "-90.0743233561039",
    "latitude": "29.936520614151217",
    "geocoded_column": {
      "latitude": "29.936520614151217",
      "longitude": "-90.0743233561039"
    }
  },
  {
    "service_request": "2024-1098911",
    "request_type": "Trash/Recycling",
    "request_reason": "Order Recycling Cart",
    "date_created": "2024-06-02T03:42:02.000",
    "date_modified": "2024-06-02T03:42:02.000",
    "request_status": "Pending",
    "responsible_agency": "Department of Sanitation",
    "final_address": "7527 Burthe St",
    "address_councildis": "A",
    "status": "Pending",
    "rowid": "1098911",
    "final_x": "3662696.16967",
    "final_y": "526344.38003",
    "longitude": "-90.12761830795549",
    "latitude": "29.941821924024435",
    "geocoded_column": {
      "latitude": "29.941821924024435",
      "longitude": "-90.12761830795549"
    }
  },
  {
    "service_request": "2024-1098910",
    "request_type": "Health Related Request",
    "request_reason": "Noise Ordinance Complaint",
    "date_created": "2024-06-02T02:46:32.000",
    "date_modified": "2024-06-02T02:46:32.000",
    "request_status": "Pending",
    "responsible_agency": "Health Department",
    "final_address": "309 Decatur St, New Orleans, Louisiana, 70130",
    "address_councildis": "C",
    "status": "Pending",
    "rowid": "1098910",
    "final_x": "3682303.87119",
    "final_y": "530935.66509",
    "longitude": "-90.06555240294671",
    "latitude": "29.953864528206758",
    "geocoded_column": {
      "latitude": "29.953864528206758",
      "longitude": "-90.06555240294671"
    }
  },
  {
    "service_request": "2024-1098909",
    "request_type": "Trash/Recycling",
    "request_reason": "Replace Recycling Cart",
    "date_created": "2024-06-02T02:25:20.000",
    "date_modified": "2024-06-02T02:25:20.000",
    "request_status": "Pending",
    "responsible_agency": "Department of Sanitation",
    "final_address": "4318 Macarthur Blvd",
    "address_councildis": "C",
    "status": "Pending",
    "rowid": "1098909",
    "final_x": "3699683.30084",
    "final_y": "520486.407416",
    "longitude": "-90.0110564125218",
    "latitude": "29.92459253652694",
    "geocoded_column": {
      "latitude": "29.92459253652694",
      "longitude": "-90.0110564125218"
    }
  },
  {
    "service_request": "2024-1098908",
    "request_type": "Roads/Drainage",
    "request_reason": "Pothole",
    "date_created": "2024-06-02T02:08:35.000",
    "date_modified": "2024-06-02T02:08:35.000",
    "request_status": "Pending",
    "responsible_agency": "Department of Public Works",
    "final_address": "1234 Henry Clay Ave",
    "address_councildis": "A",
    "status": "Pending",
    "rowid": "1098908",
    "final_x": "3664327.06445",
    "final_y": "521120.367609",
    "longitude": "-90.12264347982506",
    "latitude": "29.92741025864685",
    "geocoded_column": {
      "latitude": "29.92741025864685",
      "longitude": "-90.12264347982506"
    }
  },
  {
    "service_request": "2024-1098907",
    "request_type": "Roads/Drainage",
    "request_reason": "Pothole",
    "date_created": "2024-06-02T02:06:16.000",
    "date_modified": "2024-06-02T02:06:16.000",
    "request_status": "Pending",
    "responsible_agency": "Department of Public Works",
    "final_address": "1475 Calhoun St",
    "address_councildis": "A",
    "status": "Pending",
    "rowid": "1098907",
    "final_x": "3664531.76442",
    "final_y": "522145.615162",
    "longitude": "-90.12196307460573",
    "latitude": "29.930223417464774",
    "geocoded_column": {
      "latitude": "29.930223417464774",
      "longitude": "-90.12196307460573"
    }
  },
  {
    "service_request": "2024-1098906",
    "request_type": "Roads/Drainage",
    "request_reason": "Damaged Sidewalk",
    "date_created": "2024-06-02T02:04:47.000",
    "date_modified": "2024-06-02T02:04:47.000",
    "request_status": "Pending",
    "responsible_agency": "Department of Public Works",
    "final_address": "5915 Pitt St",
    "address_councildis": "A",
    "status": "Pending",
    "rowid": "1098906",
    "final_x": "3665542.56448",
    "final_y": "521174.406329",
    "longitude": "-90.11880462457182",
    "latitude": "29.927523478234637",
    "geocoded_column": {
      "latitude": "29.927523478234637",
      "longitude": "-90.11880462457182"
    }
  },
  {
    "service_request": "2024-1098905",
    "request_type": "Trash/Recycling",
    "request_reason": "Request a Large Item Pick Up",
    "date_created": "2024-06-02T00:23:19.000",
    "date_modified": "2024-06-02T00:23:20.000",
    "request_status": "Pending",
    "responsible_agency": "Department of Sanitation",
    "final_address": "7729 Oak St",
    "address_councildis": "A",
    "status": "Assigned to Contractor",
    "contractor": "IV Waste",
    "rowid": "1098905",
    "final_x": "3662899.75687",
    "final_y": "527573.811583",
    "longitude": "-90.12693467066106",
    "latitude": "29.94519657611143",
    "geocoded_column": {
      "latitude": "29.94519657611143",
      "longitude": "-90.12693467066106"
    }
  },
  {
    "service_request": "2024-1098904",
    "request_type": "Roads/Drainage",
    "request_reason": "Catch Basin - Clogged",
    "date_created": "2024-06-02T00:19:35.000",
    "date_modified": "2024-06-02T00:19:35.000",
    "request_status": "Pending",
    "responsible_agency": "Department of Public Works",
    "final_address": "816 Burdette St",
    "address_councildis": "A",
    "status": "Pending",
    "rowid": "1098904",
    "final_x": "3661930.72583",
    "final_y": "526726.89075",
    "longitude": "-90.13002230280019",
    "latitude": "29.94289583160839",
    "geocoded_column": {
      "latitude": "29.94289583160839",
      "longitude": "-90.13002230280019"
    }
  },
  {
    "service_request": "2024-1098903",
    "request_type": "Trash/Recycling",
    "request_reason": "Request a Large Item Pick Up",
    "date_created": "2024-06-02T00:12:11.000",
    "date_modified": "2024-06-02T00:12:12.000",
    "request_status": "Pending",
    "responsible_agency": "Department of Sanitation",
    "final_address": "7815 Hampson St",
    "address_councildis": "A",
    "status": "Assigned to Contractor",
    "contractor": "IV Waste",
    "rowid": "1098903",
    "final_x": "3661565.15526",
    "final_y": "526457.245182",
    "longitude": "-90.13118543504686",
    "latitude": "29.942164943118904",
    "geocoded_column": {
      "latitude": "29.942164943118904",
      "longitude": "-90.13118543504686"
    }
  },
  {
    "service_request": "2024-1098902",
    "request_type": "Trash/Recycling",
    "request_reason": "Illegal Dumping",
    "date_created": "2024-06-02T00:07:08.000",
    "date_modified": "2024-06-02T00:07:08.000",
    "request_status": "Pending",
    "responsible_agency": "Department of Sanitation",
    "final_address": "731 Fern St",
    "address_councildis": "A",
    "status": "Pending",
    "rowid": "1098902",
    "final_x": "3661572.91936",
    "final_y": "526733.867006",
    "longitude": "-90.1311517589614",
    "latitude": "29.942925341207168",
    "geocoded_column": {
      "latitude": "29.942925341207168",
      "longitude": "-90.1311517589614"
    }
  },
  {
    "service_request": "2024-1098900",
    "request_type": "Trash/Recycling",
    "request_reason": "Illegal Dumping",
    "date_created": "2024-06-02T00:03:22.000",
    "date_modified": "2024-06-02T00:03:22.000",
    "request_status": "Pending",
    "responsible_agency": "Department of Sanitation",
    "final_address": "725 Fern St",
    "address_councildis": "A",
    "status": "Pending",
    "rowid": "1098900",
    "final_x": "3661544.37856",
    "final_y": "526701.458494",
    "longitude": "-90.13124294309793",
    "latitude": "29.942837051441494",
    "geocoded_column": {
      "latitude": "29.942837051441494",
      "longitude": "-90.13124294309793"
    }
  },
  {
    "service_request": "2024-1098901",
    "request_type": "Trash/Recycling",
    "request_reason": "Order Trash Cart",
    "date_created": "2024-06-02T00:03:22.000",
    "date_modified": "2024-06-02T00:03:23.000",
    "request_status": "Pending",
    "responsible_agency": "Department of Sanitation",
    "final_address": "3950 Louisiana Avenue Prkwy",
    "address_councildis": "B",
    "status": "Assigned to Contractor",
    "contractor": "IV Waste",
    "rowid": "1098901",
    "final_x": "3671023.69774",
    "final_y": "529385.586625",
    "longitude": "-90.10122326473615",
    "latitude": "29.94994067673017",
    "geocoded_column": {
      "latitude": "29.94994067673017",
      "longitude": "-90.10122326473615"
    }
  },
  {
    "service_request": "2024-1098899",
    "request_type": "Trash/Recycling",
    "request_reason": "Illegal Dumping",
    "date_created": "2024-06-01T23:59:08.000",
    "date_modified": "2024-06-01T23:59:08.000",
    "request_status": "Pending",
    "responsible_agency": "Department of Sanitation",
    "final_address": "1127 Fern St",
    "address_councildis": "A",
    "status": "Pending",
    "rowid": "1098899",
    "final_x": "3662484.36685",
    "final_y": "527732.639615",
    "longitude": "-90.12824091988482",
    "latitude": "29.945645321390217",
    "geocoded_column": {
      "latitude": "29.945645321390217",
      "longitude": "-90.12824091988482"
    }
  },
  {
    "service_request": "2024-1098898",
    "request_type": "Trash/Recycling",
    "request_reason": "Illegal Dumping",
    "date_created": "2024-06-01T23:46:34.000",
    "date_modified": "2024-06-01T23:46:34.000",
    "request_status": "Pending",
    "responsible_agency": "Department of Sanitation",
    "final_address": "JACKSON AVE & ST CHARLES AVE",
    "address_councildis": "B",
    "status": "Pending",
    "rowid": "1098898",
    "final_x": "3677648.1",
    "final_y": "523681.88",
    "longitude": "-90.0805038498314",
    "latitude": "29.934059844695582",
    "geocoded_column": {
      "latitude": "29.934059844695582",
      "longitude": "-90.0805038498314"
    }
  },
  {
    "service_request": "2024-1098897",
    "request_type": "Trash/Recycling",
    "request_reason": "Illegal Dumping",
    "date_created": "2024-06-01T23:44:07.000",
    "date_modified": "2024-06-01T23:44:07.000",
    "request_status": "Pending",
    "responsible_agency": "Department of Sanitation",
    "final_address": "JOSEPHINE ST & ST CHARLES AVE",
    "address_councildis": "B",
    "status": "Pending",
    "rowid": "1098897",
    "final_x": "3677939.4",
    "final_y": "523910.38",
    "longitude": "-90.07957633346108",
    "latitude": "29.934679383806525",
    "geocoded_column": {
      "latitude": "29.934679383806525",
      "longitude": "-90.07957633346108"
    }
  },
  {
    "service_request": "2024-1098896",
    "request_type": "Trash/Recycling",
    "request_reason": "Request a Large Item Pick Up",
    "date_created": "2024-06-01T23:39:05.000",
    "date_modified": "2024-06-01T23:39:06.000",
    "request_status": "Pending",
    "responsible_agency": "Department of Sanitation",
    "final_address": "838 Webster St",
    "address_councildis": "A",
    "status": "Assigned to Contractor",
    "contractor": "IV Waste",
    "rowid": "1098896",
    "final_x": "3664191.09952",
    "final_y": "519726.760248",
    "longitude": "-90.12311915355086",
    "latitude": "29.923582225204846",
    "geocoded_column": {
      "latitude": "29.923582225204846",
      "longitude": "-90.12311915355086"
    }
  },
  {
    "service_request": "2024-1098895",
    "request_type": "Trash/Recycling",
    "request_reason": "Request a Large Item Pick Up",
    "date_created": "2024-06-01T23:33:01.000",
    "date_modified": "2024-06-01T23:33:01.000",
    "request_status": "Pending",
    "responsible_agency": "Department of Sanitation",
    "final_address": "1133 Fern St",
    "address_councildis": "A",
    "status": "Assigned to Contractor",
    "contractor": "IV Waste",
    "rowid": "1098895",
    "final_x": "3662531.40378",
    "final_y": "527780.521343",
    "longitude": "-90.12809081796428",
    "latitude": "29.945775620500957",
    "geocoded_column": {
      "latitude": "29.945775620500957",
      "longitude": "-90.12809081796428"
    }
  },
  {
    "service_request": "2024-1098894",
    "request_type": "Property Maintenance",
    "request_reason": "Property Maintenance",
    "date_created": "2024-06-01T22:29:57.000",
    "date_modified": "2024-06-01T22:29:57.000",
    "request_status": "Pending",
    "responsible_agency": "Department of Code Enforcement",
    "final_address": "1324 France St",
    "address_councildis": "D",
    "status": "Pending",
    "rowid": "1098894",
    "final_x": "3692586.39165",
    "final_y": "536118.416391",
    "longitude": "-90.0328988416008",
    "latitude": "29.967798448975383",
    "geocoded_column": {
      "latitude": "29.967798448975383",
      "longitude": "-90.0328988416008"
    }
  },
  {
    "service_request": "2024-1098893",
    "request_type": "Trash/Recycling",
    "request_reason": "MIssed Recycling Pick-Up",
    "date_created": "2024-06-01T22:15:29.000",
    "date_modified": "2024-06-01T22:15:30.000",
    "request_status": "Pending",
    "responsible_agency": "Department of Sanitation",
    "final_address": "3011 Sullen Pl",
    "address_councildis": "C",
    "status": "Assigned to Contractor",
    "contractor": "Richards Disposal",
    "rowid": "1098893",
    "final_x": "3707785.08331",
    "final_y": "519617.937592",
    "longitude": "-89.98551429608008",
    "latitude": "29.921944987773887",
    "geocoded_column": {
      "latitude": "29.921944987773887",
      "longitude": "-89.98551429608008"
    }
  },
  {
    "service_request": "2024-1098892",
    "request_type": "Traffic Signals/Signs/Striping/Streetlights",
    "request_reason": "Street Light Outage/Malfunction",
    "date_created": "2024-06-01T22:01:35.000",
    "date_modified": "2024-06-01T22:01:36.000",
    "request_status": "Pending",
    "responsible_agency": "Department of Public Works",
    "final_address": "6001 Marconi Dr",
    "address_councildis": "A",
    "status": "Assigned to Contractor",
    "contractor": "Legacy Professional Services",
    "rowid": "1098892",
    "final_x": "3671396.04481",
    "final_y": "548460.730578",
    "longitude": "-90.09939899322549",
    "latitude": "30.00237984319858",
    "geocoded_column": {
      "latitude": "30.00237984319858",
      "longitude": "-90.09939899322549"
    }
  },
  {
    "service_request": "2024-1098891",
    "request_type": "Traffic Signals/Signs/Striping/Streetlights",
    "request_reason": "Street Light Outage/Malfunction",
    "date_created": "2024-06-01T22:00:38.000",
    "date_modified": "2024-06-01T22:00:39.000",
    "request_status": "Pending",
    "responsible_agency": "Department of Public Works",
    "final_address": "6001 Marconi Dr",
    "address_councildis": "A",
    "status": "Assigned to Contractor",
    "contractor": "Legacy Professional Services",
    "rowid": "1098891",
    "final_x": "3671396.04481",
    "final_y": "548460.730578",
    "longitude": "-90.09939899322549",
    "latitude": "30.00237984319858",
    "geocoded_column": {
      "latitude": "30.00237984319858",
      "longitude": "-90.09939899322549"
    }
  },
  {
    "service_request": "2024-1098890",
    "request_type": "Traffic Signals/Signs/Striping/Streetlights",
    "request_reason": "Street Light Outage/Malfunction",
    "date_created": "2024-06-01T21:59:34.000",
    "date_modified": "2024-06-01T21:59:35.000",
    "request_status": "Pending",
    "responsible_agency": "Department of Public Works",
    "final_address": "6001 Marconi Dr",
    "address_councildis": "A",
    "status": "Assigned to Contractor",
    "contractor": "Legacy Professional Services",
    "rowid": "1098890",
    "final_x": "3671396.04481",
    "final_y": "548460.730578",
    "longitude": "-90.09939899322549",
    "latitude": "30.00237984319858",
    "geocoded_column": {
      "latitude": "30.00237984319858",
      "longitude": "-90.09939899322549"
    }
  },
  {
    "service_request": "2024-1098889",
    "request_type": "Abandoned Vehicles",
    "request_reason": "Abandoned/Junk Vehicles",
    "date_created": "2024-06-01T21:03:26.000",
    "date_modified": "2024-06-01T21:03:26.000",
    "request_status": "Pending",
    "responsible_agency": "Department of Public Works",
    "final_address": "622 N Lopez St",
    "address_councildis": "A",
    "status": "Pending",
    "rowid": "1098889",
    "final_x": "3675123.92731",
    "final_y": "537822.690505",
    "longitude": "-90.08798738845219",
    "latitude": "29.973018008881755",
    "geocoded_column": {
      "latitude": "29.973018008881755",
      "longitude": "-90.08798738845219"
    }
  },
  {
    "service_request": "2024-1098888",
    "request_type": "Trash/Recycling",
    "request_reason": "Repair Trash Cart",
    "date_created": "2024-06-01T21:02:49.000",
    "date_modified": "2024-06-01T21:02:49.000",
    "request_status": "Pending",
    "responsible_agency": "Department of Sanitation",
    "final_address": "913 Sixth St",
    "address_councildis": "B",
    "status": "Assigned to Contractor",
    "contractor": "IV Waste",
    "rowid": "1098888",
    "final_x": "3677004.27054",
    "final_y": "520044.89132",
    "longitude": "-90.082661719131",
    "latitude": "29.924078650191127",
    "geocoded_column": {
      "latitude": "29.924078650191127",
      "longitude": "-90.082661719131"
    }
  },
  {
    "service_request": "2024-1098887",
    "request_type": "Trash/Recycling",
    "request_reason": "Missed Trash Pick-Up",
    "date_created": "2024-06-01T20:37:11.000",
    "date_modified": "2024-06-01T20:37:11.000",
    "request_status": "Pending",
    "responsible_agency": "Department of Sanitation",
    "final_address": "47 Martin Dr",
    "address_councildis": "E",
    "status": "Assigned to Contractor",
    "contractor": "Waste Pro",
    "rowid": "1098887",
    "final_x": "3697801.07978",
    "final_y": "561004.722398",
    "longitude": "-90.01552693615257",
    "latitude": "30.036062775143797",
    "geocoded_column": {
      "latitude": "30.036062775143797",
      "longitude": "-90.01552693615257"
    }
  },
  {
    "service_request": "2024-1098886",
    "request_type": "Trash/Recycling",
    "request_reason": "Request a Large Item Pick Up",
    "date_created": "2024-06-01T19:56:25.000",
    "date_modified": "2024-06-01T19:56:25.000",
    "request_status": "Pending",
    "responsible_agency": "Department of Sanitation",
    "final_address": "720 Marengo St",
    "address_councildis": "B",
    "status": "Assigned to Contractor",
    "contractor": "IV Waste",
    "rowid": "1098886",
    "final_x": "3672168.87751",
    "final_y": "518326.283126",
    "longitude": "-90.09798386448773",
    "latitude": "29.91949726196619",
    "geocoded_column": {
      "latitude": "29.91949726196619",
      "longitude": "-90.09798386448773"
    }
  },