[
  {
    "service_request": "2022-878271",
    "request_type": "Trash/Recycling",
    "request_reason": "MIssed Recycling Pick-Up",
    "date_created": "2022-04-28T00:22:27.000",
    "date_modified": "2022-04-28T00:22:28.000",
    "request_status": "Pending",
    "responsible_agency": "Department of Sanitation",
    "final_address": "2206 Ursulines Ave",
    "address_councildis": "D",
    "status": "Assigned to Contractor",
    "contractor": "Richards Disposal",
    "rowid": "878271",
    "final_x": "3679167.87272",
    "final_y": "536880.164936",
    "longitude": "-90.07524850507848",
    "latitude": "29.970304916736975",
    "geocoded_column": {
      "latitude": "29.970304916736975",
      "longitude": "-90.07524850507848"
    }
  },
  {
    "service_request": "2022-878270",
    "request_type": "Trash/Recycling",
    "request_reason": "Request a Large Item Pick Up",
    "date_created": "2022-04-28T00:06:38.000",
    "date_modified": "2022-04-28T00:06:40.000",
    "request_status": "Pending",
    "responsible_agency": "Department of Sanitation",
    "final_address": "6419 Canal Blvd",
    "address_councildis": "A",
    "status": "Assigned to Contractor",
    "contractor": "Metro Disposal",
    "rowid": "878270",
    "final_x": "3668883.66138",
    "final_y": "550183.471956",
    "longitude": "-90.10727771509868",
    "latitude": "30.00719093493055",
    "geocoded_column": {
      "latitude": "30.00719093493055",
      "longitude": "-90.10727771509868"
    }
  },
  {
    "service_request": "2022-878269",
    "request_type": "Trash/Recycling",
    "request_reason": "Request a Large Item Pick Up",
    "date_created": "2022-04-28T00:02:05.000",
    "date_modified": "2022-04-28T00:02:06.000",
    "request_status": "Pending",
    "responsible_agency": "Department of Sanitation",
    "final_address": "6419 Canal Blvd",
    "address_councildis": "A",
    "status": "Assigned to Contractor",
    "contractor": "Metro Disposal",
    "rowid": "878269",
    "final_x": "3668883.66138",
    "final_y": "550183.471956",
    "longitude": "-90.10727771509868",
    "latitude": "30.00719093493055",
    "geocoded_column": {
      "latitude": "30.00719093493055",
      "longitude": "-90.10727771509868"
    }
  },
  {
    "service_request": "2022-878268",
    "request_type": "Health Related Questions",
    "request_reason": "Noise Ordinance Complaint",
    "date_created": "2022-04-27T23:45:13.000",
    "date_modified": "2022-04-27T23:45:13.000",
    "request_status": "Pending",
    "responsible_agency": "Health Department",
    "final_address": "718 Bourbon St, New Orleans, Louisiana, 70116",
    "address_councildis": "C",
    "status": "Pending",
    "rowid": "878268",
    "final_x": "3682364.17781",
    "final_y": "532746.008004",
    "longitude": "-90.06529872053143",
    "latitude": "29.95884052062511",
    "geocoded_column": {
      "latitude": "29.95884052062511",
      "longitude": "-90.06529872053143"
    }
  },
  {
    "service_request": "2022-878266",
    "request_type": "Health Related Questions",
    "request_reason": "Noise Ordinance Complaint",
    "date_created": "2022-04-27T23:24:31.000",
    "date_modified": "2022-04-27T23:24:31.000",
    "request_status": "Pending",
    "responsible_agency": "Health Department",
    "final_address": "718 Bourbon St, New Orleans, Louisiana, 70116",
    "address_councildis": "C",
    "status": "Pending",
    "rowid": "878266",
    "final_x": "3682364.17781",
    "final_y": "532746.008004",
    "longitude": "-90.06529872053143",
    "latitude": "29.95884052062511",
    "geocoded_column": {
      "latitude": "29.95884052062511",
      "longitude": "-90.06529872053143"
    }
  },
  {
    "service_request": "2022-878265",
    "request_type": "Trash/Recycling",
    "request_reason": "Repair Recycling Cart",
    "date_created": "2022-04-27T23:16:41.000",
    "date_modified": "2022-04-27T23:16:41.000",
    "request_status": "Pending",
    "responsible_agency": "Department of Sanitation",
    "final_address": "5523 S Johnson St",
    "address_councildis": "A",
    "status": "Pending",
    "rowid": "878265",
    "final_x": "3668045.5122",
    "final_y": "527153.107903",
    "longitude": "-90.11070202398514",
    "latitude": "29.943889804936028",
    "geocoded_column": {
      "latitude": "29.943889804936028",
      "longitude": "-90.11070202398514"
    }
  },
  {
    "service_request": "2022-878264",
    "request_type": "Health Related Questions",
    "request_reason": "Noise Ordinance Complaint",
    "date_created": "2022-04-27T22:56:41.000",
    "date_modified": "2022-04-27T22:56:41.000",
    "request_status": "Pending",
    "responsible_agency": "Health Department",
    "final_address": "718 Bourbon St, New Orleans, Louisiana, 70116",
    "address_councildis": "C",
    "status": "Pending",
    "rowid": "878264",
    "final_x": "3682364.17781",
    "final_y": "532746.008004",
    "longitude": "-90.06529872053143",
    "latitude": "29.95884052062511",
    "geocoded_column": {
      "latitude": "29.95884052062511",
      "longitude": "-90.06529872053143"
    }
  },
  {
    "service_request": "2022-878263",
    "request_type": "Health Related Questions",
    "request_reason": "Noise Ordinance Complaint",
    "date_created": "2022-04-27T22:53:31.000",
    "date_modified": "2022-04-27T22:53:31.000",
    "request_status": "Pending",
    "responsible_agency": "Health Department",
    "final_address": "718 Bourbon St, New Orleans, Louisiana, 70116",
    "address_councildis": "C",
    "status": "Pending",
    "rowid": "878263",
    "final_x": "3682364.17781",
    "final_y": "532746.008004",
    "longitude": "-90.06529872053143",
    "latitude": "29.95884052062511",
    "geocoded_column": {
      "latitude": "29.95884052062511",
      "longitude": "-90.06529872053143"
    }
  },
  {
    "service_request": "2022-878262",
    "request_type": "Health Related Questions",
    "request_reason": "Noise Ordinance Complaint",
    "date_created": "2022-04-27T22:46:04.000",
    "date_modified": "2022-04-27T22:46:04.000",
    "request_status": "Pending",
    "responsible_agency": "Health Department",
    "final_address": "718 Bourbon St, New Orleans, Louisiana, 70116",
    "address_councildis": "C",
    "status": "Pending",
    "rowid": "878262",
    "final_x": "3682364.17781",
    "final_y": "532746.008004",
    "longitude": "-90.06529872053143",
    "latitude": "29.95884052062511",
    "geocoded_column": {
      "latitude": "29.95884052062511",
      "longitude": "-90.06529872053143"
    }
  },
  {
    "service_request": "2022-878261",
    "request_type": "Trash/Recycling",
    "request_reason": "Request a Large Item Pick Up",
    "date_created": "2022-04-27T22:40:42.000",
    "date_modified": "2022-04-27T22:40:43.000",
    "request_status": "Pending",
    "responsible_agency": "Department of Sanitation",
    "final_address": "253 Pine St",
    "address_councildis": "A",
    "status": "Assigned to Contractor",
    "contractor": "Richards Disposal",
    "rowid": "878261",
    "final_x": "3661493.77888",
    "final_y": "522988.368251",
    "longitude": "-90.13152565661873",
    "latitude": "29.932628686486552",
    "geocoded_column": {
      "latitude": "29.932628686486552",
      "longitude": "-90.13152565661873"
    }
  },
  {
    "service_request": "2022-878259",
    "request_type": "Property Maintenance",
    "request_reason": "Property Maintenance",
    "date_created": "2022-04-27T22:31:59.000",
    "date_modified": "2022-04-27T22:31:59.000",
    "request_status": "Pending",
    "responsible_agency": "Department of Code Enforcement",
    "final_address": "7701 Tricia Ct",
    "address_councildis": "E",
    "status": "Pending",
    "rowid": "878259",
    "final_x": "3717529.14316",
    "final_y": "571412.890152",
    "longitude": "-89.95278695237737",
    "latitude": "30.06404235005179",
    "geocoded_column": {
      "latitude": "30.06404235005179",
      "longitude": "-89.95278695237737"
    }
  },
  {
    "service_request": "2022-878260",
    "request_type": "Property Maintenance",
    "request_reason": "Property Maintenance",
    "date_created": "2022-04-27T22:31:59.000",
    "date_modified": "2022-04-27T22:31:59.000",
    "request_status": "Pending",
    "responsible_agency": "Department of Code Enforcement",
    "final_address": "7701 Tricia Ct",
    "address_councildis": "E",
    "status": "Pending",
    "rowid": "878260",
    "final_x": "3717529.14316",
    "final_y": "571412.890152",
    "longitude": "-89.95278695237737",
    "latitude": "30.06404235005179",
    "geocoded_column": {
      "latitude": "30.06404235005179",
      "longitude": "-89.95278695237737"
    }
  },
  {
    "service_request": "2022-878258",
    "request_type": "Abandoned Vehicles",
    "request_reason": "Abandoned/Junk Vehicles",
    "date_created": "2022-04-27T22:30:42.000",
    "date_modified": "2022-04-27T22:30:42.000",
    "request_status": "Pending",
    "responsible_agency": "Department of Public Works",
    "final_address": "7701 Tricia Ct",
    "address_councildis": "E",
    "status": "Pending",
    "rowid": "878258",
    "final_x": "3717529.14316",
    "final_y": "571412.890152",
    "longitude": "-89.95278695237737",
    "latitude": "30.06404235005179",
    "geocoded_column": {
      "latitude": "30.06404235005179",
      "longitude": "-89.95278695237737"
    }
  },
  {
    "service_request": "2022-878257",
    "request_type": "Trash/Recycling",
    "request_reason": "Request a Large Item Pick Up",
    "date_created": "2022-04-27T22:28:15.000",
    "date_modified": "2022-04-27T22:28:16.000",
    "request_status": "Pending",
    "responsible_agency": "Department of Sanitation",
    "final_address": "812 Roosevelt Pl, New Orleans, Louisiana, 70119",
    "address_councildis": "A",
    "status": "Assigned to Contractor",
    "contractor": "Richards Disposal",
    "rowid": "878257",
    "final_x": "3673578.1828",
    "final_y": "539690.171914",
    "longitude": "-90.09280530588637",
    "latitude": "29.978199050154533",
    "geocoded_column": {
      "latitude": "29.978199050154533",
      "longitude": "-90.09280530588637"
    }
  },
  {
    "service_request": "2022-878255",
    "request_type": "Trash/Recycling",
    "request_reason": "Order Recycling Cart",
    "date_created": "2022-04-27T22:01:47.000",
    "date_modified": "2022-04-27T22:01:47.000",
    "request_status": "Pending",
    "responsible_agency": "Department of Sanitation",
    "final_address": "5419 Vicksburg St",
    "address_councildis": "A",
    "status": "Pending",
    "rowid": "878255",
    "final_x": "3668659.00935",
    "final_y": "543021.937677",
    "longitude": "-90.10822935917776",
    "latitude": "29.987505796133103",
    "geocoded_column": {
      "latitude": "29.987505796133103",
      "longitude": "-90.10822935917776"
    }
  },
  {
    "service_request": "2022-878254",
    "request_type": "Traffic Signals/Signs/Striping/Streetlights",
    "request_reason": "Street Light Knocked Down/Leaning",
    "date_created": "2022-04-27T21:59:45.000",
    "date_modified": "2022-04-27T21:59:46.000",
    "request_status": "Pending",
    "responsible_agency": "Department of Public Works",
    "final_address": "1811 Camp St",
    "address_councildis": "B",
    "status": "Pending",
    "contractor": "Royal Engineering",
    "rowid": "878254",
    "final_x": "3679549.62351",
    "final_y": "523278.194811",
    "longitude": "-90.07451481411721",
    "latitude": "29.932892538724165",
    "geocoded_column": {
      "latitude": "29.932892538724165",
      "longitude": "-90.07451481411721"
    }
  },
  {
    "service_request": "2022-878253",
    "request_type": "Roads/Drainage",
    "request_reason": "Street Subsidence (Sinking)",
    "date_created": "2022-04-27T21:53:06.000",
    "date_modified": "2022-04-27T21:53:06.000",
    "request_status": "Pending",
    "responsible_agency": "Department of Public Works",
    "final_address": "147 Carondelet St",
    "address_councildis": "B",
    "status": "Pending",
    "rowid": "878253",
    "final_x": "3680596.02395",
    "final_y": "530572.52077",
    "longitude": "-90.0709577119148",
    "latitude": "29.952917850927957",
    "geocoded_column": {
      "latitude": "29.952917850927957",
      "longitude": "-90.0709577119148"
    }
  },
  {
    "service_request": "2022-878252",
    "request_type": "Property Maintenance",
    "request_reason": "Property Maintenance",
    "date_created": "2022-04-27T21:48:53.000",
    "date_modified": "2022-04-27T21:48:53.000",
    "request_status": "Pending",
    "responsible_agency": "Department of Code Enforcement",
    "final_address": "148 Carondelet St",
    "address_councildis": "B",
    "status": "Pending",
    "rowid": "878252",
    "final_x": "3680660.5604",
    "final_y": "530506.470594",
    "longitude": "-90.0707562324466",
    "latitude": "29.952734280058504",
    "geocoded_column": {
      "latitude": "29.952734280058504",
      "longitude": "-90.0707562324466"
    }
  },
  {
    "service_request": "2022-878251",
    "request_type": "Trash/Recycling",
    "request_reason": "Missed Trash Pick-Up",
    "date_created": "2022-04-27T21:15:26.000",
    "date_modified": "2022-04-27T21:15:33.000",
    "request_status": "Pending",
    "responsible_agency": "Department of Sanitation",
    "final_address": "65 Versailles Blvd",
    "address_councildis": "B",
    "status": "Assigned to Contractor",
    "contractor": "Richards Disposal",
    "rowid": "878251",
    "final_x": "3667786.32353",
    "final_y": "530363.657538",
    "longitude": "-90.11141225974532",
    "latitude": "29.952725374670543",
    "geocoded_column": {
      "latitude": "29.952725374670543",
      "longitude": "-90.11141225974532"
    }
  },
  {
    "service_request": "2022-878250",
    "request_type": "Abandoned Vehicles",
    "request_reason": "Abandoned/Junk Vehicles",
    "date_created": "2022-04-27T21:14:12.000",
    "date_modified": "2022-04-27T21:14:12.000",
    "request_status": "Pending",
    "responsible_agency": "Department of Public Works",
    "final_address": "2625 Constance St",
    "address_councildis": "B",
    "status": "Pending",
    "rowid": "878250",
    "final_x": "3677620.24456",
    "final_y": "520789.685561",
    "longitude": "-90.08069160430351",
    "latitude": "29.926108091384283",
    "geocoded_column": {
      "latitude": "29.926108091384283",
      "longitude": "-90.08069160430351"
    }
  },
  {
    "service_request": "2022-878249",
    "request_type": "Trash/Recycling",
    "request_reason": "Order Trash Cart",
    "date_created": "2022-04-27T21:09:39.000",
    "date_modified": "2022-04-27T21:09:49.000",
    "request_status": "Pending",
    "responsible_agency": "Department of Sanitation",
    "final_address": "38 Gull St",
    "address_councildis": "D",
    "status": "Assigned to Contractor",
    "contractor": "Metro Disposal",
    "rowid": "878249",
    "final_x": "3674958.00622",
    "final_y": "555524.380697",
    "longitude": "-90.0879037567342",
    "latitude": "30.02169640966345",
    "geocoded_column": {
      "latitude": "30.02169640966345",
      "longitude": "-90.0879037567342"
    }
  },
  {
    "service_request": "2022-878248",
    "request_type": "Trash/Recycling",
    "request_reason": "Replace Trash Cart",
    "date_created": "2022-04-27T21:09:03.000",
    "date_modified": "2022-04-27T21:10:01.000",
    "request_status": "Pending",
    "responsible_agency": "Department of Sanitation",
    "final_address": "38 Gull St",
    "address_councildis": "D",
    "status": "Assigned to Contractor",
    "contractor": "Metro Disposal",
    "rowid": "878248",
    "final_x": "3674958.00622",
    "final_y": "555524.380697",
    "longitude": "-90.0879037567342",
    "latitude": "30.02169640966345",
    "geocoded_column": {
      "latitude": "30.02169640966345",
      "longitude": "-90.0879037567342"
    }
  },
  {
    "service_request": "2022-878247",
    "request_type": "Trash/Recycling",
    "request_reason": "Order Recycling Cart",
    "date_created": "2022-04-27T21:06:47.000",
    "date_modified": "2022-04-27T21:06:47.000",
    "request_status": "Pending",
    "responsible_agency": "Department of Sanitation",
    "final_address": "38 Gull St",
    "address_councildis": "D",
    "status": "Pending",
    "rowid": "878247",
    "final_x": "3674958.00622",
    "final_y": "555524.380697",
    "longitude": "-90.0879037567342",
    "latitude": "30.02169640966345",
    "geocoded_column": {
      "latitude": "30.02169640966345",
      "longitude": "-90.0879037567342"
    }
  },
  {
    "service_request": "2022-878246",
    "request_type": "Trash/Recycling",
    "request_reason": "Missed Trash Pick-Up",
    "date_created": "2022-04-27T21:06:46.000",
    "date_modified": "2022-04-27T21:06:54.000",
    "request_status": "Pending",
    "responsible_agency": "Department of Sanitation",
    "final_address": "2514 Adams St",
    "address_councildis": "A",
    "status": "Assigned to Contractor",
    "contractor": "Richards Disposal",
    "rowid": "878246",
    "final_x": "3666291.92775",
    "final_y": "531000.21101",
    "longitude": "-90.11610955893856",
    "latitude": "29.95451942389691",
    "geocoded_column": {
      "latitude": "29.95451942389691",
      "longitude": "-90.11610955893856"
    }
  },
  {
    "service_request": "2022-878245",
    "request_type": "Trash/Recycling",
    "request_reason": "Request a Large Item Pick Up",
    "date_created": "2022-04-27T20:59:01.000",
    "date_modified": "2022-04-27T20:59:02.000",
    "request_status": "Pending",
    "responsible_agency": "Department of Sanitation",
    "final_address": "9129 Palmetto St",
    "address_councildis": "A",
    "status": "Assigned to Contractor",
    "contractor": "Richards Disposal",
    "rowid": "878245",
    "final_x": "3665430.87834",
    "final_y": "537839.013321",
    "longitude": "-90.11859950094914",
    "latitude": "29.97334900189158",
    "geocoded_column": {
      "latitude": "29.97334900189158",
      "longitude": "-90.11859950094914"
    }
  },
  {
    "service_request": "2022-878244",
    "request_type": "Traffic Signals/Signs/Striping/Streetlights",
    "request_reason": "Road Surface Marking Maintenance-Bike Lane",
    "date_created": "2022-04-27T20:53:17.000",
    "date_modified": "2022-04-27T20:53:17.000",
    "request_status": "Pending",
    "responsible_agency": "Department of Public Works",
    "final_address": "1 N Broad St",
    "address_councildis": "A",
    "status": "Pending",
    "rowid": "878244",
    "final_x": "3678430.02754",
    "final_y": "539455.01825",
    "longitude": "-90.07748957752331",
    "latitude": "29.97740713333724",
    "geocoded_column": {
      "latitude": "29.97740713333724",
      "longitude": "-90.07748957752331"
    }
  },
  {
    "service_request": "2022-878243",
    "request_type": "Trash/Recycling",
    "request_reason": "MIssed Recycling Pick-Up",
    "date_created": "2022-04-27T20:48:36.000",
    "date_modified": "2022-04-27T20:48:37.000",
    "request_status": "Pending",
    "responsible_agency": "Department of Sanitation",
    "final_address": "2909 Broadway St",
    "address_councildis": "B",
    "status": "Assigned to Contractor",
    "contractor": "Richards Disposal",
    "rowid": "878243",
    "final_x": "3667585.16647",
    "final_y": "531637.183299",
    "longitude": "-90.11200456438573",
    "latitude": "29.956233050617865",
    "geocoded_column": {
      "latitude": "29.956233050617865",
      "longitude": "-90.11200456438573"
    }
  },
  {
    "service_request": "2022-878242",
    "request_type": "Trash/Recycling",
    "request_reason": "Missed Trash Pick-Up",
    "date_created": "2022-04-27T20:47:31.000",
    "date_modified": "2022-04-27T20:47:32.000",
    "request_status": "Pending",
    "responsible_agency": "Department of Sanitation",
    "final_address": "2909 Broadway St",
    "address_councildis": "B",
    "status": "Assigned to Contractor",
    "contractor": "Richards Disposal",
    "rowid": "878242",
    "final_x": "3667585.16647",
    "final_y": "531637.183299",
    "longitude": "-90.11200456438573",
    "latitude": "29.956233050617865",
    "geocoded_column": {
      "latitude": "29.956233050617865",
      "longitude": "-90.11200456438573"
    }
  },
  {
    "service_request": "2022-878241",
    "request_type": "Trash/Recycling",
    "request_reason": "Missed Trash Pick-Up",
    "date_created": "2022-04-27T20:24:25.000",
    "date_modified": "2022-04-27T20:24:26.000",
    "request_status": "Pending",
    "responsible_agency": "Department of Sanitation",
    "final_address": "7800 Nelson St",
    "address_councildis": "A",
    "status": "Assigned to Contractor",
    "contractor": "Richards Disposal",
    "rowid": "878241",
    "final_x": "3665890.85325",
    "final_y": "531086.254146",
    "longitude": "-90.11737311723965",
    "latitude": "29.954767723625924",
    "geocoded_column": {
      "latitude": "29.954767723625924",
      "longitude": "-90.11737311723965"
    }
  },
  {
    "service_request": "2022-878240",
    "request_type": "Trash/Recycling",
    "request_reason": "Missed Trash Pick-Up",
    "date_created": "2022-04-27T20:01:06.000",
    "date_modified": "2022-04-27T20:01:06.000",
    "request_status": "Pending",
    "responsible_agency": "Department of Sanitation",
    "final_address": "12 Fontainebleau Dr",
    "address_councildis": "A",
    "status": "Assigned to Contractor",
    "contractor": "Richards Disposal",
    "rowid": "878240",
    "final_x": "3665601.99751",
    "final_y": "531780.781571",
    "longitude": "-90.11826196111153",
    "latitude": "29.956685872991745",
    "geocoded_column": {
      "latitude": "29.956685872991745",
      "longitude": "-90.11826196111153"
    }
  },
  {
    "service_request": "2022-878238",
    "request_type": "Trash/Recycling",
    "request_reason": "Missed Trash Pick-Up",
    "date_created": "2022-04-27T19:46:11.000",
    "date_modified": "2022-04-27T19:46:12.000",
    "request_status": "Pending",
    "responsible_agency": "Department of Sanitation",
    "final_address": "2419 Pine St",
    "address_councildis": "A",
    "status": "Assigned to Contractor",
    "contractor": "Richards Disposal",
    "rowid": "878238",
    "final_x": "3666513.23841",
    "final_y": "530377.849218",
    "longitude": "-90.11543163142738",
    "latitude": "29.952801665642045",
    "geocoded_column": {
      "latitude": "29.952801665642045",
      "longitude": "-90.11543163142738"
    }
  },
  {
    "service_request": "2022-878237",
    "request_type": "Trash/Recycling",
    "request_reason": "Order Trash Cart",
    "date_created": "2022-04-27T19:40:53.000",
    "date_modified": "2022-04-27T19:40:53.000",
    "request_status": "Pending",
    "responsible_agency": "Department of Sanitation",
    "final_address": "4327 Banks St",
    "address_councildis": "A",
    "status": "Assigned to Contractor",
    "contractor": "Richards Disposal",
    "rowid": "878237",
    "final_x": "3669412.31559",
    "final_y": "538190.155529",
    "longitude": "-90.10601339109711",
    "latitude": "29.97419786604557",
    "geocoded_column": {
      "latitude": "29.97419786604557",
      "longitude": "-90.10601339109711"
    }
  },
  {
    "service_request": "2022-878236",
    "request_type": "Trash/Recycling",
    "request_reason": "Request a Large Item Pick Up",
    "date_created": "2022-04-27T19:40:25.000",
    "date_modified": "2022-04-27T19:40:26.000",
    "request_status": "Pending",
    "responsible_agency": "Department of Sanitation",
    "final_address": "2816 Baronne St",
    "address_councildis": "B",
    "status": "Assigned to Contractor",
    "contractor": "Richards Disposal",
    "rowid": "878236",
    "final_x": "3675400.36667",
    "final_y": "523033.061563",
    "longitude": "-90.08762213446256",
    "latitude": "29.932343190080683",
    "geocoded_column": {
      "latitude": "29.932343190080683",
      "longitude": "-90.08762213446256"
    }
  },
  {
    "service_request": "2022-878235",
    "request_type": "Trash/Recycling",
    "request_reason": "Repair Trash Cart",
    "date_created": "2022-04-27T19:39:30.000",
    "date_modified": "2022-04-27T19:39:30.000",
    "request_status": "Pending",
    "responsible_agency": "Department of Sanitation",
    "final_address": "4327 Banks St",
    "address_councildis": "A",
    "status": "Assigned to Contractor",
    "contractor": "Richards Disposal",
    "rowid": "878235",
    "final_x": "3669412.31559",
    "final_y": "538190.155529",
    "longitude": "-90.10601339109711",
    "latitude": "29.97419786604557",
    "geocoded_column": {
      "latitude": "29.97419786604557",
      "longitude": "-90.10601339109711"
    }
  },
  {
    "service_request": "2022-878234",
    "request_type": "Trash/Recycling",
    "request_reason": "Order Recycling Cart",
    "date_created": "2022-04-27T19:38:10.000",
    "date_modified": "2022-04-27T19:38:10.000",
    "request_status": "Pending",
    "responsible_agency": "Department of Sanitation",
    "final_address": "4327 Banks St",
    "address_councildis": "A",
    "status": "Pending",
    "rowid": "878234",
    "final_x": "3669412.31559",
    "final_y": "538190.155529",
    "longitude": "-90.10601339109711",
    "latitude": "29.97419786604557",
    "geocoded_column": {
      "latitude": "29.97419786604557",
      "longitude": "-90.10601339109711"
    }
  },
  {
    "service_request": "2022-878233",
    "request_type": "Trash/Recycling",
    "request_reason": "Missed Trash Pick-Up",
    "date_created": "2022-04-27T19:16:09.000",
    "date_modified": "2022-04-27T19:16:09.000",
    "request_status": "Pending",
    "responsible_agency": "Department of Sanitation",
    "final_address": "5200 Atlanta St",
    "address_councildis": "B",
    "status": "Assigned to Contractor",
    "contractor": "Richards Disposal",
    "rowid": "878233",
    "final_x": "3667983.80449",
    "final_y": "520661.062009",
    "longitude": "-90.11111548717626",
    "latitude": "29.92604056837358",
    "geocoded_column": {
      "latitude": "29.92604056837358",
      "longitude": "-90.11111548717626"
    }
  },
  {
    "service_request": "2022-878232",
    "request_type": "Trash/Recycling",
    "request_reason": "Missed Trash Pick-Up",
    "date_created": "2022-04-27T19:05:12.000",
    "date_modified": "2022-04-27T19:05:12.000",
    "request_status": "Pending",
    "responsible_agency": "Department of Sanitation",
    "final_address": "2420 Pine St",
    "address_councildis": "A",
    "status": "Assigned to Contractor",
    "contractor": "Richards Disposal",
    "rowid": "878232",
    "final_x": "3666432.46957",
    "final_y": "530549.881794",
    "longitude": "-90.11568089195933",
    "latitude": "29.953277059479298",
    "geocoded_column": {
      "latitude": "29.953277059479298",
      "longitude": "-90.11568089195933"
    }
  },
  {
    "service_request": "2022-878231",
    "request_type": "Property Maintenance",
    "request_reason": "Property Maintenance",
    "date_created": "2022-04-27T18:59:10.000",
    "date_modified": "2022-04-27T18:59:10.000",
    "request_status": "Pending",
    "responsible_agency": "Department of Code Enforcement",
    "final_address": "326 Verret St",
    "address_councildis": "C",
    "status": "Pending",
    "rowid": "878231",
    "final_x": "3686940.5917",
    "final_y": "530527.315778",
    "longitude": "-90.05092601384099",
    "latitude": "29.95259983097",
    "geocoded_column": {
      "latitude": "29.95259983097",
      "longitude": "-90.05092601384099"
    }
  },
  {
    "service_request": "2022-878230",
    "request_type": "Trash/Recycling",
    "request_reason": "Missed Trash Pick-Up",
    "date_created": "2022-04-27T18:48:40.000",
    "date_modified": "2022-04-27T18:48:41.000",
    "request_status": "Pending",
    "responsible_agency": "Department of Sanitation",
    "final_address": "76 Versailles Blvd",
    "address_councildis": "B",
    "status": "Assigned to Contractor",
    "contractor": "Richards Disposal",
    "rowid": "878230",
    "final_x": "3667859.38644",
    "final_y": "530665.146434",
    "longitude": "-90.11117140524786",
    "latitude": "29.953552227979444",
    "geocoded_column": {
      "latitude": "29.953552227979444",
      "longitude": "-90.11117140524786"
    }
  },
  {
    "service_request": "2022-878229",
    "request_type": "Traffic Signals/Signs/Striping/Streetlights",
    "request_reason": "Street Light Knocked Down/Leaning",
    "date_created": "2022-04-27T18:38:03.000",
    "date_modified": "2022-04-27T18:38:04.000",
    "request_status": "Pending",
    "responsible_agency": "Department of Public Works",
    "final_address": "337 West Robert E Lee Blvd",
    "address_councildis": "A",
    "status": "Pending",
    "contractor": "Royal Engineering",
    "rowid": "878229",
    "final_x": "3665222.01108",
    "final_y": "555018.574617",
    "longitude": "-90.11868400110575",
    "latitude": "30.020592999543876",
    "geocoded_column": {
      "latitude": "30.020592999543876",
      "longitude": "-90.11868400110575"
    }
  },
  {
    "service_request": "2022-878228",
    "request_type": "Trash/Recycling",
    "request_reason": "Return Trash Cart",
    "date_created": "2022-04-27T18:31:52.000",
    "date_modified": "2022-04-27T18:31:53.000",
    "request_status": "Pending",
    "responsible_agency": "Department of Sanitation",
    "final_address": "4314 Constance St",
    "address_councildis": "B",
    "status": "Assigned to Contractor",
    "contractor": "Richards Disposal",
    "rowid": "878228",
    "final_x": "3671369.63879",
    "final_y": "518409.089654",
    "longitude": "-90.10050385622883",
    "latitude": "29.919748622650197",
    "geocoded_column": {
      "latitude": "29.919748622650197",
      "longitude": "-90.10050385622883"
    }
  },
  {
    "service_request": "2022-878227",
    "request_type": "Trash/Recycling",
    "request_reason": "Missed Trash Pick-Up",
    "date_created": "2022-04-27T18:26:03.000",
    "date_modified": "2022-04-27T18:26:05.000",
    "request_status": "Pending",
    "responsible_agency": "Department of Sanitation",
    "final_address": "7733 Gannon Rd",
    "address_councildis": "E",
    "status": "Assigned to Contractor",
    "contractor": "Metro Disposal",
    "rowid": "878227",
    "final_x": "3716124.3285",
    "final_y": "570390.443047",
    "longitude": "-89.95726644351016",
    "latitude": "30.061277509188713",
    "geocoded_column": {
      "latitude": "30.061277509188713",
      "longitude": "-89.95726644351016"
    }
  },
  {
    "service_request": "2022-878224",
    "request_type": "Trash/Recycling",
    "request_reason": "Request a Large Item Pick Up",
    "date_created": "2022-04-27T18:13:06.000",
    "date_modified": "2022-04-27T18:13:07.000",
    "request_status": "Pending",
    "responsible_agency": "Department of Sanitation",
    "final_address": "1210 St Andrew St",
    "address_councildis": "B",
    "status": "Assigned to Contractor",
    "contractor": "Richards Disposal",
    "rowid": "878224",
    "final_x": "3679178.38703",
    "final_y": "522929.433979",
    "longitude": "-90.07569886412661",
    "latitude": "29.93194477004698",
    "geocoded_column": {
      "latitude": "29.93194477004698",
      "longitude": "-90.07569886412661"
    }
  },
  {
    "service_request": "2022-878223",
    "request_type": "Trash/Recycling",
    "request_reason": "MIssed Recycling Pick-Up",
    "date_created": "2022-04-27T18:00:35.000",
    "date_modified": "2022-04-27T18:00:35.000",
    "request_status": "Pending",
    "responsible_agency": "Department of Sanitation",
    "final_address": "234 S Norman C Francis Pkwy, New Orleans, Louisiana, 70119",
    "status": "Assigned to Contractor",
    "rowid": "878223",
    "longitude": "0.0",
    "latitude": "0.0",
    "geocoded_column": {
      "latitude": "0.0",
      "longitude": "0.0"
    }
  },
  {
    "service_request": "2022-878222",
    "request_type": "Trash/Recycling",
    "request_reason": "Missed Trash Pick-Up",
    "date_created": "2022-04-27T17:48:23.000",
    "date_modified": "2022-04-27T17:48:23.000",
    "request_status": "Pending",
    "responsible_agency": "Department of Sanitation",
    "final_address": "4012 State Street Dr",
    "address_councildis": "B",
    "status": "Assigned to Contractor",
    "contractor": "Richards Disposal",
    "rowid": "878222",
    "final_x": "3668196.45332",
    "final_y": "530385.454274",
    "longitude": "-90.11011651453127",
    "latitude": "29.952773276214476",
    "geocoded_column": {
      "latitude": "29.952773276214476",
      "longitude": "-90.11011651453127"
    }
  },
  {
    "service_request": "2022-878221",
    "request_type": "Trash/Recycling",
    "request_reason": "Missed Trash Pick-Up",
    "date_created": "2022-04-27T17:45:16.000",
    "date_modified": "2022-04-27T17:45:17.000",
    "request_status": "Pending",
    "responsible_agency": "Department of Sanitation",
    "final_address": "4104 State Street Dr, New Orleans, Louisiana, 70125",
    "address_councildis": "B",
    "status": "Assigned to Contractor",
    "contractor": "Richards Disposal",
    "rowid": "878221",
    "final_x": "3668298.44462",
    "final_y": "530687.608386",
    "longitude": "-90.10978428275118",
    "latitude": "29.953601106925042",
    "geocoded_column": {
      "latitude": "29.953601106925042",
      "longitude": "-90.10978428275118"
    }
  },
  {
    "service_request": "2022-878220",
    "request_type": "Traffic Signals/Signs/Striping/Streetlights",
    "request_reason": "Traffic Signal Malfunctioning/Damaged",
    "date_created": "2022-04-27T17:41:19.000",
    "date_modified": "2022-04-27T17:41:19.000",
    "request_status": "Pending",
    "responsible_agency": "Department of Public Works",
    "final_address": "S CLAIBORNE AVE & POYDRAS EXIT & S CLAIBORNE ONRAMP",
    "address_councildis": "B",
    "status": "Pending",
    "rowid": "878220",
    "final_x": "3676754.4",
    "final_y": "530756.58",
    "longitude": "-90.08308153126988",
    "latitude": "29.953539767949017",
    "geocoded_column": {
      "latitude": "29.953539767949017",
      "longitude": "-90.08308153126988"
    }
  },
  {
    "service_request": "2022-878219",
    "request_type": "Safety & Permits",
    "request_reason": "Licenses & Permits",
    "date_created": "2022-04-27T17:39:01.000",
    "date_modified": "2022-04-27T17:39:03.000",
    "request_status": "Pending",
    "responsible_agency": "Safety and Permits",
    "final_address": "6501 N Interstate 10 Service Rd",
    "address_councildis": "E",
    "status": "Pending",
    "rowid": "878219",
    "final_x": "3697653.86858",
    "final_y": "558104.468187",
    "longitude": "-90.01609751200603",
    "latitude": "30.02809284624278",
    "geocoded_column": {
      "latitude": "30.02809284624278",
      "longitude": "-90.01609751200603"
    }
  },
  {
    "service_request": "2022-878218",
    "request_type": "Trash/Recycling",
    "request_reason": "Request a Large Item Pick Up",
    "date_created": "2022-04-27T17:33:17.000",
    "date_modified": "2022-04-27T17:33:18.000",
    "request_status": "Pending",
    "responsible_agency": "Department of Sanitation",
    "final_address": "6245 Waldo Dr, New Orleans, Louisiana, 70122",
    "address_councildis": "D",
    "status": "Assigned to Contractor",
    "contractor": "Metro Disposal",
    "rowid": "878218",
    "final_x": "3681113.64136",
    "final_y": "556153.910682",
    "longitude": "-90.06843162784753",
    "latitude": "30.023241981653275",
    "geocoded_column": {
      "latitude": "30.023241981653275",
      "longitude": "-90.06843162784753"
    }
  },
  {
    "service_request": "2022-878217",
    "request_type": "Roads/Drainage",
    "request_reason": "Road Shoulder Repair",
    "date_created": "2022-04-27T17:32:26.000",
    "date_modified": "2022-04-27T17:32:26.000",
    "request_status": "Pending",
    "responsible_agency": "Department of Public Works",
    "final_address": "5153 Wilton Dr",
    "address_councildis": "D",
    "status": "Pending",
    "rowid": "878217",
    "final_x": "3682011.51285",
    "final_y": "551456.853973",
    "longitude": "-90.06575873408272",
    "latitude": "30.010299504094014",
    "geocoded_column": {
      "latitude": "30.010299504094014",
      "longitude": "-90.06575873408272"
    }
  },
  {
    "service_request": "2022-878215",
    "request_type": "Trash/Recycling",
    "request_reason": "Order Trash Cart",
    "date_created": "2022-04-27T17:19:53.000",
    "date_modified": "2022-04-27T17:19:54.000",
    "request_status": "Pending",
    "responsible_agency": "Department of Sanitation",
    "final_address": "713 River Oaks Dr",
    "address_councildis": "C",
    "status": "Assigned to Contractor",
    "contractor": "Richards Disposal",
    "rowid": "878215",
    "final_x": "3701418.88503",
    "final_y": "519784.277048",
    "longitude": "-90.00560347907968",
    "latitude": "29.92260673454228",
    "geocoded_column": {
      "latitude": "29.92260673454228",
      "longitude": "-90.00560347907968"
    }
  },
  {
    "service_request": "2022-878214",
    "request_type": "Trash/Recycling",
    "request_reason": "Request a Large Item Pick Up",
    "date_created": "2022-04-27T17:19:31.000",
    "date_modified": "2022-04-27T17:19:32.000",
    "request_status": "Pending",
    "responsible_agency": "Department of Sanitation",
    "final_address": "935 Pine St",
    "address_councildis": "A",
    "status": "Assigned to Contractor",
    "contractor": "Richards Disposal",
    "rowid": "878214",
    "final_x": "3663523.32723",
    "final_y": "526006.741629",
    "longitude": "-90.12501802909026",
    "latitude": "29.940869567632383",
    "geocoded_column": {
      "latitude": "29.940869567632383",
      "longitude": "-90.12501802909026"
    }
  },
  {
    "service_request": "2022-878213",
    "request_type": "Trash/Recycling",
    "request_reason": "Start Trash Service",
    "date_created": "2022-04-27T17:19:15.000",
    "date_modified": "2022-04-27T17:19:15.000",
    "request_status": "Pending",
    "responsible_agency": "Department of Sanitation",
    "final_address": "713 River Oaks Dr",
    "address_councildis": "C",
    "status": "Assigned to Contractor",
    "contractor": "Richards Disposal",
    "rowid": "878213",
    "final_x": "3701418.88503",
    "final_y": "519784.277048",
    "longitude": "-90.00560347907968",
    "latitude": "29.92260673454228",
    "geocoded_column": {
      "latitude": "29.92260673454228",
      "longitude": "-90.00560347907968"
    }
  },
  {
    "service_request": "2022-878212",
    "request_type": "Trash/Recycling",
    "request_reason": "Missed Trash Pick-Up",
    "date_created": "2022-04-27T17:18:37.000",
    "date_modified": "2022-04-27T17:18:38.000",
    "request_status": "Pending",
    "responsible_agency": "Department of Sanitation",
    "final_address": "908 Fern St, New Orleans, Louisiana, 70118",
    "address_councildis": "A",
    "status": "Assigned to Contractor",
    "contractor": "Richards Disposal",
    "rowid": "878212",
    "final_x": "3661854.66298",
    "final_y": "527171.849215",
    "longitude": "-90.13024770251916",
    "latitude": "29.944121521820318",
    "geocoded_column": {
      "latitude": "29.944121521820318",
      "longitude": "-90.13024770251916"
    }
  },
  {
    "service_request": "2022-878211",
    "request_type": "Trash/Recycling",
    "request_reason": "Replace Trash Cart",
    "date_created": "2022-04-27T17:17:46.000",
    "date_modified": "2022-04-27T17:17:46.000",
    "request_status": "Pending",
    "responsible_agency": "Department of Sanitation",
    "final_address": "312 S Pierce St",
    "address_councildis": "A",
    "status": "Assigned to Contractor",
    "contractor": "Richards Disposal",
    "rowid": "878211",
    "final_x": "3670944.941",
    "final_y": "537286.290504",
    "longitude": "-90.10120368872921",
    "latitude": "29.97166731434032",
    "geocoded_column": {
      "latitude": "29.97166731434032",
      "longitude": "-90.10120368872921"
    }
  },
  {
    "service_request": "2022-878210",
    "request_type": "Trash/Recycling",
    "request_reason": "Missed Trash Pick-Up",
    "date_created": "2022-04-27T17:15:31.000",
    "date_modified": "2022-04-27T17:15:32.000",
    "request_status": "Pending",
    "responsible_agency": "Department of Sanitation",
    "final_address": "259 Broadway St, New Orleans, Louisiana, 70118",
    "address_councildis": "A",
    "status": "Assigned to Contractor",
    "contractor": "Richards Disposal",
    "rowid": "878210",
    "final_x": "3661429.15725",
    "final_y": "522323.76025",
    "longitude": "-90.13175166460076",
    "latitude": "29.930803086581534",
    "geocoded_column": {
      "latitude": "29.930803086581534",
      "longitude": "-90.13175166460076"
    }
  },
  {
    "service_request": "2022-878209",
    "request_type": "Parks & Parkways",
    "request_reason": "Request Tree Service (Right of Way/Public Property)",
    "date_created": "2022-04-27T17:11:39.000",
    "date_modified": "2022-04-27T17:12:41.000",
    "request_status": "Pending",
    "responsible_agency": "Department of Parks & Parkway",
    "final_address": "1301 Amelia St",
    "address_councildis": "B",
    "status": "Pending",
    "rowid": "878209",
    "final_x": "3673505.03758",
    "final_y": "519903.41388",
    "longitude": "-90.09371240974926",
    "latitude": "29.923794189193448",
    "geocoded_column": {
      "latitude": "29.923794189193448",
      "longitude": "-90.09371240974926"
    }
  },
  {
    "service_request": "2022-878208",
    "request_type": "Property Maintenance",
    "request_reason": "Property Maintenance",
    "date_created": "2022-04-27T17:06:04.000",
    "date_modified": "2022-04-27T17:06:05.000",
    "request_status": "Pending",
    "responsible_agency": "Department of Code Enforcement",
    "final_address": "3316 Fourth St",
    "address_councildis": "B",
    "status": "Pending",
    "rowid": "878208",
    "final_x": "3672726.17012",
    "final_y": "527872.877183",
    "longitude": "-90.09589934003898",
    "latitude": "29.945730776700618",
    "geocoded_column": {
      "latitude": "29.945730776700618",
      "longitude": "-90.09589934003898"
    }
  },
  {
    "service_request": "2022-878207",
    "request_type": "Trash/Recycling",
    "request_reason": "Request a Large Item Pick Up",
    "date_created": "2022-04-27T16:53:41.000",
    "date_modified": "2022-04-27T16:53:42.000",
    "request_status": "Pending",
    "responsible_agency": "Department of Sanitation",
    "final_address": "417 Henry Clay Ave",
    "address_councildis": "A",
    "status": "Assigned to Contractor",
    "contractor": "Richards Disposal",
    "rowid": "878207",
    "final_x": "3663375.75616",
    "final_y": "518379.00959",
    "longitude": "-90.12573773977351",
    "latitude": "29.919899984815505",
    "geocoded_column": {
      "latitude": "29.919899984815505",
      "longitude": "-90.12573773977351"
    }
  },
  {
    "service_request": "2022-878206",
    "request_type": "Trash/Recycling",
    "request_reason": "Replace Trash Cart",
    "date_created": "2022-04-27T16:48:56.000",
    "date_modified": "2022-04-27T16:48:56.000",
    "request_status": "Pending",
    "responsible_agency": "Department of Sanitation",
    "final_address": "7700 Shaw Ave",
    "address_councildis": "E",
    "status": "Assigned to Contractor",
    "contractor": "Metro Disposal",
    "rowid": "878206",
    "final_x": "3707055.43921",
    "final_y": "564413.772257",
    "longitude": "-89.98615498434053",
    "latitude": "30.045140413370085",
    "geocoded_column": {
      "latitude": "30.045140413370085",
      "longitude": "-89.98615498434053"
    }
  },
  {
    "service_request": "2022-878205",
    "request_type": "Traffic Signals/Signs/Striping/Streetlights",
    "request_reason": "Street Light Outage/Malfunction",
    "date_created": "2022-04-27T16:43:25.000",
    "date_modified": "2022-04-27T16:43:26.000",
    "request_status": "Pending",
    "responsible_agency": "Department of Public Works",
    "final_address": "400 Poydras St",
    "address_councildis": "B",
    "status": "Pending",
    "contractor": "Royal Engineering",
    "rowid": "878205",
    "final_x": "3681589.68706",
    "final_y": "529065.294848",
    "longitude": "-90.06787272477939",
    "latitude": "29.948743349579406",
    "geocoded_column": {
      "latitude": "29.948743349579406",
      "longitude": "-90.06787272477939"
    }
  },
  {
    "service_request": "2022-878204",
    "request_type": "Roads/Drainage",
    "request_reason": "Pothole",
    "date_created": "2022-04-27T16:42:25.000",
    "date_modified": "2022-04-27T16:42:26.000",
    "request_status": "Pending",
    "responsible_agency": "Department of Public Works",
    "final_address": "5153 Wilton Dr",
    "address_councildis": "D",
    "status": "Pending",
    "rowid": "878204",
    "final_x": "3682011.51285",
    "final_y": "551456.853973",
    "longitude": "-90.06575873408272",
    "latitude": "30.010299504094014",
    "geocoded_column": {
      "latitude": "30.010299504094014",
      "longitude": "-90.06575873408272"
    }
  },
  {
    "service_request": "2022-878203",
    "request_type": "Trash/Recycling",
    "request_reason": "MIssed Recycling Pick-Up",
    "date_created": "2022-04-27T16:41:39.000",
    "date_modified": "2022-04-27T16:41:40.000",
    "request_status": "Pending",
    "responsible_agency": "Department of Sanitation",
    "final_address": "2409 Philip St",
    "address_councildis": "B",
    "status": "Assigned to Contractor",
    "contractor": "Richards Disposal",
    "rowid": "878203",
    "final_x": "3675487.51752",
    "final_y": "525916.990333",
    "longitude": "-90.08724799901273",
    "latitude": "29.94027044594723",
    "geocoded_column": {
      "latitude": "29.94027044594723",
      "longitude": "-90.08724799901273"
    }
  },
  {
    "service_request": "2022-878202",
    "request_type": "Traffic Signals/Signs/Striping/Streetlights",
    "request_reason": "Street Light Outage/Malfunction",
    "date_created": "2022-04-27T16:39:30.000",
    "date_modified": "2022-04-27T16:39:30.000",
    "request_status": "Pending",
    "responsible_agency": "Department of Public Works",
    "final_address": "2330 Mendez St",
    "address_councildis": "D",
    "status": "Pending",
    "contractor": "Royal Engineering",
    "rowid": "878202",
    "final_x": "3684657.90364",
    "final_y": "553447.232151",
    "longitude": "-90.05732778044991",
    "latitude": "30.01569155492865",
    "geocoded_column": {
      "latitude": "30.01569155492865",
      "longitude": "-90.05732778044991"
    }
  },
  {
    "service_request": "2022-878201",
    "request_type": "Trash/Recycling",
    "request_reason": "Request a Large Item Pick Up",
    "date_created": "2022-04-27T16:39:16.000",
    "date_modified": "2022-04-27T16:39:16.000",
    "request_status": "Pending",
    "responsible_agency": "Department of Sanitation",
    "final_address": "922 Aline St",
    "address_councildis": "B",
    "status": "Assigned to Contractor",
    "contractor": "Richards Disposal",
    "rowid": "878201",
    "final_x": "3674590.80392",
    "final_y": "518888.637495",
    "longitude": "-90.09031978398433",
    "latitude": "29.920971536828286",
    "geocoded_column": {
      "latitude": "29.920971536828286",
      "longitude": "-90.09031978398433"
    }
  },
  {
    "service_request": "2022-878200",
    "request_type": "Trash/Recycling",
    "request_reason": "Request a Large Item Pick Up",
    "date_created": "2022-04-27T16:36:54.000",
    "date_modified": "2022-04-27T16:36:55.000",
    "request_status": "Pending",
    "responsible_agency": "Department of Sanitation",
    "final_address": "5600 Macarthur Blvd",
    "address_councildis": "C",
    "status": "Assigned to Contractor",
    "contractor": "Richards Disposal",
    "rowid": "878200",
    "final_x": "3704201.42455",
    "final_y": "519610.672184",
    "longitude": "-89.99682657624919",
    "latitude": "29.922040432242518",
    "geocoded_column": {
      "latitude": "29.922040432242518",
      "longitude": "-89.99682657624919"
    }
  },
  {
    "service_request": "2022-878199",
    "request_type": "Traffic Signals/Signs/Striping/Streetlights",
    "request_reason": "Street Light Outage/Malfunction",
    "date_created": "2022-04-27T16:34:28.000",
    "date_modified": "2022-04-27T16:34:29.000",
    "request_status": "Pending",
    "responsible_agency": "Department of Public Works",
    "final_address": "2514 Adams St",
    "address_councildis": "A",
    "status": "Pending",
    "contractor": "Royal Engineering",
    "rowid": "878199",
    "final_x": "3666291.92775",
    "final_y": "531000.21101",
    "longitude": "-90.11610955893856",
    "latitude": "29.95451942389691",
    "geocoded_column": {
      "latitude": "29.95451942389691",
      "longitude": "-90.11610955893856"
    }
  },
  {
    "service_request": "2022-878198",
    "request_type": "Roads/Drainage",
    "request_reason": "Debris in Roadway",
    "date_created": "2022-04-27T16:33:56.000",
    "date_modified": "2022-04-27T16:33:56.000",
    "request_status": "Closed",
    "responsible_agency": "Department of Public Works",
    "final_address": "2400 Lapeyrouse St",
    "address_councildis": "D",
    "status": "Resolved",
    "rowid": "878198",
    "final_x": "3679897.77403",
    "final_y": "539500.033674",
    "longitude": "-90.07285238181483",
    "latitude": "29.977486596116034",
    "geocoded_column": {
      "latitude": "29.977486596116034",
      "longitude": "-90.07285238181483"
    }
  },
  {
    "service_request": "2022-878197",
    "request_type": "Trash/Recycling",
    "request_reason": "Missed Trash Pick-Up",
    "date_created": "2022-04-27T16:28:02.000",
    "date_modified": "2022-04-27T16:28:03.000",
    "request_status": "Pending",
    "responsible_agency": "Department of Sanitation",
    "final_address": "917 N Roman St",
    "address_councildis": "D",
    "status": "Assigned to Contractor",
    "contractor": "Richards Disposal",
    "rowid": "878197",
    "final_x": "3679719.26306",
    "final_y": "535783.262471",
    "longitude": "-90.07354524106039",
    "latitude": "29.96727215289225",
    "geocoded_column": {
      "latitude": "29.96727215289225",
      "longitude": "-90.07354524106039"
    }
  },
  {
    "service_request": "2022-878196",
    "request_type": "Parks & Parkways",
    "request_reason": "Request Tree Service (Right of Way/Public Property)",
    "date_created": "2022-04-27T16:27:08.000",
    "date_modified": "2022-04-27T16:27:08.000",
    "request_status": "Pending",
    "responsible_agency": "Department of Parks & Parkway",
    "final_address": "3515 Danneel St",
    "address_councildis": "B",
    "status": "Pending",
    "rowid": "878196",
    "final_x": "3673122.57902",
    "final_y": "522696.471034",
    "longitude": "-90.09482439773251",
    "latitude": "29.931485569087414",
    "geocoded_column": {
      "latitude": "29.931485569087414",
      "longitude": "-90.09482439773251"
    }
  },
  {
    "service_request": "2022-878195",
    "request_type": "Trash/Recycling",
    "request_reason": "MIssed Recycling Pick-Up",
    "date_created": "2022-04-27T16:27:06.000",
    "date_modified": "2022-04-27T16:27:09.000",
    "request_status": "Pending",
    "responsible_agency": "Department of Sanitation",
    "final_address": "3436 Chestnut St",
    "address_councildis": "B",
    "status": "Assigned to Contractor",
    "contractor": "Richards Disposal",
    "rowid": "878195",
    "final_x": "3674453.40872",
    "final_y": "520135.354552",
    "longitude": "-90.09071080196847",
    "latitude": "29.92440370598383",
    "geocoded_column": {
      "latitude": "29.92440370598383",
      "longitude": "-90.09071080196847"
    }
  },
  {
    "service_request": "2022-878194",
    "request_type": "Parks & Parkways",
    "request_reason": "Request Tree Service (Right of Way/Public Property)",
    "date_created": "2022-04-27T16:25:26.000",
    "date_modified": "2022-04-27T16:25:27.000",
    "request_status": "Pending",
    "responsible_agency": "Department of Parks & Parkway",
    "final_address": "317 Delaronde St",
    "address_councildis": "C",
    "status": "Pending",
    "rowid": "878194",
    "final_x": "3686409.18204",
    "final_y": "530836.54253",
    "longitude": "-90.05259304831472",
    "latitude": "29.953466441492537",
    "geocoded_column": {
      "latitude": "29.953466441492537",
      "longitude": "-90.05259304831472"
    }
  },
  {
    "service_request": "2022-878193",
    "request_type": "Trash/Recycling",
    "request_reason": "Order Trash Cart",
    "date_created": "2022-04-27T16:25:15.000",
    "date_modified": "2022-04-27T16:25:16.000",
    "request_status": "Pending",
    "responsible_agency": "Department of Sanitation",
    "final_address": "10 Charlotte Dr",
    "address_councildis": "D",
    "status": "Assigned to Contractor",
    "contractor": "Metro Disposal",
    "rowid": "878193",
    "final_x": "3680056.82434",
    "final_y": "551437.783317",
    "longitude": "-90.0719349896129",
    "latitude": "30.01030637879483",
    "geocoded_column": {
      "latitude": "30.01030637879483",
      "longitude": "-90.0719349896129"
    }
  },
  {
    "service_request": "2022-878190",
    "request_type": "Parks & Parkways",
    "request_reason": "Request Tree Service (Right of Way/Public Property)",
    "date_created": "2022-04-27T16:22:25.000",
    "date_modified": "2022-04-27T16:22:26.000",
    "request_status": "Pending",
    "responsible_agency": "Department of Parks & Parkway",
    "final_address": "4042 Franklin Ave",
    "address_councildis": "D",
    "status": "Pending",
    "rowid": "878190",
    "final_x": "3686927.92649",
    "final_y": "547895.135762",
    "longitude": "-90.05035197255569",
    "latitude": "30.000355612855913",
    "geocoded_column": {
      "latitude": "30.000355612855913",
      "longitude": "-90.05035197255569"
    }
  },
  {
    "service_request": "2022-878188",
    "request_type": "Traffic Signals/Signs/Striping/Streetlights",
    "request_reason": "Street Name Sign Damaged or Missing",
    "date_created": "2022-04-27T16:20:55.000",
    "date_modified": "2022-04-27T16:20:55.000",
    "request_status": "Pending",
    "responsible_agency": "Department of Public Works",
    "final_address": "7033 W Tamaron Blvd",
    "address_councildis": "E",
    "status": "Pending",
    "rowid": "878188",
    "final_x": "3718812.7614",
    "final_y": "568277.524901",
    "longitude": "-89.94884913857292",
    "latitude": "30.055378814566446",
    "geocoded_column": {
      "latitude": "30.055378814566446",
      "longitude": "-89.94884913857292"
    }
  },
  {
    "service_request": "2022-878189",
    "request_type": "Trash/Recycling",
    "request_reason": "Missed Trash Pick-Up",
    "date_created": "2022-04-27T16:20:55.000",
    "date_modified": "2022-04-27T16:20:56.000",
    "request_status": "Pending",
    "responsible_agency": "Department of Sanitation",
    "final_address": "8006 Sycamore St",
    "address_councildis": "A",
    "status": "Assigned to Contractor",
    "contractor": "Richards Disposal",
    "rowid": "878189",
    "final_x": "3664573.13357",
    "final_y": "530698.406722",
    "longitude": "-90.12154694080114",
    "latitude": "29.95373965355265",
    "geocoded_column": {
      "latitude": "29.95373965355265",
      "longitude": "-90.12154694080114"
    }
  },
  {
    "service_request": "2022-878187",
    "request_type": "Trash/Recycling",
    "request_reason": "Missed Trash Pick-Up",
    "date_created": "2022-04-27T16:20:27.000",
    "date_modified": "2022-04-27T16:25:46.000",
    "request_status": "Pending",
    "responsible_agency": "Department of Sanitation",
    "final_address": "342 S Norman C Francis Prkwy",
    "address_councildis": "B",
    "status": "Assigned to Contractor",
    "contractor": "Richards Disposal",
    "rowid": "878187",
    "final_x": "3672631.24539",
    "final_y": "535730.213831",
    "longitude": "-90.0959311433927",
    "latitude": "29.967338661022875",
    "geocoded_column": {
      "latitude": "29.967338661022875",
      "longitude": "-90.0959311433927"
    }
  },
  {
    "service_request": "2022-878185",
    "request_type": "Safety & Permits",
    "request_reason": "Licenses & Permits",
    "date_created": "2022-04-27T16:12:30.000",
    "date_modified": "2022-04-27T16:12:30.000",
    "request_status": "Pending",
    "responsible_agency": "Safety and Permits",
    "final_address": "3800 Dryades St",
    "address_councildis": "B",
    "status": "Pending",
    "rowid": "878185",
    "final_x": "3672600.54945",
    "final_y": "522122.737466",
    "longitude": "-90.09649193643587",
    "latitude": "29.929923491451305",
    "geocoded_column": {
      "latitude": "29.929923491451305",
      "longitude": "-90.09649193643587"
    }
  },
  {
    "service_request": "2022-878184",
    "request_type": "Roads/Drainage",
    "request_reason": "Street Flooding / Drainage",
    "date_created": "2022-04-27T16:10:48.000",
    "date_modified": "2022-04-27T16:10:48.000",
    "request_status": "Pending",
    "responsible_agency": "Department of Public Works",
    "final_address": "1210 carondelet",
    "address_councildis": "B",
    "status": "Pending",
    "rowid": "878184",
    "final_x": "3679310.09013",
    "final_y": "526505.392382",
    "longitude": "-90.07515913483424",
    "latitude": "29.94177349927343",
    "geocoded_column": {
      "latitude": "29.94177349927343",
      "longitude": "-90.07515913483424"
    }
  },
  {
    "service_request": "2022-878183",
    "request_type": "Safety & Permits",
    "request_reason": "Licenses & Permits",
    "date_created": "2022-04-27T16:10:36.000",
    "date_modified": "2022-04-27T16:10:36.000",
    "request_status": "Pending",
    "responsible_agency": "Safety and Permits",
    "final_address": "3800 Danneel St",
    "address_councildis": "B",
    "status": "Pending",
    "rowid": "878183",
    "final_x": "3672437.67041",
    "final_y": "522440.834298",
    "longitude": "-90.09699528419952",
    "latitude": "29.93080298856638",
    "geocoded_column": {
      "latitude": "29.93080298856638",
      "longitude": "-90.09699528419952"
    }
  },
  {
    "service_request": "2022-878182",
    "request_type": "Trash/Recycling",
    "request_reason": "Request a Large Item Pick Up",
    "date_created": "2022-04-27T16:09:29.000",
    "date_modified": "2022-04-27T16:09:30.000",
    "request_status": "Pending",
    "responsible_agency": "Department of Sanitation",
    "final_address": "1911 Octavia St",
    "address_councildis": "A",
    "status": "Assigned to Contractor",
    "contractor": "Richards Disposal",
    "rowid": "878182",
    "final_x": "3667372.27623",
    "final_y": "522818.405371",
    "longitude": "-90.11297338017859",
    "latitude": "29.931990499106206",
    "geocoded_column": {
      "latitude": "29.931990499106206",
      "longitude": "-90.11297338017859"
    }
  },
  {
    "service_request": "2022-878181",
    "request_type": "Trash/Recycling",
    "request_reason": "Repair Trash Cart",
    "date_created": "2022-04-27T16:09:01.000",
    "date_modified": "2022-04-27T16:09:02.000",
    "request_status": "Pending",
    "responsible_agency": "Department of Sanitation",
    "final_address": "536 Jackson Ave",
    "address_councildis": "B",
    "status": "Assigned to Contractor",
    "contractor": "Richards Disposal",
    "rowid": "878181",
    "final_x": "3679990.20821",
    "final_y": "520507.692216",
    "longitude": "-90.07322010681963",
    "latitude": "29.92526124881764",
    "geocoded_column": {
      "latitude": "29.92526124881764",
      "longitude": "-90.07322010681963"
    }
  },
  {
    "service_request": "2022-878180",
    "request_type": "Safety & Permits",
    "request_reason": "Licenses & Permits",
    "date_created": "2022-04-27T16:07:51.000",
    "date_modified": "2022-04-27T16:07:51.000",
    "request_status": "Pending",
    "responsible_agency": "Safety and Permits",
    "final_address": "3601 Danneel St",
    "address_councildis": "B",
    "status": "Pending",
    "rowid": "878180",
    "final_x": "3672939.87508",
    "final_y": "522634.003642",
    "longitude": "-90.0954033038108",
    "latitude": "29.931319232724974",
    "geocoded_column": {
      "latitude": "29.931319232724974",
      "longitude": "-90.0954033038108"
    }
  },
  {
    "service_request": "2022-878178",
    "request_type": "Roads/Drainage",
    "request_reason": "Leaking Hydrant",
    "date_created": "2022-04-27T15:55:23.000",
    "date_modified": "2022-04-27T15:55:23.000",
    "request_status": "Pending",
    "responsible_agency": "Department of Public Works",
    "final_address": "12 Maryland Dr, New Orleans, Louisiana, 70124",
    "address_councildis": "A",
    "status": "Pending",
    "rowid": "878178",
    "final_x": "3663668.31463",
    "final_y": "542180.918221",
    "longitude": "-90.12402134158401",
    "latitude": "29.985339051394327",
    "geocoded_column": {
      "latitude": "29.985339051394327",
      "longitude": "-90.12402134158401"
    }
  },
  {
    "service_request": "2022-878177",
    "request_type": "Trash/Recycling",
    "request_reason": "Missed Trash Pick-Up",
    "date_created": "2022-04-27T15:54:59.000",
    "date_modified": "2022-04-27T15:55:01.000",
    "request_status": "Pending",
    "responsible_agency": "Department of Sanitation",
    "final_address": "3625 Joliet St",
    "address_councildis": "A",
    "status": "Assigned to Contractor",
    "contractor": "Richards Disposal",
    "rowid": "878177",
    "final_x": "3666835.76935",
    "final_y": "535790.653767",
    "longitude": "-90.11423137853515",
    "latitude": "29.967675667852692",
    "geocoded_column": {
      "latitude": "29.967675667852692",
      "longitude": "-90.11423137853515"
    }
  },
  {
    "service_request": "2022-878176",
    "request_type": "Trash/Recycling",
    "request_reason": "Replace Trash Cart",
    "date_created": "2022-04-27T15:51:59.000",
    "date_modified": "2022-04-27T15:51:59.000",
    "request_status": "Pending",
    "responsible_agency": "Department of Sanitation",
    "final_address": "1736 Cadiz St",
    "address_councildis": "B",
    "status": "Assigned to Contractor",
    "contractor": "Richards Disposal",
    "rowid": "878176",
    "final_x": "3669946.87118",
    "final_y": "521470.647545",
    "longitude": "-90.10489124276944",
    "latitude": "29.928208948417524",
    "geocoded_column": {
      "latitude": "29.928208948417524",
      "longitude": "-90.10489124276944"
    }
  },
  {
    "service_request": "2022-878174",
    "request_type": "Trash/Recycling",
    "request_reason": "MIssed Recycling Pick-Up",
    "date_created": "2022-04-27T15:43:58.000",
    "date_modified": "2022-04-27T15:43:59.000",
    "request_status": "Pending",
    "responsible_agency": "Department of Sanitation",
    "final_address": "1730 Martin Luther King Jr Blvd, New Orleans, Louisiana, 70113",
    "status": "Assigned to Contractor",
    "rowid": "878174",
    "longitude": "0.0",
    "latitude": "0.0",
    "geocoded_column": {
      "latitude": "0.0",
      "longitude": "0.0"
    }
  },
  {
    "service_request": "2022-878172",
    "request_type": "Traffic Signals/Signs/Striping/Streetlights",
    "request_reason": "Request for Stop Sign",
    "date_created": "2022-04-27T15:36:54.000",
    "date_modified": "2022-04-27T15:36:54.000",
    "request_status": "Pending",
    "responsible_agency": "Department of Public Works",
    "final_address": "1900 Burgundy St",
    "address_councildis": "C",
    "status": "Pending",
    "rowid": "878172",
    "final_x": "3683964.5702",
    "final_y": "535466.02951",
    "longitude": "-90.06014965877657",
    "latitude": "29.966270849239883",
    "geocoded_column": {
      "latitude": "29.966270849239883",
      "longitude": "-90.06014965877657"
    }
  },
  {
    "service_request": "2022-878171",
    "request_type": "Trash/Recycling",
    "request_reason": "Missed Trash Pick-Up",
    "date_created": "2022-04-27T15:32:42.000",
    "date_modified": "2022-04-27T15:32:43.000",
    "request_status": "Pending",
    "responsible_agency": "Department of Sanitation",
    "final_address": "4133 Vincennes Pl",
    "address_councildis": "B",
    "status": "Assigned to Contractor",
    "contractor": "Richards Disposal",
    "rowid": "878171",
    "final_x": "3668690.06023",
    "final_y": "530771.10797",
    "longitude": "-90.10854490304123",
    "latitude": "29.953819199199952",
    "geocoded_column": {
      "latitude": "29.953819199199952",
      "longitude": "-90.10854490304123"
    }
  },
  {
    "service_request": "2022-878170",
    "request_type": "Traffic Signals/Signs/Striping/Streetlights",
    "request_reason": "Street Light Outage/Malfunction",
    "date_created": "2022-04-27T15:26:47.000",
    "date_modified": "2022-04-27T15:26:48.000",
    "request_status": "Pending",
    "responsible_agency": "Department of Public Works",
    "final_address": "1818 Jackson Ave",
    "address_councildis": "B",
    "status": "Pending",
    "contractor": "Royal Engineering",
    "rowid": "878170",
    "final_x": "3676858.79963",
    "final_y": "524608.592764",
    "longitude": "-90.08296371785258",
    "latitude": "29.936631707164267",
    "geocoded_column": {
      "latitude": "29.936631707164267",
      "longitude": "-90.08296371785258"
    }
  },
  {
    "service_request": "2022-878169",
    "request_type": "Trash/Recycling",
    "request_reason": "Request a Large Item Pick Up",
    "date_created": "2022-04-27T15:26:34.000",
    "date_modified": "2022-04-27T15:26:35.000",
    "request_status": "Pending",
    "responsible_agency": "Department of Sanitation",
    "final_address": "4701 New Orleans St",
    "address_councildis": "D",
    "status": "Assigned to Contractor",
    "contractor": "Metro Disposal",
    "rowid": "878169",
    "final_x": "3681357.42364",
    "final_y": "549772.520788",
    "longitude": "-90.06788401497454",
    "latitude": "30.005688074227837",
    "geocoded_column": {
      "latitude": "30.005688074227837",
      "longitude": "-90.06788401497454"
    }
  },
  {
    "service_request": "2022-878166",
    "request_type": "Roads/Drainage",
    "request_reason": "Damaged Sidewalk",
    "date_created": "2022-04-27T15:19:40.000",
    "date_modified": "2022-04-27T15:19:41.000",
    "request_status": "Pending",
    "responsible_agency": "Department of Public Works",
    "final_address": "3165 Desaix Blvd",
    "address_councildis": "D",
    "status": "Pending",
    "rowid": "878166",
    "final_x": "3678563.28565",
    "final_y": "543660.273422",
    "longitude": "-90.07692307162571",
    "latitude": "29.988966106861817",
    "geocoded_column": {
      "latitude": "29.988966106861817",
      "longitude": "-90.07692307162571"
    }
  },
  {
    "service_request": "2022-878165",
    "request_type": "Roads/Drainage",
    "request_reason": "Damaged Sidewalk",
    "date_created": "2022-04-27T15:17:46.000",
    "date_modified": "2022-04-27T15:17:47.000",
    "request_status": "Pending",
    "responsible_agency": "Department of Public Works",
    "final_address": "3179 Desaix Blvd",
    "address_councildis": "D",
    "status": "Pending",
    "rowid": "878165",
    "final_x": "3678457.54683",
    "final_y": "543666.102222",
    "longitude": "-90.07725686701096",
    "latitude": "29.988985321605107",
    "geocoded_column": {
      "latitude": "29.988985321605107",
      "longitude": "-90.07725686701096"
    }
  },
  {
    "service_request": "2022-878164",
    "request_type": "Roads/Drainage",
    "request_reason": "Street Subsidence (Sinking)",
    "date_created": "2022-04-27T15:14:38.000",
    "date_modified": "2022-04-27T15:14:39.000",
    "request_status": "Pending",
    "responsible_agency": "Department of Public Works",
    "final_address": "7841 Branch Dr",
    "address_councildis": "E",
    "status": "Pending",
    "rowid": "878164",
    "final_x": "3714239.4204",
    "final_y": "569471.983206",
    "longitude": "-89.96325926788087",
    "latitude": "30.058814229552546",
    "geocoded_column": {
      "latitude": "30.058814229552546",
      "longitude": "-89.96325926788087"
    }
  },
  {
    "service_request": "2022-878163",
    "request_type": "Trash/Recycling",
    "request_reason": "Missed Trash Pick-Up",
    "date_created": "2022-04-27T15:11:31.000",
    "date_modified": "2022-04-27T15:11:32.000",
    "request_status": "Pending",
    "responsible_agency": "Department of Sanitation",
    "final_address": "4814 Walmsley Ave, New Orleans, Louisiana, 70125",
    "address_councildis": "B",
    "status": "Assigned to Contractor",
    "contractor": "Richards Disposal",
    "rowid": "878163",
    "final_x": "3668219.68052",
    "final_y": "530542.170818",
    "longitude": "-90.11003789024738",
    "latitude": "29.953203513614355",
    "geocoded_column": {
      "latitude": "29.953203513614355",
      "longitude": "-90.11003789024738"
    }
  },
  {
    "service_request": "2022-878162",
    "request_type": "Trash/Recycling",
    "request_reason": "Missed Trash Pick-Up",
    "date_created": "2022-04-27T15:10:07.000",
    "date_modified": "2022-04-27T15:10:08.000",
    "request_status": "Pending",
    "responsible_agency": "Department of Sanitation",
    "final_address": "4815 Walmsley Ave, New Orleans, Louisiana, 70125",
    "address_councildis": "B",
    "status": "Assigned to Contractor",
    "contractor": "Richards Disposal",
    "rowid": "878162",
    "final_x": "3668173.76909",
    "final_y": "530634.130626",
    "longitude": "-90.11017975954138",
    "latitude": "29.95345772065518",
    "geocoded_column": {
      "latitude": "29.95345772065518",
      "longitude": "-90.11017975954138"
    }
  },
  {
    "service_request": "2022-878157",
    "request_type": "Parks & Parkways",
    "request_reason": "Request Tree Service (Right of Way/Public Property)",
    "date_created": "2022-04-27T15:05:57.000",
    "date_modified": "2022-04-27T15:21:07.000",
    "case_close_date": "2022-04-27T10:21:07.000",
    "request_status": "Closed",
    "responsible_agency": "Department of Parks & Parkway",
    "final_address": "7201 Restgate Rd",
    "address_councildis": "E",
    "status": "Duplicate Request",
    "rowid": "878157",
    "final_x": "3710767.1939",
    "final_y": "563371.55248",
    "longitude": "-89.97446324136814",
    "latitude": "30.04215421302514",
    "geocoded_column": {
      "latitude": "30.04215421302514",
      "longitude": "-89.97446324136814"
    }
  },
  {
    "service_request": "2022-878156",
    "request_type": "Parks & Parkways",
    "request_reason": "Request Tree Service (Right of Way/Public Property)",
    "date_created": "2022-04-27T15:05:57.000",
    "date_modified": "2022-04-27T16:03:36.000",
    "request_status": "Pending",
    "responsible_agency": "Department of Parks & Parkway",
    "final_address": "7201 Restgate Rd",
    "address_councildis": "E",
    "status": "Pending",
    "rowid": "878156",
    "final_x": "3710767.1939",
    "final_y": "563371.55248",
    "longitude": "-89.97446324136814",
    "latitude": "30.04215421302514",
    "geocoded_column": {
      "latitude": "30.04215421302514",
      "longitude": "-89.97446324136814"
    }
  },
  {
    "service_request": "2022-878155",
    "request_type": "Trash/Recycling",
    "request_reason": "Replace Trash Cart",
    "date_created": "2022-04-27T15:05:48.000",
    "date_modified": "2022-04-27T15:05:49.000",
    "request_status": "Pending",
    "responsible_agency": "Department of Sanitation",
    "final_address": "2599 Valentine Ct",
    "address_councildis": "C",
    "status": "Assigned to Contractor",
    "contractor": "Richards Disposal",
    "rowid": "878155",
    "final_x": "3699048.71671",
    "final_y": "521504.387193",
    "longitude": "-90.01302254106592",
    "latitude": "29.927411752096276",
    "geocoded_column": {
      "latitude": "29.927411752096276",
      "longitude": "-90.01302254106592"
    }
  },
  {
    "service_request": "2022-878154",
    "request_type": "Traffic Signals/Signs/Striping/Streetlights",
    "request_reason": "Street Light Outage/Malfunction",
    "date_created": "2022-04-27T15:01:36.000",
    "date_modified": "2022-04-27T15:01:37.000",
    "request_status": "Pending",
    "responsible_agency": "Department of Public Works",
    "final_address": "601 Poydras St",
    "address_councildis": "B",
    "status": "Pending",
    "contractor": "Royal Engineering",
    "rowid": "878154",
    "final_x": "3680938.01679",
    "final_y": "529396.806657",
    "longitude": "-90.06991878324561",
    "latitude": "29.94967466888167",
    "geocoded_column": {
      "latitude": "29.94967466888167",
      "longitude": "-90.06991878324561"
    }
  },
  {
    "service_request": "2022-878153",
    "request_type": "Trash/Recycling",
    "request_reason": "Request a Large Item Pick Up",
    "date_created": "2022-04-27T15:01:34.000",
    "date_modified": "2022-04-27T15:01:35.000",
    "request_status": "Pending",
    "responsible_agency": "Department of Sanitation",
    "final_address": "3515 N Claiborne Ave",
    "address_councildis": "D",
    "status": "Assigned to Contractor",
    "contractor": "Metro Disposal",
    "rowid": "878153",
    "final_x": "3691060.39894",
    "final_y": "537543.223688",
    "longitude": "-90.03766707434649",
    "latitude": "29.9717636988118",
    "geocoded_column": {
      "latitude": "29.9717636988118",
      "longitude": "-90.03766707434649"
    }
  },
  {
    "service_request": "2022-878152",
    "request_type": "Trash/Recycling",
    "request_reason": "Request a Large Item Pick Up",
    "date_created": "2022-04-27T15:01:02.000",
    "date_modified": "2022-04-27T15:01:03.000",
    "request_status": "Pending",
    "responsible_agency": "Department of Sanitation",
    "final_address": "444 Pacific Ave",
    "address_councildis": "C",
    "status": "Assigned to Contractor",
    "contractor": "Richards Disposal",
    "rowid": "878152",
    "final_x": "3688559.93398",
    "final_y": "529958.180993",
    "longitude": "-90.04583306944372",
    "latitude": "29.950984973220756",
    "geocoded_column": {
      "latitude": "29.950984973220756",
      "longitude": "-90.04583306944372"
    }
  },
  {
    "service_request": "2022-878151",
    "request_type": "Trash/Recycling",
    "request_reason": "Order Recycling Cart",
    "date_created": "2022-04-27T14:55:50.000",
    "date_modified": "2022-04-27T14:55:50.000",
    "request_status": "Pending",
    "responsible_agency": "Department of Sanitation",
    "final_address": "8531 Dinkins St",
    "address_councildis": "E",
    "status": "Pending",
    "rowid": "878151",
    "final_x": "3703592.69425",
    "final_y": "562912.141024",
    "longitude": "-89.9971541756265",
    "latitude": "30.041123008055827",
    "geocoded_column": {
      "latitude": "30.041123008055827",
      "longitude": "-89.9971541756265"
    }
  },
  {
    "service_request": "2022-878150",
    "request_type": "Traffic Signals/Signs/Striping/Streetlights",
    "request_reason": "Traffic Sign Missing/Damaged",
    "date_created": "2022-04-27T14:54:26.000",
    "date_modified": "2022-04-27T14:54:27.000",
    "request_status": "Pending",
    "responsible_agency": "Department of Public Works",
    "final_address": "LAFAYETTE ST & BARONNE ST",
    "address_councildis": "B",
    "status": "Pending",
    "rowid": "878150",
    "final_x": "3679824.5",
    "final_y": "529099.88",
    "longitude": "-90.07344497103085",
    "latitude": "29.948891932840287",
    "geocoded_column": {
      "latitude": "29.948891932840287",
      "longitude": "-90.07344497103085"
    }
  },
  {
    "service_request": "2022-878149",
    "request_type": "Trash/Recycling",
    "request_reason": "Missed Trash Pick-Up",
    "date_created": "2022-04-27T14:49:33.000",
    "date_modified": "2022-04-27T14:49:34.000",
    "request_status": "Pending",
    "responsible_agency": "Department of Sanitation",
    "final_address": "2000 Ursulines Ave",
    "address_councildis": "D",
    "status": "Assigned to Contractor",
    "contractor": "Richards Disposal",
    "rowid": "878149",
    "final_x": "3679753.37883",
    "final_y": "536412.655495",
    "longitude": "-90.07341564789905",
    "latitude": "29.969001736722657",
    "geocoded_column": {
      "latitude": "29.969001736722657",
      "longitude": "-90.07341564789905"
    }
  },
  {
    "service_request": "2022-878148",
    "request_type": "Trash/Recycling",
    "request_reason": "Missed Trash Pick-Up",
    "date_created": "2022-04-27T14:47:56.000",
    "date_modified": "2022-04-27T14:47:58.000",
    "request_status": "Pending",
    "responsible_agency": "Department of Sanitation",
    "final_address": "3628 Leonidas St",
    "address_councildis": "A",
    "status": "Assigned to Contractor",
    "contractor": "Richards Disposal",
    "rowid": "878148",
    "final_x": "3666528.16372",
    "final_y": "536108.860551",
    "longitude": "-90.11519212543156",
    "latitude": "29.968559626276516",
    "geocoded_column": {
      "latitude": "29.968559626276516",
      "longitude": "-90.11519212543156"
    }
  },
  {
    "service_request": "2022-878147",
    "request_type": "Roads/Drainage",
    "request_reason": "Pothole",
    "date_created": "2022-04-27T14:47:13.000",
    "date_modified": "2022-04-27T14:48:18.000",
    "request_status": "Pending",
    "responsible_agency": "Department of Public Works",
    "final_address": "5800 Macarthur Blvd",
    "address_councildis": "C",
    "status": "Pending",
    "rowid": "878147",
    "final_x": "3704640.44644",
    "final_y": "519438.578103",
    "longitude": "-89.99544712152299",
    "latitude": "29.92155314551032",
    "geocoded_column": {
      "latitude": "29.92155314551032",
      "longitude": "-89.99544712152299"
    }
  },
  {
    "service_request": "2022-878145",
    "request_type": "Safety & Permits",
    "request_reason": "Licenses & Permits",
    "date_created": "2022-04-27T14:43:17.000",
    "date_modified": "2022-04-27T14:43:18.000",
    "request_status": "Pending",
    "responsible_agency": "Safety and Permits",
    "final_address": "ROYAL ST & FRENCHMEN ST",
    "address_councildis": "C",
    "status": "Pending",
    "rowid": "878145",
    "final_x": "3684706.3",
    "final_y": "534833.58",
    "longitude": "-90.05782952690005",
    "latitude": "29.964509149186004",
    "geocoded_column": {
      "latitude": "29.964509149186004",
      "longitude": "-90.05782952690005"
    }
  },
  {
    "service_request": "2022-878143",
    "request_type": "Abandoned Vehicles",
    "request_reason": "Abandoned/Junk Vehicles",
    "date_created": "2022-04-27T14:36:31.000",
    "date_modified": "2022-04-27T14:36:31.000",
    "request_status": "Pending",
    "responsible_agency": "Department of Public Works",
    "final_address": "2101 Magazine St",
    "address_councildis": "B",
    "status": "Pending",
    "rowid": "878143",
    "final_x": "3679107.35567",
    "final_y": "522324.703802",
    "longitude": "-90.0759440518678",
    "latitude": "29.93028410390256",
    "geocoded_column": {
      "latitude": "29.93028410390256",
      "longitude": "-90.0759440518678"
    }
  },
  {
    "service_request": "2022-878142",
    "request_type": "Trash/Recycling",
    "request_reason": "Repair Trash Cart",
    "date_created": "2022-04-27T14:33:16.000",
    "date_modified": "2022-04-27T14:33:17.000",
    "request_status": "Pending",
    "responsible_agency": "Department of Sanitation",
    "final_address": "2230 Valence St",
    "address_councildis": "B",
    "status": "Assigned to Contractor",
    "contractor": "Richards Disposal",
    "rowid": "878142",
    "final_x": "3669414.81274",
    "final_y": "523142.100475",
    "longitude": "-90.10651434437193",
    "latitude": "29.932820583213875",
    "geocoded_column": {
      "latitude": "29.932820583213875",
      "longitude": "-90.10651434437193"
    }
  },
  {
    "service_request": "2022-878141",
    "request_type": "Trash/Recycling",
    "request_reason": "Missed Trash Pick-Up",
    "date_created": "2022-04-27T14:32:26.000",
    "date_modified": "2022-04-27T14:32:26.000",
    "request_status": "Pending",
    "responsible_agency": "Department of Sanitation",
    "final_address": "416 S Olympia St",
    "address_councildis": "A",
    "status": "Assigned to Contractor",
    "contractor": "Richards Disposal",
    "rowid": "878141",
    "final_x": "3668591.19188",
    "final_y": "538483.697481",
    "longitude": "-90.10859678922827",
    "latitude": "29.97502916585339",
    "geocoded_column": {
      "latitude": "29.97502916585339",
      "longitude": "-90.10859678922827"
    }
  },
  {
    "service_request": "2022-878140",
    "request_type": "Trash/Recycling",
    "request_reason": "Missed Trash Pick-Up",
    "date_created": "2022-04-27T14:31:20.000",
    "date_modified": "2022-04-27T14:31:20.000",
    "request_status": "Pending",
    "responsible_agency": "Department of Sanitation",
    "final_address": "8630 Pritchard Pl",
    "address_councildis": "A",
    "status": "Assigned to Contractor",
    "contractor": "Richards Disposal",
    "rowid": "878140",
    "final_x": "3664536.10816",
    "final_y": "534228.776965",
    "longitude": "-90.12154596185484",
    "latitude": "29.9634480960919",
    "geocoded_column": {
      "latitude": "29.9634480960919",
      "longitude": "-90.12154596185484"
    }
  },
  {
    "service_request": "2022-878139",
    "request_type": "Property Maintenance",
    "request_reason": "Property Maintenance",
    "date_created": "2022-04-27T14:30:32.000",
    "date_modified": "2022-04-27T14:30:32.000",
    "request_status": "Pending",
    "responsible_agency": "Department of Code Enforcement",
    "final_address": "2440 Touro St",
    "address_councildis": "D",
    "status": "Pending",
    "rowid": "878139",
    "final_x": "3683782.93193",
    "final_y": "541326.687628",
    "longitude": "-90.06051768049412",
    "latitude": "29.982391165590165",
    "geocoded_column": {
      "latitude": "29.982391165590165",
      "longitude": "-90.06051768049412"
    }
  },
  {
    "service_request": "2022-878138",
    "request_type": "Abandoned Vehicles",
    "request_reason": "Abandoned/Junk Vehicles",
    "date_created": "2022-04-27T14:28:49.000",
    "date_modified": "2022-04-27T14:28:49.000",
    "request_status": "Pending",
    "responsible_agency": "Department of Public Works",
    "final_address": "2428 Touro St",
    "address_councildis": "D",
    "status": "Pending",
    "rowid": "878138",
    "final_x": "3683796.23189",
    "final_y": "541257.37742",
    "longitude": "-90.06047810456762",
    "latitude": "29.982200180652264",
    "geocoded_column": {
      "latitude": "29.982200180652264",
      "longitude": "-90.06047810456762"
    }
  },
  {
    "service_request": "2022-878137",
    "request_type": "Trash/Recycling",
    "request_reason": "Repair Trash Cart",
    "date_created": "2022-04-27T14:28:06.000",
    "date_modified": "2022-04-27T14:28:07.000",
    "request_status": "Pending",
    "responsible_agency": "Department of Sanitation",
    "final_address": "6525 Maumus Ave",
    "address_councildis": "C",
    "status": "Assigned to Contractor",
    "contractor": "Richards Disposal",
    "rowid": "878137",
    "final_x": "3708014.49272",
    "final_y": "516621.131765",
    "longitude": "-89.98490147517991",
    "latitude": "29.91369739316714",
    "geocoded_column": {
      "latitude": "29.91369739316714",
      "longitude": "-89.98490147517991"
    }
  },
  {
    "service_request": "2022-878136",
    "request_type": "Abandoned Vehicles",
    "request_reason": "Abandoned/Junk Vehicles",
    "date_created": "2022-04-27T14:26:33.000",
    "date_modified": "2022-04-27T14:29:26.000",
    "request_status": "Pending",
    "responsible_agency": "Department of Public Works",
    "final_address": "20 St Claude Ct",
    "address_councildis": "E",
    "status": "Pending",
    "rowid": "878136",
    "final_x": "3697433.58135",
    "final_y": "533649.423237",
    "longitude": "-90.01768088770628",
    "latitude": "29.960857443809612",
    "geocoded_column": {
      "latitude": "29.960857443809612",
      "longitude": "-90.01768088770628"
    }
  },
  {
    "service_request": "2022-878135",
    "request_type": "Abandoned Vehicles",
    "request_reason": "Abandoned/Junk Vehicles",
    "date_created": "2022-04-27T14:23:16.000",
    "date_modified": "2022-04-27T14:24:59.000",
    "request_status": "Pending",
    "responsible_agency": "Department of Public Works",
    "final_address": "1242 Gordon St",
    "address_councildis": "E",
    "status": "Pending",
    "rowid": "878135",
    "final_x": "3699344.39197",
    "final_y": "534113.811205",
    "longitude": "-90.01163003421937",
    "latitude": "29.962073879598158",
    "geocoded_column": {
      "latitude": "29.962073879598158",
      "longitude": "-90.01163003421937"
    }
  },
  {
    "service_request": "2022-878134",
    "request_type": "Trash/Recycling",
    "request_reason": "Request a Large Item Pick Up",
    "date_created": "2022-04-27T14:21:41.000",
    "date_modified": "2022-04-27T14:21:42.000",
    "request_status": "Pending",
    "responsible_agency": "Department of Sanitation",
    "final_address": "835 Governor Nicholls St",
    "address_councildis": "C",
    "status": "Assigned to Contractor",
    "contractor": "Empire Services",
    "rowid": "878134",
    "final_x": "3683154.8557",
    "final_y": "534334.219333",
    "longitude": "-90.06274635218878",
    "latitude": "29.963183474538464",
    "geocoded_column": {
      "latitude": "29.963183474538464",
      "longitude": "-90.06274635218878"
    }
  },
  {
    "service_request": "2022-878133",
    "request_type": "Trash/Recycling",
    "request_reason": "Order Recycling Cart",
    "date_created": "2022-04-27T14:21:06.000",
    "date_modified": "2022-04-27T14:21:06.000",
    "request_status": "Pending",
    "responsible_agency": "Department of Sanitation",
    "final_address": "1637 Seventh St",
    "address_councildis": "B",
    "status": "Pending",
    "rowid": "878133",
    "final_x": "3675086.31835",
    "final_y": "522376.093562",
    "longitude": "-90.08863608639302",
    "latitude": "29.930546125664993",
    "geocoded_column": {
      "latitude": "29.930546125664993",
      "longitude": "-90.08863608639302"
    }
  },
  {
    "service_request": "2022-878132",
    "request_type": "Trash/Recycling",
    "request_reason": "Order Trash Cart",
    "date_created": "2022-04-27T14:20:26.000",
    "date_modified": "2022-04-27T14:20:27.000",
    "request_status": "Pending",
    "responsible_agency": "Department of Sanitation",
    "final_address": "1637 Seventh St",
    "address_councildis": "B",
    "status": "Assigned to Contractor",
    "contractor": "Richards Disposal",
    "rowid": "878132",
    "final_x": "3675086.31835",
    "final_y": "522376.093562",
    "longitude": "-90.08863608639302",
    "latitude": "29.930546125664993",
    "geocoded_column": {
      "latitude": "29.930546125664993",
      "longitude": "-90.08863608639302"
    }
  },
  {
    "service_request": "2022-878131",
    "request_type": "Trash/Recycling",
    "request_reason": "Repair Trash Cart",
    "date_created": "2022-04-27T14:20:14.000",
    "date_modified": "2022-04-27T14:20:15.000",
    "request_status": "Pending",
    "responsible_agency": "Department of Sanitation",
    "final_address": "6605 Maumus Ave",
    "address_councildis": "C",
    "status": "Assigned to Contractor",
    "contractor": "Richards Disposal",
    "rowid": "878131",
    "final_x": "3708135.28728",
    "final_y": "516611.428277",
    "longitude": "-89.98452057312649",
    "latitude": "29.913666802683977",
    "geocoded_column": {
      "latitude": "29.913666802683977",
      "longitude": "-89.98452057312649"
    }
  },
  {
    "service_request": "2022-878130",
    "request_type": "Mosquito, Termite & Rodent Control",
    "request_reason": "Rodent Complaint (Rats)",
    "date_created": "2022-04-27T14:17:44.000",
    "date_modified": "2022-04-27T14:17:45.000",
    "request_status": "Pending",
    "responsible_agency": "Mosquito, Termite & Rodent Control Board",
    "final_address": "MARIGNY ST & ROBERT E LEE BLVD",
    "address_councildis": "D",
    "status": "Pending",
    "rowid": "878130",
    "final_x": "3683848.8",
    "final_y": "555785.48",
    "longitude": "-90.05980206592531",
    "latitude": "30.02214562808898",
    "geocoded_column": {
      "latitude": "30.02214562808898",
      "longitude": "-90.05980206592531"
    }
  },
  {
    "service_request": "2022-878129",
    "request_type": "Trash/Recycling",
    "request_reason": "Return Recycling Cart",
    "date_created": "2022-04-27T14:16:59.000",
    "date_modified": "2022-04-27T14:16:59.000",
    "request_status": "Pending",
    "responsible_agency": "Department of Sanitation",
    "final_address": "5214 Chestnut St",
    "address_councildis": "B",
    "status": "Pending",
    "rowid": "878129",
    "final_x": "3667929.47975",
    "final_y": "519316.269879",
    "longitude": "-90.11133224792063",
    "latitude": "29.92234440864058",
    "geocoded_column": {
      "latitude": "29.92234440864058",
      "longitude": "-90.11133224792063"
    }
  },
  {
    "service_request": "2022-878128",
    "request_type": "Trash/Recycling",
    "request_reason": "Request a Large Item Pick Up",
    "date_created": "2022-04-27T14:14:51.000",
    "date_modified": "2022-04-27T14:14:54.000",
    "request_status": "Pending",
    "responsible_agency": "Department of Sanitation",
    "final_address": "316 S Lopez St",
    "address_councildis": "B",
    "status": "Assigned to Contractor",
    "contractor": "Richards Disposal",
    "rowid": "878128",
    "final_x": "3673311.06158",
    "final_y": "535436.26311",
    "longitude": "-90.09379431219756",
    "latitude": "29.966510191687192",
    "geocoded_column": {
      "latitude": "29.966510191687192",
      "longitude": "-90.09379431219756"
    }
  },
  {
    "service_request": "2022-878127",
    "request_type": "Trash/Recycling",
    "request_reason": "Missed Trash Pick-Up",
    "date_created": "2022-04-27T14:13:15.000",
    "date_modified": "2022-04-27T14:13:16.000",
    "request_status": "Pending",
    "responsible_agency": "Department of Sanitation",
    "final_address": "24 Versailles Blvd",
    "address_councildis": "A",
    "status": "Assigned to Contractor",
    "contractor": "Richards Disposal",
    "rowid": "878127",
    "final_x": "3667153.17639",
    "final_y": "529473.374721",
    "longitude": "-90.11344139000717",
    "latitude": "29.950295937144958",
    "geocoded_column": {
      "latitude": "29.950295937144958",
      "longitude": "-90.11344139000717"
    }
  },
  {
    "service_request": "2022-878126",
    "request_type": "Trash/Recycling",
    "request_reason": "Missed Trash Pick-Up",
    "date_created": "2022-04-27T14:12:20.000",
    "date_modified": "2022-04-27T14:12:21.000",
    "request_status": "Pending",
    "responsible_agency": "Department of Sanitation",
    "final_address": "1010 Richard St",
    "address_councildis": "B",
    "status": "Assigned to Contractor",
    "contractor": "Richards Disposal",
    "rowid": "878126",
    "final_x": "3680294.7828",
    "final_y": "523028.569275",
    "longitude": "-90.07217107660475",
    "latitude": "29.93218362006363",
    "geocoded_column": {
      "latitude": "29.93218362006363",
      "longitude": "-90.07217107660475"
    }
  },
  {
    "service_request": "2022-878123",
    "request_type": "Trash/Recycling",
    "request_reason": "Repair Trash Cart",
    "date_created": "2022-04-27T14:09:30.000",
    "date_modified": "2022-04-27T14:09:31.000",
    "request_status": "Pending",
    "responsible_agency": "Department of Sanitation",
    "final_address": "2000 Barracks St",
    "address_councildis": "D",
    "status": "Assigned to Contractor",
    "contractor": "Richards Disposal",
    "rowid": "878123",
    "final_x": "3680190.54645",
    "final_y": "537010.502536",
    "longitude": "-90.07201426035476",
    "latitude": "29.97063238609173",
    "geocoded_column": {
      "latitude": "29.97063238609173",
      "longitude": "-90.07201426035476"
    }
  },
  {
    "service_request": "2022-878122",
    "request_type": "Trash/Recycling",
    "request_reason": "Missed Trash Pick-Up",
    "date_created": "2022-04-27T14:08:51.000",
    "date_modified": "2022-04-27T14:08:52.000",
    "request_status": "Pending",
    "responsible_agency": "Department of Sanitation",
    "final_address": "2000 Barracks St",
    "address_councildis": "D",
    "status": "Assigned to Contractor",
    "contractor": "Richards Disposal",
    "rowid": "878122",
    "final_x": "3680190.54645",
    "final_y": "537010.502536",
    "longitude": "-90.07201426035476",
    "latitude": "29.97063238609173",
    "geocoded_column": {
      "latitude": "29.97063238609173",
      "longitude": "-90.07201426035476"
    }
  },
  {
    "service_request": "2022-878121",
    "request_type": "Trash/Recycling",
    "request_reason": "Illegal Dumping",
    "date_created": "2022-04-27T14:07:53.000",
    "date_modified": "2022-04-27T14:07:54.000",
    "request_status": "Pending",
    "responsible_agency": "Department of Sanitation",
    "final_address": "3020 Danneel St",
    "address_councildis": "B",
    "status": "Pending",
    "rowid": "878121",
    "final_x": "3674301.642",
    "final_y": "523149.603195",
    "longitude": "-90.0910867230687",
    "latitude": "29.932696440552057",
    "geocoded_column": {
      "latitude": "29.932696440552057",
      "longitude": "-90.0910867230687"
    }
  },
  {
    "service_request": "2022-878118",
    "request_type": "Traffic Signals/Signs/Striping/Streetlights",
    "request_reason": "Street Light Outage/Malfunction",
    "date_created": "2022-04-27T14:05:06.000",
    "date_modified": "2022-04-27T14:05:06.000",
    "request_status": "Pending",
    "responsible_agency": "Department of Public Works",
    "final_address": "13733 Chef Menteur Hwy",
    "address_councildis": "E",
    "status": "Pending",
    "contractor": "Royal Engineering",
    "rowid": "878118",
    "final_x": "3727514.7175",
    "final_y": "560443.380638",
    "longitude": "-89.92164946180709",
    "latitude": "30.033546212632437",
    "geocoded_column": {
      "latitude": "30.033546212632437",
      "longitude": "-89.92164946180709"
    }
  },
  {
    "service_request": "2022-878117",
    "request_type": "Traffic Signals/Signs/Striping/Streetlights",
    "request_reason": "Street Light Outage/Malfunction",
    "date_created": "2022-04-27T14:04:17.000",
    "date_modified": "2022-04-27T14:04:18.000",
    "request_status": "Pending",
    "responsible_agency": "Department of Public Works",
    "final_address": "13733 Chef Menteur Hwy",
    "address_councildis": "E",
    "status": "Pending",
    "contractor": "Royal Engineering",
    "rowid": "878117",
    "final_x": "3727514.7175",
    "final_y": "560443.380638",
    "longitude": "-89.92164946180709",
    "latitude": "30.033546212632437",
    "geocoded_column": {
      "latitude": "30.033546212632437",
      "longitude": "-89.92164946180709"
    }
  },
  {
    "service_request": "2022-878116",
    "request_type": "Traffic Signals/Signs/Striping/Streetlights",
    "request_reason": "Street Light Outage/Malfunction",
    "date_created": "2022-04-27T14:03:49.000",
    "date_modified": "2022-04-27T14:03:49.000",
    "request_status": "Pending",
    "responsible_agency": "Department of Public Works",
    "final_address": "13733 Chef Menteur Hwy",
    "address_councildis": "E",
    "status": "Pending",
    "contractor": "Royal Engineering",
    "rowid": "878116",
    "final_x": "3727514.7175",
    "final_y": "560443.380638",
    "longitude": "-89.92164946180709",
    "latitude": "30.033546212632437",
    "geocoded_column": {
      "latitude": "30.033546212632437",
      "longitude": "-89.92164946180709"
    }
  },
  {
    "service_request": "2022-878111",
    "request_type": "Trash/Recycling",
    "request_reason": "Missed Trash Pick-Up",
    "date_created": "2022-04-27T14:01:40.000",
    "date_modified": "2022-04-27T14:01:41.000",
    "request_status": "Pending",
    "responsible_agency": "Department of Sanitation",
    "final_address": "3625 Prytania St",
    "address_councildis": "B",
    "status": "Assigned to Contractor",
    "contractor": "Richards Disposal",
    "rowid": "878111",
    "final_x": "3673436.63956",
    "final_y": "520721.510649",
    "longitude": "-90.09390038415387",
    "latitude": "29.926045727105276",
    "geocoded_column": {
      "latitude": "29.926045727105276",
      "longitude": "-90.09390038415387"
    }
  },
  {
    "service_request": "2022-878108",
    "request_type": "Trash/Recycling",
    "request_reason": "Replace Trash Cart",
    "date_created": "2022-04-27T13:56:35.000",
    "date_modified": "2022-04-27T13:56:45.000",
    "request_status": "Pending",
    "responsible_agency": "Department of Sanitation",
    "final_address": "1324 Gordon St",
    "address_councildis": "E",
    "status": "Assigned to Contractor",
    "contractor": "Metro Disposal",
    "rowid": "878108",
    "final_x": "3699481.55479",
    "final_y": "534367.471045",
    "longitude": "-90.0111876549361",
    "latitude": "29.962767002501412",
    "geocoded_column": {
      "latitude": "29.962767002501412",
      "longitude": "-90.0111876549361"
    }
  },
  {
    "service_request": "2022-878107",
    "request_type": "Roads/Drainage",
    "request_reason": "Street Flooding / Drainage",
    "date_created": "2022-04-27T13:56:23.000",
    "date_modified": "2022-04-27T13:56:23.000",
    "request_status": "Pending",
    "responsible_agency": "Department of Public Works",
    "final_address": "5532 Durham Dr",
    "address_councildis": "C",
    "status": "Pending",
    "rowid": "878107",
    "final_x": "3704543.14551",
    "final_y": "518796.704823",
    "longitude": "-89.99577790699543",
    "latitude": "29.919791339629423",
    "geocoded_column": {
      "latitude": "29.919791339629423",
      "longitude": "-89.99577790699543"
    }
  },
  {
    "service_request": "2022-878104",
    "request_type": "Property Maintenance",
    "request_reason": "Property Maintenance",
    "date_created": "2022-04-27T13:53:44.000",
    "date_modified": "2022-04-27T13:53:45.000",
    "request_status": "Pending",
    "responsible_agency": "Department of Code Enforcement",
    "final_address": "4700 Cerise Ave",
    "address_councildis": "E",
    "status": "Pending",
    "rowid": "878104",
    "final_x": "3708561.54872",
    "final_y": "555404.955481",
    "longitude": "-89.98173084981232",
    "latitude": "30.02032094765503",
    "geocoded_column": {
      "latitude": "30.02032094765503",
      "longitude": "-89.98173084981232"
    }
  },
  {
    "service_request": "2022-878103",
    "request_type": "Trash/Recycling",
    "request_reason": "Missed Trash Pick-Up",
    "date_created": "2022-04-27T13:52:47.000",
    "date_modified": "2022-04-27T13:52:48.000",
    "request_status": "Pending",
    "responsible_agency": "Department of Sanitation",
    "final_address": "3401 Annunciation St",
    "address_councildis": "B",
    "status": "Assigned to Contractor",
    "contractor": "Richards Disposal",
    "rowid": "878103",
    "final_x": "3675348.05326",
    "final_y": "518605.898231",
    "longitude": "-90.08793918760863",
    "latitude": "29.920171485210638",
    "geocoded_column": {
      "latitude": "29.920171485210638",
      "longitude": "-90.08793918760863"
    }
  },