[
  {
    "service_request": "2023-1054310",
    "request_type": "Roads/Drainage",
    "request_reason": "Pothole",
    "date_created": "2023-12-07T01:25:06.000",
    "date_modified": "2023-12-07T01:25:06.000",
    "request_status": "Pending",
    "responsible_agency": "Department of Public Works",
    "final_address": "1421 Constantinople St",
    "address_councildis": "B",
    "status": "Pending",
    "rowid": "1054310",
    "final_x": "3672433.24257",
    "final_y": "520667.657465",
    "longitude": "-90.09706965638372",
    "latitude": "29.925927453713577",
    "geocoded_column": {
      "latitude": "29.925927453713577",
      "longitude": "-90.09706965638372"
    }
  },
  {
    "service_request": "2023-1054309",
    "request_type": "Traffic Signals/Signs/Striping/Streetlights",
    "request_reason": "Street Light Outage/Malfunction",
    "date_created": "2023-12-06T23:41:14.000",
    "date_modified": "2023-12-06T23:41:15.000",
    "request_status": "Pending",
    "responsible_agency": "Department of Public Works",
    "final_address": "3931 Octavia St",
    "address_councildis": "B",
    "status": "Assigned to Contractor",
    "contractor": "Legacy Professional Services",
    "rowid": "1054309",
    "final_x": "3668936.18382",
    "final_y": "529976.781313",
    "longitude": "-90.10779457015788",
    "latitude": "29.951627825016892",
    "geocoded_column": {
      "latitude": "29.951627825016892",
      "longitude": "-90.10779457015788"
    }
  },
  {
    "service_request": "2023-1054308",
    "request_type": "Trash/Recycling",
    "request_reason": "Request a Large Item Pick Up",
    "date_created": "2023-12-06T21:54:58.000",
    "date_modified": "2023-12-06T21:54:59.000",
    "request_status": "Pending",
    "responsible_agency": "Department of Sanitation",
    "final_address": "1427 Touro St",
    "address_councildis": "C",
    "status": "Assigned to Contractor",
    "contractor": "IV Waste",
    "rowid": "1054308",
    "final_x": "3684155.84418",
    "final_y": "537575.097352",
    "longitude": "-90.05947157473933",
    "latitude": "29.97206420947199",
    "geocoded_column": {
      "latitude": "29.97206420947199",
      "longitude": "-90.05947157473933"
    }
  },
  {
    "service_request": "2023-1054307",
    "request_type": "Roads/Drainage",
    "request_reason": "Pothole",
    "date_created": "2023-12-06T21:47:03.000",
    "date_modified": "2023-12-06T21:47:03.000",
    "request_status": "Pending",
    "responsible_agency": "Department of Public Works",
    "final_address": "1312 Milan St",
    "address_councildis": "B",
    "status": "Pending",
    "rowid": "1054307",
    "final_x": "3671625.82823",
    "final_y": "520286.919608",
    "longitude": "-90.09963137110304",
    "latitude": "29.92490447494246",
    "geocoded_column": {
      "latitude": "29.92490447494246",
      "longitude": "-90.09963137110304"
    }
  },
  {
    "service_request": "2023-1054306",
    "request_type": "Trash/Recycling",
    "request_reason": "Request a Large Item Pick Up",
    "date_created": "2023-12-06T21:38:34.000",
    "date_modified": "2023-12-06T21:38:35.000",
    "request_status": "Pending",
    "responsible_agency": "Department of Sanitation",
    "final_address": "2222 Constance St",
    "address_councildis": "B",
    "status": "Assigned to Contractor",
    "contractor": "Richards Disposal",
    "rowid": "1054306",
    "final_x": "3678934.23131",
    "final_y": "521635.209081",
    "longitude": "-90.07651445262637",
    "latitude": "29.928393441669865",
    "geocoded_column": {
      "latitude": "29.928393441669865",
      "longitude": "-90.07651445262637"
    }
  },
  {
    "service_request": "2023-1054305",
    "request_type": "Trash/Recycling",
    "request_reason": "Illegal Dumping",
    "date_created": "2023-12-06T21:32:21.000",
    "date_modified": "2023-12-06T21:32:21.000",
    "request_status": "Pending",
    "responsible_agency": "Department of Sanitation",
    "final_address": "3900 Mckinley St",
    "address_councildis": "C",
    "status": "Pending",
    "rowid": "1054305",
    "final_x": "3709196.06219",
    "final_y": "516523.019125",
    "longitude": "-89.98117575570757",
    "latitude": "29.913389331099367",
    "geocoded_column": {
      "latitude": "29.913389331099367",
      "longitude": "-89.98117575570757"
    }
  },
  {
    "service_request": "2023-1054304",
    "request_type": "Trash/Recycling",
    "request_reason": "Illegal Dumping",
    "date_created": "2023-12-06T21:29:19.000",
    "date_modified": "2023-12-06T21:29:19.000",
    "request_status": "Pending",
    "responsible_agency": "Department of Sanitation",
    "final_address": "3900 Veronica St",
    "address_councildis": "C",
    "status": "Pending",
    "rowid": "1054304",
    "final_x": "3708953.00664",
    "final_y": "516545.588533",
    "longitude": "-89.98194206662319",
    "latitude": "29.913459273481315",
    "geocoded_column": {
      "latitude": "29.913459273481315",
      "longitude": "-89.98194206662319"
    }
  },
  {
    "service_request": "2023-1054303",
    "request_type": "Trash/Recycling",
    "request_reason": "Illegal Dumping",
    "date_created": "2023-12-06T21:25:17.000",
    "date_modified": "2023-12-06T21:25:17.000",
    "request_status": "Pending",
    "responsible_agency": "Department of Sanitation",
    "final_address": "3900 Amanda St",
    "address_councildis": "C",
    "status": "Pending",
    "rowid": "1054303",
    "final_x": "3710131.96069",
    "final_y": "516468.324661",
    "longitude": "-89.9782238419158",
    "latitude": "29.91320853947722",
    "geocoded_column": {
      "latitude": "29.91320853947722",
      "longitude": "-89.9782238419158"
    }
  },
  {
    "service_request": "2023-1054302",
    "request_type": "Trash/Recycling",
    "request_reason": "Illegal Dumping",
    "date_created": "2023-12-06T21:22:50.000",
    "date_modified": "2023-12-06T21:22:50.000",
    "request_status": "Pending",
    "responsible_agency": "Department of Sanitation",
    "final_address": "7100 Maumus Ave",
    "address_councildis": "C",
    "status": "Pending",
    "rowid": "1054302",
    "final_x": "3710343.67185",
    "final_y": "516549.390261",
    "longitude": "-89.97755259653275",
    "latitude": "29.91342455538422",
    "geocoded_column": {
      "latitude": "29.91342455538422",
      "longitude": "-89.97755259653275"
    }
  },
  {
    "service_request": "2023-1054300",
    "request_type": "Trash/Recycling",
    "request_reason": "Repair Recycling Cart",
    "date_created": "2023-12-06T20:19:06.000",
    "date_modified": "2023-12-06T20:19:06.000",
    "request_status": "Pending",
    "responsible_agency": "Department of Sanitation",
    "final_address": "1200 Independence St",
    "address_councildis": "D",
    "status": "Pending",
    "rowid": "1054300",
    "final_x": "3691021.9606",
    "final_y": "535915.560135",
    "longitude": "-90.03784658555348",
    "latitude": "29.967289393030683",
    "geocoded_column": {
      "latitude": "29.967289393030683",
      "longitude": "-90.03784658555348"
    }
  },
  {
    "service_request": "2023-1054299",
    "request_type": "Trash/Recycling",
    "request_reason": "Illegal Dumping",
    "date_created": "2023-12-06T19:49:03.000",
    "date_modified": "2023-12-06T19:49:03.000",
    "request_status": "Pending",
    "responsible_agency": "Department of Sanitation",
    "final_address": "2600 BLK Deers St",
    "address_councildis": "D",
    "status": "Pending",
    "rowid": "1054299",
    "final_x": "3688177.6761",
    "final_y": "542303.566755",
    "longitude": "-90.04660230968796",
    "latitude": "29.984942272787286",
    "geocoded_column": {
      "latitude": "29.984942272787286",
      "longitude": "-90.04660230968796"
    }
  },
  {
    "service_request": "2023-1054298",
    "request_type": "Trash/Recycling",
    "request_reason": "Repair Trash Cart",
    "date_created": "2023-12-06T19:46:23.000",
    "date_modified": "2023-12-06T19:46:24.000",
    "request_status": "Pending",
    "responsible_agency": "Department of Sanitation",
    "final_address": "600 BLK Vallette St",
    "address_councildis": "C",
    "status": "Assigned to Contractor",
    "contractor": "Richards Disposal",
    "rowid": "1054298",
    "final_x": "3687511.17514",
    "final_y": "529325.50216",
    "longitude": "-90.04916690252719",
    "latitude": "29.949277683677515",
    "geocoded_column": {
      "latitude": "29.949277683677515",
      "longitude": "-90.04916690252719"
    }
  },
  {
    "service_request": "2023-1054297",
    "request_type": "Trash/Recycling",
    "request_reason": "Replace Trash Cart",
    "date_created": "2023-12-06T19:39:01.000",
    "date_modified": "2023-12-06T19:39:01.000",
    "request_status": "Pending",
    "responsible_agency": "Department of Sanitation",
    "final_address": "2613 Deers St",
    "address_councildis": "D",
    "status": "Assigned to Contractor",
    "contractor": "IV Waste",
    "rowid": "1054297",
    "final_x": "3688227.2287",
    "final_y": "542276.531533",
    "longitude": "-90.04644675370967",
    "latitude": "29.98486640541314",
    "geocoded_column": {
      "latitude": "29.98486640541314",
      "longitude": "-90.04644675370967"
    }
  },
  {
    "service_request": "2023-1054296",
    "request_type": "Trash/Recycling",
    "request_reason": "Repair Trash Cart",
    "date_created": "2023-12-06T18:59:23.000",
    "date_modified": "2023-12-06T18:59:23.000",
    "request_status": "Pending",
    "responsible_agency": "Department of Sanitation",
    "final_address": "3227 Grand-Route St John St",
    "address_councildis": "A",
    "status": "Assigned to Contractor",
    "contractor": "Richards Disposal",
    "rowid": "1054296",
    "final_x": "3675784.83022",
    "final_y": "540372.797835",
    "longitude": "-90.08581244227169",
    "latitude": "29.98001016321783",
    "geocoded_column": {
      "latitude": "29.98001016321783",
      "longitude": "-90.08581244227169"
    }
  },
  {
    "service_request": "2023-1054295",
    "request_type": "Trash/Recycling",
    "request_reason": "Request a Large Item Pick Up",
    "date_created": "2023-12-06T18:30:18.000",
    "date_modified": "2023-12-06T18:30:19.000",
    "request_status": "Pending",
    "responsible_agency": "Department of Sanitation",
    "final_address": "1205 Tennessee St",
    "address_councildis": "E",
    "status": "Assigned to Contractor",
    "contractor": "Waste Pro",
    "rowid": "1054295",
    "final_x": "3695827.03638",
    "final_y": "534622.938438",
    "longitude": "-90.02271886229076",
    "latitude": "29.96358488935383",
    "geocoded_column": {
      "latitude": "29.96358488935383",
      "longitude": "-90.02271886229076"
    }
  },
  {
    "service_request": "2023-1054294",
    "request_type": "Traffic Signals/Signs/Striping/Streetlights",
    "request_reason": "Street Light Outage/Malfunction",
    "date_created": "2023-12-06T18:28:30.000",
    "date_modified": "2023-12-06T18:28:31.000",
    "request_status": "Pending",
    "responsible_agency": "Department of Public Works",
    "final_address": "2257 Vienna St",
    "address_councildis": "D",
    "status": "Assigned to Contractor",
    "contractor": "Legacy Professional Services",
    "rowid": "1054294",
    "final_x": "3684119.88546",
    "final_y": "555058.172057",
    "longitude": "-90.05897106362164",
    "latitude": "30.020137511787784",
    "geocoded_column": {
      "latitude": "30.020137511787784",
      "longitude": "-90.05897106362164"
    }
  },
  {
    "service_request": "2023-1054293",
    "request_type": "Trash/Recycling",
    "request_reason": "Request a Large Item Pick Up",
    "date_created": "2023-12-06T18:16:34.000",
    "date_modified": "2023-12-06T18:16:34.000",
    "request_status": "Pending",
    "responsible_agency": "Department of Sanitation",
    "final_address": "3020 St Peter St",
    "address_councildis": "A",
    "status": "Assigned to Contractor",
    "contractor": "Richards Disposal",
    "rowid": "1054293",
    "final_x": "3675486.1739",
    "final_y": "537698.27572",
    "longitude": "-90.08684761639901",
    "latitude": "29.972665080139937",
    "geocoded_column": {
      "latitude": "29.972665080139937",
      "longitude": "-90.08684761639901"
    }
  },
  {
    "service_request": "2023-1054292",
    "request_type": "Trash/Recycling",
    "request_reason": "Request a Large Item Pick Up",
    "date_created": "2023-12-06T17:59:04.000",
    "date_modified": "2023-12-06T17:59:05.000",
    "request_status": "Pending",
    "responsible_agency": "Department of Sanitation",
    "final_address": "1560 Tropic Dr",
    "address_councildis": "C",
    "status": "Assigned to Contractor",
    "contractor": "Richards Disposal",
    "rowid": "1054292",
    "final_x": "3699554.32061",
    "final_y": "525063.593085",
    "longitude": "-90.01129685337115",
    "latitude": "29.937182308370268",
    "geocoded_column": {
      "latitude": "29.937182308370268",
      "longitude": "-90.01129685337115"
    }
  },
  {
    "service_request": "2023-1054291",
    "request_type": "Traffic Signals/Signs/Striping/Streetlights",
    "request_reason": "Street Light Outage/Malfunction",
    "date_created": "2023-12-06T17:33:20.000",
    "date_modified": "2023-12-06T17:33:21.000",
    "request_status": "Pending",
    "responsible_agency": "Department of Public Works",
    "final_address": "2918 S Claiborne Ave",
    "address_councildis": "B",
    "status": "Assigned to Contractor",
    "contractor": "Legacy Professional Services",
    "rowid": "1054291",
    "final_x": "3672778.91156",
    "final_y": "526250.936126",
    "longitude": "-90.09578812609764",
    "latitude": "29.94126940345766",
    "geocoded_column": {
      "latitude": "29.94126940345766",
      "longitude": "-90.09578812609764"
    }
  },
  {
    "service_request": "2023-1054290",
    "request_type": "Roads/Drainage",
    "request_reason": "Pothole",
    "date_created": "2023-12-06T17:24:04.000",
    "date_modified": "2023-12-06T17:24:04.000",
    "request_status": "Pending",
    "responsible_agency": "Department of Public Works",
    "final_address": "4216 Chestnut St",
    "address_councildis": "B",
    "status": "Pending",
    "rowid": "1054290",
    "final_x": "3671574.31393",
    "final_y": "519539.203703",
    "longitude": "-90.09981939416457",
    "latitude": "29.922850019854593",
    "geocoded_column": {
      "latitude": "29.922850019854593",
      "longitude": "-90.09981939416457"
    }
  },
  {
    "service_request": "2023-1054289",
    "request_type": "Mosquito, Termite & Rodent Control",
    "request_reason": "Mosquito Complaint",
    "date_created": "2023-12-06T17:22:43.000",
    "date_modified": "2023-12-06T17:22:43.000",
    "request_status": "Pending",
    "responsible_agency": "Mosquito, Termite & Rodent Control Board",
    "final_address": "6119 Marigny St",
    "address_councildis": "D",
    "status": "Pending",
    "rowid": "1054289",
    "final_x": "3683976.6102",
    "final_y": "555526.977497",
    "longitude": "-90.05940729928459",
    "latitude": "30.021430934880307",
    "geocoded_column": {
      "latitude": "30.021430934880307",
      "longitude": "-90.05940729928459"
    }
  },
  {
    "service_request": "2023-1054288",
    "request_type": "Mosquito, Termite & Rodent Control",
    "request_reason": "Mosquito Complaint",
    "date_created": "2023-12-06T17:20:00.000",
    "date_modified": "2023-12-06T17:20:00.000",
    "request_status": "Pending",
    "responsible_agency": "Mosquito, Termite & Rodent Control Board",
    "final_address": "6119 Marigny St",
    "address_councildis": "D",
    "status": "Pending",
    "rowid": "1054288",
    "final_x": "3683976.6102",
    "final_y": "555526.977497",
    "longitude": "-90.05940729928459",
    "latitude": "30.021430934880307",
    "geocoded_column": {
      "latitude": "30.021430934880307",
      "longitude": "-90.05940729928459"
    }
  },
  {
    "service_request": "2023-1054287",
    "request_type": "Trash/Recycling",
    "request_reason": "Order Recycling Cart",
    "date_created": "2023-12-06T17:00:28.000",
    "date_modified": "2023-12-06T17:00:29.000",
    "request_status": "Pending",
    "responsible_agency": "Department of Sanitation",
    "final_address": "6150 Eastover Dr",
    "address_councildis": "E",
    "status": "Pending",
    "rowid": "1054287",
    "final_x": "3717874.99301",
    "final_y": "564896.232866",
    "longitude": "-89.951942049804",
    "latitude": "30.046112774014237",
    "geocoded_column": {
      "latitude": "30.046112774014237",
      "longitude": "-89.951942049804"
    }
  },
  {
    "service_request": "2023-1054284",
    "request_type": "Trash/Recycling",
    "request_reason": "Repair Trash Cart",
    "date_created": "2023-12-06T16:58:41.000",
    "date_modified": "2023-12-06T16:58:42.000",
    "request_status": "Pending",
    "responsible_agency": "Department of Sanitation",
    "final_address": "6150 Eastover Dr",
    "address_councildis": "E",
    "status": "Assigned to Contractor",
    "contractor": "Waste Pro",
    "rowid": "1054284",
    "final_x": "3717874.99301",
    "final_y": "564896.232866",
    "longitude": "-89.951942049804",
    "latitude": "30.046112774014237",
    "geocoded_column": {
      "latitude": "30.046112774014237",
      "longitude": "-89.951942049804"
    }
  },
  {
    "service_request": "2023-1054283",
    "request_type": "Trash/Recycling",
    "request_reason": "Replace Trash Cart",
    "date_created": "2023-12-06T16:54:39.000",
    "date_modified": "2023-12-06T16:54:40.000",
    "request_status": "Pending",
    "responsible_agency": "Department of Sanitation",
    "final_address": "4940 Palace St",
    "address_councildis": "E",
    "status": "Assigned to Contractor",
    "contractor": "Waste Pro",
    "rowid": "1054283",
    "final_x": "3729056.13875",
    "final_y": "562637.89104",
    "longitude": "-89.91669273911145",
    "latitude": "30.03952789880108",
    "geocoded_column": {
      "latitude": "30.03952789880108",
      "longitude": "-89.91669273911145"
    }
  },
  {
    "service_request": "2023-1054282",
    "request_type": "Trash/Recycling",
    "request_reason": "Missed Trash Pick-Up",
    "date_created": "2023-12-06T16:49:08.000",
    "date_modified": "2023-12-06T16:49:09.000",
    "request_status": "Pending",
    "responsible_agency": "Department of Sanitation",
    "final_address": "6900 Edgefield Dr",
    "address_councildis": "E",
    "status": "Assigned to Contractor",
    "contractor": "Waste Pro",
    "rowid": "1054282",
    "final_x": "3719216.80876",
    "final_y": "568413.605221",
    "longitude": "-89.94756683869356",
    "latitude": "30.055739549275785",
    "geocoded_column": {
      "latitude": "30.055739549275785",
      "longitude": "-89.94756683869356"
    }
  },
  {
    "service_request": "2023-1054281",
    "request_type": "Trash/Recycling",
    "request_reason": "Request a Large Item Pick Up",
    "date_created": "2023-12-06T16:37:48.000",
    "date_modified": "2023-12-06T16:37:49.000",
    "request_status": "Pending",
    "responsible_agency": "Department of Sanitation",
    "final_address": "340 Elmira Ave",
    "address_councildis": "C",
    "status": "Assigned to Contractor",
    "contractor": "Richards Disposal",
    "rowid": "1054281",
    "final_x": "3688272.79503",
    "final_y": "530419.90829",
    "longitude": "-90.04672333726965",
    "latitude": "29.95226343309295",
    "geocoded_column": {
      "latitude": "29.95226343309295",
      "longitude": "-90.04672333726965"
    }
  },
  {
    "service_request": "2023-1054280",
    "request_type": "Abandoned Vehicles",
    "request_reason": "Abandoned/Junk Vehicles",
    "date_created": "2023-12-06T16:34:16.000",
    "date_modified": "2023-12-06T16:34:16.000",
    "request_status": "Pending",
    "responsible_agency": "Department of Public Works",
    "final_address": "10200 Almonaster Ave",
    "address_councildis": "E",
    "status": "Inspected",
    "rowid": "1054280",
    "final_x": "3713684.56383",
    "final_y": "551626.395989",
    "longitude": "-89.96568637555853",
    "latitude": "30.00976423388402",
    "geocoded_column": {
      "latitude": "30.00976423388402",
      "longitude": "-89.96568637555853"
    }
  },
  {
    "service_request": "2023-1054278",
    "request_type": "Traffic Signals/Signs/Striping/Streetlights",
    "request_reason": "Street Light Outage/Malfunction",
    "date_created": "2023-12-06T16:25:03.000",
    "date_modified": "2023-12-06T16:25:04.000",
    "request_status": "Pending",
    "responsible_agency": "Department of Public Works",
    "final_address": "14 Yosemite Dr",
    "address_councildis": "C",
    "status": "Assigned to Contractor",
    "contractor": "Legacy Professional Services",
    "rowid": "1054278",
    "final_x": "3699666.1962",
    "final_y": "517759.84831",
    "longitude": "-90.01120971507892",
    "latitude": "29.91709597377222",
    "geocoded_column": {
      "latitude": "29.91709597377222",
      "longitude": "-90.01120971507892"
    }
  },
  {
    "service_request": "2023-1054277",
    "request_type": "Abandoned Vehicles",
    "request_reason": "Abandoned/Junk Vehicles",
    "date_created": "2023-12-06T16:23:32.000",
    "date_modified": "2023-12-06T16:23:32.000",
    "request_status": "Pending",
    "responsible_agency": "Department of Public Works",
    "final_address": "10200 BLK Almonaster Ave",
    "address_councildis": "E",
    "status": "Inspected",
    "rowid": "1054277",
    "final_x": "3714488.88923",
    "final_y": "551896.847109",
    "longitude": "-89.96313503455288",
    "latitude": "30.010481447366526",
    "geocoded_column": {
      "latitude": "30.010481447366526",
      "longitude": "-89.96313503455288"
    }
  },
  {
    "service_request": "2023-1054276",
    "request_type": "Trash/Recycling",
    "request_reason": "Request a Large Item Pick Up",
    "date_created": "2023-12-06T16:19:40.000",
    "date_modified": "2023-12-06T16:19:40.000",
    "request_status": "Pending",
    "responsible_agency": "Department of Sanitation",
    "final_address": "1724 Frenchmen St",
    "address_councildis": "D",
    "status": "Assigned to Contractor",
    "contractor": "IV Waste",
    "rowid": "1054276",
    "final_x": "3684365.27644",
    "final_y": "538688.057481",
    "longitude": "-90.05877105662731",
    "latitude": "29.975118058168416",
    "geocoded_column": {
      "latitude": "29.975118058168416",
      "longitude": "-90.05877105662731"
    }
  },
  {
    "service_request": "2023-1054275",
    "request_type": "Trash/Recycling",
    "request_reason": "Request a Large Item Pick Up",
    "date_created": "2023-12-06T16:18:26.000",
    "date_modified": "2023-12-06T16:18:27.000",
    "request_status": "Pending",
    "responsible_agency": "Department of Sanitation",
    "final_address": "2922 Dublin St",
    "address_councildis": "A",
    "status": "Assigned to Contractor",
    "contractor": "Richards Disposal",
    "rowid": "1054275",
    "final_x": "3665906.65332",
    "final_y": "533283.639428",
    "longitude": "-90.11724958787177",
    "latitude": "29.960809353191017",
    "geocoded_column": {
      "latitude": "29.960809353191017",
      "longitude": "-90.11724958787177"
    }
  },
  {
    "service_request": "2023-1054274",
    "request_type": "Trash/Recycling",
    "request_reason": "Request a Large Item Pick Up",
    "date_created": "2023-12-06T16:17:55.000",
    "date_modified": "2023-12-06T16:17:56.000",
    "request_status": "Pending",
    "responsible_agency": "Department of Sanitation",
    "final_address": "8209 Pritchard Pl",
    "address_councildis": "A",
    "status": "Assigned to Contractor",
    "contractor": "Richards Disposal",
    "rowid": "1054274",
    "final_x": "3665753.05863",
    "final_y": "533213.890116",
    "longitude": "-90.11773694899827",
    "latitude": "29.960622046820383",
    "geocoded_column": {
      "latitude": "29.960622046820383",
      "longitude": "-90.11773694899827"
    }
  },
  {
    "service_request": "2023-1054273",
    "request_type": "Trash/Recycling",
    "request_reason": "Request a Large Item Pick Up",
    "date_created": "2023-12-06T16:14:57.000",
    "date_modified": "2023-12-06T16:14:57.000",
    "request_status": "Pending",
    "responsible_agency": "Department of Sanitation",
    "final_address": "2515 Carondelet St",
    "address_councildis": "B",
    "status": "Assigned to Contractor",
    "contractor": "Richards Disposal",
    "rowid": "1054273",
    "final_x": "3676339.6955",
    "final_y": "523321.343867",
    "longitude": "-90.08464684001434",
    "latitude": "29.933107759276865",
    "geocoded_column": {
      "latitude": "29.933107759276865",
      "longitude": "-90.08464684001434"
    }
  },
  {
    "service_request": "2023-1054272",
    "request_type": "Traffic Signals/Signs/Striping/Streetlights",
    "request_reason": "Street Light Outage/Malfunction",
    "date_created": "2023-12-06T16:14:38.000",
    "date_modified": "2023-12-06T16:14:39.000",
    "request_status": "Pending",
    "responsible_agency": "Department of Public Works",
    "final_address": "1521 Congress St",
    "address_councildis": "D",
    "status": "Assigned to Contractor",
    "contractor": "Legacy Professional Services",
    "rowid": "1054272",
    "final_x": "3691159.14307",
    "final_y": "537214.243336",
    "longitude": "-90.03736697718533",
    "latitude": "29.97085604860546",
    "geocoded_column": {
      "latitude": "29.97085604860546",
      "longitude": "-90.03736697718533"
    }
  },
  {
    "service_request": "2023-1054271",
    "request_type": "Trash/Recycling",
    "request_reason": "Missed Trash Pick-Up",
    "date_created": "2023-12-06T16:12:18.000",
    "date_modified": "2023-12-06T16:12:19.000",
    "request_status": "Pending",
    "responsible_agency": "Department of Sanitation",
    "final_address": "5055 St Ferdinand Dr",
    "address_councildis": "D",
    "status": "Assigned to Contractor",
    "contractor": "IV Waste",
    "rowid": "1054271",
    "final_x": "3689223.64534",
    "final_y": "551752.377109",
    "longitude": "-90.04296245913963",
    "latitude": "30.010890736430554",
    "geocoded_column": {
      "latitude": "30.010890736430554",
      "longitude": "-90.04296245913963"
    }
  },
  {
    "service_request": "2023-1054270",
    "request_type": "Abandoned Vehicles",
    "request_reason": "Abandoned/Junk Vehicles",
    "date_created": "2023-12-06T16:06:49.000",
    "date_modified": "2023-12-06T16:06:50.000",
    "request_status": "Pending",
    "responsible_agency": "Department of Public Works",
    "final_address": "2727 S Broad St",
    "address_councildis": "B",
    "status": "Pending",
    "rowid": "1054270",
    "final_x": "3671330.56756",
    "final_y": "529956.930625",
    "longitude": "-90.10023491822236",
    "latitude": "29.95150260808841",
    "geocoded_column": {
      "latitude": "29.95150260808841",
      "longitude": "-90.10023491822236"
    }
  },
  {
    "service_request": "2023-1054269",
    "request_type": "Roads/Drainage",
    "request_reason": "Man hole cover issue",
    "date_created": "2023-12-06T15:57:45.000",
    "date_modified": "2023-12-06T15:57:46.000",
    "request_status": "Pending",
    "responsible_agency": "Department of Public Works",
    "final_address": "7411 Horizon Dr",
    "address_councildis": "E",
    "status": "Pending",
    "rowid": "1054269",
    "final_x": "3725935.01792",
    "final_y": "569293.049446",
    "longitude": "-89.92629800733432",
    "latitude": "30.057932534943426",
    "geocoded_column": {
      "latitude": "30.057932534943426",
      "longitude": "-89.92629800733432"
    }
  },
  {
    "service_request": "2023-1054268",
    "request_type": "Trash/Recycling",
    "request_reason": "Missed Trash Pick-Up",
    "date_created": "2023-12-06T15:53:54.000",
    "date_modified": "2023-12-06T15:53:55.000",
    "request_status": "Pending",
    "responsible_agency": "Department of Sanitation",
    "final_address": "6229 Wadsworth Dr",
    "address_councildis": "D",
    "status": "Assigned to Contractor",
    "contractor": "IV Waste",
    "rowid": "1054268",
    "final_x": "3681666.41096",
    "final_y": "555996.114521",
    "longitude": "-90.06669050777617",
    "latitude": "30.02279131009338",
    "geocoded_column": {
      "latitude": "30.02279131009338",
      "longitude": "-90.06669050777617"
    }
  },
  {
    "service_request": "2023-1054266",
    "request_type": "Traffic Signals/Signs/Striping/Streetlights",
    "request_reason": "Street Light Outage/Malfunction",
    "date_created": "2023-12-06T15:52:21.000",
    "date_modified": "2023-12-06T15:52:22.000",
    "request_status": "Pending",
    "responsible_agency": "Department of Public Works",
    "final_address": "INLET LN & CURRAN BLVD",
    "address_councildis": "E",
    "status": "Assigned to Contractor",
    "contractor": "Legacy Professional Services",
    "rowid": "1054266",
    "final_x": "3714365.0",
    "final_y": "568792.78",
    "longitude": "-89.96288800341003",
    "latitude": "30.056942570906227",
    "geocoded_column": {
      "latitude": "30.056942570906227",
      "longitude": "-89.96288800341003"
    }
  },
  {
    "service_request": "2023-1054265",
    "request_type": "Trash/Recycling",
    "request_reason": "Return Recycling Cart",
    "date_created": "2023-12-06T15:50:57.000",
    "date_modified": "2023-12-06T15:50:57.000",
    "request_status": "Pending",
    "responsible_agency": "Department of Sanitation",
    "final_address": "2819 Baronne St",
    "address_councildis": "B",
    "status": "Pending",
    "rowid": "1054265",
    "final_x": "3675345.34177",
    "final_y": "523074.058491",
    "longitude": "-90.08779443633823",
    "latitude": "29.93245756305682",
    "geocoded_column": {
      "latitude": "29.93245756305682",
      "longitude": "-90.08779443633823"
    }
  },
  {
    "service_request": "2023-1054264",
    "request_type": "Roads/Drainage",
    "request_reason": "Pothole",
    "date_created": "2023-12-06T15:48:15.000",
    "date_modified": "2023-12-06T15:48:15.000",
    "request_status": "Pending",
    "responsible_agency": "Department of Public Works",
    "final_address": "STATE ST & LOYOLA AVE",
    "address_councildis": "A",
    "status": "Pending",
    "rowid": "1054264",
    "final_x": "3666059.4",
    "final_y": "523394.78",
    "longitude": "-90.11709869714355",
    "latitude": "29.93361372836685",
    "geocoded_column": {
      "latitude": "29.93361372836685",
      "longitude": "-90.11709869714355"
    }
  },
  {
    "service_request": "2023-1054263",
    "request_type": "Trash/Recycling",
    "request_reason": "Order Recycling Cart",
    "date_created": "2023-12-06T15:48:10.000",
    "date_modified": "2023-12-06T15:48:11.000",
    "request_status": "Pending",
    "responsible_agency": "Department of Sanitation",
    "final_address": "6000 Kuebel Dr",
    "address_councildis": "E",
    "status": "Pending",
    "rowid": "1054263",
    "final_x": "3694927.85456",
    "final_y": "559642.639965",
    "longitude": "-90.02465599459624",
    "latitude": "30.032408117098235",
    "geocoded_column": {
      "latitude": "30.032408117098235",
      "longitude": "-90.02465599459624"
    }
  },
  {
    "service_request": "2023-1054262",
    "request_type": "Trash/Recycling",
    "request_reason": "Order Trash Cart",
    "date_created": "2023-12-06T15:47:51.000",
    "date_modified": "2023-12-06T15:47:51.000",
    "request_status": "Pending",
    "responsible_agency": "Department of Sanitation",
    "final_address": "6000 Kuebel Dr",
    "address_councildis": "E",
    "status": "Assigned to Contractor",
    "contractor": "Waste Pro",
    "rowid": "1054262",
    "final_x": "3694927.85456",
    "final_y": "559642.639965",
    "longitude": "-90.02465599459624",
    "latitude": "30.032408117098235",
    "geocoded_column": {
      "latitude": "30.032408117098235",
      "longitude": "-90.02465599459624"
    }
  },
  {
    "service_request": "2023-1054261",
    "request_type": "Trash/Recycling",
    "request_reason": "Order Recycling Cart",
    "date_created": "2023-12-06T15:46:05.000",
    "date_modified": "2023-12-06T15:46:06.000",
    "request_status": "Pending",
    "responsible_agency": "Department of Sanitation",
    "final_address": "7931 W Laverne St",
    "address_councildis": "E",
    "status": "Pending",
    "rowid": "1054261",
    "final_x": "3694883.0856",
    "final_y": "559620.401437",
    "longitude": "-90.02479826973453",
    "latitude": "30.03234837549037",
    "geocoded_column": {
      "latitude": "30.03234837549037",
      "longitude": "-90.02479826973453"
    }
  },
  {
    "service_request": "2023-1054260",
    "request_type": "Trash/Recycling",
    "request_reason": "Order Trash Cart",
    "date_created": "2023-12-06T15:45:36.000",
    "date_modified": "2023-12-06T15:45:37.000",
    "request_status": "Pending",
    "responsible_agency": "Department of Sanitation",
    "final_address": "7931 W Laverne St",
    "address_councildis": "E",
    "status": "Assigned to Contractor",
    "contractor": "Waste Pro",
    "rowid": "1054260",
    "final_x": "3694883.0856",
    "final_y": "559620.401437",
    "longitude": "-90.02479826973453",
    "latitude": "30.03234837549037",
    "geocoded_column": {
      "latitude": "30.03234837549037",
      "longitude": "-90.02479826973453"
    }
  },
  {
    "service_request": "2023-1054259",
    "request_type": "Trash/Recycling",
    "request_reason": "Request a Large Item Pick Up",
    "date_created": "2023-12-06T15:44:13.000",
    "date_modified": "2023-12-06T15:44:14.000",
    "request_status": "Pending",
    "responsible_agency": "Department of Sanitation",
    "final_address": "4761 Francisco Verrett Dr",
    "address_councildis": "E",
    "status": "Assigned to Contractor",
    "contractor": "Waste Pro",
    "rowid": "1054259",
    "final_x": "3704234.71639",
    "final_y": "555382.996057",
    "longitude": "-89.99540301225532",
    "latitude": "30.020400193899672",
    "geocoded_column": {
      "latitude": "30.020400193899672",
      "longitude": "-89.99540301225532"
    }
  },
  {
    "service_request": "2023-1054258",
    "request_type": "Roads/Drainage",
    "request_reason": "Pothole",
    "date_created": "2023-12-06T15:43:03.000",
    "date_modified": "2023-12-06T15:43:03.000",
    "request_status": "Pending",
    "responsible_agency": "Department of Public Works",
    "final_address": "1400 BLK Saint Andrew St",
    "address_councildis": "B",
    "status": "Pending",
    "rowid": "1054258",
    "final_x": "3678688.93655",
    "final_y": "523563.910993",
    "longitude": "-90.07722205073586",
    "latitude": "29.9337041358214",
    "geocoded_column": {
      "latitude": "29.9337041358214",
      "longitude": "-90.07722205073586"
    }
  },
  {
    "service_request": "2023-1054257",
    "request_type": "Roads/Drainage",
    "request_reason": "Catch Basin - Clogged",
    "date_created": "2023-12-06T15:42:40.000",
    "date_modified": "2023-12-06T15:42:40.000",
    "request_status": "Pending",
    "responsible_agency": "Department of Public Works",
    "final_address": "5036 Stephen Girard Ave",
    "address_councildis": "D",
    "status": "Pending",
    "rowid": "1054257",
    "final_x": "3692857.75305",
    "final_y": "551124.465365",
    "longitude": "-90.03150346944612",
    "latitude": "30.009051182581985",
    "geocoded_column": {
      "latitude": "30.009051182581985",
      "longitude": "-90.03150346944612"
    }
  },
  {
    "service_request": "2023-1054256",
    "request_type": "Health Related Request",
    "request_reason": "Noise Ordinance Complaint",
    "date_created": "2023-12-06T15:38:19.000",
    "date_modified": "2023-12-06T15:42:07.000",
    "case_close_date": "2023-12-06T09:42:07.000",
    "request_status": "Closed",
    "responsible_agency": "Health Department",
    "final_address": "122 Winthrop Pl",
    "address_councildis": "D",
    "status": "Invalid Request",
    "rowid": "1054256",
    "final_x": "3677538.14702",
    "final_y": "543948.869902",
    "longitude": "-90.08015120805909",
    "latitude": "29.989790514304307",
    "geocoded_column": {
      "latitude": "29.989790514304307",
      "longitude": "-90.08015120805909"
    }
  },
  {
    "service_request": "2023-1054255",
    "request_type": "Roads/Drainage",
    "request_reason": "Pothole",
    "date_created": "2023-12-06T15:36:18.000",
    "date_modified": "2023-12-06T15:36:18.000",
    "request_status": "Pending",
    "responsible_agency": "Department of Public Works",
    "final_address": "1301 Constantinople St",
    "address_councildis": "B",
    "status": "Pending",
    "rowid": "1054255",
    "final_x": "3672430.66305",
    "final_y": "520250.7726",
    "longitude": "-90.09709199725775",
    "latitude": "29.924781230435865",
    "geocoded_column": {
      "latitude": "29.924781230435865",
      "longitude": "-90.09709199725775"
    }
  },
  {
    "service_request": "2023-1054254",
    "request_type": "Trash/Recycling",
    "request_reason": "Order Trash Cart",
    "date_created": "2023-12-06T15:31:11.000",
    "date_modified": "2023-12-06T15:31:12.000",
    "request_status": "Pending",
    "responsible_agency": "Department of Sanitation",
    "final_address": "7118 Downman Rd",
    "address_councildis": "D",
    "status": "Assigned to Contractor",
    "contractor": "Waste Pro",
    "rowid": "1054254",
    "final_x": "3695185.85878",
    "final_y": "556603.519706",
    "longitude": "-90.02395043143794",
    "latitude": "30.024043588986743",
    "geocoded_column": {
      "latitude": "30.024043588986743",
      "longitude": "-90.02395043143794"
    }
  },
  {
    "service_request": "2023-1054253",
    "request_type": "Roads/Drainage",
    "request_reason": "Pothole",
    "date_created": "2023-12-06T15:30:39.000",
    "date_modified": "2023-12-06T15:30:39.000",
    "request_status": "Pending",
    "responsible_agency": "Department of Public Works",
    "final_address": "1312 Milan St",
    "address_councildis": "B",
    "status": "Pending",
    "rowid": "1054253",
    "final_x": "3671625.82823",
    "final_y": "520286.919608",
    "longitude": "-90.09963137110304",
    "latitude": "29.92490447494246",
    "geocoded_column": {
      "latitude": "29.92490447494246",
      "longitude": "-90.09963137110304"
    }
  },
  {
    "service_request": "2023-1054252",
    "request_type": "Roads/Drainage",
    "request_reason": "Street Subsidence (Sinking)",
    "date_created": "2023-12-06T15:30:09.000",
    "date_modified": "2023-12-06T15:30:09.000",
    "request_status": "Pending",
    "responsible_agency": "Department of Public Works",
    "final_address": "3300 BLK Trafalgar St",
    "address_councildis": "A",
    "status": "Pending",
    "rowid": "1054252",
    "final_x": "3677876.6862",
    "final_y": "543187.738543",
    "longitude": "-90.07910817150272",
    "latitude": "29.98768748388999",
    "geocoded_column": {
      "latitude": "29.98768748388999",
      "longitude": "-90.07910817150272"
    }
  },
  {
    "service_request": "2023-1054251",
    "request_type": "Trash/Recycling",
    "request_reason": "Repair Trash Cart",
    "date_created": "2023-12-06T15:26:24.000",
    "date_modified": "2023-12-06T15:26:25.000",
    "request_status": "Pending",
    "responsible_agency": "Department of Sanitation",
    "final_address": "3427 Royal St",
    "address_councildis": "C",
    "status": "Assigned to Contractor",
    "contractor": "IV Waste",
    "rowid": "1054251",
    "final_x": "3690033.8959",
    "final_y": "534179.069893",
    "longitude": "-90.04102874460932",
    "latitude": "29.962545332115013",
    "geocoded_column": {
      "latitude": "29.962545332115013",
      "longitude": "-90.04102874460932"
    }
  },
  {
    "service_request": "2023-1054250",
    "request_type": "Roads/Drainage",
    "request_reason": "Damaged Sidewalk",
    "date_created": "2023-12-06T15:23:31.000",
    "date_modified": "2023-12-06T15:23:31.000",
    "request_status": "Pending",
    "responsible_agency": "Department of Public Works",
    "final_address": "2301 Loyola Ave",
    "address_councildis": "B",
    "status": "Pending",
    "rowid": "1054250",
    "final_x": "3675921.99419",
    "final_y": "525134.912701",
    "longitude": "-90.08590316662502",
    "latitude": "29.938106990233003",
    "geocoded_column": {
      "latitude": "29.938106990233003",
      "longitude": "-90.08590316662502"
    }
  },
  {
    "service_request": "2023-1054248",
    "request_type": "Trash/Recycling",
    "request_reason": "Missed Trash Pick-Up",
    "date_created": "2023-12-06T15:18:25.000",
    "date_modified": "2023-12-06T15:18:25.000",
    "request_status": "Pending",
    "responsible_agency": "Department of Sanitation",
    "final_address": "4674 Bundy Rd",
    "address_councildis": "E",
    "status": "Assigned to Contractor",
    "contractor": "Waste Pro",
    "rowid": "1054248",
    "final_x": "3709305.83736",
    "final_y": "555387.262361",
    "longitude": "-89.97937980950198",
    "latitude": "30.02024813731129",
    "geocoded_column": {
      "latitude": "30.02024813731129",
      "longitude": "-89.97937980950198"
    }
  },
  {
    "service_request": "2023-1054247",
    "request_type": "Abandoned Vehicles",
    "request_reason": "Abandoned/Junk Vehicles",
    "date_created": "2023-12-06T15:18:22.000",
    "date_modified": "2023-12-06T15:18:23.000",
    "request_status": "Pending",
    "responsible_agency": "Department of Public Works",
    "final_address": "ARTS ST & GENTILLY BLVD",
    "address_councildis": "D",
    "status": "Pending",
    "rowid": "1054247",
    "final_x": "3686054.63",
    "final_y": "548830.55",
    "longitude": "-90.0530777460203",
    "latitude": "30.002954521436525",
    "geocoded_column": {
      "latitude": "30.002954521436525",
      "longitude": "-90.0530777460203"
    }
  },
  {
    "service_request": "2023-1054246",
    "request_type": "Trash/Recycling",
    "request_reason": "Missed Trash Pick-Up",
    "date_created": "2023-12-06T15:12:17.000",
    "date_modified": "2023-12-06T16:10:06.000",
    "case_close_date": "2023-12-06T10:10:06.000",
    "request_status": "Closed",
    "responsible_agency": "Department of Sanitation",
    "final_address": "2301 New York St",
    "address_councildis": "D",
    "status": "Invalid Request",
    "contractor": "IV Waste",
    "contractor_action": "Invalid Pick-Up",
    "rowid": "1054246",
    "final_x": "3684190.08418",
    "final_y": "556724.079322",
    "longitude": "-90.05869070369093",
    "latitude": "30.024715995353056",
    "geocoded_column": {
      "latitude": "30.024715995353056",
      "longitude": "-90.05869070369093"
    }
  },
  {
    "service_request": "2023-1054245",
    "request_type": "Roads/Drainage",
    "request_reason": "Damaged Sidewalk",
    "date_created": "2023-12-06T15:11:21.000",
    "date_modified": "2023-12-06T15:11:21.000",
    "request_status": "Pending",
    "responsible_agency": "Department of Public Works",
    "final_address": "11251 Waverly Dr",
    "address_councildis": "E",
    "status": "Pending",
    "rowid": "1054245",
    "final_x": "3717293.94514",
    "final_y": "560232.442589",
    "longitude": "-89.95395587584497",
    "latitude": "30.033308490898364",
    "geocoded_column": {
      "latitude": "30.033308490898364",
      "longitude": "-89.95395587584497"
    }
  },
  {
    "service_request": "2023-1054244",
    "request_type": "Trash/Recycling",
    "request_reason": "Request a Large Item Pick Up",
    "date_created": "2023-12-06T15:11:07.000",
    "date_modified": "2023-12-06T15:11:08.000",
    "request_status": "Pending",
    "responsible_agency": "Department of Sanitation",
    "final_address": "1524 Melpomene St",
    "address_councildis": "B",
    "status": "Assigned to Contractor",
    "contractor": "Richards Disposal",
    "rowid": "1054244",
    "final_x": "3679424.24008",
    "final_y": "525308.875837",
    "longitude": "-90.07484023043668",
    "latitude": "29.93848002854146",
    "geocoded_column": {
      "latitude": "29.93848002854146",
      "longitude": "-90.07484023043668"
    }
  },
  {
    "service_request": "2023-1054243",
    "request_type": "Traffic Signals/Signs/Striping/Streetlights",
    "request_reason": "Street Light Outage/Malfunction",
    "date_created": "2023-12-06T15:05:21.000",
    "date_modified": "2023-12-06T15:05:21.000",
    "request_status": "Pending",
    "responsible_agency": "Department of Public Works",
    "final_address": "RAPIDES DR & ELYSIAN FIELDS AVE & ODIN ST",
    "address_councildis": "D",
    "status": "Assigned to Contractor",
    "contractor": "Legacy Professional Services",
    "rowid": "1054243",
    "final_x": "3683592.8",
    "final_y": "553033.08",
    "longitude": "-90.06070755279846",
    "latitude": "30.014585358123156",
    "geocoded_column": {
      "latitude": "30.014585358123156",
      "longitude": "-90.06070755279846"
    }
  },
  {
    "service_request": "2023-1054242",
    "request_type": "Trash/Recycling",
    "request_reason": "Replace Trash Cart",
    "date_created": "2023-12-06T15:02:19.000",
    "date_modified": "2023-12-06T15:02:20.000",
    "request_status": "Pending",
    "responsible_agency": "Department of Sanitation",
    "final_address": "8634 Birch St",
    "address_councildis": "A",
    "status": "Assigned to Contractor",
    "contractor": "Richards Disposal",
    "rowid": "1054242",
    "final_x": "3661350.85203",
    "final_y": "530770.969346",
    "longitude": "-90.13171921751687",
    "latitude": "29.954032485327083",
    "geocoded_column": {
      "latitude": "29.954032485327083",
      "longitude": "-90.13171921751687"
    }
  },
  {
    "service_request": "2023-1054241",
    "request_type": "Trash/Recycling",
    "request_reason": "Order Trash Cart",
    "date_created": "2023-12-06T15:02:09.000",
    "date_modified": "2023-12-06T18:49:32.000",
    "case_close_date": "2023-12-06T12:49:32.000",
    "request_status": "Closed",
    "responsible_agency": "Department of Sanitation",
    "final_address": "5910 Wright Rd",
    "address_councildis": "E",
    "status": "Assigned to Contractor",
    "contractor": "Waste Pro",
    "contractor_action": "Completed",
    "rowid": "1054241",
    "final_x": "3713587.06853",
    "final_y": "561839.067039",
    "longitude": "-89.96560926155733",
    "latitude": "30.037848242391348",
    "geocoded_column": {
      "latitude": "30.037848242391348",
      "longitude": "-89.96560926155733"
    }
  },
  {
    "service_request": "2023-1054240",
    "request_type": "Trash/Recycling",
    "request_reason": "Request a Large Item Pick Up",
    "date_created": "2023-12-06T15:01:57.000",
    "date_modified": "2023-12-06T15:01:57.000",
    "request_status": "Pending",
    "responsible_agency": "Department of Sanitation",
    "final_address": "218 S Olympia St",
    "address_councildis": "A",
    "status": "Assigned to Contractor",
    "contractor": "Richards Disposal",
    "rowid": "1054240",
    "final_x": "3669104.24039",
    "final_y": "539110.538058",
    "longitude": "-90.10695525598337",
    "latitude": "29.976737677900847",
    "geocoded_column": {
      "latitude": "29.976737677900847",
      "longitude": "-90.10695525598337"
    }
  },
  {
    "service_request": "2023-1054239",
    "request_type": "Health Related Request",
    "request_reason": "Noise Ordinance Complaint",
    "date_created": "2023-12-06T15:01:56.000",
    "date_modified": "2023-12-06T15:01:56.000",
    "request_status": "Pending",
    "responsible_agency": "Health Department",
    "final_address": "924 Foucher St",
    "address_councildis": "B",
    "status": "Pending",
    "rowid": "1054239",
    "final_x": "3674301.03656",
    "final_y": "518792.078327",
    "longitude": "-90.0912377538606",
    "latitude": "29.920714670232456",
    "geocoded_column": {
      "latitude": "29.920714670232456",
      "longitude": "-90.0912377538606"
    }
  },
  {
    "service_request": "2023-1054238",
    "request_type": "Roads/Drainage",
    "request_reason": "Pothole",
    "date_created": "2023-12-06T15:01:03.000",
    "date_modified": "2023-12-06T15:01:03.000",
    "request_status": "Pending",
    "responsible_agency": "Department of Public Works",
    "final_address": "KABEL DR & MACARTHUR BLVD",
    "address_councildis": "C",
    "status": "Pending",
    "rowid": "1054238",
    "final_x": "3700629.8",
    "final_y": "520202.08",
    "longitude": "-90.00807903465346",
    "latitude": "29.92378066696838",
    "geocoded_column": {
      "latitude": "29.92378066696838",
      "longitude": "-90.00807903465346"
    }
  },
  {
    "service_request": "2023-1054237",
    "request_type": "Abandoned Vehicles",
    "request_reason": "Abandoned/Junk Vehicles",
    "date_created": "2023-12-06T14:59:56.000",
    "date_modified": "2023-12-06T14:59:57.000",
    "request_status": "Pending",
    "responsible_agency": "Department of Public Works",
    "final_address": "ST ANDREW ST & DANNEEL ST",
    "address_councildis": "B",
    "status": "Pending",
    "rowid": "1054237",
    "final_x": "3677221.5",
    "final_y": "525424.18",
    "longitude": "-90.08179053274915",
    "latitude": "29.93886341601741",
    "geocoded_column": {
      "latitude": "29.93886341601741",
      "longitude": "-90.08179053274915"
    }
  },
  {
    "service_request": "2023-1054236",
    "request_type": "Trash/Recycling",
    "request_reason": "Request a Large Item Pick Up",
    "date_created": "2023-12-06T14:59:35.000",
    "date_modified": "2023-12-06T14:59:36.000",
    "request_status": "Pending",
    "responsible_agency": "Department of Sanitation",
    "final_address": "2030 Burgundy St",
    "address_councildis": "C",
    "status": "Assigned to Contractor",
    "contractor": "IV Waste",
    "rowid": "1054236",
    "final_x": "3684554.94524",
    "final_y": "535514.623814",
    "longitude": "-90.05828356108412",
    "latitude": "29.966386416183127",
    "geocoded_column": {
      "latitude": "29.966386416183127",
      "longitude": "-90.05828356108412"
    }
  },
  {
    "service_request": "2023-1054235",
    "request_type": "Trash/Recycling",
    "request_reason": "Request a Large Item Pick Up",
    "date_created": "2023-12-06T14:55:14.000",
    "date_modified": "2023-12-06T14:55:14.000",
    "request_status": "Pending",
    "responsible_agency": "Department of Sanitation",
    "final_address": "7131 Northgate Dr",
    "address_councildis": "E",
    "status": "Assigned to Contractor",
    "contractor": "Waste Pro",
    "rowid": "1054235",
    "final_x": "3713755.89816",
    "final_y": "565153.665058",
    "longitude": "-89.96495063067998",
    "latitude": "30.04695650668563",
    "geocoded_column": {
      "latitude": "30.04695650668563",
      "longitude": "-89.96495063067998"
    }
  },
  {
    "service_request": "2023-1054234",
    "request_type": "Trash/Recycling",
    "request_reason": "Request a Large Item Pick Up",
    "date_created": "2023-12-06T14:53:43.000",
    "date_modified": "2023-12-06T14:53:44.000",
    "request_status": "Pending",
    "responsible_agency": "Department of Sanitation",
    "final_address": "4127 Willow St",
    "address_councildis": "B",
    "status": "Assigned to Contractor",
    "contractor": "Richards Disposal",
    "rowid": "1054234",
    "final_x": "3671310.24027",
    "final_y": "525557.153853",
    "longitude": "-90.10044857912459",
    "latitude": "29.93940526157548",
    "geocoded_column": {
      "latitude": "29.93940526157548",
      "longitude": "-90.10044857912459"
    }
  },
  {
    "service_request": "2023-1054233",
    "request_type": "Traffic Signals/Signs/Striping/Streetlights",
    "request_reason": "Street Light Outage/Malfunction",
    "date_created": "2023-12-06T14:49:48.000",
    "date_modified": "2023-12-06T14:49:49.000",
    "request_status": "Pending",
    "responsible_agency": "Department of Public Works",
    "final_address": "6123 Tchoupitoulas St",
    "address_councildis": "A",
    "status": "Assigned to Contractor",
    "contractor": "Legacy Professional Services",
    "rowid": "1054233",
    "final_x": "3663332.64346",
    "final_y": "517886.596342",
    "longitude": "-90.12589020500167",
    "latitude": "29.918547250750123",
    "geocoded_column": {
      "latitude": "29.918547250750123",
      "longitude": "-90.12589020500167"
    }
  },
  {
    "service_request": "2023-1054232",
    "request_type": "Trash/Recycling",
    "request_reason": "Repair Recycling Cart",
    "date_created": "2023-12-06T14:47:43.000",
    "date_modified": "2023-12-06T14:47:44.000",
    "request_status": "Pending",
    "responsible_agency": "Department of Sanitation",
    "final_address": "5 Navigation Ct",
    "address_councildis": "C",
    "status": "Pending",
    "rowid": "1054232",
    "final_x": "3703608.51319",
    "final_y": "522718.278714",
    "longitude": "-89.99858386900479",
    "latitude": "29.930604273631786",
    "geocoded_column": {
      "latitude": "29.930604273631786",
      "longitude": "-89.99858386900479"
    }
  },
  {
    "service_request": "2023-1054231",
    "request_type": "Trash/Recycling",
    "request_reason": "Replace Trash Cart",
    "date_created": "2023-12-06T14:45:04.000",
    "date_modified": "2023-12-06T14:45:05.000",
    "request_status": "Pending",
    "responsible_agency": "Department of Sanitation",
    "final_address": "2301 Loyola Ave",
    "address_councildis": "B",
    "status": "Assigned to Contractor",
    "contractor": "Richards Disposal",
    "rowid": "1054231",
    "final_x": "3675921.99419",
    "final_y": "525134.912701",
    "longitude": "-90.08590316662502",
    "latitude": "29.938106990233003",
    "geocoded_column": {
      "latitude": "29.938106990233003",
      "longitude": "-90.08590316662502"
    }
  },
  {
    "service_request": "2023-1054230",
    "request_type": "Trash/Recycling",
    "request_reason": "MIssed Recycling Pick-Up",
    "date_created": "2023-12-06T14:44:18.000",
    "date_modified": "2023-12-06T14:44:19.000",
    "request_status": "Pending",
    "responsible_agency": "Department of Sanitation",
    "final_address": "5910 Wright Rd",
    "address_councildis": "E",
    "status": "Assigned to Contractor",
    "contractor": "Waste Pro",
    "rowid": "1054230",
    "final_x": "3713587.06853",
    "final_y": "561839.067039",
    "longitude": "-89.96560926155733",
    "latitude": "30.037848242391348",
    "geocoded_column": {
      "latitude": "30.037848242391348",
      "longitude": "-89.96560926155733"
    }
  },
  {
    "service_request": "2023-1054229",
    "request_type": "Trash/Recycling",
    "request_reason": "Repair Trash Cart",
    "date_created": "2023-12-06T14:42:56.000",
    "date_modified": "2023-12-06T14:42:57.000",
    "request_status": "Pending",
    "responsible_agency": "Department of Sanitation",
    "final_address": "1 Admiralty Ct",
    "address_councildis": "C",
    "status": "Assigned to Contractor",
    "contractor": "Richards Disposal",
    "rowid": "1054229",
    "final_x": "3703767.87268",
    "final_y": "522705.22105",
    "longitude": "-89.99808127880144",
    "latitude": "29.93056326438387",
    "geocoded_column": {
      "latitude": "29.93056326438387",
      "longitude": "-89.99808127880144"
    }
  },
  {
    "service_request": "2023-1054228",
    "request_type": "Trash/Recycling",
    "request_reason": "Order Trash Cart",
    "date_created": "2023-12-06T14:41:54.000",
    "date_modified": "2023-12-06T14:41:55.000",
    "request_status": "Pending",
    "responsible_agency": "Department of Sanitation",
    "final_address": "6054 Pasteur Blvd",
    "address_councildis": "D",
    "status": "Assigned to Contractor",
    "contractor": "IV Waste",
    "rowid": "1054228",
    "final_x": "3682597.31221",
    "final_y": "555407.843033",
    "longitude": "-90.06376967143503",
    "latitude": "30.02114545181012",
    "geocoded_column": {
      "latitude": "30.02114545181012",
      "longitude": "-90.06376967143503"
    }
  },
  {
    "service_request": "2023-1054227",
    "request_type": "Traffic Signals/Signs/Striping/Streetlights",
    "request_reason": "Request for Stop Sign",
    "date_created": "2023-12-06T14:40:36.000",
    "date_modified": "2023-12-06T14:40:37.000",
    "request_status": "Pending",
    "responsible_agency": "Department of Public Works",
    "final_address": "N GALVEZ ST & CAFFIN AVE",
    "address_councildis": "E",
    "status": "Pending",
    "rowid": "1054227",
    "final_x": "3699018.7",
    "final_y": "537508.98",
    "longitude": "-90.01253492911698",
    "latitude": "29.971419702692877",
    "geocoded_column": {
      "latitude": "29.971419702692877",
      "longitude": "-90.01253492911698"
    }
  },
  {
    "service_request": "2023-1054226",
    "request_type": "Trash/Recycling",
    "request_reason": "Replace Trash Cart",
    "date_created": "2023-12-06T14:40:15.000",
    "date_modified": "2023-12-06T14:40:16.000",
    "request_status": "Pending",
    "responsible_agency": "Department of Sanitation",
    "final_address": "4835 Savoie Ct",
    "address_councildis": "E",
    "status": "Assigned to Contractor",
    "contractor": "Waste Pro",
    "rowid": "1054226",
    "final_x": "3725401.04588",
    "final_y": "561060.855006",
    "longitude": "-89.9283048742019",
    "latitude": "30.035315445745375",
    "geocoded_column": {
      "latitude": "30.035315445745375",
      "longitude": "-89.9283048742019"
    }
  },
  {
    "service_request": "2023-1054225",
    "request_type": "Trash/Recycling",
    "request_reason": "Request a Large Item Pick Up",
    "date_created": "2023-12-06T14:36:31.000",
    "date_modified": "2023-12-06T14:36:32.000",
    "request_status": "Pending",
    "responsible_agency": "Department of Sanitation",
    "final_address": "1811 Baronne St",
    "address_councildis": "B",
    "status": "Assigned to Contractor",
    "contractor": "Richards Disposal",
    "rowid": "1054225",
    "final_x": "3677772.31406",
    "final_y": "525124.958653",
    "longitude": "-90.08006188182834",
    "latitude": "29.938024101706638",
    "geocoded_column": {
      "latitude": "29.938024101706638",
      "longitude": "-90.08006188182834"
    }
  },
  {
    "service_request": "2023-1054224",
    "request_type": "Traffic Signals/Signs/Striping/Streetlights",
    "request_reason": "Disabled Parking Sign ",
    "date_created": "2023-12-06T14:23:08.000",
    "date_modified": "2023-12-06T14:23:09.000",
    "request_status": "Pending",
    "responsible_agency": "Department of Public Works",
    "final_address": "2224 Ap Tureaud Ave",
    "address_councildis": "D",
    "status": "Pending",
    "rowid": "1054224",
    "final_x": "3681570.29692",
    "final_y": "540319.180235",
    "longitude": "-90.06754141685738",
    "latitude": "29.979688268209784",
    "geocoded_column": {
      "latitude": "29.979688268209784",
      "longitude": "-90.06754141685738"
    }
  },
  {
    "service_request": "2023-1054223",
    "request_type": "Trash/Recycling",
    "request_reason": "Missed Trash Pick-Up",
    "date_created": "2023-12-06T14:21:43.000",
    "date_modified": "2023-12-06T14:21:44.000",
    "request_status": "Pending",
    "responsible_agency": "Department of Sanitation",
    "final_address": "4315 S Liberty St",
    "address_councildis": "B",
    "status": "Assigned to Contractor",
    "contractor": "Richards Disposal",
    "rowid": "1054223",
    "final_x": "3670861.30305",
    "final_y": "523420.463995",
    "longitude": "-90.1019384311558",
    "latitude": "29.933543329375276",
    "geocoded_column": {
      "latitude": "29.933543329375276",
      "longitude": "-90.1019384311558"
    }
  },
  {
    "service_request": "2023-1054222",
    "request_type": "Trash/Recycling",
    "request_reason": "Replace Trash Cart",
    "date_created": "2023-12-06T14:15:56.000",
    "date_modified": "2023-12-06T14:15:56.000",
    "request_status": "Pending",
    "responsible_agency": "Department of Sanitation",
    "final_address": "2026 Audubon St",
    "address_councildis": "A",
    "status": "Assigned to Contractor",
    "contractor": "Richards Disposal",
    "rowid": "1054222",
    "final_x": "3666108.17671",
    "final_y": "528907.425024",
    "longitude": "-90.1167599364867",
    "latitude": "29.948770308578958",
    "geocoded_column": {
      "latitude": "29.948770308578958",
      "longitude": "-90.1167599364867"
    }
  },
  {
    "service_request": "2023-1054221",
    "request_type": "Trash/Recycling",
    "request_reason": "MIssed Recycling Pick-Up",
    "date_created": "2023-12-06T14:13:18.000",
    "date_modified": "2023-12-06T14:13:19.000",
    "request_status": "Pending",
    "responsible_agency": "Department of Sanitation",
    "final_address": "3815 Nashville Ave",
    "address_councildis": "A",
    "status": "Assigned to Contractor",
    "contractor": "Richards Disposal",
    "rowid": "1054221",
    "final_x": "3668589.50964",
    "final_y": "529533.329921",
    "longitude": "-90.10890416584348",
    "latitude": "29.95041866943906",
    "geocoded_column": {
      "latitude": "29.95041866943906",
      "longitude": "-90.10890416584348"
    }
  },
  {
    "service_request": "2023-1054220",
    "request_type": "Abandoned Vehicles",
    "request_reason": "Abandoned/Junk Vehicles",
    "date_created": "2023-12-06T14:05:55.000",
    "date_modified": "2023-12-06T14:05:55.000",
    "request_status": "Pending",
    "responsible_agency": "Department of Public Works",
    "final_address": "6000 St Anthony Ave",
    "address_councildis": "D",
    "status": "Inspected",
    "rowid": "1054220",
    "final_x": "3681921.95144",
    "final_y": "554689.487768",
    "longitude": "-90.0659287256721",
    "latitude": "30.019190795512365",
    "geocoded_column": {
      "latitude": "30.019190795512365",
      "longitude": "-90.0659287256721"
    }
  },
  {
    "service_request": "2023-1054219",
    "request_type": "Trash/Recycling",
    "request_reason": "Request a Large Item Pick Up",
    "date_created": "2023-12-06T14:05:02.000",
    "date_modified": "2023-12-06T14:05:02.000",
    "request_status": "Pending",
    "responsible_agency": "Department of Sanitation",
    "final_address": "20 Muirfield Pl",
    "address_councildis": "C",
    "status": "Assigned to Contractor",
    "contractor": "Richards Disposal",
    "rowid": "1054219",
    "final_x": "3720515.68985",
    "final_y": "513927.216946",
    "longitude": "-89.9455472217894",
    "latitude": "29.90587965267561",
    "geocoded_column": {
      "latitude": "29.90587965267561",
      "longitude": "-89.9455472217894"
    }
  },
  {
    "service_request": "2023-1054218",
    "request_type": "Trash/Recycling",
    "request_reason": "Request a Large Item Pick Up",
    "date_created": "2023-12-06T14:03:52.000",
    "date_modified": "2023-12-06T14:03:53.000",
    "request_status": "Pending",
    "responsible_agency": "Department of Sanitation",
    "final_address": "4704 General Meyer Ave",
    "address_councildis": "C",
    "status": "Assigned to Contractor",
    "contractor": "Richards Disposal",
    "rowid": "1054218",
    "final_x": "3701453.46545",
    "final_y": "523624.188603",
    "longitude": "-90.00535384574943",
    "latitude": "29.93316406115951",
    "geocoded_column": {
      "latitude": "29.93316406115951",
      "longitude": "-90.00535384574943"
    }
  },
  {
    "service_request": "2023-1054217",
    "request_type": "Abandoned Vehicles",
    "request_reason": "Abandoned/Junk Vehicles",
    "date_created": "2023-12-06T14:02:32.000",
    "date_modified": "2023-12-06T14:02:33.000",
    "request_status": "Pending",
    "responsible_agency": "Department of Public Works",
    "final_address": "7500 BLK Dune Dr",
    "address_councildis": "E",
    "status": "Pending",
    "rowid": "1054217",
    "final_x": "3715593.3775",
    "final_y": "568722.107094",
    "longitude": "-89.95900800668949",
    "latitude": "30.056707796117934",
    "geocoded_column": {
      "latitude": "30.056707796117934",
      "longitude": "-89.95900800668949"
    }
  },
  {
    "service_request": "2023-1054216",
    "request_type": "Trash/Recycling",
    "request_reason": "Request a Large Item Pick Up",
    "date_created": "2023-12-06T14:01:03.000",
    "date_modified": "2023-12-06T14:38:23.000",
    "case_close_date": "2023-12-06T08:38:23.000",
    "request_status": "Closed",
    "responsible_agency": "Department of Sanitation",
    "final_address": "4412 Congress Dr",
    "address_councildis": "D",
    "status": "Invalid Request",
    "contractor": "IV Waste",
    "contractor_action": "Invalid Pick-Up",
    "rowid": "1054216",
    "final_x": "3692522.30544",
    "final_y": "550817.599573",
    "longitude": "-90.03257426226735",
    "latitude": "30.008217890177946",
    "geocoded_column": {
      "latitude": "30.008217890177946",
      "longitude": "-90.03257426226735"
    }
  },
  {
    "service_request": "2023-1054215",
    "request_type": "Trash/Recycling",
    "request_reason": "MIssed Recycling Pick-Up",
    "date_created": "2023-12-06T14:00:16.000",
    "date_modified": "2023-12-06T14:00:16.000",
    "request_status": "Pending",
    "responsible_agency": "Department of Sanitation",
    "final_address": "1125 Felicity St Unit B",
    "address_councildis": "B",
    "status": "Assigned to Contractor",
    "contractor": "Richards Disposal",
    "rowid": "1054215",
    "final_x": "3679855.47157",
    "final_y": "523266.265275",
    "longitude": "-90.07354968901488",
    "latitude": "29.93285049387458",
    "geocoded_column": {
      "latitude": "29.93285049387458",
      "longitude": "-90.07354968901488"
    }
  },
  {
    "service_request": "2023-1054214",
    "request_type": "Abandoned Vehicles",
    "request_reason": "Abandoned/Junk Vehicles",
    "date_created": "2023-12-06T13:59:15.000",
    "date_modified": "2023-12-06T13:59:15.000",
    "request_status": "Pending",
    "responsible_agency": "Department of Public Works",
    "final_address": "5610 Catina St",
    "address_councildis": "A",
    "status": "Pending",
    "rowid": "1054214",
    "final_x": "3666572.55469",
    "final_y": "544848.558159",
    "longitude": "-90.11475841126945",
    "latitude": "29.99258955423571",
    "geocoded_column": {
      "latitude": "29.99258955423571",
      "longitude": "-90.11475841126945"
    }
  },
  {
    "service_request": "2023-1054213",
    "request_type": "Trash/Recycling",
    "request_reason": "Request a Large Item Pick Up",
    "date_created": "2023-12-06T13:57:59.000",
    "date_modified": "2023-12-06T13:57:59.000",
    "request_status": "Pending",
    "responsible_agency": "Department of Sanitation",
    "final_address": "2100 Ursulines Ave",
    "address_councildis": "D",
    "status": "Assigned to Contractor",
    "contractor": "Richards Disposal",
    "rowid": "1054213",
    "final_x": "3679336.90088",
    "final_y": "536588.976135",
    "longitude": "-90.07472479691153",
    "latitude": "29.969499143321197",
    "geocoded_column": {
      "latitude": "29.969499143321197",
      "longitude": "-90.07472479691153"
    }
  },
  {
    "service_request": "2023-1054212",
    "request_type": "Trash/Recycling",
    "request_reason": "MIssed Recycling Pick-Up",
    "date_created": "2023-12-06T13:57:44.000",
    "date_modified": "2023-12-06T13:57:45.000",
    "request_status": "Pending",
    "responsible_agency": "Department of Sanitation",
    "final_address": "1125 Felicity St",
    "address_councildis": "B",
    "status": "Assigned to Contractor",
    "contractor": "Richards Disposal",
    "rowid": "1054212",
    "final_x": "3679851.2637",
    "final_y": "523230.519355",
    "longitude": "-90.0735642136091",
    "latitude": "29.932752331570473",
    "geocoded_column": {
      "latitude": "29.932752331570473",
      "longitude": "-90.0735642136091"
    }
  },
  {
    "service_request": "2023-1054211",
    "request_type": "Trash/Recycling",
    "request_reason": "Request a Large Item Pick Up",
    "date_created": "2023-12-06T13:49:21.000",
    "date_modified": "2023-12-06T13:49:22.000",
    "request_status": "Pending",
    "responsible_agency": "Department of Sanitation",
    "final_address": "927 N Gayoso St",
    "address_councildis": "A",
    "status": "Assigned to Contractor",
    "contractor": "Richards Disposal",
    "rowid": "1054211",
    "final_x": "3676277.69525",
    "final_y": "538481.668297",
    "longitude": "-90.08432087605551",
    "latitude": "29.974795442392953",
    "geocoded_column": {
      "latitude": "29.974795442392953",
      "longitude": "-90.08432087605551"
    }
  },
  {
    "service_request": "2023-1054210",
    "request_type": "Trash/Recycling",
    "request_reason": "Missed Trash Pick-Up",
    "date_created": "2023-12-06T13:47:39.000",
    "date_modified": "2023-12-06T13:47:40.000",
    "request_status": "Pending",
    "responsible_agency": "Department of Sanitation",
    "final_address": "1716 S Gayoso St",
    "address_councildis": "B",
    "status": "Assigned to Contractor",
    "contractor": "Richards Disposal",
    "rowid": "1054210",
    "final_x": "3670425.29198",
    "final_y": "530165.381697",
    "longitude": "-90.10308627892994",
    "latitude": "29.952102536642737",
    "geocoded_column": {
      "latitude": "29.952102536642737",
      "longitude": "-90.10308627892994"
    }
  },
  {
    "service_request": "2023-1054209",
    "request_type": "Traffic Signals/Signs/Striping/Streetlights",
    "request_reason": "Street Light Outage/Malfunction",
    "date_created": "2023-12-06T13:47:38.000",
    "date_modified": "2023-12-06T13:47:38.000",
    "request_status": "Pending",
    "responsible_agency": "Department of Public Works",
    "final_address": "6543 E Hermes St",
    "address_councildis": "D",
    "status": "Assigned to Contractor",
    "contractor": "Legacy Professional Services",
    "rowid": "1054209",
    "final_x": "3697971.39523",
    "final_y": "555639.908697",
    "longitude": "-90.01518374272342",
    "latitude": "30.021306207796147",
    "geocoded_column": {
      "latitude": "30.021306207796147",
      "longitude": "-90.01518374272342"
    }
  },
  {
    "service_request": "2023-1054208",
    "request_type": "Abandoned Vehicles",
    "request_reason": "Abandoned/Junk Vehicles",
    "date_created": "2023-12-06T13:41:57.000",
    "date_modified": "2023-12-06T13:41:57.000",
    "request_status": "Pending",
    "responsible_agency": "Department of Public Works",
    "final_address": "500 BLK Wagner St",
    "address_councildis": "C",
    "status": "Pending",
    "rowid": "1054208",
    "final_x": "3690584.22444",
    "final_y": "529578.734265",
    "longitude": "-90.03945492922662",
    "latitude": "29.949878927816638",
    "geocoded_column": {
      "latitude": "29.949878927816638",
      "longitude": "-90.03945492922662"
    }
  },
  {
    "service_request": "2023-1054207",
    "request_type": "Trash/Recycling",
    "request_reason": "Order Recycling Cart",
    "date_created": "2023-12-06T13:41:55.000",
    "date_modified": "2023-12-06T13:41:56.000",
    "request_status": "Pending",
    "responsible_agency": "Department of Sanitation",
    "final_address": "2232 Magnolia St",
    "address_councildis": "B",
    "status": "Pending",
    "rowid": "1054207",
    "final_x": "3675023.51336",
    "final_y": "526609.14451",
    "longitude": "-90.08868919870234",
    "latitude": "29.942187509301743",
    "geocoded_column": {
      "latitude": "29.942187509301743",
      "longitude": "-90.08868919870234"
    }
  },
  {
    "service_request": "2023-1054206",
    "request_type": "Trash/Recycling",
    "request_reason": "Order Trash Cart",
    "date_created": "2023-12-06T13:41:08.000",
    "date_modified": "2023-12-06T13:41:08.000",
    "request_status": "Pending",
    "responsible_agency": "Department of Sanitation",
    "final_address": "2232 Magnolia St",
    "address_councildis": "B",
    "status": "Assigned to Contractor",
    "contractor": "Richards Disposal",
    "rowid": "1054206",
    "final_x": "3675023.51336",
    "final_y": "526609.14451",
    "longitude": "-90.08868919870234",
    "latitude": "29.942187509301743",
    "geocoded_column": {
      "latitude": "29.942187509301743",
      "longitude": "-90.08868919870234"
    }
  },
  {
    "service_request": "2023-1054205",
    "request_type": "Roads/Drainage",
    "request_reason": "Pothole",
    "date_created": "2023-12-06T13:39:44.000",
    "date_modified": "2023-12-06T13:40:07.000",
    "case_close_date": "2023-12-06T07:40:07.000",
    "request_status": "Closed",
    "responsible_agency": "Department of Public Works",
    "final_address": "10821 Morrison Rd",
    "address_councildis": "E",
    "status": "Resolved",
    "rowid": "1054205",
    "final_x": "3710533.90494",
    "final_y": "564726.240226",
    "longitude": "-89.97514976965734",
    "latitude": "30.045886665438136",
    "geocoded_column": {
      "latitude": "30.045886665438136",
      "longitude": "-89.97514976965734"
    }
  },
  {
    "service_request": "2023-1054204",
    "request_type": "Trash/Recycling",
    "request_reason": "Missed Trash Pick-Up",
    "date_created": "2023-12-06T13:39:26.000",
    "date_modified": "2023-12-06T13:39:27.000",
    "request_status": "Pending",
    "responsible_agency": "Department of Sanitation",
    "final_address": "11330 King Richard Dr",
    "address_councildis": "E",
    "status": "Assigned to Contractor",
    "contractor": "Waste Pro",
    "rowid": "1054204",
    "final_x": "3717524.42328",
    "final_y": "556537.788314",
    "longitude": "-89.95336816021306",
    "latitude": "30.023142041289283",
    "geocoded_column": {
      "latitude": "30.023142041289283",
      "longitude": "-89.95336816021306"
    }
  },
  {
    "service_request": "2023-1054203",
    "request_type": "Trash/Recycling",
    "request_reason": "Missed Trash Pick-Up",
    "date_created": "2023-12-06T13:38:49.000",
    "date_modified": "2023-12-06T13:38:50.000",
    "request_status": "Pending",
    "responsible_agency": "Department of Sanitation",
    "final_address": "1716 S Gayoso St",
    "address_councildis": "B",
    "status": "Assigned to Contractor",
    "contractor": "Richards Disposal",
    "rowid": "1054203",
    "final_x": "3670425.29198",
    "final_y": "530165.381697",
    "longitude": "-90.10308627892994",
    "latitude": "29.952102536642737",
    "geocoded_column": {
      "latitude": "29.952102536642737",
      "longitude": "-90.10308627892994"
    }
  },
  {
    "service_request": "2023-1054202",
    "request_type": "Roads/Drainage",
    "request_reason": "Pothole",
    "date_created": "2023-12-06T13:36:40.000",
    "date_modified": "2023-12-06T13:37:22.000",
    "case_close_date": "2023-12-06T07:37:22.000",
    "request_status": "Closed",
    "responsible_agency": "Department of Public Works",
    "final_address": "10050 Morrison Rd",
    "address_councildis": "E",
    "status": "Resolved",
    "rowid": "1054202",
    "final_x": "3709332.94648",
    "final_y": "563686.685601",
    "longitude": "-89.9789841997004",
    "latitude": "30.043067393261303",
    "geocoded_column": {
      "latitude": "30.043067393261303",
      "longitude": "-89.9789841997004"
    }
  },
  {
    "service_request": "2023-1054201",
    "request_type": "Roads/Drainage",
    "request_reason": "Pothole",
    "date_created": "2023-12-06T13:35:04.000",
    "date_modified": "2023-12-06T13:35:33.000",
    "case_close_date": "2023-12-06T07:35:33.000",
    "request_status": "Closed",
    "responsible_agency": "Department of Public Works",
    "final_address": "8200 BLK Green St",
    "address_councildis": "A",
    "status": "Resolved",
    "rowid": "1054201",
    "final_x": "3662747.95826",
    "final_y": "530033.790442",
    "longitude": "-90.12733220157988",
    "latitude": "29.951965121681525",
    "geocoded_column": {
      "latitude": "29.951965121681525",
      "longitude": "-90.12733220157988"
    }
  },
  {
    "service_request": "2023-1054200",
    "request_type": "Trash/Recycling",
    "request_reason": "Request a Large Item Pick Up",
    "date_created": "2023-12-06T13:32:41.000",
    "date_modified": "2023-12-06T13:32:42.000",
    "request_status": "Pending",
    "responsible_agency": "Department of Sanitation",
    "final_address": "1226 Napoleon Ave",
    "address_councildis": "B",
    "status": "Assigned to Contractor",
    "contractor": "Richards Disposal",
    "rowid": "1054200",
    "final_x": "3670806.91867",
    "final_y": "520018.438328",
    "longitude": "-90.10222551244391",
    "latitude": "29.924190455578582",
    "geocoded_column": {
      "latitude": "29.924190455578582",
      "longitude": "-90.10222551244391"
    }
  },
  {
    "service_request": "2023-1054199",
    "request_type": "Trash/Recycling",
    "request_reason": "Missed Trash Pick-Up",
    "date_created": "2023-12-06T13:29:58.000",
    "date_modified": "2023-12-06T13:29:59.000",
    "request_status": "Pending",
    "responsible_agency": "Department of Sanitation",
    "final_address": "2302 Amelia St",
    "address_councildis": "B",
    "status": "Assigned to Contractor",
    "contractor": "Richards Disposal",
    "rowid": "1054199",
    "final_x": "3672497.11623",
    "final_y": "523638.869115",
    "longitude": "-90.0967668069131",
    "latitude": "29.93409543351859",
    "geocoded_column": {
      "latitude": "29.93409543351859",
      "longitude": "-90.0967668069131"
    }
  },
  {
    "service_request": "2023-1054197",
    "request_type": "Trash/Recycling",
    "request_reason": "Repair Recycling Cart",
    "date_created": "2023-12-06T13:26:16.000",
    "date_modified": "2023-12-06T13:26:17.000",
    "request_status": "Pending",
    "responsible_agency": "Department of Sanitation",
    "final_address": "2204 General Taylor St",
    "address_councildis": "B",
    "status": "Pending",
    "rowid": "1054197",
    "final_x": "3672085.75015",
    "final_y": "523208.613243",
    "longitude": "-90.09808012009199",
    "latitude": "29.932924569294983",
    "geocoded_column": {
      "latitude": "29.932924569294983",
      "longitude": "-90.09808012009199"
    }
  },
  {
    "service_request": "2023-1054196",
    "request_type": "Trash/Recycling",
    "request_reason": "Missed Trash Pick-Up",
    "date_created": "2023-12-06T13:24:40.000",
    "date_modified": "2023-12-06T13:24:41.000",
    "request_status": "Pending",
    "responsible_agency": "Department of Sanitation",
    "final_address": "12 Newcomb Blvd",
    "address_councildis": "A",
    "status": "Assigned to Contractor",
    "contractor": "Richards Disposal",
    "rowid": "1054196",
    "final_x": "3663620.42061",
    "final_y": "524946.431677",
    "longitude": "-90.12474679572009",
    "latitude": "29.937951237199634",
    "geocoded_column": {
      "latitude": "29.937951237199634",
      "longitude": "-90.12474679572009"
    }
  },
  {
    "service_request": "2023-1054195",
    "request_type": "Trash/Recycling",
    "request_reason": "Illegal Dumping",
    "date_created": "2023-12-06T13:22:07.000",
    "date_modified": "2023-12-06T13:22:39.000",
    "case_close_date": "2023-12-06T07:22:39.000",
    "request_status": "Closed",
    "responsible_agency": "Department of Sanitation",
    "final_address": "100 Crowder Blvd",
    "address_councildis": "E",
    "status": "Resolved",
    "rowid": "1054195",
    "final_x": "3706206.87671",
    "final_y": "556583.162842",
    "longitude": "-89.98912715368122",
    "latitude": "30.023636721952418",
    "geocoded_column": {
      "latitude": "30.023636721952418",
      "longitude": "-89.98912715368122"
    }
  },
  {
    "service_request": "2023-1054194",
    "request_type": "Trash/Recycling",
    "request_reason": "Missed Trash Pick-Up",
    "date_created": "2023-12-06T13:21:34.000",
    "date_modified": "2023-12-06T13:21:35.000",
    "request_status": "Pending",
    "responsible_agency": "Department of Sanitation",
    "final_address": "7901 Devine Ave",
    "address_councildis": "E",
    "status": "Assigned to Contractor",
    "contractor": "Waste Pro",
    "rowid": "1054194",
    "final_x": "3705310.89745",
    "final_y": "563839.626145",
    "longitude": "-89.99168977325742",
    "latitude": "30.04361802092966",
    "geocoded_column": {
      "latitude": "30.04361802092966",
      "longitude": "-89.99168977325742"
    }
  },
  {
    "service_request": "2023-1054193",
    "request_type": "Trash/Recycling",
    "request_reason": "Illegal Dumping",
    "date_created": "2023-12-06T13:20:24.000",
    "date_modified": "2023-12-06T13:20:24.000",
    "request_status": "Pending",
    "responsible_agency": "Department of Sanitation",
    "final_address": "644 S Rendon St",
    "address_councildis": "B",
    "status": "Pending",
    "rowid": "1054193",
    "final_x": "3672114.98695",
    "final_y": "534425.986629",
    "longitude": "-90.09760591733448",
    "latitude": "29.96376779299382",
    "geocoded_column": {
      "latitude": "29.96376779299382",
      "longitude": "-90.09760591733448"
    }
  },
  {
    "service_request": "2023-1054192",
    "request_type": "Trash/Recycling",
    "request_reason": "MIssed Recycling Pick-Up",
    "date_created": "2023-12-06T13:17:38.000",
    "date_modified": "2023-12-06T13:17:39.000",
    "request_status": "Pending",
    "responsible_agency": "Department of Sanitation",
    "final_address": "5931 Winchester Park Dr",
    "address_councildis": "E",
    "status": "Assigned to Contractor",
    "contractor": "Waste Pro",
    "rowid": "1054192",
    "final_x": "3714838.08927",
    "final_y": "562808.441376",
    "longitude": "-89.96161909729491",
    "latitude": "30.040472512360946",
    "geocoded_column": {
      "latitude": "30.040472512360946",
      "longitude": "-89.96161909729491"
    }
  },
  {
    "service_request": "2023-1054191",
    "request_type": "Trash/Recycling",
    "request_reason": "Repair Trash Cart",
    "date_created": "2023-12-06T13:16:42.000",
    "date_modified": "2023-12-06T13:16:43.000",
    "request_status": "Pending",
    "responsible_agency": "Department of Sanitation",
    "final_address": "1701 S Norman C Francis Prkwy",
    "address_councildis": "B",
    "status": "Assigned to Contractor",
    "contractor": "Richards Disposal",
    "rowid": "1054191",
    "final_x": "3669201.82145",
    "final_y": "530950.872194",
    "longitude": "-90.10692289236934",
    "latitude": "29.95429844059759",
    "geocoded_column": {
      "latitude": "29.95429844059759",
      "longitude": "-90.10692289236934"
    }
  },
  {
    "service_request": "2023-1054190",
    "request_type": "Property Maintenance",
    "request_reason": "Property Maintenance",
    "date_created": "2023-12-06T13:16:11.000",
    "date_modified": "2023-12-06T13:16:11.000",
    "request_status": "Pending",
    "responsible_agency": "Department of Code Enforcement",
    "final_address": "4455 America St",
    "address_councildis": "E",
    "status": "Pending",
    "rowid": "1054190",
    "final_x": "3699912.73034",
    "final_y": "553544.648791",
    "longitude": "-90.00912620972609",
    "latitude": "30.015483491031542",
    "geocoded_column": {
      "latitude": "30.015483491031542",
      "longitude": "-90.00912620972609"
    }
  },
  {
    "service_request": "2023-1054188",
    "request_type": "Traffic Signals/Signs/Striping/Streetlights",
    "request_reason": "Street Light Outage/Malfunction",
    "date_created": "2023-12-06T12:59:04.000",
    "date_modified": "2023-12-06T12:59:05.000",
    "request_status": "Pending",
    "responsible_agency": "Department of Public Works",
    "final_address": "GRAVIER ST & S SALCEDO ST",
    "address_councildis": "B",
    "status": "Assigned to Contractor",
    "contractor": "Legacy Professional Services",
    "rowid": "1054188",
    "final_x": "3672556.6",
    "final_y": "534076.88",
    "longitude": "-90.09622324654772",
    "latitude": "29.962794763789073",
    "geocoded_column": {
      "latitude": "29.962794763789073",
      "longitude": "-90.09622324654772"
    }
  },
  {
    "service_request": "2023-1054187",
    "request_type": "Traffic Signals/Signs/Striping/Streetlights",
    "request_reason": "Street Light Outage/Malfunction",
    "date_created": "2023-12-06T12:55:36.000",
    "date_modified": "2023-12-06T12:55:37.000",
    "request_status": "Pending",
    "responsible_agency": "Department of Public Works",
    "final_address": "TULANE AVE & S RENDON ST",
    "address_councildis": "B",
    "status": "Assigned to Contractor",
    "contractor": "Legacy Professional Services",
    "rowid": "1054187",
    "final_x": "3672294.8",
    "final_y": "534750.08",
    "longitude": "-90.09702704163774",
    "latitude": "29.964653607912133",
    "geocoded_column": {
      "latitude": "29.964653607912133",
      "longitude": "-90.09702704163774"
    }
  },
  {
    "service_request": "2023-1054186",
    "request_type": "Trash/Recycling",
    "request_reason": "Replace Trash Cart",
    "date_created": "2023-12-06T12:55:14.000",
    "date_modified": "2023-12-06T12:55:14.000",
    "request_status": "Pending",
    "responsible_agency": "Department of Sanitation",
    "final_address": "7118 Memphis St",
    "address_councildis": "A",
    "status": "Assigned to Contractor",
    "contractor": "IV Waste",
    "rowid": "1054186",
    "final_x": "3669747.3346",
    "final_y": "554419.101976",
    "longitude": "-90.10440560632307",
    "latitude": "30.018811984406756",
    "geocoded_column": {
      "latitude": "30.018811984406756",
      "longitude": "-90.10440560632307"
    }
  },
  {
    "service_request": "2023-1054185",
    "request_type": "Abandoned Vehicles",
    "request_reason": "Abandoned/Junk Vehicles",
    "date_created": "2023-12-06T12:54:56.000",
    "date_modified": "2023-12-06T12:54:57.000",
    "request_status": "Pending",
    "responsible_agency": "Department of Public Works",
    "final_address": "1011 N Dorgenois St",
    "address_councildis": "D",
    "status": "Pending",
    "rowid": "1054185",
    "final_x": "3677866.75861",
    "final_y": "537620.232648",
    "longitude": "-90.07933198798514",
    "latitude": "29.972379066261386",
    "geocoded_column": {
      "latitude": "29.972379066261386",
      "longitude": "-90.07933198798514"
    }
  },
  {
    "service_request": "2023-1054184",
    "request_type": "Trash/Recycling",
    "request_reason": "Order Trash Cart",
    "date_created": "2023-12-06T12:54:44.000",
    "date_modified": "2023-12-06T12:54:45.000",
    "request_status": "Pending",
    "responsible_agency": "Department of Sanitation",
    "final_address": "3700 S Liberty St",
    "address_councildis": "B",
    "status": "Assigned to Contractor",
    "contractor": "Richards Disposal",
    "rowid": "1054184",
    "final_x": "3672505.96673",
    "final_y": "523552.462267",
    "longitude": "-90.09674181003618",
    "latitude": "29.933857580015424",
    "geocoded_column": {
      "latitude": "29.933857580015424",
      "longitude": "-90.09674181003618"
    }
  },
  {
    "service_request": "2023-1054183",
    "request_type": "Trash/Recycling",
    "request_reason": "Missed Trash Pick-Up",
    "date_created": "2023-12-06T12:53:24.000",
    "date_modified": "2023-12-06T12:53:25.000",
    "request_status": "Pending",
    "responsible_agency": "Department of Sanitation",
    "final_address": "3700 S Liberty St",
    "address_councildis": "B",
    "status": "Assigned to Contractor",
    "contractor": "Richards Disposal",
    "rowid": "1054183",
    "final_x": "3672505.96673",
    "final_y": "523552.462267",
    "longitude": "-90.09674181003618",
    "latitude": "29.933857580015424",
    "geocoded_column": {
      "latitude": "29.933857580015424",
      "longitude": "-90.09674181003618"
    }
  },
  {
    "service_request": "2023-1054182",
    "request_type": "Traffic Signals/Signs/Striping/Streetlights",
    "request_reason": "Street Light Outage/Malfunction",
    "date_created": "2023-12-06T12:52:32.000",
    "date_modified": "2023-12-06T12:52:33.000",
    "request_status": "Pending",
    "responsible_agency": "Department of Public Works",
    "final_address": "TULANE AVE & S SALCEDO ST",
    "address_councildis": "B",
    "status": "Assigned to Contractor",
    "contractor": "Legacy Professional Services",
    "rowid": "1054182",
    "final_x": "3672855.0",
    "final_y": "534465.58",
    "longitude": "-90.095267673484",
    "latitude": "29.963854696677785",
    "geocoded_column": {
      "latitude": "29.963854696677785",
      "longitude": "-90.095267673484"
    }
  },
  {
    "service_request": "2023-1054181",
    "request_type": "Trash/Recycling",
    "request_reason": "Request a Large Item Pick Up",
    "date_created": "2023-12-06T12:51:11.000",
    "date_modified": "2023-12-06T12:51:11.000",
    "request_status": "Pending",
    "responsible_agency": "Department of Sanitation",
    "final_address": "7645 Alabama St",
    "address_councildis": "D",
    "status": "Assigned to Contractor",
    "contractor": "Waste Pro",
    "rowid": "1054181",
    "final_x": "3694924.49565",
    "final_y": "558691.51158",
    "longitude": "-90.02470093544538",
    "latitude": "30.029792982758337",
    "geocoded_column": {
      "latitude": "30.029792982758337",
      "longitude": "-90.02470093544538"
    }
  },
  {
    "service_request": "2023-1054180",
    "request_type": "Roads/Drainage",
    "request_reason": "Road Shoulder Repair",
    "date_created": "2023-12-06T12:45:27.000",
    "date_modified": "2023-12-06T12:45:27.000",
    "request_status": "Pending",
    "responsible_agency": "Department of Public Works",
    "final_address": "2925 Tulane Ave",
    "address_councildis": "B",
    "status": "Pending",
    "rowid": "1054180",
    "final_x": "3673322.32417",
    "final_y": "534316.548677",
    "longitude": "-90.09379699692013",
    "latitude": "29.96343101818244",
    "geocoded_column": {
      "latitude": "29.96343101818244",
      "longitude": "-90.09379699692013"
    }
  },
  {
    "service_request": "2023-1054179",
    "request_type": "Roads/Drainage",
    "request_reason": "Catch Basin - Clogged",
    "date_created": "2023-12-06T12:42:08.000",
    "date_modified": "2023-12-06T14:04:23.000",
    "request_status": "Pending",
    "responsible_agency": "Department of Public Works",
    "final_address": "2157 Robin St",
    "address_councildis": "D",
    "rowid": "1054179",
    "final_x": "3683477.85871",
    "final_y": "551868.282838",
    "longitude": "-90.06111157152644",
    "latitude": "30.011386099776928",
    "geocoded_column": {
      "latitude": "30.011386099776928",
      "longitude": "-90.06111157152644"
    }
  },
  {
    "service_request": "2023-1054178",
    "request_type": "Trash/Recycling",
    "request_reason": "Request a Large Item Pick Up",
    "date_created": "2023-12-06T12:41:54.000",
    "date_modified": "2023-12-06T12:41:55.000",
    "request_status": "Pending",
    "responsible_agency": "Department of Sanitation",
    "final_address": "323 S Norman C Francis Prkwy",
    "address_councildis": "B",
    "status": "Assigned to Contractor",
    "contractor": "Richards Disposal",
    "rowid": "1054178",
    "final_x": "3672491.69601",
    "final_y": "536023.353223",
    "longitude": "-90.09636184961919",
    "latitude": "29.968148838756452",
    "geocoded_column": {
      "latitude": "29.968148838756452",
      "longitude": "-90.09636184961919"
    }
  },
  {
    "service_request": "2023-1054177",
    "request_type": "Trash/Recycling",
    "request_reason": "Repair Trash Cart",
    "date_created": "2023-12-06T12:40:17.000",
    "date_modified": "2023-12-06T12:40:17.000",
    "request_status": "Pending",
    "responsible_agency": "Department of Sanitation",
    "final_address": "6025 Vermillion Blvd",
    "address_councildis": "D",
    "status": "Assigned to Contractor",
    "contractor": "IV Waste",
    "rowid": "1054177",
    "final_x": "3683199.08386",
    "final_y": "555097.239577",
    "longitude": "-90.06187913480409",
    "latitude": "30.020273059507605",
    "geocoded_column": {
      "latitude": "30.020273059507605",
      "longitude": "-90.06187913480409"
    }
  },
  {
    "service_request": "2023-1054176",
    "request_type": "Roads/Drainage",
    "request_reason": "Pothole",
    "date_created": "2023-12-06T12:36:03.000",
    "date_modified": "2023-12-06T12:36:03.000",
    "request_status": "Pending",
    "responsible_agency": "Department of Public Works",
    "final_address": "PACE BLVD & WALL BLVD",
    "address_councildis": "C",
    "status": "Pending",
    "rowid": "1054176",
    "final_x": "3694344.5",
    "final_y": "523730.88",
    "longitude": "-90.02779243447597",
    "latitude": "29.933682056272396",
    "geocoded_column": {
      "latitude": "29.933682056272396",
      "longitude": "-90.02779243447597"
    }
  },
  {
    "service_request": "2023-1054175",
    "request_type": "Abandoned Vehicles",
    "request_reason": "Abandoned/Junk Vehicles",
    "date_created": "2023-12-06T12:31:23.000",
    "date_modified": "2023-12-06T12:31:23.000",
    "request_status": "Pending",
    "responsible_agency": "Department of Public Works",
    "final_address": "TOULOUSE ST & N WHITE ST",
    "address_councildis": "A",
    "status": "Pending",
    "rowid": "1054175",
    "final_x": "3675989.4",
    "final_y": "536916.38",
    "longitude": "-90.08528523096996",
    "latitude": "29.970500071393094",
    "geocoded_column": {
      "latitude": "29.970500071393094",
      "longitude": "-90.08528523096996"
    }
  },
  {
    "service_request": "2023-1054174",
    "request_type": "Trash/Recycling",
    "request_reason": "Repair Trash Cart",
    "date_created": "2023-12-06T12:30:51.000",
    "date_modified": "2023-12-06T12:30:52.000",
    "request_status": "Pending",
    "responsible_agency": "Department of Sanitation",
    "final_address": "718 Diana St",
    "address_councildis": "C",
    "status": "Assigned to Contractor",
    "contractor": "Richards Disposal",
    "rowid": "1054174",
    "final_x": "3687585.9693",
    "final_y": "527621.944319",
    "longitude": "-90.04899103529307",
    "latitude": "29.944591175392482",
    "geocoded_column": {
      "latitude": "29.944591175392482",
      "longitude": "-90.04899103529307"
    }
  },
  {
    "service_request": "2023-1054173",
    "request_type": "Traffic Signals/Signs/Striping/Streetlights",
    "request_reason": "Traffic Signal Malfunctioning/Damaged",
    "date_created": "2023-12-06T12:25:53.000",
    "date_modified": "2023-12-06T12:25:55.000",
    "request_status": "Pending",
    "responsible_agency": "Department of Public Works",
    "final_address": "3335 S Claiborne Ave",
    "address_councildis": "B",
    "status": "Pending",
    "rowid": "1054173",
    "final_x": "3672272.36398",
    "final_y": "526310.853566",
    "longitude": "-90.09738535582001",
    "latitude": "29.94144919027096",
    "geocoded_column": {
      "latitude": "29.94144919027096",
      "longitude": "-90.09738535582001"
    }
  },
  {
    "service_request": "2023-1054172",
    "request_type": "Trash/Recycling",
    "request_reason": "Replace Trash Cart",
    "date_created": "2023-12-06T12:20:36.000",
    "date_modified": "2023-12-06T12:20:37.000",
    "request_status": "Pending",
    "responsible_agency": "Department of Sanitation",
    "final_address": "4819 Viola St",
    "address_councildis": "E",
    "status": "Assigned to Contractor",
    "contractor": "Waste Pro",
    "rowid": "1054172",
    "final_x": "3703980.07127",
    "final_y": "555714.803161",
    "longitude": "-89.99619537253862",
    "latitude": "30.0213207087184",
    "geocoded_column": {
      "latitude": "30.0213207087184",
      "longitude": "-89.99619537253862"
    }
  },
  {
    "service_request": "2023-1054171",
    "request_type": "Trash/Recycling",
    "request_reason": "Missed Trash Pick-Up",
    "date_created": "2023-12-06T12:18:18.000",
    "date_modified": "2023-12-06T12:18:19.000",
    "request_status": "Pending",
    "responsible_agency": "Department of Sanitation",
    "final_address": "4843 Schindler Dr",
    "address_councildis": "E",
    "status": "Assigned to Contractor",
    "contractor": "Waste Pro",
    "rowid": "1054171",
    "final_x": "3714356.13688",
    "final_y": "557176.342235",
    "longitude": "-89.96335501885451",
    "latitude": "30.02500234714515",
    "geocoded_column": {
      "latitude": "30.02500234714515",
      "longitude": "-89.96335501885451"
    }
  },
  {
    "service_request": "2023-1054170",
    "request_type": "Trash/Recycling",
    "request_reason": "Missed Trash Pick-Up",
    "date_created": "2023-12-06T12:15:31.000",
    "date_modified": "2023-12-06T12:15:32.000",
    "request_status": "Pending",
    "responsible_agency": "Department of Sanitation",
    "final_address": "2931 Broadway St",
    "address_councildis": "B",
    "status": "Assigned to Contractor",
    "contractor": "Richards Disposal",
    "rowid": "1054170",
    "final_x": "3667671.04237",
    "final_y": "531754.864643",
    "longitude": "-90.11172943459397",
    "latitude": "29.956554118565435",
    "geocoded_column": {
      "latitude": "29.956554118565435",
      "longitude": "-90.11172943459397"
    }
  },
  {
    "service_request": "2023-1054169",
    "request_type": "Roads/Drainage",
    "request_reason": "Debris in Roadway",
    "date_created": "2023-12-06T12:10:16.000",
    "date_modified": "2023-12-06T12:10:17.000",
    "request_status": "Pending",
    "responsible_agency": "Department of Public Works",
    "final_address": "PALMETTO EXIT & PALMETTO ST OVERPASS",
    "address_councildis": "A",
    "status": "Pending",
    "rowid": "1054169",
    "final_x": "3665965.5",
    "final_y": "537086.08",
    "longitude": "-90.11693629298719",
    "latitude": "29.971263090944944",
    "geocoded_column": {
      "latitude": "29.971263090944944",
      "longitude": "-90.11693629298719"
    }
  },
  {
    "service_request": "2023-1054168",
    "request_type": "Traffic Signals/Signs/Striping/Streetlights",
    "request_reason": "Traffic Sign Missing/Damaged",
    "date_created": "2023-12-06T12:09:31.000",
    "date_modified": "2023-12-06T12:09:32.000",
    "request_status": "Pending",
    "responsible_agency": "Department of Public Works",
    "final_address": "DHEMECOURT ST & S SCOTT ST",
    "address_councildis": "B",
    "status": "Pending",
    "rowid": "1054168",
    "final_x": "3670581.4",
    "final_y": "536246.08",
    "longitude": "-90.10238710076666",
    "latitude": "29.96881782867272",
    "geocoded_column": {
      "latitude": "29.96881782867272",
      "longitude": "-90.10238710076666"
    }
  },
  {
    "service_request": "2023-1054167",
    "request_type": "Trash/Recycling",
    "request_reason": "Replace Trash Cart",
    "date_created": "2023-12-06T12:07:24.000",
    "date_modified": "2023-12-06T12:07:25.000",
    "request_status": "Pending",
    "responsible_agency": "Department of Sanitation",
    "final_address": "1816 Benefit St",
    "address_councildis": "D",
    "status": "Assigned to Contractor",
    "contractor": "IV Waste",
    "rowid": "1054167",
    "final_x": "3681538.69314",
    "final_y": "544150.024974",
    "longitude": "-90.067507571057",
    "latitude": "29.990222707410656",
    "geocoded_column": {
      "latitude": "29.990222707410656",
      "longitude": "-90.067507571057"
    }
  },
  {
    "service_request": "2023-1054166",
    "request_type": "Trash/Recycling",
    "request_reason": "Illegal Dumping",
    "date_created": "2023-12-06T12:05:58.000",
    "date_modified": "2023-12-06T12:05:58.000",
    "request_status": "Pending",
    "responsible_agency": "Department of Sanitation",
    "final_address": "2900 Feliciana St",
    "address_councildis": "D",
    "status": "Pending",
    "rowid": "1054166",
    "final_x": "3690404.05264",
    "final_y": "543076.186701",
    "longitude": "-90.03954260877461",
    "latitude": "29.986997767941457",
    "geocoded_column": {
      "latitude": "29.986997767941457",
      "longitude": "-90.03954260877461"
    }
  },