[
  {
    "service_request": "2026-1249012",
    "request_type": "Trash/Recycling",
    "request_reason": "Replace Trash Cart",
    "date_created": "2026-01-02T23:45:59.000",
    "date_modified": "2026-01-02T23:46:01.000",
    "request_status": "Pending",
    "responsible_agency": "Department of Sanitation",
    "final_address": "725 Ursulines Ave",
    "address_councildis": "C",
    "status": "Assigned to Contractor",
    "contractor": "IV Waste",
    "rowid": "1249012",
    "final_x": "3683297.887",
    "final_y": "533771.517253",
    "longitude": "-90.06231438732512",
    "latitude": "29.9616318751545",
    "geocoded_column": {
      "latitude": "29.9616318751545",
      "longitude": "-90.06231438732512"
    }
  },
  {
    "service_request": "2026-1249011",
    "request_type": "Streetlights",
    "request_reason": "Streetlight Outage/Malfunction",
    "date_created": "2026-01-02T23:15:14.000",
    "date_modified": "2026-01-02T23:15:18.000",
    "request_status": "Pending",
    "responsible_agency": "Department of Public Works",
    "final_address": "76 Versailles Blvd",
    "address_councildis": "B",
    "status": "Pending",
    "rowid": "1249011",
    "final_x": "3667859.38644",
    "final_y": "530665.146434",
    "longitude": "-90.11117140524786",
    "latitude": "29.953552227979444",
    "geocoded_column": {
      "latitude": "29.953552227979444",
      "longitude": "-90.11117140524786"
    }
  },
  {
    "service_request": "2026-1249010",
    "request_type": "Safety & Permits",
    "request_reason": "Licenses & Permits",
    "date_created": "2026-01-02T22:56:09.000",
    "date_modified": "2026-01-02T22:56:11.000",
    "request_status": "Pending",
    "responsible_agency": "Safety and Permits",
    "final_address": "2001 Burgundy St",
    "address_councildis": "C",
    "status": "Pending",
    "rowid": "1249010",
    "final_x": "3684360.29167",
    "final_y": "535562.48807",
    "longitude": "-90.05889659189847",
    "latitude": "29.966523980755138",
    "geocoded_column": {
      "latitude": "29.966523980755138",
      "longitude": "-90.05889659189847"
    }
  },
  {
    "service_request": "2026-1249009",
    "request_type": "Trash/Recycling",
    "request_reason": "Request a Large Item Pick Up",
    "date_created": "2026-01-02T22:41:05.000",
    "date_modified": "2026-01-02T22:41:07.000",
    "request_status": "Pending",
    "responsible_agency": "Department of Sanitation",
    "final_address": "4715 Mark Twain Dr",
    "address_councildis": "D",
    "status": "Assigned to Contractor",
    "contractor": "IV Waste",
    "rowid": "1249009",
    "final_x": "3691475.63472",
    "final_y": "551308.107989",
    "longitude": "-90.03586345865129",
    "latitude": "30.00959923637887",
    "geocoded_column": {
      "latitude": "30.00959923637887",
      "longitude": "-90.03586345865129"
    }
  },
  {
    "service_request": "2026-1249008",
    "request_type": "Abandoned Vehicles",
    "request_reason": "Abandoned/Junk Vehicles",
    "date_created": "2026-01-02T21:32:31.000",
    "date_modified": "2026-01-02T21:32:33.000",
    "request_status": "Pending",
    "responsible_agency": "Department of Public Works",
    "final_address": "4018 Burgundy St",
    "address_councildis": "C",
    "status": "Pending",
    "rowid": "1249008",
    "final_x": "3691729.96208",
    "final_y": "534432.794373",
    "longitude": "-90.03566374671412",
    "latitude": "29.96319027936107",
    "geocoded_column": {
      "latitude": "29.96319027936107",
      "longitude": "-90.03566374671412"
    }
  },
  {
    "service_request": "2026-1249007",
    "request_type": "Trash/Recycling",
    "request_reason": "Order Second Trash Cart",
    "date_created": "2026-01-02T21:27:37.000",
    "date_modified": "2026-01-02T21:27:38.000",
    "request_status": "Pending",
    "responsible_agency": "Department of Sanitation",
    "final_address": "368 Audubon St",
    "address_councildis": "A",
    "status": "Assigned to Contractor",
    "contractor": "IV Waste",
    "rowid": "1249007",
    "final_x": "3661921.54759",
    "final_y": "522671.16473",
    "longitude": "-90.13018573429217",
    "latitude": "29.931744132834158",
    "geocoded_column": {
      "latitude": "29.931744132834158",
      "longitude": "-90.13018573429217"
    }
  },
  {
    "service_request": "2026-1249006",
    "request_type": "Trash/Recycling",
    "request_reason": "Request a Large Item Pick Up",
    "date_created": "2026-01-02T21:25:49.000",
    "date_modified": "2026-01-02T21:25:51.000",
    "request_status": "Pending",
    "responsible_agency": "Department of Sanitation",
    "final_address": "368 Audubon St",
    "address_councildis": "A",
    "status": "Assigned to Contractor",
    "contractor": "IV Waste",
    "rowid": "1249006",
    "final_x": "3661921.54759",
    "final_y": "522671.16473",
    "longitude": "-90.13018573429217",
    "latitude": "29.931744132834158",
    "geocoded_column": {
      "latitude": "29.931744132834158",
      "longitude": "-90.13018573429217"
    }
  },
  {
    "service_request": "2026-1249005",
    "request_type": "Trash/Recycling",
    "request_reason": "Request a Large Item Pick Up",
    "date_created": "2026-01-02T20:31:21.000",
    "date_modified": "2026-01-02T20:31:24.000",
    "request_status": "Pending",
    "responsible_agency": "Department of Sanitation",
    "final_address": "1715 France St",
    "address_councildis": "D",
    "status": "Assigned to Contractor",
    "contractor": "IV Waste",
    "rowid": "1249005",
    "final_x": "3693020.20886",
    "final_y": "537521.33044",
    "longitude": "-90.03147850327866",
    "latitude": "29.97164242045645",
    "geocoded_column": {
      "latitude": "29.97164242045645",
      "longitude": "-90.03147850327866"
    }
  },
  {
    "service_request": "2026-1249004",
    "request_type": "Christmas Tree Recycle Pick Up",
    "request_reason": "Christmas Tree Recycle Pick Up",
    "date_created": "2026-01-02T19:26:11.000",
    "date_modified": "2026-01-02T19:26:14.000",
    "request_status": "Pending",
    "responsible_agency": "Office of Resilience and Sustainability",
    "final_address": "1917 Chippewa St",
    "address_councildis": "B",
    "status": "Pending",
    "contractor": "Glass Half Full",
    "rowid": "1249004",
    "final_x": "3680680.81173",
    "final_y": "521619.386169",
    "longitude": "-90.07100143070154",
    "latitude": "29.92829714166467",
    "geocoded_column": {
      "latitude": "29.92829714166467",
      "longitude": "-90.07100143070154"
    }
  },
  {
    "service_request": "2026-1249003",
    "request_type": "Trash/Recycling",
    "request_reason": "Order Trash Cart",
    "date_created": "2026-01-02T19:04:02.000",
    "date_modified": "2026-01-02T19:04:03.000",
    "request_status": "Pending",
    "responsible_agency": "Department of Sanitation",
    "final_address": "4840 Treves St",
    "address_councildis": "E",
    "status": "Assigned to Contractor",
    "contractor": "Waste Pro",
    "rowid": "1249003",
    "final_x": "3729999.4192",
    "final_y": "562407.595295",
    "longitude": "-89.91372075465802",
    "latitude": "30.038862581614225",
    "geocoded_column": {
      "latitude": "30.038862581614225",
      "longitude": "-89.91372075465802"
    }
  },
  {
    "service_request": "2026-1249002",
    "request_type": "Trash/Recycling",
    "request_reason": "Request a Large Item Pick Up",
    "date_created": "2026-01-02T18:38:17.000",
    "date_modified": "2026-01-02T18:38:19.000",
    "request_status": "Pending",
    "responsible_agency": "Department of Sanitation",
    "final_address": "5714 Vicksburg St",
    "address_councildis": "A",
    "status": "Assigned to Contractor",
    "contractor": "IV Waste",
    "rowid": "1249002",
    "final_x": "3668664.2299",
    "final_y": "545525.046032",
    "longitude": "-90.10812832836237",
    "latitude": "29.994388333011024",
    "geocoded_column": {
      "latitude": "29.994388333011024",
      "longitude": "-90.10812832836237"
    }
  },
  {
    "service_request": "2026-1249001",
    "request_type": "Abandoned Vehicles",
    "request_reason": "Abandoned/Junk Vehicles",
    "date_created": "2026-01-02T18:27:25.000",
    "date_modified": "2026-01-02T18:27:27.000",
    "request_status": "Pending",
    "responsible_agency": "Department of Public Works",
    "final_address": "3128 Orleans Ave",
    "address_councildis": "A",
    "status": "Pending",
    "rowid": "1249001",
    "final_x": "3675072.64341",
    "final_y": "538220.165385",
    "longitude": "-90.08813571165757",
    "latitude": "29.974112461827957",
    "geocoded_column": {
      "latitude": "29.974112461827957",
      "longitude": "-90.08813571165757"
    }
  },
  {
    "service_request": "2026-1249000",
    "request_type": "Christmas Tree Recycle Pick Up",
    "request_reason": "Christmas Tree Recycle Pick Up",
    "date_created": "2026-01-02T18:25:34.000",
    "date_modified": "2026-01-02T18:25:35.000",
    "request_status": "Pending",
    "responsible_agency": "Office of Resilience and Sustainability",
    "final_address": "3721 N Rampart St",
    "address_councildis": "C",
    "status": "Pending",
    "contractor": "Glass Half Full",
    "rowid": "1249000",
    "final_x": "3691040.95587",
    "final_y": "535060.130566",
    "longitude": "-90.03781714178744",
    "latitude": "29.96493667167895",
    "geocoded_column": {
      "latitude": "29.96493667167895",
      "longitude": "-90.03781714178744"
    }
  },
  {
    "service_request": "2026-1248999",
    "request_type": "Roads and Streets",
    "request_reason": "Curb Damage",
    "date_created": "2026-01-02T18:24:56.000",
    "date_modified": "2026-01-02T18:24:59.000",
    "request_status": "Pending",
    "responsible_agency": "Department of Public Works",
    "final_address": "8713 Olive St",
    "address_councildis": "A",
    "status": "Pending",
    "rowid": "1248999",
    "final_x": "3665601.02112",
    "final_y": "535723.012423",
    "longitude": "-90.11813302595027",
    "latitude": "29.96752574090509",
    "geocoded_column": {
      "latitude": "29.96752574090509",
      "longitude": "-90.11813302595027"
    }
  },
  {
    "service_request": "2026-1248998",
    "request_type": "Trash/Recycling",
    "request_reason": "Damaged Caused By Contractor",
    "date_created": "2026-01-02T18:20:59.000",
    "date_modified": "2026-01-02T18:21:01.000",
    "request_status": "Pending",
    "responsible_agency": "Department of Sanitation",
    "final_address": "13061 River Rd",
    "address_councildis": "C",
    "status": "Assigned to Contractor",
    "contractor": "Richards Disposal",
    "rowid": "1248998",
    "final_x": "3731143.17677",
    "final_y": "509711.401902",
    "longitude": "-89.91217170394083",
    "latitude": "29.893929491895186",
    "geocoded_column": {
      "latitude": "29.893929491895186",
      "longitude": "-89.91217170394083"
    }
  },
  {
    "service_request": "2026-1248997",
    "request_type": "Christmas Tree Recycle Pick Up",
    "request_reason": "Christmas Tree Recycle Pick Up",
    "date_created": "2026-01-02T18:18:45.000",
    "date_modified": "2026-01-02T18:18:48.000",
    "request_status": "Pending",
    "responsible_agency": "Office of Resilience and Sustainability",
    "final_address": "5835 Marigny St",
    "address_councildis": "D",
    "status": "Pending",
    "contractor": "Glass Half Full",
    "rowid": "1248997",
    "final_x": "3684017.21909",
    "final_y": "554573.181016",
    "longitude": "-90.0593124951405",
    "latitude": "30.018807103813273",
    "geocoded_column": {
      "latitude": "30.018807103813273",
      "longitude": "-90.0593124951405"
    }
  },
  {
    "service_request": "2026-1248996",
    "request_type": "Trash/Recycling",
    "request_reason": "Request a Large Item Pick Up",
    "date_created": "2026-01-02T18:08:21.000",
    "date_modified": "2026-01-02T18:08:23.000",
    "request_status": "Pending",
    "responsible_agency": "Department of Sanitation",
    "final_address": "8930 Dinkins St",
    "address_councildis": "E",
    "status": "Assigned to Contractor",
    "contractor": "Waste Pro",
    "rowid": "1248996",
    "final_x": "3704925.58987",
    "final_y": "563475.300384",
    "longitude": "-89.9929209707852",
    "latitude": "30.042628668662182",
    "geocoded_column": {
      "latitude": "30.042628668662182",
      "longitude": "-89.9929209707852"
    }
  },
  {
    "service_request": "2026-1248995",
    "request_type": "Trash/Recycling",
    "request_reason": "Damaged Caused By Contractor",
    "date_created": "2026-01-02T18:05:33.000",
    "date_modified": "2026-01-02T18:05:35.000",
    "request_status": "Pending",
    "responsible_agency": "Department of Sanitation",
    "final_address": "4020 Lennox Blvd",
    "address_councildis": "C",
    "status": "Assigned to Contractor",
    "contractor": "Richards Disposal",
    "rowid": "1248995",
    "final_x": "3700927.57981",
    "final_y": "515729.61202",
    "longitude": "-90.00730243884323",
    "latitude": "29.91147343540129",
    "geocoded_column": {
      "latitude": "29.91147343540129",
      "longitude": "-90.00730243884323"
    }
  },
  {
    "service_request": "2026-1248994",
    "request_type": "Trash/Recycling",
    "request_reason": "Damaged Caused By Contractor",
    "date_created": "2026-01-02T18:04:06.000",
    "date_modified": "2026-01-02T18:04:07.000",
    "request_status": "Pending",
    "responsible_agency": "Department of Sanitation",
    "final_address": "13061 River Rd",
    "address_councildis": "C",
    "status": "Assigned to Contractor",
    "contractor": "Richards Disposal",
    "rowid": "1248994",
    "final_x": "3731143.17677",
    "final_y": "509711.401902",
    "longitude": "-89.91217170394083",
    "latitude": "29.893929491895186",
    "geocoded_column": {
      "latitude": "29.893929491895186",
      "longitude": "-89.91217170394083"
    }
  },
  {
    "service_request": "2026-1248993",
    "request_type": "Streetlights",
    "request_reason": "Streetlight Outage/Malfunction",
    "date_created": "2026-01-02T17:56:11.000",
    "date_modified": "2026-01-02T17:56:13.000",
    "request_status": "Pending",
    "responsible_agency": "Department of Public Works",
    "final_address": "5371 Paris Ave",
    "address_councildis": "D",
    "status": "Pending",
    "rowid": "1248993",
    "final_x": "3679273.9437",
    "final_y": "552113.760086",
    "longitude": "-90.07438493838745",
    "latitude": "30.012188745729876",
    "geocoded_column": {
      "latitude": "30.012188745729876",
      "longitude": "-90.07438493838745"
    }
  },
  {
    "service_request": "2026-1248992",
    "request_type": "Roads and Streets",
    "request_reason": "Pothole",
    "date_created": "2026-01-02T17:54:42.000",
    "date_modified": "2026-01-02T17:54:45.000",
    "request_status": "Pending",
    "responsible_agency": "Department of Public Works",
    "final_address": "606 N Murat St",
    "address_councildis": "A",
    "status": "Pending",
    "rowid": "1248992",
    "final_x": "3670853.22695",
    "final_y": "540858.173835",
    "longitude": "-90.10137205232972",
    "latitude": "29.98149149562464",
    "geocoded_column": {
      "latitude": "29.98149149562464",
      "longitude": "-90.10137205232972"
    }
  },
  {
    "service_request": "2026-1248991",
    "request_type": "Trash/Recycling",
    "request_reason": "Missed Trash Pick-Up",
    "date_created": "2026-01-02T17:39:28.000",
    "date_modified": "2026-01-02T17:39:30.000",
    "request_status": "Pending",
    "responsible_agency": "Department of Sanitation",
    "final_address": "6007 Erin Dr",
    "address_councildis": "E",
    "status": "Assigned to Contractor",
    "contractor": "Waste Pro",
    "rowid": "1248991",
    "final_x": "3695324.42832",
    "final_y": "558444.212892",
    "longitude": "-90.02344609090146",
    "latitude": "30.029100440670412",
    "geocoded_column": {
      "latitude": "30.029100440670412",
      "longitude": "-90.02344609090146"
    }
  },
  {
    "service_request": "2026-1248990",
    "request_type": "Trash/Recycling",
    "request_reason": "Request a Large Item Pick Up",
    "date_created": "2026-01-02T17:33:06.000",
    "date_modified": "2026-01-02T17:33:08.000",
    "request_status": "Pending",
    "responsible_agency": "Department of Sanitation",
    "final_address": "4725 Iberville St",
    "address_councildis": "A",
    "status": "Assigned to Contractor",
    "contractor": "IV Waste",
    "rowid": "1248990",
    "final_x": "3669224.21313",
    "final_y": "540364.776011",
    "longitude": "-90.10653393187334",
    "latitude": "29.9801828771086",
    "geocoded_column": {
      "latitude": "29.9801828771086",
      "longitude": "-90.10653393187334"
    }
  },
  {
    "service_request": "2026-1248989",
    "request_type": "Trash/Recycling",
    "request_reason": "Replace Trash Cart",
    "date_created": "2026-01-02T17:31:57.000",
    "date_modified": "2026-01-02T17:31:59.000",
    "request_status": "Pending",
    "responsible_agency": "Department of Sanitation",
    "final_address": "4565 Feliciana Dr",
    "address_councildis": "D",
    "status": "Assigned to Contractor",
    "contractor": "IV Waste",
    "rowid": "1248989",
    "final_x": "3690287.74505",
    "final_y": "550554.383252",
    "longitude": "-90.03964329376296",
    "latitude": "30.007563702201463",
    "geocoded_column": {
      "latitude": "30.007563702201463",
      "longitude": "-90.03964329376296"
    }
  },
  {
    "service_request": "2026-1248988",
    "request_type": "Abandoned Vehicles",
    "request_reason": "Abandoned/Junk Vehicles",
    "date_created": "2026-01-02T17:23:19.000",
    "date_modified": "2026-01-02T17:23:21.000",
    "request_status": "Pending",
    "responsible_agency": "Department of Public Works",
    "final_address": "7905 Cohn St",
    "address_councildis": "A",
    "status": "Pending",
    "rowid": "1248988",
    "final_x": "3664166.91149",
    "final_y": "529729.026689",
    "longitude": "-90.12286196254351",
    "latitude": "29.951085978618316",
    "geocoded_column": {
      "latitude": "29.951085978618316",
      "longitude": "-90.12286196254351"
    }
  },
  {
    "service_request": "2026-1248987",
    "request_type": "Roads and Streets",
    "request_reason": "Pothole",
    "date_created": "2026-01-02T17:19:57.000",
    "date_modified": "2026-01-02T17:19:59.000",
    "request_status": "Pending",
    "responsible_agency": "Department of Public Works",
    "final_address": "2439 Nashville Ave",
    "address_councildis": "A",
    "status": "Pending",
    "rowid": "1248987",
    "final_x": "3667243.03393",
    "final_y": "525118.766461",
    "longitude": "-90.11330406420005",
    "latitude": "29.93831954079217",
    "geocoded_column": {
      "latitude": "29.93831954079217",
      "longitude": "-90.11330406420005"
    }
  },
  {
    "service_request": "2026-1248986",
    "request_type": "Trash/Recycling",
    "request_reason": "Repair Trash Cart",
    "date_created": "2026-01-02T17:05:57.000",
    "date_modified": "2026-01-02T17:05:58.000",
    "request_status": "Pending",
    "responsible_agency": "Department of Sanitation",
    "final_address": "5933 Camp St",
    "address_councildis": "A",
    "status": "Assigned to Contractor",
    "contractor": "IV Waste",
    "rowid": "1248986",
    "final_x": "3665037.81581",
    "final_y": "519507.049463",
    "longitude": "-90.12045371311692",
    "latitude": "29.922953472345682",
    "geocoded_column": {
      "latitude": "29.922953472345682",
      "longitude": "-90.12045371311692"
    }
  },
  {
    "service_request": "2026-1248985",
    "request_type": "Property Maintenance",
    "request_reason": "Property Maintenance",
    "date_created": "2026-01-02T17:05:13.000",
    "date_modified": "2026-01-02T17:05:14.000",
    "request_status": "Pending",
    "responsible_agency": "Department of Code Enforcement",
    "final_address": "3416 S Liberty St",
    "address_councildis": "B",
    "status": "Pending",
    "rowid": "1248985",
    "final_x": "3673042.92123",
    "final_y": "523724.144187",
    "longitude": "-90.0950408082643",
    "latitude": "29.934313704892734",
    "geocoded_column": {
      "latitude": "29.934313704892734",
      "longitude": "-90.0950408082643"
    }
  },
  {
    "service_request": "2026-1248984",
    "request_type": "Trash/Recycling",
    "request_reason": "Start Trash Service",
    "date_created": "2026-01-02T16:55:08.000",
    "date_modified": "2026-01-02T16:55:09.000",
    "request_status": "Pending",
    "responsible_agency": "Department of Sanitation",
    "final_address": "6303 Laurel St",
    "address_councildis": "A",
    "status": "Assigned to Contractor",
    "contractor": "IV Waste",
    "rowid": "1248984",
    "final_x": "3662997.79546",
    "final_y": "518825.328375",
    "longitude": "-90.12691595081542",
    "latitude": "29.921138170049456",
    "geocoded_column": {
      "latitude": "29.921138170049456",
      "longitude": "-90.12691595081542"
    }
  },
  {
    "service_request": "2026-1248983",
    "request_type": "Trash/Recycling",
    "request_reason": "Order Trash Cart",
    "date_created": "2026-01-02T16:54:28.000",
    "date_modified": "2026-01-02T16:54:31.000",
    "request_status": "Pending",
    "responsible_agency": "Department of Sanitation",
    "final_address": "6303 Laurel St",
    "address_councildis": "A",
    "status": "Assigned to Contractor",
    "contractor": "IV Waste",
    "rowid": "1248983",
    "final_x": "3662997.79546",
    "final_y": "518825.328375",
    "longitude": "-90.12691595081542",
    "latitude": "29.921138170049456",
    "geocoded_column": {
      "latitude": "29.921138170049456",
      "longitude": "-90.12691595081542"
    }
  },
  {
    "service_request": "2026-1248982",
    "request_type": "Trash/Recycling",
    "request_reason": "Request a Large Item Pick Up",
    "date_created": "2026-01-02T16:51:49.000",
    "date_modified": "2026-01-02T16:51:50.000",
    "request_status": "Pending",
    "responsible_agency": "Department of Sanitation",
    "final_address": "4911 Hickerson Dr",
    "address_councildis": "E",
    "status": "Assigned to Contractor",
    "contractor": "Waste Pro",
    "rowid": "1248982",
    "final_x": "3710268.42443",
    "final_y": "556784.790746",
    "longitude": "-89.9762860657091",
    "latitude": "30.02405948343988",
    "geocoded_column": {
      "latitude": "30.02405948343988",
      "longitude": "-89.9762860657091"
    }
  },
  {
    "service_request": "2026-1248981",
    "request_type": "Trash/Recycling",
    "request_reason": "Request a Large Item Pick Up",
    "date_created": "2026-01-02T16:51:34.000",
    "date_modified": "2026-01-02T16:51:35.000",
    "request_status": "Pending",
    "responsible_agency": "Department of Sanitation",
    "final_address": "2507 Valmont St",
    "address_councildis": "B",
    "status": "Assigned to Contractor",
    "contractor": "IV Waste",
    "rowid": "1248981",
    "final_x": "3668339.11738",
    "final_y": "524714.417148",
    "longitude": "-90.10985724237125",
    "latitude": "29.937175574631738",
    "geocoded_column": {
      "latitude": "29.937175574631738",
      "longitude": "-90.10985724237125"
    }
  },
  {
    "service_request": "2026-1248980",
    "request_type": "Christmas Tree Recycle Pick Up",
    "request_reason": "Christmas Tree Recycle Pick Up",
    "date_created": "2026-01-02T16:42:31.000",
    "date_modified": "2026-01-02T16:42:33.000",
    "request_status": "Pending",
    "responsible_agency": "Office of Resilience and Sustainability",
    "final_address": "4507 Touro St",
    "address_councildis": "D",
    "status": "Pending",
    "contractor": "Glass Half Full",
    "rowid": "1248980",
    "final_x": "3683233.56156",
    "final_y": "549217.888211",
    "longitude": "-90.0619763146818",
    "latitude": "30.004105929151763",
    "geocoded_column": {
      "latitude": "30.004105929151763",
      "longitude": "-90.0619763146818"
    }
  },
  {
    "service_request": "2026-1248979",
    "request_type": "Christmas Tree Recycle Pick Up",
    "request_reason": "Christmas Tree Recycle Pick Up",
    "date_created": "2026-01-02T16:41:51.000",
    "date_modified": "2026-01-02T16:41:52.000",
    "request_status": "Pending",
    "responsible_agency": "Office of Resilience and Sustainability",
    "final_address": "0 BLK Mariners Cv N",
    "address_councildis": "A",
    "status": "Pending",
    "contractor": "Glass Half Full",
    "rowid": "1248979",
    "final_x": "3664718.06554",
    "final_y": "555260.226537",
    "longitude": "-90.12026824174535",
    "latitude": "30.02127213638326",
    "geocoded_column": {
      "latitude": "30.02127213638326",
      "longitude": "-90.12026824174535"
    }
  },
  {
    "service_request": "2026-1248978",
    "request_type": "Christmas Tree Recycle Pick Up",
    "request_reason": "Christmas Tree Recycle Pick Up",
    "date_created": "2026-01-02T16:39:36.000",
    "date_modified": "2026-01-02T16:39:37.000",
    "request_status": "Pending",
    "responsible_agency": "Office of Resilience and Sustainability",
    "final_address": "1120 N Dupre St",
    "address_councildis": "A",
    "status": "Pending",
    "contractor": "Glass Half Full",
    "rowid": "1248978",
    "final_x": "3677036.37883",
    "final_y": "539013.440522",
    "longitude": "-90.08190641925815",
    "latitude": "29.976234872154976",
    "geocoded_column": {
      "latitude": "29.976234872154976",
      "longitude": "-90.08190641925815"
    }
  },
  {
    "service_request": "2026-1248977",
    "request_type": "Christmas Tree Recycle Pick Up",
    "request_reason": "Christmas Tree Recycle Pick Up",
    "date_created": "2026-01-02T16:34:07.000",
    "date_modified": "2026-01-02T16:34:09.000",
    "request_status": "Pending",
    "responsible_agency": "Office of Resilience and Sustainability",
    "final_address": "2833 General Pershing St",
    "address_councildis": "B",
    "status": "Pending",
    "contractor": "Glass Half Full",
    "rowid": "1248977",
    "final_x": "3670854.9579",
    "final_y": "525382.958845",
    "longitude": "-90.10189187915933",
    "latitude": "29.938939743678883",
    "geocoded_column": {
      "latitude": "29.938939743678883",
      "longitude": "-90.10189187915933"
    }
  },
  {
    "service_request": "2026-1248976",
    "request_type": "Trash/Recycling",
    "request_reason": "Damaged Caused By Contractor",
    "date_created": "2026-01-02T16:27:40.000",
    "date_modified": "2026-01-02T16:27:41.000",
    "request_status": "Pending",
    "responsible_agency": "Department of Sanitation",
    "final_address": "2719 Soniat St",
    "address_councildis": "B",
    "status": "Assigned to Contractor",
    "contractor": "IV Waste",
    "rowid": "1248976",
    "final_x": "3668602.26215",
    "final_y": "525503.189501",
    "longitude": "-90.1089998679289",
    "latitude": "29.93933671614414",
    "geocoded_column": {
      "latitude": "29.93933671614414",
      "longitude": "-90.1089998679289"
    }
  },
  {
    "service_request": "2026-1248975",
    "request_type": "Trash/Recycling",
    "request_reason": "MIssed Recycling Pick-Up",
    "date_created": "2026-01-02T16:27:22.000",
    "date_modified": "2026-01-02T16:27:24.000",
    "request_status": "Pending",
    "responsible_agency": "Department of Sanitation",
    "final_address": "3305 Kabel Dr",
    "address_councildis": "C",
    "status": "Assigned to Contractor",
    "contractor": "Richards Disposal",
    "rowid": "1248975",
    "final_x": "3700508.46775",
    "final_y": "519078.320759",
    "longitude": "-90.0085030480407",
    "latitude": "29.92069457264763",
    "geocoded_column": {
      "latitude": "29.92069457264763",
      "longitude": "-90.0085030480407"
    }
  },
  {
    "service_request": "2026-1248974",
    "request_type": "Trash/Recycling",
    "request_reason": "Request a Large Item Pick Up",
    "date_created": "2026-01-02T16:23:34.000",
    "date_modified": "2026-01-02T16:23:35.000",
    "request_status": "Pending",
    "responsible_agency": "Department of Sanitation",
    "final_address": "5601 Rickert Dr",
    "address_councildis": "E",
    "status": "Assigned to Contractor",
    "contractor": "Waste Pro",
    "rowid": "1248974",
    "final_x": "3703169.28938",
    "final_y": "556457.743578",
    "longitude": "-89.99872985842595",
    "latitude": "30.02338949911495",
    "geocoded_column": {
      "latitude": "30.02338949911495",
      "longitude": "-89.99872985842595"
    }
  },
  {
    "service_request": "2026-1248973",
    "request_type": "Trash/Recycling",
    "request_reason": "Order Trash Cart",
    "date_created": "2026-01-02T16:23:10.000",
    "date_modified": "2026-01-02T16:23:12.000",
    "request_status": "Pending",
    "responsible_agency": "Department of Sanitation",
    "final_address": "2322 Audubon St",
    "address_councildis": "A",
    "status": "Assigned to Contractor",
    "contractor": "IV Waste",
    "rowid": "1248973",
    "final_x": "3666689.2082",
    "final_y": "529778.084801",
    "longitude": "-90.11489613288197",
    "latitude": "29.951147364709676",
    "geocoded_column": {
      "latitude": "29.951147364709676",
      "longitude": "-90.11489613288197"
    }
  },
  {
    "service_request": "2026-1248972",
    "request_type": "Christmas Tree Recycle Pick Up",
    "request_reason": "Christmas Tree Recycle Pick Up",
    "date_created": "2026-01-02T16:21:04.000",
    "date_modified": "2026-01-02T16:21:06.000",
    "request_status": "Pending",
    "responsible_agency": "Office of Resilience and Sustainability",
    "final_address": "1019 First St",
    "address_councildis": "B",
    "status": "Pending",
    "contractor": "Glass Half Full",
    "rowid": "1248972",
    "final_x": "3678215.57557",
    "final_y": "521345.824121",
    "longitude": "-90.07879309510294",
    "latitude": "29.927619382415706",
    "geocoded_column": {
      "latitude": "29.927619382415706",
      "longitude": "-90.07879309510294"
    }
  },
  {
    "service_request": "2026-1248971",
    "request_type": "Trash/Recycling",
    "request_reason": "Request a Large Item Pick Up",
    "date_created": "2026-01-02T16:20:41.000",
    "date_modified": "2026-01-02T16:20:42.000",
    "request_status": "Pending",
    "responsible_agency": "Department of Sanitation",
    "final_address": "1302 Jourdan Ave A",
    "address_councildis": "E",
    "status": "Assigned to Contractor",
    "contractor": "Waste Pro",
    "rowid": "1248971",
    "final_x": "3695172.18845",
    "final_y": "535279.148294",
    "longitude": "-90.02476312833126",
    "latitude": "29.965409813140084",
    "geocoded_column": {
      "latitude": "29.965409813140084",
      "longitude": "-90.02476312833126"
    }
  },
  {
    "service_request": "2026-1248970",
    "request_type": "Trash/Recycling",
    "request_reason": "Repair Trash Cart",
    "date_created": "2026-01-02T16:17:22.000",
    "date_modified": "2026-01-02T16:17:24.000",
    "request_status": "Pending",
    "responsible_agency": "Department of Sanitation",
    "final_address": "2580 Valentine Ct",
    "address_councildis": "C",
    "status": "Assigned to Contractor",
    "contractor": "Richards Disposal",
    "rowid": "1248970",
    "final_x": "3699151.46052",
    "final_y": "521639.858169",
    "longitude": "-90.01269327753509",
    "latitude": "29.92778099502865",
    "geocoded_column": {
      "latitude": "29.92778099502865",
      "longitude": "-90.01269327753509"
    }
  },
  {
    "service_request": "2026-1248969",
    "request_type": "Abandoned Vehicles",
    "request_reason": "Abandoned/Junk Vehicles",
    "date_created": "2026-01-02T16:11:11.000",
    "date_modified": "2026-01-02T16:11:13.000",
    "request_status": "Pending",
    "responsible_agency": "Department of Public Works",
    "final_address": "4307 St Ann St",
    "address_councildis": "A",
    "status": "Pending",
    "rowid": "1248969",
    "final_x": "3671827.82055",
    "final_y": "541117.115404",
    "longitude": "-90.0982850127214",
    "latitude": "29.982174648444087",
    "geocoded_column": {
      "latitude": "29.982174648444087",
      "longitude": "-90.0982850127214"
    }
  },
  {
    "service_request": "2026-1248968",
    "request_type": "Trash/Recycling",
    "request_reason": "Request a Large Item Pick Up",
    "date_created": "2026-01-02T16:06:58.000",
    "date_modified": "2026-01-02T16:07:00.000",
    "request_status": "Pending",
    "responsible_agency": "Department of Sanitation",
    "final_address": "7 Marywood Ct",
    "address_councildis": "E",
    "status": "Assigned to Contractor",
    "contractor": "Waste Pro",
    "rowid": "1248968",
    "final_x": "3712796.4828",
    "final_y": "566436.933283",
    "longitude": "-89.96793453627065",
    "latitude": "30.050516442446803",
    "geocoded_column": {
      "latitude": "30.050516442446803",
      "longitude": "-89.96793453627065"
    }
  },
  {
    "service_request": "2026-1248967",
    "request_type": "Trash/Recycling",
    "request_reason": "Order Recycling Cart",
    "date_created": "2026-01-02T16:04:23.000",
    "date_modified": "2026-01-02T16:04:30.000",
    "request_status": "Pending",
    "responsible_agency": "Department of Sanitation",
    "final_address": "4204 Prytania St",
    "address_councildis": "B",
    "status": "Pending",
    "rowid": "1248967",
    "final_x": "3671589.71406",
    "final_y": "520355.204408",
    "longitude": "-90.09974305135981",
    "latitude": "29.92509330543562",
    "geocoded_column": {
      "latitude": "29.92509330543562",
      "longitude": "-90.09974305135981"
    }
  },
  {
    "service_request": "2026-1248966",
    "request_type": "Trash/Recycling",
    "request_reason": "Request a Large Item Pick Up",
    "date_created": "2026-01-02T15:49:17.000",
    "date_modified": "2026-01-02T15:49:18.000",
    "request_status": "Pending",
    "responsible_agency": "Department of Sanitation",
    "final_address": "631 Napoleon Ave",
    "address_councildis": "B",
    "status": "Assigned to Contractor",
    "contractor": "IV Waste",
    "rowid": "1248966",
    "final_x": "3671226.03675",
    "final_y": "518009.904118",
    "longitude": "-90.10097069026388",
    "latitude": "29.91865523664539",
    "geocoded_column": {
      "latitude": "29.91865523664539",
      "longitude": "-90.10097069026388"
    }
  },
  {
    "service_request": "2026-1248965",
    "request_type": "Trash/Recycling",
    "request_reason": "Repair Trash Cart",
    "date_created": "2026-01-02T15:43:27.000",
    "date_modified": "2026-01-02T15:43:28.000",
    "request_status": "Pending",
    "responsible_agency": "Department of Sanitation",
    "final_address": "2163 N Tonti St",
    "address_councildis": "D",
    "status": "Assigned to Contractor",
    "contractor": "IV Waste",
    "rowid": "1248965",
    "final_x": "3684069.2806",
    "final_y": "540709.731467",
    "longitude": "-90.05963491298226",
    "latitude": "29.980686003809446",
    "geocoded_column": {
      "latitude": "29.980686003809446",
      "longitude": "-90.05963491298226"
    }
  },
  {
    "service_request": "2026-1248964",
    "request_type": "Trash/Recycling",
    "request_reason": "Request a Large Item Pick Up",
    "date_created": "2026-01-02T15:42:45.000",
    "date_modified": "2026-01-02T15:42:46.000",
    "request_status": "Pending",
    "responsible_agency": "Department of Sanitation",
    "final_address": "CARNOT ST & DEMONTLUZIN ST",
    "address_councildis": "D",
    "status": "Assigned to Contractor",
    "contractor": "IV Waste",
    "rowid": "1248964",
    "final_x": "3687162.8",
    "final_y": "550325.08",
    "longitude": "-90.04952398857621",
    "latitude": "30.007029843469425",
    "geocoded_column": {
      "latitude": "30.007029843469425",
      "longitude": "-90.04952398857621"
    }
  },
  {
    "service_request": "2026-1248963",
    "request_type": "Christmas Tree Recycle Pick Up",
    "request_reason": "Christmas Tree Recycle Pick Up",
    "date_created": "2026-01-02T15:41:24.000",
    "date_modified": "2026-01-02T15:41:25.000",
    "request_status": "Pending",
    "responsible_agency": "Office of Resilience and Sustainability",
    "final_address": "1140 Royal St",
    "address_councildis": "C",
    "status": "Pending",
    "contractor": "Glass Half Full",
    "rowid": "1248963",
    "final_x": "3683661.86037",
    "final_y": "533868.744389",
    "longitude": "-90.0611616126023",
    "latitude": "29.961888110015543",
    "geocoded_column": {
      "latitude": "29.961888110015543",
      "longitude": "-90.0611616126023"
    }
  },
  {
    "service_request": "2026-1248962",
    "request_type": "Trash/Recycling",
    "request_reason": "Request a Large Item Pick Up",
    "date_created": "2026-01-02T15:38:04.000",
    "date_modified": "2026-01-02T15:38:06.000",
    "request_status": "Pending",
    "responsible_agency": "Department of Sanitation",
    "final_address": "2417 Bienville Ave",
    "address_councildis": "B",
    "status": "Assigned to Contractor",
    "contractor": "IV Waste",
    "rowid": "1248962",
    "final_x": "3676801.30427",
    "final_y": "535065.652742",
    "longitude": "-90.08278493140608",
    "latitude": "29.96538685979261",
    "geocoded_column": {
      "latitude": "29.96538685979261",
      "longitude": "-90.08278493140608"
    }
  },
  {
    "service_request": "2026-1248961",
    "request_type": "Trash/Recycling",
    "request_reason": "Request a Large Item Pick Up",
    "date_created": "2026-01-02T15:29:55.000",
    "date_modified": "2026-01-02T15:29:56.000",
    "request_status": "Pending",
    "responsible_agency": "Department of Sanitation",
    "final_address": "7718 Dorsett Dr",
    "address_councildis": "E",
    "status": "Assigned to Contractor",
    "contractor": "Waste Pro",
    "rowid": "1248961",
    "final_x": "3712583.67429",
    "final_y": "567690.925924",
    "longitude": "-89.96855993527676",
    "latitude": "30.053971382520466",
    "geocoded_column": {
      "latitude": "30.053971382520466",
      "longitude": "-89.96855993527676"
    }
  },
  {
    "service_request": "2026-1248960",
    "request_type": "Roads and Streets",
    "request_reason": "Street Subsidence (Sinking)",
    "date_created": "2026-01-02T15:28:57.000",
    "date_modified": "2026-01-02T15:28:59.000",
    "request_status": "Pending",
    "responsible_agency": "Sewerage & Water Board",
    "final_address": "5027 Magazine St",
    "address_councildis": "B",
    "status": "Pending",
    "rowid": "1248960",
    "final_x": "3668414.56193",
    "final_y": "518642.526199",
    "longitude": "-90.10982374572887",
    "latitude": "29.920477592588874",
    "geocoded_column": {
      "latitude": "29.920477592588874",
      "longitude": "-90.10982374572887"
    }
  },
  {
    "service_request": "2026-1248959",
    "request_type": "Trash/Recycling",
    "request_reason": "Request a Large Item Pick Up",
    "date_created": "2026-01-02T15:27:59.000",
    "date_modified": "2026-01-02T15:28:01.000",
    "request_status": "Pending",
    "responsible_agency": "Department of Sanitation",
    "final_address": "14575 Beekman Rd",
    "address_councildis": "E",
    "status": "Assigned to Contractor",
    "contractor": "Waste Pro",
    "rowid": "1248959",
    "final_x": "3721127.23679",
    "final_y": "573100.187113",
    "longitude": "-89.94134845520738",
    "latitude": "30.068562016212294",
    "geocoded_column": {
      "latitude": "30.068562016212294",
      "longitude": "-89.94134845520738"
    }
  },
  {
    "service_request": "2026-1248958",
    "request_type": "Trash/Recycling",
    "request_reason": "Illegal Dumping",
    "date_created": "2026-01-02T15:26:44.000",
    "date_modified": "2026-01-02T15:26:45.000",
    "request_status": "Pending",
    "responsible_agency": "Department of Sanitation",
    "final_address": "13659 Dwyer Blvd",
    "address_councildis": "E",
    "status": "Pending",
    "rowid": "1248958",
    "final_x": "3726749.49344",
    "final_y": "562396.751327",
    "longitude": "-89.9239916945452",
    "latitude": "30.038943075714933",
    "geocoded_column": {
      "latitude": "30.038943075714933",
      "longitude": "-89.9239916945452"
    }
  },
  {
    "service_request": "2026-1248957",
    "request_type": "Trash/Recycling",
    "request_reason": "Request a Large Item Pick Up",
    "date_created": "2026-01-02T15:25:15.000",
    "date_modified": "2026-01-02T15:25:17.000",
    "request_status": "Pending",
    "responsible_agency": "Department of Sanitation",
    "final_address": "7576 Briarheath Dr",
    "address_councildis": "E",
    "status": "Assigned to Contractor",
    "contractor": "Waste Pro",
    "rowid": "1248957",
    "final_x": "3715184.62463",
    "final_y": "566536.105251",
    "longitude": "-89.9603827876604",
    "latitude": "30.050710661669463",
    "geocoded_column": {
      "latitude": "30.050710661669463",
      "longitude": "-89.9603827876604"
    }
  },
  {
    "service_request": "2026-1248956",
    "request_type": "Trash/Recycling",
    "request_reason": "Order Trash Cart",
    "date_created": "2026-01-02T15:21:08.000",
    "date_modified": "2026-01-02T15:21:09.000",
    "request_status": "Pending",
    "responsible_agency": "Department of Sanitation",
    "final_address": "2620 Ernest St",
    "address_councildis": "C",
    "status": "Assigned to Contractor",
    "contractor": "Richards Disposal",
    "rowid": "1248956",
    "final_x": "3708907.18942",
    "final_y": "520289.873144",
    "longitude": "-89.98194729799914",
    "latitude": "29.92375623431706",
    "geocoded_column": {
      "latitude": "29.92375623431706",
      "longitude": "-89.98194729799914"
    }
  },
  {
    "service_request": "2026-1248955",
    "request_type": "Trash/Recycling",
    "request_reason": "Order Recycling Cart",
    "date_created": "2026-01-02T15:20:46.000",
    "date_modified": "2026-01-02T15:20:47.000",
    "request_status": "Pending",
    "responsible_agency": "Department of Sanitation",
    "final_address": "1007 Jourdan Ave",
    "address_councildis": "E",
    "status": "Pending",
    "rowid": "1248955",
    "final_x": "3694988.44989",
    "final_y": "534150.419141",
    "longitude": "-90.02538405090876",
    "latitude": "29.962311975705436",
    "geocoded_column": {
      "latitude": "29.962311975705436",
      "longitude": "-90.02538405090876"
    }
  },
  {
    "service_request": "2026-1248954",
    "request_type": "Trash/Recycling",
    "request_reason": "Request a Large Item Pick Up",
    "date_created": "2026-01-02T15:20:37.000",
    "date_modified": "2026-01-02T15:20:38.000",
    "request_status": "Pending",
    "responsible_agency": "Department of Sanitation",
    "final_address": "2631 Arts St",
    "address_councildis": "D",
    "status": "Assigned to Contractor",
    "contractor": "IV Waste",
    "rowid": "1248954",
    "final_x": "3686787.0998",
    "final_y": "542287.546253",
    "longitude": "-90.05099510103653",
    "latitude": "29.984941086208515",
    "geocoded_column": {
      "latitude": "29.984941086208515",
      "longitude": "-90.05099510103653"
    }
  },
  {
    "service_request": "2026-1248953",
    "request_type": "Christmas Tree Recycle Pick Up",
    "request_reason": "Christmas Tree Recycle Pick Up",
    "date_created": "2026-01-02T15:20:31.000",
    "date_modified": "2026-01-02T15:20:33.000",
    "request_status": "Pending",
    "responsible_agency": "Office of Resilience and Sustainability",
    "final_address": "4534 Cardenas Dr",
    "address_councildis": "E",
    "status": "Pending",
    "contractor": "Glass Half Full",
    "rowid": "1248953",
    "final_x": "3713701.21119",
    "final_y": "555474.427545",
    "longitude": "-89.96548865406022",
    "latitude": "30.020344267935933",
    "geocoded_column": {
      "latitude": "30.020344267935933",
      "longitude": "-89.96548865406022"
    }
  },
  {
    "service_request": "2026-1248952",
    "request_type": "Trash/Recycling",
    "request_reason": "Request a Large Item Pick Up",
    "date_created": "2026-01-02T15:18:51.000",
    "date_modified": "2026-01-02T15:18:52.000",
    "request_status": "Pending",
    "responsible_agency": "Department of Sanitation",
    "final_address": "7433 Woodbine Dr",
    "address_councildis": "E",
    "status": "Assigned to Contractor",
    "contractor": "Waste Pro",
    "rowid": "1248952",
    "final_x": "3702213.53636",
    "final_y": "560866.665822",
    "longitude": "-90.00158790034071",
    "latitude": "30.035542900873217",
    "geocoded_column": {
      "latitude": "30.035542900873217",
      "longitude": "-90.00158790034071"
    }
  },
  {
    "service_request": "2026-1248951",
    "request_type": "Trash/Recycling",
    "request_reason": "Repair Trash Cart",
    "date_created": "2026-01-02T15:18:41.000",
    "date_modified": "2026-01-02T15:18:42.000",
    "request_status": "Pending",
    "responsible_agency": "Department of Sanitation",
    "final_address": "8701 Dinkins St",
    "address_councildis": "E",
    "status": "Assigned to Contractor",
    "contractor": "Waste Pro",
    "rowid": "1248951",
    "final_x": "3704154.0106",
    "final_y": "563185.017952",
    "longitude": "-89.9953701626377",
    "latitude": "30.04185530210193",
    "geocoded_column": {
      "latitude": "30.04185530210193",
      "longitude": "-89.9953701626377"
    }
  },
  {
    "service_request": "2026-1248950",
    "request_type": "Trash/Recycling",
    "request_reason": "Request a Large Item Pick Up",
    "date_created": "2026-01-02T15:18:27.000",
    "date_modified": "2026-01-02T15:18:29.000",
    "request_status": "Pending",
    "responsible_agency": "Department of Sanitation",
    "final_address": "7608 Edward St",
    "address_councildis": "E",
    "status": "Assigned to Contractor",
    "contractor": "Waste Pro",
    "rowid": "1248950",
    "final_x": "3700998.11895",
    "final_y": "560852.712414",
    "longitude": "-90.00542931668242",
    "latitude": "30.03554331989416",
    "geocoded_column": {
      "latitude": "30.03554331989416",
      "longitude": "-90.00542931668242"
    }
  },
  {
    "service_request": "2026-1248949",
    "request_type": "Trash/Recycling",
    "request_reason": "Repair Trash Cart",
    "date_created": "2026-01-02T15:18:26.000",
    "date_modified": "2026-01-02T15:18:27.000",
    "request_status": "Pending",
    "responsible_agency": "Department of Sanitation",
    "final_address": "2669 New Orleans St",
    "address_councildis": "D",
    "status": "Assigned to Contractor",
    "contractor": "IV Waste",
    "rowid": "1248949",
    "final_x": "3681959.16949",
    "final_y": "542227.082957",
    "longitude": "-90.06624656501802",
    "latitude": "29.984922515122893",
    "geocoded_column": {
      "latitude": "29.984922515122893",
      "longitude": "-90.06624656501802"
    }
  },
  {
    "service_request": "2026-1248948",
    "request_type": "Christmas Tree Recycle Pick Up",
    "request_reason": "Christmas Tree Recycle Pick Up",
    "date_created": "2026-01-02T15:13:17.000",
    "date_modified": "2026-01-02T15:13:19.000",
    "request_status": "Pending",
    "responsible_agency": "Office of Resilience and Sustainability",
    "final_address": "231 Porteous St",
    "address_councildis": "A",
    "status": "Pending",
    "contractor": "Glass Half Full",
    "rowid": "1248948",
    "final_x": "3667390.47373",
    "final_y": "551785.11855",
    "longitude": "-90.1119411874065",
    "latitude": "30.01163875058549",
    "geocoded_column": {
      "latitude": "30.01163875058549",
      "longitude": "-90.1119411874065"
    }
  },
  {
    "service_request": "2026-1248947",
    "request_type": "Trash/Recycling",
    "request_reason": "Order Trash Cart",
    "date_created": "2026-01-02T15:11:53.000",
    "date_modified": "2026-01-02T15:11:54.000",
    "request_status": "Pending",
    "responsible_agency": "Department of Sanitation",
    "final_address": "2121 Audubon St",
    "address_councildis": "A",
    "status": "Assigned to Contractor",
    "contractor": "IV Waste",
    "rowid": "1248947",
    "final_x": "3666344.63802",
    "final_y": "529124.119232",
    "longitude": "-90.11600605544889",
    "latitude": "29.949359242015294",
    "geocoded_column": {
      "latitude": "29.949359242015294",
      "longitude": "-90.11600605544889"
    }
  },
  {
    "service_request": "2026-1248946",
    "request_type": "Trash/Recycling",
    "request_reason": "Request a Large Item Pick Up",
    "date_created": "2026-01-02T15:10:50.000",
    "date_modified": "2026-01-02T15:10:52.000",
    "request_status": "Pending",
    "responsible_agency": "Department of Sanitation",
    "final_address": "34 Seaward Ct",
    "address_councildis": "C",
    "status": "Assigned to Contractor",
    "contractor": "Richards Disposal",
    "rowid": "1248946",
    "final_x": "3704256.23588",
    "final_y": "522614.305722",
    "longitude": "-89.99654294922675",
    "latitude": "29.93029762184868",
    "geocoded_column": {
      "latitude": "29.93029762184868",
      "longitude": "-89.99654294922675"
    }
  },
  {
    "service_request": "2026-1248945",
    "request_type": "Trash/Recycling",
    "request_reason": "Request a Large Item Pick Up",
    "date_created": "2026-01-02T15:08:10.000",
    "date_modified": "2026-01-02T15:08:12.000",
    "request_status": "Pending",
    "responsible_agency": "Department of Sanitation",
    "final_address": "5530 Rickert Dr",
    "address_councildis": "E",
    "status": "Assigned to Contractor",
    "contractor": "Waste Pro",
    "rowid": "1248945",
    "final_x": "3703159.85559",
    "final_y": "556277.933146",
    "longitude": "-89.99876628440764",
    "latitude": "30.022895391879526",
    "geocoded_column": {
      "latitude": "30.022895391879526",
      "longitude": "-89.99876628440764"
    }
  },
  {
    "service_request": "2026-1248944",
    "request_type": "Trash/Recycling",
    "request_reason": "Replace Trash Cart",
    "date_created": "2026-01-02T15:07:46.000",
    "date_modified": "2026-01-02T15:07:48.000",
    "request_status": "Pending",
    "responsible_agency": "Department of Sanitation",
    "final_address": "30 Warbler St",
    "address_councildis": "D",
    "status": "Assigned to Contractor",
    "contractor": "IV Waste",
    "rowid": "1248944",
    "final_x": "3673575.6763",
    "final_y": "556830.192154",
    "longitude": "-90.09222687105606",
    "latitude": "30.025328160502635",
    "geocoded_column": {
      "latitude": "30.025328160502635",
      "longitude": "-90.09222687105606"
    }
  },
  {
    "service_request": "2026-1248943",
    "request_type": "Trash/Recycling",
    "request_reason": "Illegal Dumping",
    "date_created": "2026-01-02T15:05:06.000",
    "date_modified": "2026-01-02T15:05:07.000",
    "request_status": "Pending",
    "responsible_agency": "Department of Sanitation",
    "final_address": "WESTBEND PKWY & HERSCHEL ST",
    "address_councildis": "C",
    "status": "Pending",
    "rowid": "1248943",
    "final_x": "3696655.2",
    "final_y": "521204.78",
    "longitude": "-90.02058907338035",
    "latitude": "29.92666355245677",
    "geocoded_column": {
      "latitude": "29.92666355245677",
      "longitude": "-90.02058907338035"
    }
  },
  {
    "service_request": "2026-1248942",
    "request_type": "Christmas Tree Recycle Pick Up",
    "request_reason": "Christmas Tree Recycle Pick Up",
    "date_created": "2026-01-02T15:04:07.000",
    "date_modified": "2026-01-02T15:04:08.000",
    "request_status": "Pending",
    "responsible_agency": "Office of Resilience and Sustainability",
    "final_address": "2135 S Lopez St",
    "address_councildis": "A",
    "status": "Pending",
    "contractor": "Glass Half Full",
    "rowid": "1248942",
    "final_x": "3669082.92327",
    "final_y": "529279.550273",
    "longitude": "-90.1073547912911",
    "latitude": "29.949706351355903",
    "geocoded_column": {
      "latitude": "29.949706351355903",
      "longitude": "-90.1073547912911"
    }
  },
  {
    "service_request": "2026-1248941",
    "request_type": "General Services",
    "request_reason": "General Service Request",
    "date_created": "2026-01-02T15:03:27.000",
    "date_modified": "2026-01-02T15:03:28.000",
    "request_status": "Pending",
    "responsible_agency": "Orleans Parish Communication District",
    "final_address": "2480 Hyman Pl",
    "address_councildis": "C",
    "status": "Pending",
    "rowid": "1248941",
    "final_x": "3701116.35409",
    "final_y": "521752.94233",
    "longitude": "-90.00648648230148",
    "latitude": "29.92802952106922",
    "geocoded_column": {
      "latitude": "29.92802952106922",
      "longitude": "-90.00648648230148"
    }
  },
  {
    "service_request": "2026-1248940",
    "request_type": "Trash/Recycling",
    "request_reason": "Replace Trash Cart",
    "date_created": "2026-01-02T15:03:24.000",
    "date_modified": "2026-01-02T15:03:26.000",
    "request_status": "Pending",
    "responsible_agency": "Department of Sanitation",
    "final_address": "2416 Bienville Ave",
    "address_councildis": "B",
    "status": "Assigned to Contractor",
    "contractor": "IV Waste",
    "rowid": "1248940",
    "final_x": "3676740.50299",
    "final_y": "534955.861894",
    "longitude": "-90.08298072250993",
    "latitude": "29.96508679662959",
    "geocoded_column": {
      "latitude": "29.96508679662959",
      "longitude": "-90.08298072250993"
    }
  },
  {
    "service_request": "2026-1248939",
    "request_type": "Trash/Recycling",
    "request_reason": "Replace Recycling Cart",
    "date_created": "2026-01-02T15:02:01.000",
    "date_modified": "2026-01-02T15:02:02.000",
    "request_status": "Pending",
    "responsible_agency": "Department of Sanitation",
    "final_address": "34 Seaward Ct",
    "address_councildis": "C",
    "status": "Pending",
    "rowid": "1248939",
    "final_x": "3704256.23588",
    "final_y": "522614.305722",
    "longitude": "-89.99654294922675",
    "latitude": "29.93029762184868",
    "geocoded_column": {
      "latitude": "29.93029762184868",
      "longitude": "-89.99654294922675"
    }
  },
  {
    "service_request": "2026-1248938",
    "request_type": "Trash/Recycling",
    "request_reason": "Request a Large Item Pick Up",
    "date_created": "2026-01-02T15:01:11.000",
    "date_modified": "2026-01-02T15:01:13.000",
    "request_status": "Pending",
    "responsible_agency": "Department of Sanitation",
    "final_address": "1226 Eighth St",
    "address_councildis": "B",
    "status": "Assigned to Contractor",
    "contractor": "IV Waste",
    "rowid": "1248938",
    "final_x": "3675750.35982",
    "final_y": "520678.366457",
    "longitude": "-90.08659811834833",
    "latitude": "29.925858075502962",
    "geocoded_column": {
      "latitude": "29.925858075502962",
      "longitude": "-90.08659811834833"
    }
  },
  {
    "service_request": "2026-1248937",
    "request_type": "Trash/Recycling",
    "request_reason": "Request a Large Item Pick Up",
    "date_created": "2026-01-02T14:55:20.000",
    "date_modified": "2026-01-02T14:55:22.000",
    "request_status": "Pending",
    "responsible_agency": "Department of Sanitation",
    "final_address": "2821 General Collins Ave",
    "address_councildis": "C",
    "status": "Assigned to Contractor",
    "contractor": "Richards Disposal",
    "rowid": "1248937",
    "final_x": "3698304.82301",
    "final_y": "520864.144057",
    "longitude": "-90.0153940611707",
    "latitude": "29.925674851023857",
    "geocoded_column": {
      "latitude": "29.925674851023857",
      "longitude": "-90.0153940611707"
    }
  },
  {
    "service_request": "2026-1248936",
    "request_type": "Trash/Recycling",
    "request_reason": "Missed Trash Pick-Up",
    "date_created": "2026-01-02T14:50:34.000",
    "date_modified": "2026-01-02T16:47:09.000",
    "case_close_date": "2026-01-02T10:47:08.000",
    "request_status": "Closed",
    "responsible_agency": "Department of Sanitation",
    "final_address": "4615 S Claiborne Ave",
    "address_councildis": "B",
    "status": "Invalid Request",
    "contractor": "IV Waste",
    "contractor_action": "Invalid Pick-Up",
    "rowid": "1248936",
    "final_x": "3669449.07118",
    "final_y": "525923.508157",
    "longitude": "-90.10631216488007",
    "latitude": "29.94046754989285",
    "geocoded_column": {
      "latitude": "29.94046754989285",
      "longitude": "-90.10631216488007"
    }
  },
  {
    "service_request": "2026-1248935",
    "request_type": "Property Maintenance",
    "request_reason": "Property Maintenance",
    "date_created": "2026-01-02T14:49:06.000",
    "date_modified": "2026-01-02T15:32:57.000",
    "case_close_date": "2026-01-02T09:32:56.000",
    "request_status": "Closed",
    "responsible_agency": "Department of Code Enforcement",
    "final_address": "4516 Bonita Dr",
    "address_councildis": "E",
    "status": "Referred to Code Enforcement",
    "rowid": "1248935",
    "final_x": "3704578.85662",
    "final_y": "553819.230743",
    "longitude": "-89.99437338038548",
    "latitude": "30.016089387445383",
    "geocoded_column": {
      "latitude": "30.016089387445383",
      "longitude": "-89.99437338038548"
    }
  },
  {
    "service_request": "2026-1248934",
    "request_type": "Trash/Recycling",
    "request_reason": "Request a Large Item Pick Up",
    "date_created": "2026-01-02T14:49:01.000",
    "date_modified": "2026-01-02T14:49:03.000",
    "request_status": "Pending",
    "responsible_agency": "Department of Sanitation",
    "final_address": "424 S Clark St",
    "address_councildis": "B",
    "status": "Assigned to Contractor",
    "contractor": "IV Waste",
    "rowid": "1248934",
    "final_x": "3672019.82311",
    "final_y": "535830.823047",
    "longitude": "-90.0978586022843",
    "latitude": "29.967633443856453",
    "geocoded_column": {
      "latitude": "29.967633443856453",
      "longitude": "-90.0978586022843"
    }
  },
  {
    "service_request": "2026-1248933",
    "request_type": "Mosquito, Termite & Rodent Control",
    "request_reason": "Rodent Complaint (Mice & Rats)",
    "date_created": "2026-01-02T14:45:05.000",
    "date_modified": "2026-01-02T14:45:07.000",
    "request_status": "Pending",
    "responsible_agency": "Mosquito, Termite & Rodent Control Board",
    "final_address": "4213 Dryades St",
    "address_councildis": "B",
    "status": "Pending",
    "rowid": "1248933",
    "final_x": "3671381.05243",
    "final_y": "522053.635066",
    "longitude": "-90.10034403878781",
    "latitude": "29.929769620987777",
    "geocoded_column": {
      "latitude": "29.929769620987777",
      "longitude": "-90.10034403878781"
    }
  },
  {
    "service_request": "2026-1248932",
    "request_type": "Trash/Recycling",
    "request_reason": "Illegal Dumping",
    "date_created": "2026-01-02T14:44:37.000",
    "date_modified": "2026-01-02T14:44:39.000",
    "request_status": "Pending",
    "responsible_agency": "Department of Sanitation",
    "final_address": "1433 Melpomene St",
    "address_councildis": "B",
    "status": "Pending",
    "rowid": "1248932",
    "final_x": "3679779.92239",
    "final_y": "525219.648445",
    "longitude": "-90.07372040214577",
    "latitude": "29.9382239363631",
    "geocoded_column": {
      "latitude": "29.9382239363631",
      "longitude": "-90.07372040214577"
    }
  },
  {
    "service_request": "2026-1248931",
    "request_type": "Mosquito, Termite & Rodent Control",
    "request_reason": "Mosquito Complaint",
    "date_created": "2026-01-02T14:42:16.000",
    "date_modified": "2026-01-02T14:46:06.000",
    "request_status": "Pending",
    "responsible_agency": "Mosquito, Termite & Rodent Control Board",
    "final_address": "4213 Dryades St",
    "address_councildis": "B",
    "status": "Pending",
    "rowid": "1248931",
    "final_x": "3671381.05243",
    "final_y": "522053.635066",
    "longitude": "-90.10034403878781",
    "latitude": "29.929769620987777",
    "geocoded_column": {
      "latitude": "29.929769620987777",
      "longitude": "-90.10034403878781"
    }
  },
  {
    "service_request": "2026-1248930",
    "request_type": "Trash/Recycling",
    "request_reason": "Request a Large Item Pick Up",
    "date_created": "2026-01-02T14:40:49.000",
    "date_modified": "2026-01-02T14:40:50.000",
    "request_status": "Pending",
    "responsible_agency": "Department of Sanitation",
    "final_address": "2618 Cupid St",
    "address_councildis": "C",
    "status": "Assigned to Contractor",
    "contractor": "Richards Disposal",
    "rowid": "1248930",
    "final_x": "3700410.05136",
    "final_y": "521423.851385",
    "longitude": "-90.00872811303307",
    "latitude": "29.927147104449098",
    "geocoded_column": {
      "latitude": "29.927147104449098",
      "longitude": "-90.00872811303307"
    }
  },
  {
    "service_request": "2026-1248929",
    "request_type": "Abandoned Vehicles",
    "request_reason": "Abandoned/Junk Vehicles",
    "date_created": "2026-01-02T14:40:13.000",
    "date_modified": "2026-01-02T14:40:14.000",
    "request_status": "Pending",
    "responsible_agency": "Department of Public Works",
    "final_address": "6907 Pritchard Pl",
    "address_councildis": "B",
    "status": "Pending",
    "rowid": "1248929",
    "final_x": "3668054.81505",
    "final_y": "531133.47309",
    "longitude": "-90.11053854109447",
    "latitude": "29.954834239890804",
    "geocoded_column": {
      "latitude": "29.954834239890804",
      "longitude": "-90.11053854109447"
    }
  },
  {
    "service_request": "2026-1248928",
    "request_type": "Trash/Recycling",
    "request_reason": "Request a Large Item Pick Up",
    "date_created": "2026-01-02T14:39:52.000",
    "date_modified": "2026-01-02T14:39:53.000",
    "request_status": "Pending",
    "responsible_agency": "Department of Sanitation",
    "final_address": "7724 Ebbtide Dr",
    "address_councildis": "E",
    "status": "Assigned to Contractor",
    "contractor": "Waste Pro",
    "rowid": "1248928",
    "final_x": "3702006.05821",
    "final_y": "561782.138015",
    "longitude": "-90.00220995436389",
    "latitude": "30.03806672058339",
    "geocoded_column": {
      "latitude": "30.03806672058339",
      "longitude": "-90.00220995436389"
    }
  },
  {
    "service_request": "2026-1248927",
    "request_type": "Trash/Recycling",
    "request_reason": "Request a Large Item Pick Up",
    "date_created": "2026-01-02T14:35:06.000",
    "date_modified": "2026-01-02T14:35:07.000",
    "request_status": "Pending",
    "responsible_agency": "Department of Sanitation",
    "final_address": "1417 S Saratoga St",
    "address_councildis": "B",
    "status": "Assigned to Contractor",
    "contractor": "IV Waste",
    "rowid": "1248927",
    "final_x": "3677604.2013",
    "final_y": "526726.830014",
    "longitude": "-90.08053733568035",
    "latitude": "29.942433774065254",
    "geocoded_column": {
      "latitude": "29.942433774065254",
      "longitude": "-90.08053733568035"
    }
  },
  {
    "service_request": "2026-1248926",
    "request_type": "Trash/Recycling",
    "request_reason": "Repair Trash Cart",
    "date_created": "2026-01-02T14:33:44.000",
    "date_modified": "2026-01-02T14:33:50.000",
    "request_status": "Pending",
    "responsible_agency": "Department of Sanitation",
    "final_address": "718 Foucher St",
    "address_councildis": "B",
    "status": "Assigned to Contractor",
    "contractor": "IV Waste",
    "rowid": "1248926",
    "final_x": "3674558.88475",
    "final_y": "518019.94143",
    "longitude": "-90.0904502816353",
    "latitude": "29.91858385285185",
    "geocoded_column": {
      "latitude": "29.91858385285185",
      "longitude": "-90.0904502816353"
    }
  },
  {
    "service_request": "2026-1248925",
    "request_type": "Trash/Recycling",
    "request_reason": "Request a Large Item Pick Up",
    "date_created": "2026-01-02T14:33:01.000",
    "date_modified": "2026-01-02T14:33:02.000",
    "request_status": "Pending",
    "responsible_agency": "Department of Sanitation",
    "final_address": "654 S Gayoso St",
    "address_councildis": "B",
    "status": "Assigned to Contractor",
    "contractor": "IV Waste",
    "rowid": "1248925",
    "final_x": "3672917.96763",
    "final_y": "533935.949317",
    "longitude": "-90.09508690139512",
    "latitude": "29.962396518784043",
    "geocoded_column": {
      "latitude": "29.962396518784043",
      "longitude": "-90.09508690139512"
    }
  },
  {
    "service_request": "2026-1248924",
    "request_type": "Abandoned Vehicles",
    "request_reason": "Abandoned/Junk Vehicles",
    "date_created": "2026-01-02T14:31:20.000",
    "date_modified": "2026-01-02T14:31:22.000",
    "request_status": "Pending",
    "responsible_agency": "Department of Public Works",
    "final_address": "8305 Spruce St",
    "address_councildis": "A",
    "status": "Pending",
    "rowid": "1248924",
    "final_x": "3663296.95751",
    "final_y": "531009.742658",
    "longitude": "-90.12556623133983",
    "latitude": "29.954632775044043",
    "geocoded_column": {
      "latitude": "29.954632775044043",
      "longitude": "-90.12556623133983"
    }
  },
  {
    "service_request": "2026-1248923",
    "request_type": "Roads and Streets",
    "request_reason": "Pothole",
    "date_created": "2026-01-02T14:30:55.000",
    "date_modified": "2026-01-02T14:30:57.000",
    "request_status": "Pending",
    "responsible_agency": "Department of Public Works",
    "final_address": "1528 Nashville Ave",
    "address_councildis": "A",
    "status": "Pending",
    "rowid": "1248923",
    "final_x": "3666090.4169",
    "final_y": "521871.344506",
    "longitude": "-90.11705182876061",
    "latitude": "29.92942385914501",
    "geocoded_column": {
      "latitude": "29.92942385914501",
      "longitude": "-90.11705182876061"
    }
  },
  {
    "service_request": "2026-1248922",
    "request_type": "Trash/Recycling",
    "request_reason": "Replace Trash Cart",
    "date_created": "2026-01-02T14:21:48.000",
    "date_modified": "2026-01-02T14:21:50.000",
    "request_status": "Pending",
    "responsible_agency": "Department of Sanitation",
    "final_address": "4916 Coliseum St",
    "address_councildis": "B",
    "status": "Assigned to Contractor",
    "contractor": "IV Waste",
    "rowid": "1248922",
    "final_x": "3668903.59329",
    "final_y": "519557.466488",
    "longitude": "-90.1082492199968",
    "latitude": "29.922979021714863",
    "geocoded_column": {
      "latitude": "29.922979021714863",
      "longitude": "-90.1082492199968"
    }
  },
  {
    "service_request": "2026-1248921",
    "request_type": "Trash/Recycling",
    "request_reason": "Return Trash Cart",
    "date_created": "2026-01-02T14:19:09.000",
    "date_modified": "2026-01-02T14:19:12.000",
    "request_status": "Pending",
    "responsible_agency": "Department of Sanitation",
    "final_address": "1938 Jackson Ave",
    "address_councildis": "B",
    "status": "Assigned to Contractor",
    "contractor": "IV Waste",
    "rowid": "1248921",
    "final_x": "3676600.91176",
    "final_y": "524965.150461",
    "longitude": "-90.08376560592633",
    "latitude": "29.93761985926945",
    "geocoded_column": {
      "latitude": "29.93761985926945",
      "longitude": "-90.08376560592633"
    }
  },
  {
    "service_request": "2026-1248920",
    "request_type": "Trash/Recycling",
    "request_reason": "Repair Recycling Cart",
    "date_created": "2026-01-02T14:17:18.000",
    "date_modified": "2026-01-02T14:18:19.000",
    "request_status": "Pending",
    "responsible_agency": "Department of Sanitation",
    "final_address": "3313 Constance St",
    "address_councildis": "B",
    "status": "Pending",
    "rowid": "1248920",
    "final_x": "3675421.13845",
    "final_y": "519444.948151",
    "longitude": "-90.08767970041416",
    "latitude": "29.922476418384566",
    "geocoded_column": {
      "latitude": "29.922476418384566",
      "longitude": "-90.08767970041416"
    }
  },
  {
    "service_request": "2026-1248919",
    "request_type": "Christmas Tree Recycle Pick Up",
    "request_reason": "Christmas Tree Recycle Pick Up",
    "date_created": "2026-01-02T14:16:01.000",
    "date_modified": "2026-01-02T14:16:03.000",
    "request_status": "Pending",
    "responsible_agency": "Office of Resilience and Sustainability",
    "final_address": "3923 Odin St",
    "address_councildis": "D",
    "status": "Pending",
    "contractor": "Glass Half Full",
    "rowid": "1248919",
    "final_x": "3688517.89129",
    "final_y": "554021.437528",
    "longitude": "-90.04511161117644",
    "latitude": "30.017151650081914",
    "geocoded_column": {
      "latitude": "30.017151650081914",
      "longitude": "-90.04511161117644"
    }
  },
  {
    "service_request": "2026-1248918",
    "request_type": "Safety & Permits",
    "request_reason": "Zoning Enforcement",
    "date_created": "2026-01-02T14:15:48.000",
    "date_modified": "2026-01-02T14:15:50.000",
    "request_status": "Pending",
    "responsible_agency": "Safety and Permits",
    "final_address": "1938 Jackson Ave",
    "address_councildis": "B",
    "status": "Pending",
    "rowid": "1248918",
    "final_x": "3676600.91176",
    "final_y": "524965.150461",
    "longitude": "-90.08376560592633",
    "latitude": "29.93761985926945",
    "geocoded_column": {
      "latitude": "29.93761985926945",
      "longitude": "-90.08376560592633"
    }
  },
  {
    "service_request": "2026-1248917",
    "request_type": "Trash/Recycling",
    "request_reason": "Return Trash Cart",
    "date_created": "2026-01-02T14:13:27.000",
    "date_modified": "2026-01-02T14:13:28.000",
    "request_status": "Pending",
    "responsible_agency": "Department of Sanitation",
    "final_address": "6900 Edgefield Dr",
    "address_councildis": "E",
    "status": "Assigned to Contractor",
    "contractor": "Waste Pro",
    "rowid": "1248917",
    "final_x": "3719216.80876",
    "final_y": "568413.605221",
    "longitude": "-89.94756683869356",
    "latitude": "30.055739549275785",
    "geocoded_column": {
      "latitude": "30.055739549275785",
      "longitude": "-89.94756683869356"
    }
  },
  {
    "service_request": "2026-1248916",
    "request_type": "Streetlights",
    "request_reason": "Streetlight Outage/Malfunction",
    "date_created": "2026-01-02T14:06:24.000",
    "date_modified": "2026-01-02T14:06:27.000",
    "request_status": "Pending",
    "responsible_agency": "Department of Public Works",
    "final_address": "SAUX LN & LAWRENCE ST",
    "address_councildis": "C",
    "status": "Pending",
    "rowid": "1248916",
    "final_x": "3692655.5",
    "final_y": "525444.38",
    "longitude": "-90.03306311590617",
    "latitude": "29.938446403124857",
    "geocoded_column": {
      "latitude": "29.938446403124857",
      "longitude": "-90.03306311590617"
    }
  },
  {
    "service_request": "2026-1248915",
    "request_type": "Streetlights",
    "request_reason": "Streetlight Outage/Malfunction",
    "date_created": "2026-01-02T14:05:06.000",
    "date_modified": "2026-01-02T14:07:32.000",
    "request_status": "Pending",
    "responsible_agency": "Department of Public Works",
    "final_address": "LAURADALE DR & LAWRENCE ST",
    "address_councildis": "C",
    "status": "Pending",
    "rowid": "1248915",
    "final_x": "3692775.8",
    "final_y": "525458.98",
    "longitude": "-90.03268279508596",
    "latitude": "29.93848279391993",
    "geocoded_column": {
      "latitude": "29.93848279391993",
      "longitude": "-90.03268279508596"
    }
  },
  {
    "service_request": "2026-1248914",
    "request_type": "Streetlights",
    "request_reason": "Streetlight Outage/Malfunction",
    "date_created": "2026-01-02T14:04:15.000",
    "date_modified": "2026-01-02T14:04:16.000",
    "request_status": "Pending",
    "responsible_agency": "Department of Public Works",
    "final_address": "6313 Kingston Ct",
    "address_councildis": "C",
    "status": "Pending",
    "rowid": "1248914",
    "final_x": "3707271.48203",
    "final_y": "517747.51071",
    "longitude": "-89.98720486618984",
    "latitude": "29.91681856651682",
    "geocoded_column": {
      "latitude": "29.91681856651682",
      "longitude": "-89.98720486618984"
    }
  },
  {
    "service_request": "2026-1248913",
    "request_type": "Streetlights",
    "request_reason": "Streetlight Outage/Malfunction",
    "date_created": "2026-01-02T14:03:48.000",
    "date_modified": "2026-01-02T14:07:13.000",
    "request_status": "Pending",
    "responsible_agency": "Department of Public Works",
    "final_address": "SULLEN PL & GENERAL MEYER AVE",
    "address_councildis": "C",
    "status": "Pending",
    "rowid": "1248913",
    "final_x": "3707902.7",
    "final_y": "520323.88",
    "longitude": "-89.9851168138449",
    "latitude": "29.923882277760285",
    "geocoded_column": {
      "latitude": "29.923882277760285",
      "longitude": "-89.9851168138449"
    }
  },
  {
    "service_request": "2026-1248912",
    "request_type": "Trash/Recycling",
    "request_reason": "Repair Trash Cart",
    "date_created": "2026-01-02T13:57:06.000",
    "date_modified": "2026-01-02T13:57:08.000",
    "request_status": "Pending",
    "responsible_agency": "Department of Sanitation",
    "final_address": "3600 Clematis St",
    "address_councildis": "D",
    "status": "Assigned to Contractor",
    "contractor": "IV Waste",
    "rowid": "1248912",
    "final_x": "3686351.17986",
    "final_y": "546037.139408",
    "longitude": "-90.05223956924571",
    "latitude": "29.995264535926445",
    "geocoded_column": {
      "latitude": "29.995264535926445",
      "longitude": "-90.05223956924571"
    }
  },
  {
    "service_request": "2026-1248911",
    "request_type": "Christmas Tree Recycle Pick Up",
    "request_reason": "Christmas Tree Recycle Pick Up",
    "date_created": "2026-01-02T13:55:44.000",
    "date_modified": "2026-01-02T13:55:45.000",
    "request_status": "Pending",
    "responsible_agency": "Office of Resilience and Sustainability",
    "final_address": "4520 Jeanne Marie Pl",
    "address_councildis": "D",
    "status": "Pending",
    "contractor": "Glass Half Full",
    "rowid": "1248911",
    "final_x": "3678406.29614",
    "final_y": "549245.198675",
    "longitude": "-90.07722556687507",
    "latitude": "30.004327412138554",
    "geocoded_column": {
      "latitude": "30.004327412138554",
      "longitude": "-90.07722556687507"
    }
  },
  {
    "service_request": "2026-1248910",
    "request_type": "Christmas Tree Recycle Pick Up",
    "request_reason": "Christmas Tree Recycle Pick Up",
    "date_created": "2026-01-02T13:55:11.000",
    "date_modified": "2026-01-02T13:55:13.000",
    "request_status": "Pending",
    "responsible_agency": "Office of Resilience and Sustainability",
    "final_address": "5710 Garfield St",
    "address_councildis": "A",
    "status": "Pending",
    "contractor": "Glass Half Full",
    "rowid": "1248910",
    "final_x": "3666210.39777",
    "final_y": "521252.848057",
    "longitude": "-90.11669380107593",
    "latitude": "29.927719687236237",
    "geocoded_column": {
      "latitude": "29.927719687236237",
      "longitude": "-90.11669380107593"
    }
  },
  {
    "service_request": "2026-1248909",
    "request_type": "Trash/Recycling",
    "request_reason": "Request a Large Item Pick Up",
    "date_created": "2026-01-02T13:51:08.000",
    "date_modified": "2026-01-02T13:51:10.000",
    "request_status": "Pending",
    "responsible_agency": "Department of Sanitation",
    "final_address": "7609 Ligustrum Dr",
    "address_councildis": "E",
    "status": "Assigned to Contractor",
    "contractor": "Waste Pro",
    "rowid": "1248909",
    "final_x": "3701602.88727",
    "final_y": "561120.785182",
    "longitude": "-90.00350832464713",
    "latitude": "30.036261130598234",
    "geocoded_column": {
      "latitude": "30.036261130598234",
      "longitude": "-90.00350832464713"
    }
  },
  {
    "service_request": "2026-1248908",
    "request_type": "Christmas Tree Recycle Pick Up",
    "request_reason": "Christmas Tree Recycle Pick Up",
    "date_created": "2026-01-02T13:50:34.000",
    "date_modified": "2026-01-02T13:50:36.000",
    "request_status": "Pending",
    "responsible_agency": "Office of Resilience and Sustainability",
    "final_address": "1812 Seventh St",
    "address_councildis": "B",
    "status": "Pending",
    "contractor": "Glass Half Full",
    "rowid": "1248908",
    "final_x": "3674741.52494",
    "final_y": "522784.731642",
    "longitude": "-90.08971054820724",
    "latitude": "29.931680041960217",
    "geocoded_column": {
      "latitude": "29.931680041960217",
      "longitude": "-90.08971054820724"
    }
  },
  {
    "service_request": "2026-1248907",
    "request_type": "Traffic Signals",
    "request_reason": "Traffic Signal Malfunctioning or Damaged",
    "date_created": "2026-01-02T13:47:15.000",
    "date_modified": "2026-01-02T15:13:58.000",
    "request_status": "Pending",
    "responsible_agency": "Department of Public Works",
    "final_address": "6000 Bullard Ave",
    "address_councildis": "E",
    "status": "Pending",
    "rowid": "1248907",
    "final_x": "3714876.25311",
    "final_y": "563881.658913",
    "longitude": "-89.96145788051206",
    "latitude": "30.043422170200817",
    "geocoded_column": {
      "latitude": "30.043422170200817",
      "longitude": "-89.96145788051206"
    }
  },
  {
    "service_request": "2026-1248906",
    "request_type": "Trash/Recycling",
    "request_reason": "Illegal Dumping",
    "date_created": "2026-01-02T13:46:22.000",
    "date_modified": "2026-01-02T13:49:19.000",
    "request_status": "Pending",
    "responsible_agency": "Department of Sanitation",
    "final_address": "4945 Flake Ave",
    "address_councildis": "E",
    "status": "Pending",
    "rowid": "1248906",
    "final_x": "3706044.74807",
    "final_y": "556513.733082",
    "longitude": "-89.98964201567746",
    "latitude": "30.023451045757923",
    "geocoded_column": {
      "latitude": "30.023451045757923",
      "longitude": "-89.98964201567746"
    }
  },
  {
    "service_request": "2026-1248905",
    "request_type": "Trash/Recycling",
    "request_reason": "Return Trash Cart",
    "date_created": "2026-01-02T13:41:59.000",
    "date_modified": "2026-01-02T13:42:00.000",
    "request_status": "Pending",
    "responsible_agency": "Department of Sanitation",
    "final_address": "3933 Prytania St",
    "address_councildis": "B",
    "status": "Assigned to Contractor",
    "contractor": "IV Waste",
    "rowid": "1248905",
    "final_x": "3672477.91841",
    "final_y": "520624.272312",
    "longitude": "-90.09693010545448",
    "latitude": "29.92580683299585",
    "geocoded_column": {
      "latitude": "29.92580683299585",
      "longitude": "-90.09693010545448"
    }
  },
  {
    "service_request": "2026-1248904",
    "request_type": "Christmas Tree Recycle Pick Up",
    "request_reason": "Christmas Tree Recycle Pick Up",
    "date_created": "2026-01-02T13:41:36.000",
    "date_modified": "2026-01-02T13:41:37.000",
    "request_status": "Pending",
    "responsible_agency": "Office of Resilience and Sustainability",
    "final_address": "5967 Winchester Park Dr",
    "address_councildis": "E",
    "status": "Pending",
    "contractor": "Glass Half Full",
    "rowid": "1248904",
    "final_x": "3714535.11871",
    "final_y": "563142.408224",
    "longitude": "-89.96256394757452",
    "latitude": "30.041400755565107",
    "geocoded_column": {
      "latitude": "30.041400755565107",
      "longitude": "-89.96256394757452"
    }
  },
  {
    "service_request": "2026-1248903",
    "request_type": "Trash/Recycling",
    "request_reason": "Request a Large Item Pick Up",
    "date_created": "2026-01-02T13:41:33.000",
    "date_modified": "2026-01-02T13:41:34.000",
    "request_status": "Pending",
    "responsible_agency": "Department of Sanitation",
    "final_address": "4719 Warren Dr",
    "address_councildis": "E",
    "status": "Assigned to Contractor",
    "contractor": "Waste Pro",
    "rowid": "1248903",
    "final_x": "3713543.73035",
    "final_y": "556140.061466",
    "longitude": "-89.96596114165543",
    "latitude": "30.022179667088412",
    "geocoded_column": {
      "latitude": "30.022179667088412",
      "longitude": "-89.96596114165543"
    }
  },
  {
    "service_request": "2026-1248902",
    "request_type": "Trash/Recycling",
    "request_reason": "Replace Recycling Cart",
    "date_created": "2026-01-02T13:39:32.000",
    "date_modified": "2026-01-02T13:39:34.000",
    "request_status": "Pending",
    "responsible_agency": "Department of Sanitation",
    "final_address": "1608 Broadway St",
    "address_councildis": "A",
    "status": "Pending",
    "rowid": "1248902",
    "final_x": "3664955.35687",
    "final_y": "527781.927487",
    "longitude": "-90.12043751298812",
    "latitude": "29.945709158359396",
    "geocoded_column": {
      "latitude": "29.945709158359396",
      "longitude": "-90.12043751298812"
    }
  },
  {
    "service_request": "2026-1248901",
    "request_type": "Trash/Recycling",
    "request_reason": "Replace Recycling Cart",
    "date_created": "2026-01-02T13:38:10.000",
    "date_modified": "2026-01-02T13:38:12.000",
    "request_status": "Pending",
    "responsible_agency": "Department of Sanitation",
    "final_address": "4515 S Rocheblave St",
    "address_councildis": "B",
    "status": "Pending",
    "rowid": "1248901",
    "final_x": "3669550.029",
    "final_y": "528463.536128",
    "longitude": "-90.10590752074253",
    "latitude": "29.947448828568124",
    "geocoded_column": {
      "latitude": "29.947448828568124",
      "longitude": "-90.10590752074253"
    }
  },
  {
    "service_request": "2026-1248900",
    "request_type": "Trash/Recycling",
    "request_reason": "Replace Trash Cart",
    "date_created": "2026-01-02T13:34:13.000",
    "date_modified": "2026-01-02T13:34:14.000",
    "request_status": "Pending",
    "responsible_agency": "Department of Sanitation",
    "final_address": "2134 Easter Ln",
    "address_councildis": "C",
    "status": "Assigned to Contractor",
    "contractor": "Richards Disposal",
    "rowid": "1248900",
    "final_x": "3699507.89271",
    "final_y": "523363.410299",
    "longitude": "-90.01150534777663",
    "latitude": "29.93250886807917",
    "geocoded_column": {
      "latitude": "29.93250886807917",
      "longitude": "-90.01150534777663"
    }
  },
  {
    "service_request": "2026-1248899",
    "request_type": "Trash/Recycling",
    "request_reason": "Return Trash Cart",
    "date_created": "2026-01-02T13:33:28.000",
    "date_modified": "2026-01-02T13:33:30.000",
    "request_status": "Pending",
    "responsible_agency": "Department of Sanitation",
    "final_address": "3933 Prytania St",
    "address_councildis": "B",
    "status": "Assigned to Contractor",
    "contractor": "IV Waste",
    "rowid": "1248899",
    "final_x": "3672477.91841",
    "final_y": "520624.272312",
    "longitude": "-90.09693010545448",
    "latitude": "29.92580683299585",
    "geocoded_column": {
      "latitude": "29.92580683299585",
      "longitude": "-90.09693010545448"
    }
  },
  {
    "service_request": "2026-1248898",
    "request_type": "Trash/Recycling",
    "request_reason": "Order Recycling Cart",
    "date_created": "2026-01-02T13:32:14.000",
    "date_modified": "2026-01-02T13:32:16.000",
    "request_status": "Pending",
    "responsible_agency": "Department of Sanitation",
    "final_address": "835 Atlantic Ave",
    "address_councildis": "C",
    "status": "Pending",
    "rowid": "1248898",
    "final_x": "3688689.63062",
    "final_y": "528392.744896",
    "longitude": "-90.04547910850866",
    "latitude": "29.946676552549157",
    "geocoded_column": {
      "latitude": "29.946676552549157",
      "longitude": "-90.04547910850866"
    }
  },
  {
    "service_request": "2026-1248897",
    "request_type": "Trash/Recycling",
    "request_reason": "Replace Trash Cart",
    "date_created": "2026-01-02T13:29:05.000",
    "date_modified": "2026-01-02T13:29:06.000",
    "request_status": "Pending",
    "responsible_agency": "Department of Sanitation",
    "final_address": "6000 Wildair Dr",
    "address_councildis": "D",
    "status": "Assigned to Contractor",
    "contractor": "IV Waste",
    "rowid": "1248897",
    "final_x": "3681380.82492",
    "final_y": "554782.250968",
    "longitude": "-90.06763526092493",
    "latitude": "30.019462306887522",
    "geocoded_column": {
      "latitude": "30.019462306887522",
      "longitude": "-90.06763526092493"
    }
  },
  {
    "service_request": "2026-1248896",
    "request_type": "Trash/Recycling",
    "request_reason": "Request a Large Item Pick Up",
    "date_created": "2026-01-02T13:28:55.000",
    "date_modified": "2026-01-02T13:28:56.000",
    "request_status": "Pending",
    "responsible_agency": "Department of Sanitation",
    "final_address": "13450 N Lemans St",
    "address_councildis": "E",
    "status": "Assigned to Contractor",
    "contractor": "Waste Pro",
    "rowid": "1248896",
    "final_x": "3725465.28454",
    "final_y": "562982.796768",
    "longitude": "-89.92802738280872",
    "latitude": "30.040597826936047",
    "geocoded_column": {
      "latitude": "30.040597826936047",
      "longitude": "-89.92802738280872"
    }
  },
  {
    "service_request": "2026-1248895",
    "request_type": "Trash/Recycling",
    "request_reason": "Order Recycling Cart",
    "date_created": "2026-01-02T13:28:35.000",
    "date_modified": "2026-01-02T13:28:36.000",
    "request_status": "Pending",
    "responsible_agency": "Department of Sanitation",
    "final_address": "2050 Clio St",
    "address_councildis": "B",
    "status": "Pending",
    "rowid": "1248895",
    "final_x": "3677915.83758",
    "final_y": "527457.297279",
    "longitude": "-90.07952819339566",
    "latitude": "29.944432944379596",
    "geocoded_column": {
      "latitude": "29.944432944379596",
      "longitude": "-90.07952819339566"
    }
  },
  {
    "service_request": "2026-1248894",
    "request_type": "Trash/Recycling",
    "request_reason": "Order Trash Cart",
    "date_created": "2026-01-02T13:27:53.000",
    "date_modified": "2026-01-02T13:27:55.000",
    "request_status": "Pending",
    "responsible_agency": "Department of Sanitation",
    "final_address": "2050 Clio St",
    "address_councildis": "B",
    "status": "Assigned to Contractor",
    "contractor": "IV Waste",
    "rowid": "1248894",
    "final_x": "3677915.83758",
    "final_y": "527457.297279",
    "longitude": "-90.07952819339566",
    "latitude": "29.944432944379596",
    "geocoded_column": {
      "latitude": "29.944432944379596",
      "longitude": "-90.07952819339566"
    }
  },
  {
    "service_request": "2026-1248893",
    "request_type": "Trash/Recycling",
    "request_reason": "Order Second Trash Cart",
    "date_created": "2026-01-02T13:27:42.000",
    "date_modified": "2026-01-02T13:27:44.000",
    "request_status": "Pending",
    "responsible_agency": "Department of Sanitation",
    "final_address": "6055 Perlita St",
    "address_councildis": "D",
    "status": "Assigned to Contractor",
    "contractor": "IV Waste",
    "rowid": "1248893",
    "final_x": "3678371.47912",
    "final_y": "554786.58524",
    "longitude": "-90.07714363834808",
    "latitude": "30.019565282742303",
    "geocoded_column": {
      "latitude": "30.019565282742303",
      "longitude": "-90.07714363834808"
    }
  },
  {
    "service_request": "2026-1248892",
    "request_type": "Trash/Recycling",
    "request_reason": "Order Recycling Cart",
    "date_created": "2026-01-02T13:27:11.000",
    "date_modified": "2026-01-02T13:27:12.000",
    "request_status": "Pending",
    "responsible_agency": "Department of Sanitation",
    "final_address": "1202 Simon Bolivar Ave",
    "address_councildis": "B",
    "status": "Pending",
    "rowid": "1248892",
    "final_x": "3677868.42946",
    "final_y": "527475.939519",
    "longitude": "-90.07967723066285",
    "latitude": "29.944485630659116",
    "geocoded_column": {
      "latitude": "29.944485630659116",
      "longitude": "-90.07967723066285"
    }
  },
  {
    "service_request": "2026-1248891",
    "request_type": "Trash/Recycling",
    "request_reason": "Order Trash Cart",
    "date_created": "2026-01-02T13:26:35.000",
    "date_modified": "2026-01-02T13:26:36.000",
    "request_status": "Pending",
    "responsible_agency": "Department of Sanitation",
    "final_address": "1202 Simon Bolivar Ave",
    "address_councildis": "B",
    "status": "Assigned to Contractor",
    "contractor": "IV Waste",
    "rowid": "1248891",
    "final_x": "3677868.42946",
    "final_y": "527475.939519",
    "longitude": "-90.07967723066285",
    "latitude": "29.944485630659116",
    "geocoded_column": {
      "latitude": "29.944485630659116",
      "longitude": "-90.07967723066285"
    }
  },
  {
    "service_request": "2026-1248890",
    "request_type": "Trash/Recycling",
    "request_reason": "Order Recycling Cart",
    "date_created": "2026-01-02T13:25:59.000",
    "date_modified": "2026-01-02T13:26:00.000",
    "request_status": "Pending",
    "responsible_agency": "Department of Sanitation",
    "final_address": "1200 Simon Bolivar Ave",
    "address_councildis": "B",
    "status": "Pending",
    "rowid": "1248890",
    "final_x": "3677875.3739",
    "final_y": "527486.009023",
    "longitude": "-90.07965495718794",
    "latitude": "29.94451310953524",
    "geocoded_column": {
      "latitude": "29.94451310953524",
      "longitude": "-90.07965495718794"
    }
  },
  {
    "service_request": "2026-1248889",
    "request_type": "Trash/Recycling",
    "request_reason": "Order Trash Cart",
    "date_created": "2026-01-02T13:25:11.000",
    "date_modified": "2026-01-02T13:25:13.000",
    "request_status": "Pending",
    "responsible_agency": "Department of Sanitation",
    "final_address": "1200 Simon Bolivar Ave",
    "address_councildis": "B",
    "status": "Assigned to Contractor",
    "contractor": "IV Waste",
    "rowid": "1248889",
    "final_x": "3677875.3739",
    "final_y": "527486.009023",
    "longitude": "-90.07965495718794",
    "latitude": "29.94451310953524",
    "geocoded_column": {
      "latitude": "29.94451310953524",
      "longitude": "-90.07965495718794"
    }
  },
  {
    "service_request": "2026-1248888",
    "request_type": "Trash/Recycling",
    "request_reason": "Replace Trash Cart",
    "date_created": "2026-01-02T13:23:58.000",
    "date_modified": "2026-01-02T13:24:00.000",
    "request_status": "Pending",
    "responsible_agency": "Department of Sanitation",
    "final_address": "1546 Jefferson Ave",
    "address_councildis": "A",
    "status": "Assigned to Contractor",
    "contractor": "IV Waste",
    "rowid": "1248888",
    "final_x": "3667189.37434",
    "final_y": "520954.061817",
    "longitude": "-90.11361343479581",
    "latitude": "29.926869501507873",
    "geocoded_column": {
      "latitude": "29.926869501507873",
      "longitude": "-90.11361343479581"
    }
  },
  {
    "service_request": "2026-1248887",
    "request_type": "Trash/Recycling",
    "request_reason": "Request a Large Item Pick Up",
    "date_created": "2026-01-02T13:20:59.000",
    "date_modified": "2026-01-02T13:21:01.000",
    "request_status": "Pending",
    "responsible_agency": "Department of Sanitation",
    "final_address": "5142 Westgrove Park",
    "address_councildis": "C",
    "status": "Assigned to Contractor",
    "contractor": "Richards Disposal",
    "rowid": "1248887",
    "final_x": "3703333.11818",
    "final_y": "511020.75224",
    "longitude": "-89.999882978148",
    "latitude": "29.898448904630122",
    "geocoded_column": {
      "latitude": "29.898448904630122",
      "longitude": "-89.999882978148"
    }
  },
  {
    "service_request": "2026-1248886",
    "request_type": "Trash/Recycling",
    "request_reason": "Request a Large Item Pick Up",
    "date_created": "2026-01-02T13:18:06.000",
    "date_modified": "2026-01-02T13:18:08.000",
    "request_status": "Pending",
    "responsible_agency": "Department of Sanitation",
    "final_address": "933 Congress St",
    "address_councildis": "C",
    "status": "Assigned to Contractor",
    "contractor": "IV Waste",
    "rowid": "1248886",
    "final_x": "3690618.43836",
    "final_y": "535030.317766",
    "longitude": "-90.03915248484068",
    "latitude": "29.964867825515604",
    "geocoded_column": {
      "latitude": "29.964867825515604",
      "longitude": "-90.03915248484068"
    }
  },
  {
    "service_request": "2026-1248885",
    "request_type": "Trash/Recycling",
    "request_reason": "Repair Trash Cart",
    "date_created": "2026-01-02T13:17:11.000",
    "date_modified": "2026-01-02T13:17:13.000",
    "request_status": "Pending",
    "responsible_agency": "Department of Sanitation",
    "final_address": "817 Exposition Blvd",
    "address_councildis": "A",
    "status": "Assigned to Contractor",
    "contractor": "IV Waste",
    "rowid": "1248885",
    "final_x": "3663262.33447",
    "final_y": "520002.572216",
    "longitude": "-90.1260417621374",
    "latitude": "29.924367562040917",
    "geocoded_column": {
      "latitude": "29.924367562040917",
      "longitude": "-90.1260417621374"
    }
  },
  {
    "service_request": "2026-1248884",
    "request_type": "Trash/Recycling",
    "request_reason": "Replace Recycling Cart",
    "date_created": "2026-01-02T13:14:22.000",
    "date_modified": "2026-01-02T13:14:23.000",
    "request_status": "Pending",
    "responsible_agency": "Department of Sanitation",
    "final_address": "815 Exposition Blvd",
    "address_councildis": "A",
    "status": "Pending",
    "rowid": "1248884",
    "final_x": "3663256.24935",
    "final_y": "519989.847928",
    "longitude": "-90.12606139405106",
    "latitude": "29.924332750520335",
    "geocoded_column": {
      "latitude": "29.924332750520335",
      "longitude": "-90.12606139405106"
    }
  },
  {
    "service_request": "2026-1248883",
    "request_type": "Roads and Streets",
    "request_reason": "Sidewalk Damaged or Missing",
    "date_created": "2026-01-02T13:13:19.000",
    "date_modified": "2026-01-02T13:13:21.000",
    "request_status": "Pending",
    "responsible_agency": "Department of Public Works",
    "final_address": "315 Decatur St",
    "address_councildis": "C",
    "status": "Pending",
    "rowid": "1248883",
    "final_x": "3682332.13967",
    "final_y": "530970.484162",
    "longitude": "-90.06546192627788",
    "latitude": "29.953959408807965",
    "geocoded_column": {
      "latitude": "29.953959408807965",
      "longitude": "-90.06546192627788"
    }
  },
  {
    "service_request": "2026-1248882",
    "request_type": "Christmas Tree Recycle Pick Up",
    "request_reason": "Christmas Tree Recycle Pick Up",
    "date_created": "2026-01-02T13:11:36.000",
    "date_modified": "2026-01-02T13:11:38.000",
    "request_status": "Pending",
    "responsible_agency": "Office of Resilience and Sustainability",
    "final_address": "4522 Iberville St",
    "address_councildis": "A",
    "status": "Pending",
    "contractor": "Glass Half Full",
    "rowid": "1248882",
    "final_x": "3669764.52615",
    "final_y": "539797.756938",
    "longitude": "-90.10484659152416",
    "latitude": "29.97860784925243",
    "geocoded_column": {
      "latitude": "29.97860784925243",
      "longitude": "-90.10484659152416"
    }
  },
  {
    "service_request": "2026-1248881",
    "request_type": "Trash/Recycling",
    "request_reason": "Order Recycling Cart",
    "date_created": "2026-01-02T13:11:20.000",
    "date_modified": "2026-01-02T13:11:22.000",
    "request_status": "Pending",
    "responsible_agency": "Department of Sanitation",
    "final_address": "2117 St Andrew St",
    "address_councildis": "B",
    "status": "Pending",
    "rowid": "1248881",
    "final_x": "3676946.40731",
    "final_y": "525802.684925",
    "longitude": "-90.08264598897831",
    "latitude": "29.939912439001294",
    "geocoded_column": {
      "latitude": "29.939912439001294",
      "longitude": "-90.08264598897831"
    }
  },
  {
    "service_request": "2026-1248880",
    "request_type": "Trash/Recycling",
    "request_reason": "Request a Large Item Pick Up",
    "date_created": "2026-01-02T13:09:39.000",
    "date_modified": "2026-01-02T13:09:40.000",
    "request_status": "Pending",
    "responsible_agency": "Department of Sanitation",
    "final_address": "2520 Lapeyrouse St",
    "address_councildis": "D",
    "status": "Assigned to Contractor",
    "contractor": "IV Waste",
    "rowid": "1248880",
    "final_x": "3679380.874",
    "final_y": "539896.46977",
    "longitude": "-90.07447116984358",
    "latitude": "29.978592282980564",
    "geocoded_column": {
      "latitude": "29.978592282980564",
      "longitude": "-90.07447116984358"
    }
  },
  {
    "service_request": "2026-1248879",
    "request_type": "Trash/Recycling",
    "request_reason": "Order Trash Cart",
    "date_created": "2026-01-02T13:09:29.000",
    "date_modified": "2026-01-02T13:09:31.000",
    "request_status": "Pending",
    "responsible_agency": "Department of Sanitation",
    "final_address": "2117 St Andrew St",
    "address_councildis": "B",
    "status": "Assigned to Contractor",
    "contractor": "IV Waste",
    "rowid": "1248879",
    "final_x": "3676946.40731",
    "final_y": "525802.684925",
    "longitude": "-90.08264598897831",
    "latitude": "29.939912439001294",
    "geocoded_column": {
      "latitude": "29.939912439001294",
      "longitude": "-90.08264598897831"
    }
  },
  {
    "service_request": "2026-1248878",
    "request_type": "Trash/Recycling",
    "request_reason": "Replace Recycling Cart",
    "date_created": "2026-01-02T13:08:00.000",
    "date_modified": "2026-01-02T13:08:01.000",
    "request_status": "Pending",
    "responsible_agency": "Department of Sanitation",
    "final_address": "4323 Chestnut St",
    "address_councildis": "B",
    "status": "Pending",
    "rowid": "1248878",
    "final_x": "3671187.35508",
    "final_y": "519581.33292",
    "longitude": "-90.10103944403296",
    "latitude": "29.922977310352888",
    "geocoded_column": {
      "latitude": "29.922977310352888",
      "longitude": "-90.10103944403296"
    }
  },
  {
    "service_request": "2026-1248877",
    "request_type": "Streetlights",
    "request_reason": "Streetlight Outage/Malfunction",
    "date_created": "2026-01-02T13:07:54.000",
    "date_modified": "2026-01-02T13:07:55.000",
    "request_status": "Pending",
    "responsible_agency": "Department of Public Works",
    "final_address": "710 N Carrollton Ave",
    "address_councildis": "A",
    "status": "Pending",
    "rowid": "1248877",
    "final_x": "3672733.29659",
    "final_y": "539957.811658",
    "longitude": "-90.09546463261647",
    "latitude": "29.978960092375473",
    "geocoded_column": {
      "latitude": "29.978960092375473",
      "longitude": "-90.09546463261647"
    }
  },
  {
    "service_request": "2026-1248876",
    "request_type": "Trash/Recycling",
    "request_reason": "Request a Large Item Pick Up",
    "date_created": "2026-01-02T13:04:45.000",
    "date_modified": "2026-01-02T13:04:47.000",
    "request_status": "Pending",
    "responsible_agency": "Department of Sanitation",
    "final_address": "7642 Scottwood Dr",
    "address_councildis": "E",
    "status": "Assigned to Contractor",
    "contractor": "Waste Pro",
    "rowid": "1248876",
    "final_x": "3717167.30168",
    "final_y": "570752.440807",
    "longitude": "-89.95395588008977",
    "latitude": "30.062238371575393",
    "geocoded_column": {
      "latitude": "30.062238371575393",
      "longitude": "-89.95395588008977"
    }
  },