[
  {
    "service_request": "2025-1218309",
    "request_type": "Streetlights",
    "request_reason": "Streetlight Outage/Malfunction",
    "date_created": "2025-08-13T22:36:56.000",
    "date_modified": "2025-08-13T22:36:59.000",
    "request_status": "Pending",
    "responsible_agency": "Department of Public Works",
    "final_address": "4201 Patterson St",
    "address_councildis": "C",
    "status": "Pending",
    "contractor": "Legacy Professional Services",
    "rowid": "1218309",
    "final_x": "3699616.83031",
    "final_y": "526125.073918",
    "longitude": "-90.01106083621934",
    "latitude": "29.94009902775673",
    "geocoded_column": {
      "latitude": "29.94009902775673",
      "longitude": "-90.01106083621934"
    }
  },
  {
    "service_request": "2025-1218308",
    "request_type": "Property Maintenance",
    "request_reason": "Property Maintenance",
    "date_created": "2025-08-13T21:43:08.000",
    "date_modified": "2025-08-13T21:43:10.000",
    "request_status": "Pending",
    "responsible_agency": "Department of Code Enforcement",
    "final_address": "4520 S Robertson St",
    "address_councildis": "B",
    "status": "Pending",
    "rowid": "1218308",
    "final_x": "3669918.97223",
    "final_y": "524297.936444",
    "longitude": "-90.10488362793032",
    "latitude": "29.93598390829717",
    "geocoded_column": {
      "latitude": "29.93598390829717",
      "longitude": "-90.10488362793032"
    }
  },
  {
    "service_request": "2025-1218307",
    "request_type": "Trash/Recycling",
    "request_reason": "Order Second Trash Cart",
    "date_created": "2025-08-13T21:37:17.000",
    "date_modified": "2025-08-13T21:37:19.000",
    "request_status": "Pending",
    "responsible_agency": "Department of Sanitation",
    "final_address": "1506 Treasure St",
    "address_councildis": "D",
    "status": "Assigned to Contractor",
    "contractor": "IV Waste",
    "rowid": "1218307",
    "final_x": "3679739.69365",
    "final_y": "543625.05531",
    "longitude": "-90.07320837648611",
    "latitude": "29.98883374847517",
    "geocoded_column": {
      "latitude": "29.98883374847517",
      "longitude": "-90.07320837648611"
    }
  },
  {
    "service_request": "2025-1218306",
    "request_type": "General Services",
    "request_reason": "General Service Request",
    "date_created": "2025-08-13T21:25:25.000",
    "date_modified": "2025-08-13T21:25:27.000",
    "request_status": "Pending",
    "responsible_agency": "Orleans Parish Communication District",
    "final_address": "1601 General Collins Ave",
    "address_councildis": "C",
    "status": "Pending",
    "rowid": "1218306",
    "final_x": "3698421.86346",
    "final_y": "525342.379069",
    "longitude": "-90.01486194044534",
    "latitude": "29.9379847515394",
    "geocoded_column": {
      "latitude": "29.9379847515394",
      "longitude": "-90.01486194044534"
    }
  },
  {
    "service_request": "2025-1218305",
    "request_type": "Abandoned Vehicles",
    "request_reason": "Abandoned/Junk Vehicles",
    "date_created": "2025-08-13T21:22:27.000",
    "date_modified": "2025-08-13T21:22:31.000",
    "request_status": "Pending",
    "responsible_agency": "Department of Public Works",
    "final_address": "537 Verret St",
    "address_councildis": "C",
    "status": "Pending",
    "rowid": "1218305",
    "final_x": "3686983.72239",
    "final_y": "529582.922177",
    "longitude": "-90.05082320331647",
    "latitude": "29.95000174427931",
    "geocoded_column": {
      "latitude": "29.95000174427931",
      "longitude": "-90.05082320331647"
    }
  },
  {
    "service_request": "2025-1218304",
    "request_type": "Abandoned Vehicles",
    "request_reason": "Abandoned/Junk Vehicles",
    "date_created": "2025-08-13T21:18:47.000",
    "date_modified": "2025-08-13T21:18:49.000",
    "request_status": "Pending",
    "responsible_agency": "Department of Public Works",
    "final_address": "655 Seguin St",
    "address_councildis": "C",
    "status": "Pending",
    "rowid": "1218304",
    "final_x": "3686921.75522",
    "final_y": "529202.766656",
    "longitude": "-90.05103229485988",
    "latitude": "29.948958353339165",
    "geocoded_column": {
      "latitude": "29.948958353339165",
      "longitude": "-90.05103229485988"
    }
  },
  {
    "service_request": "2025-1218303",
    "request_type": "Roads and Streets",
    "request_reason": "Pothole",
    "date_created": "2025-08-13T21:10:58.000",
    "date_modified": "2025-08-13T21:11:01.000",
    "request_status": "Pending",
    "responsible_agency": "Department of Public Works",
    "final_address": "3228 Plymouth Pl",
    "address_councildis": "C",
    "status": "Pending",
    "rowid": "1218303",
    "final_x": "3702898.82468",
    "final_y": "519225.235383",
    "longitude": "-90.00095245612326",
    "latitude": "29.921022326827543",
    "geocoded_column": {
      "latitude": "29.921022326827543",
      "longitude": "-90.00095245612326"
    }
  },
  {
    "service_request": "2025-1218302",
    "request_type": "Roads and Streets",
    "request_reason": "ADA Ramps Damaged or Missing",
    "date_created": "2025-08-13T21:06:38.000",
    "date_modified": "2025-08-13T21:06:40.000",
    "request_status": "Pending",
    "responsible_agency": "Department of Public Works",
    "final_address": "5101 Dover Pl",
    "address_councildis": "C",
    "status": "Pending",
    "rowid": "1218302",
    "final_x": "3702876.42519",
    "final_y": "519117.149559",
    "longitude": "-90.00102712768259",
    "latitude": "29.920725844227288",
    "geocoded_column": {
      "latitude": "29.920725844227288",
      "longitude": "-90.00102712768259"
    }
  },
  {
    "service_request": "2025-1218301",
    "request_type": "Abandoned Vehicles",
    "request_reason": "Abandoned/Junk Vehicles",
    "date_created": "2025-08-13T20:32:35.000",
    "date_modified": "2025-08-13T20:32:37.000",
    "request_status": "Pending",
    "responsible_agency": "Department of Public Works",
    "final_address": "4819 Nighthart St",
    "address_councildis": "E",
    "status": "Pending",
    "rowid": "1218301",
    "final_x": "3716133.85458",
    "final_y": "557219.141339",
    "longitude": "-89.95773615630574",
    "latitude": "30.025061465758444",
    "geocoded_column": {
      "latitude": "30.025061465758444",
      "longitude": "-89.95773615630574"
    }
  },
  {
    "service_request": "2025-1218300",
    "request_type": "Property Maintenance",
    "request_reason": "Property Maintenance",
    "date_created": "2025-08-13T20:12:17.000",
    "date_modified": "2025-08-13T20:12:19.000",
    "request_status": "Pending",
    "responsible_agency": "Department of Code Enforcement",
    "final_address": "2403 St Ann St",
    "address_councildis": "D",
    "status": "Pending",
    "rowid": "1218300",
    "final_x": "3677998.63374",
    "final_y": "536453.506759",
    "longitude": "-90.07895584070688",
    "latitude": "29.96916700016541",
    "geocoded_column": {
      "latitude": "29.96916700016541",
      "longitude": "-90.07895584070688"
    }
  },
  {
    "service_request": "2025-1218299",
    "request_type": "Trash/Recycling",
    "request_reason": "Replace Trash Cart",
    "date_created": "2025-08-13T20:03:50.000",
    "date_modified": "2025-08-13T20:03:52.000",
    "request_status": "Pending",
    "responsible_agency": "Department of Sanitation",
    "final_address": "6161 Marquette Pl",
    "address_councildis": "A",
    "status": "Assigned to Contractor",
    "contractor": "IV Waste",
    "rowid": "1218299",
    "final_x": "3665662.01882",
    "final_y": "523301.583035",
    "longitude": "-90.11835633349695",
    "latitude": "29.933369058321396",
    "geocoded_column": {
      "latitude": "29.933369058321396",
      "longitude": "-90.11835633349695"
    }
  },
  {
    "service_request": "2025-1218298",
    "request_type": "Streetlights",
    "request_reason": "Streetlight Outage/Malfunction",
    "date_created": "2025-08-13T19:58:42.000",
    "date_modified": "2025-08-13T19:58:44.000",
    "request_status": "Pending",
    "responsible_agency": "Department of Public Works",
    "final_address": "210 Baronne St",
    "address_councildis": "B",
    "status": "Pending",
    "contractor": "Legacy Professional Services",
    "rowid": "1218298",
    "final_x": "3680240.2836",
    "final_y": "530605.158914",
    "longitude": "-90.0720798481",
    "latitude": "29.953018366512932",
    "geocoded_column": {
      "latitude": "29.953018366512932",
      "longitude": "-90.0720798481"
    }
  },
  {
    "service_request": "2025-1218297",
    "request_type": "Streetlights",
    "request_reason": "Streetlight Outage/Malfunction",
    "date_created": "2025-08-13T19:54:50.000",
    "date_modified": "2025-08-13T19:54:53.000",
    "request_status": "Pending",
    "responsible_agency": "Department of Public Works",
    "final_address": "6201 Wadsworth Dr",
    "address_councildis": "D",
    "status": "Pending",
    "contractor": "Legacy Professional Services",
    "rowid": "1218297",
    "final_x": "3681675.46824",
    "final_y": "555682.103833",
    "longitude": "-90.06667285708541",
    "latitude": "30.021927620559083",
    "geocoded_column": {
      "latitude": "30.021927620559083",
      "longitude": "-90.06667285708541"
    }
  },
  {
    "service_request": "2025-1218296",
    "request_type": "Abandoned Vehicles",
    "request_reason": "Abandoned/Junk Vehicles",
    "date_created": "2025-08-13T19:41:30.000",
    "date_modified": "2025-08-13T19:41:31.000",
    "request_status": "Pending",
    "responsible_agency": "Department of Public Works",
    "final_address": "9413 Palm St",
    "address_councildis": "A",
    "status": "Pending",
    "rowid": "1218296",
    "final_x": "3664229.76026",
    "final_y": "537941.513481",
    "longitude": "-90.12238947373153",
    "latitude": "29.973665801015173",
    "geocoded_column": {
      "latitude": "29.973665801015173",
      "longitude": "-90.12238947373153"
    }
  },
  {
    "service_request": "2025-1218294",
    "request_type": "Trash/Recycling",
    "request_reason": "Request a Large Item Pick Up",
    "date_created": "2025-08-13T19:33:51.000",
    "date_modified": "2025-08-13T19:33:54.000",
    "request_status": "Pending",
    "responsible_agency": "Department of Sanitation",
    "final_address": "8440 Jeannette St",
    "address_councildis": "A",
    "status": "Assigned to Contractor",
    "contractor": "IV Waste",
    "rowid": "1218294",
    "final_x": "3661636.52736",
    "final_y": "530042.712513",
    "longitude": "-90.13084129857997",
    "latitude": "29.95202177291977",
    "geocoded_column": {
      "latitude": "29.95202177291977",
      "longitude": "-90.13084129857997"
    }
  },
  {
    "service_request": "2025-1218293",
    "request_type": "Trash/Recycling",
    "request_reason": "Request a Large Item Pick Up",
    "date_created": "2025-08-13T18:58:18.000",
    "date_modified": "2025-08-13T18:58:19.000",
    "request_status": "Pending",
    "responsible_agency": "Department of Sanitation",
    "final_address": "4800 Banks St",
    "address_councildis": "A",
    "status": "Assigned to Contractor",
    "contractor": "IV Waste",
    "rowid": "1218293",
    "final_x": "3668027.19373",
    "final_y": "539080.506186",
    "longitude": "-90.11035792925394",
    "latitude": "29.97668675304168",
    "geocoded_column": {
      "latitude": "29.97668675304168",
      "longitude": "-90.11035792925394"
    }
  },
  {
    "service_request": "2025-1218292",
    "request_type": "Streetlights",
    "request_reason": "Streetlight Outage/Malfunction",
    "date_created": "2025-08-13T18:55:21.000",
    "date_modified": "2025-08-13T18:55:25.000",
    "request_status": "Pending",
    "responsible_agency": "Department of Public Works",
    "final_address": "210 Baronne St",
    "address_councildis": "B",
    "status": "Pending",
    "contractor": "Legacy Professional Services",
    "rowid": "1218292",
    "final_x": "3680240.2836",
    "final_y": "530605.158914",
    "longitude": "-90.0720798481",
    "latitude": "29.953018366512932",
    "geocoded_column": {
      "latitude": "29.953018366512932",
      "longitude": "-90.0720798481"
    }
  },
  {
    "service_request": "2025-1218291",
    "request_type": "Roads and Streets",
    "request_reason": "Abandoned Service Cut",
    "date_created": "2025-08-13T18:52:34.000",
    "date_modified": "2025-08-13T18:52:37.000",
    "request_status": "Pending",
    "responsible_agency": "Department of Public Works",
    "final_address": "3800 Earhart Blvd",
    "address_councildis": "B",
    "status": "Pending",
    "rowid": "1218291",
    "final_x": "3672969.29096",
    "final_y": "530924.121922",
    "longitude": "-90.09502761357089",
    "latitude": "29.954113471506442",
    "geocoded_column": {
      "latitude": "29.954113471506442",
      "longitude": "-90.09502761357089"
    }
  },
  {
    "service_request": "2025-1218290",
    "request_type": "Trash/Recycling",
    "request_reason": "Replace Recycling Cart",
    "date_created": "2025-08-13T18:42:44.000",
    "date_modified": "2025-08-13T18:42:46.000",
    "request_status": "Pending",
    "responsible_agency": "Department of Sanitation",
    "final_address": "2406 Burgundy St",
    "address_councildis": "C",
    "status": "Pending",
    "rowid": "1218290",
    "final_x": "3685916.41545",
    "final_y": "535621.675462",
    "longitude": "-90.05398029343797",
    "latitude": "29.966639043668927",
    "geocoded_column": {
      "latitude": "29.966639043668927",
      "longitude": "-90.05398029343797"
    }
  },
  {
    "service_request": "2025-1218289",
    "request_type": "Property Maintenance",
    "request_reason": "Property Maintenance",
    "date_created": "2025-08-13T18:40:26.000",
    "date_modified": "2025-08-13T18:40:29.000",
    "request_status": "Pending",
    "responsible_agency": "Department of Code Enforcement",
    "final_address": "1575 N Rocheblave St",
    "address_councildis": "D",
    "status": "Pending",
    "rowid": "1218289",
    "final_x": "3679824.64059",
    "final_y": "539443.574218",
    "longitude": "-90.07308532296098",
    "latitude": "29.97733356406759",
    "geocoded_column": {
      "latitude": "29.97733356406759",
      "longitude": "-90.07308532296098"
    }
  },
  {
    "service_request": "2025-1218288",
    "request_type": "Utility Poles",
    "request_reason": "Utility Pole Leaning",
    "date_created": "2025-08-13T18:14:09.000",
    "date_modified": "2025-08-13T18:14:11.000",
    "request_status": "Pending",
    "responsible_agency": "Utility Company Collective",
    "final_address": "303 Audubon St",
    "address_councildis": "A",
    "status": "Pending",
    "rowid": "1218288",
    "final_x": "3661595.50214",
    "final_y": "522051.552314",
    "longitude": "-90.1312355496734",
    "latitude": "29.930049802594002",
    "geocoded_column": {
      "latitude": "29.930049802594002",
      "longitude": "-90.1312355496734"
    }
  },
  {
    "service_request": "2025-1218287",
    "request_type": "General Services",
    "request_reason": "General Service Request",
    "date_created": "2025-08-13T18:13:22.000",
    "date_modified": "2025-08-13T18:13:24.000",
    "request_status": "Pending",
    "responsible_agency": "Orleans Parish Communication District",
    "final_address": "4759 Galahad Dr New Orleans La 70127",
    "address_councildis": "E",
    "status": "Pending",
    "rowid": "1218287",
    "final_x": "3707271.35448",
    "final_y": "555595.552665",
    "longitude": "-89.98580034852779",
    "latitude": "30.020886798824687",
    "geocoded_column": {
      "latitude": "30.020886798824687",
      "longitude": "-89.98580034852779"
    }
  },
  {
    "service_request": "2025-1218286",
    "request_type": "General Services",
    "request_reason": "General Service Request",
    "date_created": "2025-08-13T18:11:55.000",
    "date_modified": "2025-08-13T18:11:57.000",
    "request_status": "Pending",
    "responsible_agency": "Orleans Parish Communication District",
    "final_address": "3702 General Pershing St",
    "address_councildis": "B",
    "status": "Pending",
    "rowid": "1218286",
    "final_x": "3670477.19207",
    "final_y": "528225.572928",
    "longitude": "-90.10298816956683",
    "latitude": "29.94676716585768",
    "geocoded_column": {
      "latitude": "29.94676716585768",
      "longitude": "-90.10298816956683"
    }
  },
  {
    "service_request": "2025-1218285",
    "request_type": "Trash/Recycling",
    "request_reason": "Request a Large Item Pick Up",
    "date_created": "2025-08-13T18:00:56.000",
    "date_modified": "2025-08-13T18:00:58.000",
    "request_status": "Pending",
    "responsible_agency": "Department of Sanitation",
    "final_address": "4415 San Marco Rd",
    "address_councildis": "E",
    "status": "Assigned to Contractor",
    "contractor": "Waste Pro",
    "rowid": "1218285",
    "final_x": "3762504.84573",
    "final_y": "572680.008873",
    "longitude": "-89.81056593964125",
    "latitude": "30.065959666919877",
    "geocoded_column": {
      "latitude": "30.065959666919877",
      "longitude": "-89.81056593964125"
    }
  },
  {
    "service_request": "2025-1218284",
    "request_type": "Trash/Recycling",
    "request_reason": "Request a Large Item Pick Up",
    "date_created": "2025-08-13T17:51:51.000",
    "date_modified": "2025-08-13T17:51:53.000",
    "request_status": "Pending",
    "responsible_agency": "Department of Sanitation",
    "final_address": "2507 Joseph St",
    "address_councildis": "A",
    "status": "Assigned to Contractor",
    "contractor": "IV Waste",
    "rowid": "1218284",
    "final_x": "3667591.5593",
    "final_y": "525173.706493",
    "longitude": "-90.1122018836742",
    "latitude": "29.938460399842594",
    "geocoded_column": {
      "latitude": "29.938460399842594",
      "longitude": "-90.1122018836742"
    }
  },
  {
    "service_request": "2025-1218283",
    "request_type": "Safety & Permits",
    "request_reason": "Zoning Enforcement",
    "date_created": "2025-08-13T17:48:01.000",
    "date_modified": "2025-08-13T17:48:03.000",
    "request_status": "Pending",
    "responsible_agency": "Safety and Permits",
    "final_address": "1454 Henriette Delille St",
    "address_councildis": "C",
    "status": "Pending",
    "rowid": "1218283",
    "final_x": "3682962.46984",
    "final_y": "535911.258695",
    "longitude": "-90.0632986847351",
    "latitude": "29.96752565454411",
    "geocoded_column": {
      "latitude": "29.96752565454411",
      "longitude": "-90.0632986847351"
    }
  },
  {
    "service_request": "2025-1218282",
    "request_type": "Safety & Permits",
    "request_reason": "Zoning Enforcement",
    "date_created": "2025-08-13T17:46:50.000",
    "date_modified": "2025-08-13T17:46:53.000",
    "request_status": "Pending",
    "responsible_agency": "Safety and Permits",
    "final_address": "4758 Sandalwood St",
    "address_councildis": "E",
    "status": "Pending",
    "rowid": "1218282",
    "final_x": "3712142.01195",
    "final_y": "556264.485018",
    "longitude": "-89.9703855007612",
    "latitude": "30.0225677019896",
    "geocoded_column": {
      "latitude": "30.0225677019896",
      "longitude": "-89.9703855007612"
    }
  },
  {
    "service_request": "2025-1218281",
    "request_type": "Trash/Recycling",
    "request_reason": "Replace Trash Cart",
    "date_created": "2025-08-13T17:36:09.000",
    "date_modified": "2025-08-13T17:36:10.000",
    "request_status": "Pending",
    "responsible_agency": "Department of Sanitation",
    "final_address": "311 Calhoun St",
    "address_councildis": "A",
    "status": "Assigned to Contractor",
    "contractor": "IV Waste",
    "rowid": "1218281",
    "final_x": "3662833.19002",
    "final_y": "518182.159222",
    "longitude": "-90.1274569048848",
    "latitude": "29.919374419188497",
    "geocoded_column": {
      "latitude": "29.919374419188497",
      "longitude": "-90.1274569048848"
    }
  },
  {
    "service_request": "2025-1218279",
    "request_type": "Alley Ways",
    "request_reason": "Alley Way Issues",
    "date_created": "2025-08-13T17:18:29.000",
    "date_modified": "2025-08-13T17:18:30.000",
    "request_status": "Pending",
    "responsible_agency": "Department of Public Works",
    "final_address": "5821 Colbert St",
    "address_councildis": "A",
    "status": "Pending",
    "rowid": "1218279",
    "final_x": "3667388.67578",
    "final_y": "546402.19976",
    "longitude": "-90.11212812283972",
    "latitude": "29.996837645331112",
    "geocoded_column": {
      "latitude": "29.996837645331112",
      "longitude": "-90.11212812283972"
    }
  },
  {
    "service_request": "2025-1218278",
    "request_type": "Utility Poles",
    "request_reason": "Utility Pole Down",
    "date_created": "2025-08-13T17:15:55.000",
    "date_modified": "2025-08-13T17:15:57.000",
    "request_status": "Pending",
    "responsible_agency": "Utility Company Collective",
    "final_address": "2818 Conti St",
    "address_councildis": "B",
    "status": "Pending",
    "rowid": "1218278",
    "final_x": "3675441.18152",
    "final_y": "536458.365447",
    "longitude": "-90.0870323025965",
    "latitude": "29.969257094277285",
    "geocoded_column": {
      "latitude": "29.969257094277285",
      "longitude": "-90.0870323025965"
    }
  },
  {
    "service_request": "2025-1218277",
    "request_type": "Traffic Signals",
    "request_reason": "Traffic Signal Malfunctioning or Damaged",
    "date_created": "2025-08-13T17:15:38.000",
    "date_modified": "2025-08-13T17:15:40.000",
    "request_status": "Pending",
    "responsible_agency": "Department of Public Works",
    "final_address": "2700 Tulane Ave",
    "address_councildis": "B",
    "status": "Pending",
    "rowid": "1218277",
    "final_x": "3673969.52104",
    "final_y": "533787.066053",
    "longitude": "-90.0917713338198",
    "latitude": "29.961955851912233",
    "geocoded_column": {
      "latitude": "29.961955851912233",
      "longitude": "-90.0917713338198"
    }
  },
  {
    "service_request": "2025-1218276",
    "request_type": "Drainage",
    "request_reason": "Catch Basin Not Draining",
    "date_created": "2025-08-13T17:12:03.000",
    "date_modified": "2025-08-13T17:12:06.000",
    "request_status": "Pending",
    "responsible_agency": "Sewerage & Water Board",
    "final_address": "2727 S Carrollton Ave",
    "address_councildis": "A",
    "status": "Pending",
    "rowid": "1218276",
    "final_x": "3665911.41626",
    "final_y": "532367.526595",
    "longitude": "-90.11726524952698",
    "latitude": "29.95829020425427",
    "geocoded_column": {
      "latitude": "29.95829020425427",
      "longitude": "-90.11726524952698"
    }
  },
  {
    "service_request": "2025-1218275",
    "request_type": "Trash/Recycling",
    "request_reason": "Request a Large Item Pick Up",
    "date_created": "2025-08-13T17:09:22.000",
    "date_modified": "2025-08-13T17:09:23.000",
    "request_status": "Pending",
    "responsible_agency": "Department of Sanitation",
    "final_address": "32 Olympic Ct",
    "address_councildis": "C",
    "status": "Assigned to Contractor",
    "contractor": "Richards Disposal",
    "rowid": "1218275",
    "final_x": "3699734.25834",
    "final_y": "515853.775156",
    "longitude": "-90.01106431060758",
    "latitude": "29.91185276043689",
    "geocoded_column": {
      "latitude": "29.91185276043689",
      "longitude": "-90.01106431060758"
    }
  },
  {
    "service_request": "2025-1218274",
    "request_type": "Trash/Recycling",
    "request_reason": "Request a Large Item Pick Up",
    "date_created": "2025-08-13T17:07:04.000",
    "date_modified": "2025-08-13T17:07:06.000",
    "request_status": "Pending",
    "responsible_agency": "Department of Sanitation",
    "final_address": "2507 Dryades St",
    "address_councildis": "B",
    "status": "Assigned to Contractor",
    "contractor": "IV Waste",
    "rowid": "1218274",
    "final_x": "3676025.63035",
    "final_y": "523942.9527",
    "longitude": "-90.08561695467583",
    "latitude": "29.934826387761184",
    "geocoded_column": {
      "latitude": "29.934826387761184",
      "longitude": "-90.08561695467583"
    }
  },
  {
    "service_request": "2025-1218273",
    "request_type": "Safety & Permits",
    "request_reason": "Zoning Enforcement",
    "date_created": "2025-08-13T16:58:39.000",
    "date_modified": "2025-08-13T16:58:40.000",
    "request_status": "Pending",
    "responsible_agency": "Safety and Permits",
    "final_address": "1729 N Rampart St",
    "address_councildis": "C",
    "status": "Pending",
    "rowid": "1218273",
    "final_x": "3683387.85769",
    "final_y": "535836.518151",
    "longitude": "-90.06195792176614",
    "latitude": "29.967307172520925",
    "geocoded_column": {
      "latitude": "29.967307172520925",
      "longitude": "-90.06195792176614"
    }
  },
  {
    "service_request": "2025-1218272",
    "request_type": "Property Maintenance",
    "request_reason": "Property Maintenance",
    "date_created": "2025-08-13T16:56:13.000",
    "date_modified": "2025-08-13T16:56:14.000",
    "request_status": "Pending",
    "responsible_agency": "Department of Code Enforcement",
    "final_address": "1934 Milan St",
    "address_councildis": "B",
    "status": "Pending",
    "rowid": "1218272",
    "final_x": "3671418.8475",
    "final_y": "522302.875706",
    "longitude": "-90.10021625864734",
    "latitude": "29.93045383433031",
    "geocoded_column": {
      "latitude": "29.93045383433031",
      "longitude": "-90.10021625864734"
    }
  },
  {
    "service_request": "2025-1218271",
    "request_type": "Trash/Recycling",
    "request_reason": "Repair Trash Cart",
    "date_created": "2025-08-13T16:55:45.000",
    "date_modified": "2025-08-13T16:55:48.000",
    "request_status": "Pending",
    "responsible_agency": "Department of Sanitation",
    "final_address": "3132 Upperline St",
    "address_councildis": "B",
    "status": "Assigned to Contractor",
    "contractor": "IV Waste",
    "rowid": "1218271",
    "final_x": "3669217.05223",
    "final_y": "526603.796734",
    "longitude": "-90.10702170283145",
    "latitude": "29.942344953018036",
    "geocoded_column": {
      "latitude": "29.942344953018036",
      "longitude": "-90.10702170283145"
    }
  },
  {
    "service_request": "2025-1218270",
    "request_type": "Trash/Recycling",
    "request_reason": "Return Trash Cart",
    "date_created": "2025-08-13T16:51:07.000",
    "date_modified": "2025-08-13T16:51:09.000",
    "request_status": "Pending",
    "responsible_agency": "Department of Sanitation",
    "final_address": "1701 Patterson St",
    "address_councildis": "C",
    "status": "Assigned to Contractor",
    "contractor": "Richards Disposal",
    "rowid": "1218270",
    "final_x": "3690703.06659",
    "final_y": "530866.346818",
    "longitude": "-90.03903376761411",
    "latitude": "29.95341572712131",
    "geocoded_column": {
      "latitude": "29.95341572712131",
      "longitude": "-90.03903376761411"
    }
  },
  {
    "service_request": "2025-1218269",
    "request_type": "Roads and Streets",
    "request_reason": "Sidewalk Damaged or Missing",
    "date_created": "2025-08-13T16:49:16.000",
    "date_modified": "2025-08-13T16:49:17.000",
    "request_status": "Pending",
    "responsible_agency": "Department of Public Works",
    "final_address": "69 N Park Pl",
    "address_councildis": "A",
    "status": "Pending",
    "rowid": "1218269",
    "final_x": "3669881.51783",
    "final_y": "544896.826063",
    "longitude": "-90.10430434750393",
    "latitude": "29.992625098979957",
    "geocoded_column": {
      "latitude": "29.992625098979957",
      "longitude": "-90.10430434750393"
    }
  },
  {
    "service_request": "2025-1218268",
    "request_type": "Trash/Recycling",
    "request_reason": "Missed Trash Pick-Up",
    "date_created": "2025-08-13T16:41:03.000",
    "date_modified": "2025-08-13T16:41:05.000",
    "request_status": "Pending",
    "responsible_agency": "Department of Sanitation",
    "final_address": "4725 Hauck Dr",
    "address_councildis": "E",
    "status": "Assigned to Contractor",
    "contractor": "Waste Pro",
    "rowid": "1218268",
    "final_x": "3714634.85963",
    "final_y": "556726.422234",
    "longitude": "-89.96249131758312",
    "latitude": "30.023756079590843",
    "geocoded_column": {
      "latitude": "30.023756079590843",
      "longitude": "-89.96249131758312"
    }
  },
  {
    "service_request": "2025-1218267",
    "request_type": "Abandoned Vehicles",
    "request_reason": "Abandoned/Junk Vehicles",
    "date_created": "2025-08-13T16:24:43.000",
    "date_modified": "2025-08-13T16:24:45.000",
    "request_status": "Pending",
    "responsible_agency": "Department of Public Works",
    "final_address": "2308 Short St",
    "address_councildis": "A",
    "status": "Pending",
    "rowid": "1218267",
    "final_x": "3664931.36288",
    "final_y": "531020.57229",
    "longitude": "-90.12040502848203",
    "latitude": "29.954615082286814",
    "geocoded_column": {
      "latitude": "29.954615082286814",
      "longitude": "-90.12040502848203"
    }
  },
  {
    "service_request": "2025-1218266",
    "request_type": "Trash/Recycling",
    "request_reason": "Repair Trash Cart",
    "date_created": "2025-08-13T16:23:49.000",
    "date_modified": "2025-08-13T16:23:51.000",
    "request_status": "Pending",
    "responsible_agency": "Department of Sanitation",
    "final_address": "1619 Benton St",
    "address_councildis": "E",
    "status": "Assigned to Contractor",
    "contractor": "Waste Pro",
    "rowid": "1218266",
    "final_x": "3699627.89911",
    "final_y": "535477.571974",
    "longitude": "-90.01068505686027",
    "latitude": "29.965814738718333",
    "geocoded_column": {
      "latitude": "29.965814738718333",
      "longitude": "-90.01068505686027"
    }
  },
  {
    "service_request": "2025-1218265",
    "request_type": "Trash/Recycling",
    "request_reason": "Request a Large Item Pick Up",
    "date_created": "2025-08-13T16:22:25.000",
    "date_modified": "2025-08-13T16:22:28.000",
    "request_status": "Pending",
    "responsible_agency": "Department of Sanitation",
    "final_address": "3620 Rue Michelle",
    "address_councildis": "C",
    "status": "Assigned to Contractor",
    "contractor": "Richards Disposal",
    "rowid": "1218265",
    "final_x": "3703665.22897",
    "final_y": "517254.779573",
    "longitude": "-89.99860573284646",
    "latitude": "29.9155797255192",
    "geocoded_column": {
      "latitude": "29.9155797255192",
      "longitude": "-89.99860573284646"
    }
  },
  {
    "service_request": "2025-1218264",
    "request_type": "Trash/Recycling",
    "request_reason": "Request a Large Item Pick Up",
    "date_created": "2025-08-13T16:21:39.000",
    "date_modified": "2025-08-13T16:21:42.000",
    "request_status": "Pending",
    "responsible_agency": "Department of Sanitation",
    "final_address": "191 Turnberry Dr",
    "address_councildis": "E",
    "status": "Assigned to Contractor",
    "contractor": "Waste Pro",
    "rowid": "1218264",
    "final_x": "3720625.01746",
    "final_y": "563947.142753",
    "longitude": "-89.94328707427304",
    "latitude": "30.043411720283125",
    "geocoded_column": {
      "latitude": "30.043411720283125",
      "longitude": "-89.94328707427304"
    }
  },
  {
    "service_request": "2025-1218263",
    "request_type": "Trash/Recycling",
    "request_reason": "Request a Large Item Pick Up",
    "date_created": "2025-08-13T16:20:28.000",
    "date_modified": "2025-08-13T16:20:30.000",
    "request_status": "Pending",
    "responsible_agency": "Department of Sanitation",
    "final_address": "1228 N Dorgenois St",
    "address_councildis": "D",
    "status": "Assigned to Contractor",
    "contractor": "IV Waste",
    "rowid": "1218263",
    "final_x": "3678433.30325",
    "final_y": "538251.124169",
    "longitude": "-90.07752090398269",
    "latitude": "29.974096740589733",
    "geocoded_column": {
      "latitude": "29.974096740589733",
      "longitude": "-90.07752090398269"
    }
  },
  {
    "service_request": "2025-1218262",
    "request_type": "Property Maintenance",
    "request_reason": "Property Maintenance",
    "date_created": "2025-08-13T16:18:12.000",
    "date_modified": "2025-08-13T16:18:14.000",
    "request_status": "Pending",
    "responsible_agency": "Department of Code Enforcement",
    "final_address": "2011 Mazant St",
    "address_councildis": "D",
    "status": "Pending",
    "rowid": "1218262",
    "final_x": "3693012.94493",
    "final_y": "538707.061257",
    "longitude": "-90.03145889731948",
    "latitude": "29.97490298524224",
    "geocoded_column": {
      "latitude": "29.97490298524224",
      "longitude": "-90.03145889731948"
    }
  },
  {
    "service_request": "2025-1218261",
    "request_type": "Drainage",
    "request_reason": "Catch Basin Not Draining",
    "date_created": "2025-08-13T16:10:57.000",
    "date_modified": "2025-08-13T16:10:59.000",
    "request_status": "Pending",
    "responsible_agency": "Sewerage & Water Board",
    "final_address": "1339 France St",
    "address_councildis": "D",
    "status": "Pending",
    "rowid": "1218261",
    "final_x": "3692683.97296",
    "final_y": "536210.330311",
    "longitude": "-90.03258738317676",
    "latitude": "29.968048134259593",
    "geocoded_column": {
      "latitude": "29.968048134259593",
      "longitude": "-90.03258738317676"
    }
  },
  {
    "service_request": "2025-1218260",
    "request_type": "Trash/Recycling",
    "request_reason": "Order Recycling Cart",
    "date_created": "2025-08-13T16:09:43.000",
    "date_modified": "2025-08-13T16:09:46.000",
    "request_status": "Pending",
    "responsible_agency": "Department of Sanitation",
    "final_address": "2941 Hudson St",
    "address_councildis": "C",
    "status": "Pending",
    "rowid": "1218260",
    "final_x": "3694170.35254",
    "final_y": "520212.68172",
    "longitude": "-90.0284686887166",
    "latitude": "29.924013661679744",
    "geocoded_column": {
      "latitude": "29.924013661679744",
      "longitude": "-90.0284686887166"
    }
  },
  {
    "service_request": "2025-1218259",
    "request_type": "Traffic Signals",
    "request_reason": "Traffic Signal Malfunctioning or Damaged",
    "date_created": "2025-08-13T16:08:40.000",
    "date_modified": "2025-08-13T16:08:42.000",
    "request_status": "Pending",
    "responsible_agency": "Department of Public Works",
    "final_address": "3807 General De Gaulle Dr",
    "address_councildis": "C",
    "status": "Pending",
    "rowid": "1218259",
    "final_x": "3697793.34519",
    "final_y": "519569.763896",
    "longitude": "-90.01705556940341",
    "latitude": "29.922131913713642",
    "geocoded_column": {
      "latitude": "29.922131913713642",
      "longitude": "-90.01705556940341"
    }
  },
  {
    "service_request": "2025-1218258",
    "request_type": "Roads and Streets",
    "request_reason": "Sidewalk Damaged or Missing",
    "date_created": "2025-08-13T16:08:02.000",
    "date_modified": "2025-08-13T16:08:04.000",
    "request_status": "Pending",
    "responsible_agency": "Department of Public Works",
    "final_address": "2036 Pine St",
    "address_councildis": "A",
    "status": "Pending",
    "rowid": "1218258",
    "final_x": "3665626.09972",
    "final_y": "529266.062145",
    "longitude": "-90.1182700577801",
    "latitude": "29.94977050955509",
    "geocoded_column": {
      "latitude": "29.94977050955509",
      "longitude": "-90.1182700577801"
    }
  },
  {
    "service_request": "2025-1218257",
    "request_type": "Street and Traffic Signs",
    "request_reason": "Street Name Sign Damaged or Missing",
    "date_created": "2025-08-13T16:03:06.000",
    "date_modified": "2025-08-13T16:03:08.000",
    "request_status": "Pending",
    "responsible_agency": "Department of Public Works",
    "final_address": "2101 Milan St",
    "address_councildis": "B",
    "status": "Pending",
    "rowid": "1218257",
    "final_x": "3671464.46772",
    "final_y": "522765.154042",
    "longitude": "-90.1000565352008",
    "latitude": "29.931723601011914",
    "geocoded_column": {
      "latitude": "29.931723601011914",
      "longitude": "-90.1000565352008"
    }
  },
  {
    "service_request": "2025-1218256",
    "request_type": "Trash/Recycling",
    "request_reason": "Request a Large Item Pick Up",
    "date_created": "2025-08-13T16:01:50.000",
    "date_modified": "2025-08-13T16:01:52.000",
    "request_status": "Pending",
    "responsible_agency": "Department of Sanitation",
    "final_address": "7000 Cove Dr",
    "address_councildis": "E",
    "status": "Assigned to Contractor",
    "contractor": "Waste Pro",
    "rowid": "1218256",
    "final_x": "3700346.33834",
    "final_y": "558144.995931",
    "longitude": "-90.00758804699463",
    "latitude": "30.028118900315583",
    "geocoded_column": {
      "latitude": "30.028118900315583",
      "longitude": "-90.00758804699463"
    }
  },
  {
    "service_request": "2025-1218255",
    "request_type": "Roads and Streets",
    "request_reason": "Street Subsidence (Sinking)",
    "date_created": "2025-08-13T15:59:53.000",
    "date_modified": "2025-08-13T16:23:08.000",
    "request_status": "Pending",
    "responsible_agency": "Sewerage & Water Board",
    "final_address": "849 Weiblen Pl",
    "address_councildis": "A",
    "status": "Pending",
    "rowid": "1218255",
    "final_x": "3668946.55988",
    "final_y": "542572.914509",
    "longitude": "-90.10733625929831",
    "latitude": "29.986262678900104",
    "geocoded_column": {
      "latitude": "29.986262678900104",
      "longitude": "-90.10733625929831"
    }
  },
  {
    "service_request": "2025-1218254",
    "request_type": "Parks & Parkways",
    "request_reason": "Request Tree Service (Right of Way/Public Property)",
    "date_created": "2025-08-13T15:59:37.000",
    "date_modified": "2025-08-13T15:59:39.000",
    "request_status": "Pending",
    "responsible_agency": "Department of Parks & Parkway",
    "final_address": "631 Gallier St",
    "address_councildis": "C",
    "status": "Pending",
    "rowid": "1218254",
    "final_x": "3690105.27376",
    "final_y": "534038.901893",
    "longitude": "-90.0408083368029",
    "latitude": "29.962157705324994",
    "geocoded_column": {
      "latitude": "29.962157705324994",
      "longitude": "-90.0408083368029"
    }
  },
  {
    "service_request": "2025-1218253",
    "request_type": "Trash/Recycling",
    "request_reason": "Repair Recycling Cart",
    "date_created": "2025-08-13T15:57:19.000",
    "date_modified": "2025-08-13T15:57:21.000",
    "request_status": "Pending",
    "responsible_agency": "Department of Sanitation",
    "final_address": "1565 Exposition Blvd",
    "address_councildis": "A",
    "status": "Pending",
    "rowid": "1218253",
    "final_x": "3664528.7122",
    "final_y": "522846.914363",
    "longitude": "-90.1219493047153",
    "latitude": "29.93215185729792",
    "geocoded_column": {
      "latitude": "29.93215185729792",
      "longitude": "-90.1219493047153"
    }
  },
  {
    "service_request": "2025-1218252",
    "request_type": "Trash/Recycling",
    "request_reason": "Repair Trash Cart",
    "date_created": "2025-08-13T15:55:40.000",
    "date_modified": "2025-08-13T15:55:42.000",
    "request_status": "Pending",
    "responsible_agency": "Department of Sanitation",
    "final_address": "12 Thrasher St",
    "address_councildis": "D",
    "status": "Assigned to Contractor",
    "contractor": "IV Waste",
    "rowid": "1218252",
    "final_x": "3672043.52385",
    "final_y": "556332.09769",
    "longitude": "-90.09708523586256",
    "latitude": "30.024004122149517",
    "geocoded_column": {
      "latitude": "30.024004122149517",
      "longitude": "-90.09708523586256"
    }
  },
  {
    "service_request": "2025-1218250",
    "request_type": "Trash/Recycling",
    "request_reason": "Missed Trash Pick-Up",
    "date_created": "2025-08-13T15:54:43.000",
    "date_modified": "2025-08-13T15:54:45.000",
    "request_status": "Pending",
    "responsible_agency": "Department of Sanitation",
    "final_address": "2539 Banks St",
    "address_councildis": "B",
    "status": "Assigned to Contractor",
    "contractor": "IV Waste",
    "rowid": "1218250",
    "final_x": "3675198.63086",
    "final_y": "533781.363589",
    "longitude": "-90.08789018739895",
    "latitude": "29.961903495163675",
    "geocoded_column": {
      "latitude": "29.961903495163675",
      "longitude": "-90.08789018739895"
    }
  },
  {
    "service_request": "2025-1218249",
    "request_type": "Parks & Parkways",
    "request_reason": "Request Grass Cutting Service (City Owned Property)",
    "date_created": "2025-08-13T15:53:28.000",
    "date_modified": "2025-08-13T15:53:29.000",
    "request_status": "Pending",
    "responsible_agency": "Department of Parks & Parkway",
    "final_address": "PRESS DR & LEON C SIMON DR",
    "address_councildis": "D",
    "status": "Pending",
    "rowid": "1218249",
    "final_x": "3688405.0",
    "final_y": "558118.88",
    "longitude": "-90.04532277519931",
    "latitude": "30.028421579434056",
    "geocoded_column": {
      "latitude": "30.028421579434056",
      "longitude": "-90.04532277519931"
    }
  },
  {
    "service_request": "2025-1218246",
    "request_type": "Trash/Recycling",
    "request_reason": "Request a Large Item Pick Up",
    "date_created": "2025-08-13T15:47:25.000",
    "date_modified": "2025-08-13T15:47:28.000",
    "request_status": "Pending",
    "responsible_agency": "Department of Sanitation",
    "final_address": "2542 Valentine Ct",
    "address_councildis": "C",
    "status": "Assigned to Contractor",
    "contractor": "Richards Disposal",
    "rowid": "1218246",
    "final_x": "3699167.34423",
    "final_y": "521912.07833",
    "longitude": "-90.01263323203119",
    "latitude": "29.928529003437042",
    "geocoded_column": {
      "latitude": "29.928529003437042",
      "longitude": "-90.01263323203119"
    }
  },
  {
    "service_request": "2025-1218245",
    "request_type": "Trash/Recycling",
    "request_reason": "Request a Large Item Pick Up",
    "date_created": "2025-08-13T15:44:54.000",
    "date_modified": "2025-08-13T15:44:56.000",
    "request_status": "Pending",
    "responsible_agency": "Department of Sanitation",
    "final_address": "2365 Odin St",
    "address_councildis": "D",
    "status": "Assigned to Contractor",
    "contractor": "IV Waste",
    "rowid": "1218245",
    "final_x": "3685009.54351",
    "final_y": "553187.329431",
    "longitude": "-90.0562259126432",
    "latitude": "30.014966145830567",
    "geocoded_column": {
      "latitude": "30.014966145830567",
      "longitude": "-90.0562259126432"
    }
  },
  {
    "service_request": "2025-1218244",
    "request_type": "Trash/Recycling",
    "request_reason": "Request a Large Item Pick Up",
    "date_created": "2025-08-13T15:44:43.000",
    "date_modified": "2025-08-13T15:44:45.000",
    "request_status": "Pending",
    "responsible_agency": "Department of Sanitation",
    "final_address": "4219 S Liberty St",
    "address_councildis": "B",
    "status": "Assigned to Contractor",
    "contractor": "IV Waste",
    "rowid": "1218244",
    "final_x": "3671170.72865",
    "final_y": "523451.513851",
    "longitude": "-90.10096053481031",
    "latitude": "29.933619559384514",
    "geocoded_column": {
      "latitude": "29.933619559384514",
      "longitude": "-90.10096053481031"
    }
  },
  {
    "service_request": "2025-1218243",
    "request_type": "Traffic Safety",
    "request_reason": "Request for Traffic Calming due to Speeding",
    "date_created": "2025-08-13T15:43:54.000",
    "date_modified": "2025-08-13T15:45:26.000",
    "request_status": "Pending",
    "responsible_agency": "Department of Public Works",
    "final_address": "1944 Tennessee St",
    "address_councildis": "E",
    "status": "Pending",
    "rowid": "1218243",
    "final_x": "3696565.44784",
    "final_y": "537661.147144",
    "longitude": "-90.02027710375705",
    "latitude": "29.97191563546463",
    "geocoded_column": {
      "latitude": "29.97191563546463",
      "longitude": "-90.02027710375705"
    }
  },
  {
    "service_request": "2025-1218242",
    "request_type": "Trash/Recycling",
    "request_reason": "Request a Large Item Pick Up",
    "date_created": "2025-08-13T15:40:58.000",
    "date_modified": "2025-08-13T15:40:59.000",
    "request_status": "Pending",
    "responsible_agency": "Department of Sanitation",
    "final_address": "2229 Valence St",
    "address_councildis": "B",
    "status": "Assigned to Contractor",
    "contractor": "IV Waste",
    "rowid": "1218242",
    "final_x": "3669595.98734",
    "final_y": "523147.127163",
    "longitude": "-90.10594221855766",
    "latitude": "29.932829069973195",
    "geocoded_column": {
      "latitude": "29.932829069973195",
      "longitude": "-90.10594221855766"
    }
  },
  {
    "service_request": "2025-1218241",
    "request_type": "Trash/Recycling",
    "request_reason": "Repair Trash Cart",
    "date_created": "2025-08-13T15:40:19.000",
    "date_modified": "2025-08-13T15:40:22.000",
    "request_status": "Pending",
    "responsible_agency": "Department of Sanitation",
    "final_address": "2229 Valence St",
    "address_councildis": "B",
    "status": "Assigned to Contractor",
    "contractor": "IV Waste",
    "rowid": "1218241",
    "final_x": "3669595.98734",
    "final_y": "523147.127163",
    "longitude": "-90.10594221855766",
    "latitude": "29.932829069973195",
    "geocoded_column": {
      "latitude": "29.932829069973195",
      "longitude": "-90.10594221855766"
    }
  },
  {
    "service_request": "2025-1218240",
    "request_type": "Abandoned Vehicles",
    "request_reason": "Abandoned/Junk Vehicles",
    "date_created": "2025-08-13T15:40:10.000",
    "date_modified": "2025-08-13T15:40:13.000",
    "request_status": "Pending",
    "responsible_agency": "Department of Public Works",
    "final_address": "1209 Frenchmen St",
    "address_councildis": "C",
    "status": "Pending",
    "rowid": "1218240",
    "final_x": "3684593.88905",
    "final_y": "536741.919112",
    "longitude": "-90.05811744347007",
    "latitude": "29.96975986128306",
    "geocoded_column": {
      "latitude": "29.96975986128306",
      "longitude": "-90.05811744347007"
    }
  },
  {
    "service_request": "2025-1218239",
    "request_type": "Trash/Recycling",
    "request_reason": "Illegal Dumping",
    "date_created": "2025-08-13T15:27:11.000",
    "date_modified": "2025-08-13T15:27:13.000",
    "request_status": "Pending",
    "responsible_agency": "Department of Sanitation",
    "final_address": "1425 Lamanche St",
    "address_councildis": "E",
    "status": "Pending",
    "rowid": "1218239",
    "final_x": "3698763.11581",
    "final_y": "534989.046918",
    "longitude": "-90.01343376787688",
    "latitude": "29.964498888834942",
    "geocoded_column": {
      "latitude": "29.964498888834942",
      "longitude": "-90.01343376787688"
    }
  },
  {
    "service_request": "2025-1218238",
    "request_type": "Trash/Recycling",
    "request_reason": "Request a Large Item Pick Up",
    "date_created": "2025-08-13T15:25:40.000",
    "date_modified": "2025-08-13T15:25:42.000",
    "request_status": "Pending",
    "responsible_agency": "Department of Sanitation",
    "final_address": "2020 St Ferdinand St",
    "address_councildis": "D",
    "status": "Assigned to Contractor",
    "contractor": "IV Waste",
    "rowid": "1218238",
    "final_x": "3688587.66038",
    "final_y": "539879.467722",
    "longitude": "-90.04539341071765",
    "latitude": "29.978264196250286",
    "geocoded_column": {
      "latitude": "29.978264196250286",
      "longitude": "-90.04539341071765"
    }
  },
  {
    "service_request": "2025-1218237",
    "request_type": "Trash/Recycling",
    "request_reason": "Request a Large Item Pick Up",
    "date_created": "2025-08-13T15:24:48.000",
    "date_modified": "2025-08-13T15:24:50.000",
    "request_status": "Pending",
    "responsible_agency": "Department of Sanitation",
    "final_address": "5613 N Villere St",
    "address_councildis": "E",
    "status": "Assigned to Contractor",
    "contractor": "Waste Pro",
    "rowid": "1218237",
    "final_x": "3698479.05207",
    "final_y": "534893.31303",
    "longitude": "-90.01433429450884",
    "latitude": "29.964244649031198",
    "geocoded_column": {
      "latitude": "29.964244649031198",
      "longitude": "-90.01433429450884"
    }
  },
  {
    "service_request": "2025-1218236",
    "request_type": "Mosquito, Termite & Rodent Control",
    "request_reason": "Rodent Complaint (Mice & Rats)",
    "date_created": "2025-08-13T15:23:08.000",
    "date_modified": "2025-08-13T15:23:11.000",
    "request_status": "Pending",
    "responsible_agency": "Mosquito, Termite & Rodent Control Board",
    "final_address": "8016 Haney Dr",
    "address_councildis": "E",
    "status": "Pending",
    "rowid": "1218236",
    "final_x": "3711815.75384",
    "final_y": "568313.855269",
    "longitude": "-89.97096371177848",
    "latitude": "30.055709311080772",
    "geocoded_column": {
      "latitude": "30.055709311080772",
      "longitude": "-89.97096371177848"
    }
  },
  {
    "service_request": "2025-1218235",
    "request_type": "Trash/Recycling",
    "request_reason": "Repair Trash Cart",
    "date_created": "2025-08-13T15:20:37.000",
    "date_modified": "2025-08-13T15:20:39.000",
    "request_status": "Pending",
    "responsible_agency": "Department of Sanitation",
    "final_address": "2814 Palmer Ave",
    "address_councildis": "A",
    "status": "Assigned to Contractor",
    "contractor": "IV Waste",
    "rowid": "1218235",
    "final_x": "3666851.50989",
    "final_y": "526969.93011",
    "longitude": "-90.11447798073934",
    "latitude": "29.943421102460675",
    "geocoded_column": {
      "latitude": "29.943421102460675",
      "longitude": "-90.11447798073934"
    }
  },
  {
    "service_request": "2025-1218234",
    "request_type": "Trash/Recycling",
    "request_reason": "Repair Trash Cart",
    "date_created": "2025-08-13T15:20:21.000",
    "date_modified": "2025-08-13T15:20:24.000",
    "request_status": "Pending",
    "responsible_agency": "Department of Sanitation",
    "final_address": "1845 E Homestead Dr",
    "address_councildis": "C",
    "status": "Assigned to Contractor",
    "contractor": "Richards Disposal",
    "rowid": "1218234",
    "final_x": "3697104.85085",
    "final_y": "525040.397629",
    "longitude": "-90.0190307748786",
    "latitude": "29.937196010554366",
    "geocoded_column": {
      "latitude": "29.937196010554366",
      "longitude": "-90.0190307748786"
    }
  },
  {
    "service_request": "2025-1218232",
    "request_type": "Trash/Recycling",
    "request_reason": "Request a Large Item Pick Up",
    "date_created": "2025-08-13T15:16:55.000",
    "date_modified": "2025-08-13T15:16:57.000",
    "request_status": "Pending",
    "responsible_agency": "Department of Sanitation",
    "final_address": "4515 Dale St",
    "address_councildis": "E",
    "status": "Assigned to Contractor",
    "contractor": "Waste Pro",
    "rowid": "1218232",
    "final_x": "3699589.77706",
    "final_y": "553777.460567",
    "longitude": "-90.01013809248956",
    "latitude": "30.016133893507035",
    "geocoded_column": {
      "latitude": "30.016133893507035",
      "longitude": "-90.01013809248956"
    }
  },
  {
    "service_request": "2025-1218231",
    "request_type": "Trash/Recycling",
    "request_reason": "Request a Large Item Pick Up",
    "date_created": "2025-08-13T15:16:43.000",
    "date_modified": "2025-08-13T15:16:45.000",
    "request_status": "Pending",
    "responsible_agency": "Department of Sanitation",
    "final_address": "7512 Malvern Dr",
    "address_councildis": "E",
    "status": "Assigned to Contractor",
    "contractor": "Waste Pro",
    "rowid": "1218231",
    "final_x": "3702462.46519",
    "final_y": "561303.790878",
    "longitude": "-90.00078518267915",
    "latitude": "30.0367368665246",
    "geocoded_column": {
      "latitude": "30.0367368665246",
      "longitude": "-90.00078518267915"
    }
  },
  {
    "service_request": "2025-1218230",
    "request_type": "Taxi Issues",
    "request_reason": "Taxi Complaint",
    "date_created": "2025-08-13T15:10:40.000",
    "date_modified": "2025-08-13T15:10:42.000",
    "request_status": "Pending",
    "responsible_agency": "Department of Public Works",
    "final_address": "4600 BLK Rhodes Dr",
    "address_councildis": "E",
    "status": "Pending",
    "rowid": "1218230",
    "final_x": "3702581.78476",
    "final_y": "553751.109477",
    "longitude": "-90.00068570263919",
    "latitude": "30.015966095766824",
    "geocoded_column": {
      "latitude": "30.015966095766824",
      "longitude": "-90.00068570263919"
    }
  },
  {
    "service_request": "2025-1218229",
    "request_type": "Abandoned Vehicles",
    "request_reason": "Abandoned/Junk Vehicles",
    "date_created": "2025-08-13T15:05:48.000",
    "date_modified": "2025-08-13T15:05:50.000",
    "request_status": "Pending",
    "responsible_agency": "Department of Public Works",
    "final_address": "2124 Camp St",
    "address_councildis": "B",
    "status": "Pending",
    "rowid": "1218229",
    "final_x": "3678793.04117",
    "final_y": "522464.221242",
    "longitude": "-90.07693146400749",
    "latitude": "29.930677211414945",
    "geocoded_column": {
      "latitude": "29.930677211414945",
      "longitude": "-90.07693146400749"
    }
  },
  {
    "service_request": "2025-1218228",
    "request_type": "Trash/Recycling",
    "request_reason": "Request a Large Item Pick Up",
    "date_created": "2025-08-13T15:04:28.000",
    "date_modified": "2025-08-13T15:04:29.000",
    "request_status": "Pending",
    "responsible_agency": "Department of Sanitation",
    "final_address": "7001 Lake Willow Dr",
    "address_councildis": "E",
    "status": "Assigned to Contractor",
    "contractor": "Waste Pro",
    "rowid": "1218228",
    "final_x": "3702652.32292",
    "final_y": "558864.199708",
    "longitude": "-90.00027488903017",
    "latitude": "30.030022869097547",
    "geocoded_column": {
      "latitude": "30.030022869097547",
      "longitude": "-90.00027488903017"
    }
  },
  {
    "service_request": "2025-1218227",
    "request_type": "Property Maintenance",
    "request_reason": "Property Maintenance",
    "date_created": "2025-08-13T15:03:18.000",
    "date_modified": "2025-08-13T15:03:20.000",
    "request_status": "Pending",
    "responsible_agency": "Department of Code Enforcement",
    "final_address": "2622 Flood St",
    "address_councildis": "E",
    "status": "Pending",
    "rowid": "1218227",
    "final_x": "3699244.62468",
    "final_y": "539674.606794",
    "longitude": "-90.01174254718762",
    "latitude": "29.97736723055948",
    "geocoded_column": {
      "latitude": "29.97736723055948",
      "longitude": "-90.01174254718762"
    }
  },
  {
    "service_request": "2025-1218226",
    "request_type": "Property Maintenance",
    "request_reason": "Property Maintenance",
    "date_created": "2025-08-13T15:01:11.000",
    "date_modified": "2025-08-13T15:01:14.000",
    "request_status": "Pending",
    "responsible_agency": "Department of Code Enforcement",
    "final_address": "2612 Flood St",
    "address_councildis": "E",
    "status": "Pending",
    "rowid": "1218226",
    "final_x": "3699222.96349",
    "final_y": "539601.788682",
    "longitude": "-90.01181361243569",
    "latitude": "29.977167694112776",
    "geocoded_column": {
      "latitude": "29.977167694112776",
      "longitude": "-90.01181361243569"
    }
  },
  {
    "service_request": "2025-1218225",
    "request_type": "Property Maintenance",
    "request_reason": "Property Maintenance",
    "date_created": "2025-08-13T14:56:27.000",
    "date_modified": "2025-08-13T14:56:29.000",
    "request_status": "Pending",
    "responsible_agency": "Department of Code Enforcement",
    "final_address": "2828 Castiglione St",
    "address_councildis": "D",
    "status": "Pending",
    "rowid": "1218225",
    "final_x": "3679413.44591",
    "final_y": "542204.065037",
    "longitude": "-90.07428821275899",
    "latitude": "29.984936383623804",
    "geocoded_column": {
      "latitude": "29.984936383623804",
      "longitude": "-90.07428821275899"
    }
  },
  {
    "service_request": "2025-1218224",
    "request_type": "Trash/Recycling",
    "request_reason": "Request a Large Item Pick Up",
    "date_created": "2025-08-13T14:54:55.000",
    "date_modified": "2025-08-13T14:54:57.000",
    "request_status": "Pending",
    "responsible_agency": "Department of Sanitation",
    "final_address": "2315 Mexico St",
    "address_councildis": "D",
    "status": "Assigned to Contractor",
    "contractor": "IV Waste",
    "rowid": "1218224",
    "final_x": "3684377.82453",
    "final_y": "556279.076122",
    "longitude": "-90.05811312577495",
    "latitude": "30.023486657324874",
    "geocoded_column": {
      "latitude": "30.023486657324874",
      "longitude": "-90.05811312577495"
    }
  },
  {
    "service_request": "2025-1218223",
    "request_type": "Abandoned Vehicles",
    "request_reason": "Abandoned/Junk Vehicles",
    "date_created": "2025-08-13T14:43:34.000",
    "date_modified": "2025-08-13T14:43:37.000",
    "request_status": "Pending",
    "responsible_agency": "Department of Public Works",
    "final_address": "STEPHEN GIRARD AVE & ST ANTHONY AVE",
    "address_councildis": "D",
    "status": "Pending",
    "rowid": "1218223",
    "final_x": "3682538.4",
    "final_y": "548711.38",
    "longitude": "-90.06419017547856",
    "latitude": "30.002734403510715",
    "geocoded_column": {
      "latitude": "30.002734403510715",
      "longitude": "-90.06419017547856"
    }
  },
  {
    "service_request": "2025-1218222",
    "request_type": "Property Maintenance",
    "request_reason": "Property Maintenance",
    "date_created": "2025-08-13T14:42:58.000",
    "date_modified": "2025-08-13T14:43:00.000",
    "request_status": "Pending",
    "responsible_agency": "Department of Code Enforcement",
    "final_address": "3102 Mistletoe St",
    "address_councildis": "A",
    "status": "Pending",
    "rowid": "1218222",
    "final_x": "3663675.94586",
    "final_y": "536068.425543",
    "longitude": "-90.12420097051047",
    "latitude": "29.96853150999362",
    "geocoded_column": {
      "latitude": "29.96853150999362",
      "longitude": "-90.12420097051047"
    }
  },
  {
    "service_request": "2025-1218221",
    "request_type": "Trash/Recycling",
    "request_reason": "Illegal Dumping",
    "date_created": "2025-08-13T14:40:39.000",
    "date_modified": "2025-08-13T14:40:40.000",
    "request_status": "Pending",
    "responsible_agency": "Department of Sanitation",
    "final_address": "13931 Linden St",
    "address_councildis": "E",
    "status": "Pending",
    "rowid": "1218221",
    "final_x": "3718130.28037",
    "final_y": "572283.198441",
    "longitude": "-89.95085354157808",
    "latitude": "30.066415405507716",
    "geocoded_column": {
      "latitude": "30.066415405507716",
      "longitude": "-89.95085354157808"
    }
  },
  {
    "service_request": "2025-1218220",
    "request_type": "Trash/Recycling",
    "request_reason": "Request a Large Item Pick Up",
    "date_created": "2025-08-13T14:39:11.000",
    "date_modified": "2025-08-13T14:39:13.000",
    "request_status": "Pending",
    "responsible_agency": "Department of Sanitation",
    "final_address": "4908 Tynecastle Dr",
    "address_councildis": "E",
    "status": "Assigned to Contractor",
    "contractor": "Waste Pro",
    "rowid": "1218220",
    "final_x": "3718359.75788",
    "final_y": "557864.766875",
    "longitude": "-89.95067812288022",
    "latitude": "30.026763013417224",
    "geocoded_column": {
      "latitude": "30.026763013417224",
      "longitude": "-89.95067812288022"
    }
  },
  {
    "service_request": "2025-1218219",
    "request_type": "Trash/Recycling",
    "request_reason": "Illegal Dumping",
    "date_created": "2025-08-13T14:39:01.000",
    "date_modified": "2025-08-13T14:39:04.000",
    "request_status": "Pending",
    "responsible_agency": "Department of Sanitation",
    "final_address": "13921 Linden St",
    "address_councildis": "E",
    "status": "Pending",
    "rowid": "1218219",
    "final_x": "3718079.75948",
    "final_y": "572240.436521",
    "longitude": "-89.95101487463066",
    "latitude": "30.066299504047254",
    "geocoded_column": {
      "latitude": "30.066299504047254",
      "longitude": "-89.95101487463066"
    }
  },
  {
    "service_request": "2025-1218218",
    "request_type": "Abandoned Vehicles",
    "request_reason": "Abandoned/Junk Vehicles",
    "date_created": "2025-08-13T14:38:06.000",
    "date_modified": "2025-08-13T14:38:08.000",
    "request_status": "Pending",
    "responsible_agency": "Department of Public Works",
    "final_address": "2018 Camp St",
    "address_councildis": "B",
    "status": "Pending",
    "rowid": "1218218",
    "final_x": "3679170.34114",
    "final_y": "522756.470074",
    "longitude": "-90.07573025702844",
    "latitude": "29.9314694189033",
    "geocoded_column": {
      "latitude": "29.9314694189033",
      "longitude": "-90.07573025702844"
    }
  },
  {
    "service_request": "2025-1218217",
    "request_type": "Abandoned Vehicles",
    "request_reason": "Abandoned/Junk Vehicles",
    "date_created": "2025-08-13T14:37:41.000",
    "date_modified": "2025-08-13T14:37:43.000",
    "request_status": "Pending",
    "responsible_agency": "Department of Public Works",
    "final_address": "N CLAIBORNE AVE & LESSEPS ST",
    "address_councildis": "D",
    "status": "Pending",
    "rowid": "1218217",
    "final_x": "3693164.8",
    "final_y": "536949.48",
    "longitude": "-90.03104239033269",
    "latitude": "29.970065516863542",
    "geocoded_column": {
      "latitude": "29.970065516863542",
      "longitude": "-90.03104239033269"
    }
  },
  {
    "service_request": "2025-1218216",
    "request_type": "Trash/Recycling",
    "request_reason": "Order Trash Cart",
    "date_created": "2025-08-13T14:37:21.000",
    "date_modified": "2025-08-13T14:37:23.000",
    "request_status": "Pending",
    "responsible_agency": "Department of Sanitation",
    "final_address": "6320 N Rampart St",
    "address_councildis": "E",
    "status": "Assigned to Contractor",
    "contractor": "Waste Pro",
    "rowid": "1218216",
    "final_x": "3700111.46602",
    "final_y": "532527.37498",
    "longitude": "-90.00926563602006",
    "latitude": "29.957687394516938",
    "geocoded_column": {
      "latitude": "29.957687394516938",
      "longitude": "-90.00926563602006"
    }
  },
  {
    "service_request": "2025-1218215",
    "request_type": "Trash/Recycling",
    "request_reason": "Illegal Dumping",
    "date_created": "2025-08-13T14:35:30.000",
    "date_modified": "2025-08-13T14:35:32.000",
    "request_status": "Pending",
    "responsible_agency": "Department of Sanitation",
    "final_address": "1208 Elysian Fields Ave",
    "address_councildis": "C",
    "status": "Pending",
    "rowid": "1218215",
    "final_x": "3684833.62786",
    "final_y": "536764.032712",
    "longitude": "-90.05735955003767",
    "latitude": "29.969813327536325",
    "geocoded_column": {
      "latitude": "29.969813327536325",
      "longitude": "-90.05735955003767"
    }
  },
  {
    "service_request": "2025-1218214",
    "request_type": "Abandoned Vehicles",
    "request_reason": "Abandoned/Junk Vehicles",
    "date_created": "2025-08-13T14:35:09.000",
    "date_modified": "2025-08-13T14:35:12.000",
    "request_status": "Pending",
    "responsible_agency": "Department of Public Works",
    "final_address": "4230 N Claiborne Ave",
    "address_councildis": "D",
    "status": "Pending",
    "rowid": "1218214",
    "final_x": "3693116.2856",
    "final_y": "536907.107784",
    "longitude": "-90.03119712373379",
    "latitude": "29.969950524321472",
    "geocoded_column": {
      "latitude": "29.969950524321472",
      "longitude": "-90.03119712373379"
    }
  },
  {
    "service_request": "2025-1218213",
    "request_type": "Trash/Recycling",
    "request_reason": "Request a Large Item Pick Up",
    "date_created": "2025-08-13T14:34:57.000",
    "date_modified": "2025-08-13T14:34:59.000",
    "request_status": "Pending",
    "responsible_agency": "Department of Sanitation",
    "final_address": "1325 Port St",
    "address_councildis": "C",
    "status": "Assigned to Contractor",
    "contractor": "IV Waste",
    "rowid": "1218213",
    "final_x": "3687685.34006",
    "final_y": "537307.686088",
    "longitude": "-90.04833434689806",
    "latitude": "29.971220558270304",
    "geocoded_column": {
      "latitude": "29.971220558270304",
      "longitude": "-90.04833434689806"
    }
  },
  {
    "service_request": "2025-1218212",
    "request_type": "Trash/Recycling",
    "request_reason": "Request a Large Item Pick Up",
    "date_created": "2025-08-13T14:32:26.000",
    "date_modified": "2025-08-13T14:32:28.000",
    "request_status": "Pending",
    "responsible_agency": "Department of Sanitation",
    "final_address": "4924 Pecan St",
    "address_councildis": "E",
    "status": "Assigned to Contractor",
    "contractor": "Waste Pro",
    "rowid": "1218212",
    "final_x": "3701666.42557",
    "final_y": "555173.491865",
    "longitude": "-90.00352565337127",
    "latitude": "30.019906344576",
    "geocoded_column": {
      "latitude": "30.019906344576",
      "longitude": "-90.00352565337127"
    }
  },
  {
    "service_request": "2025-1218211",
    "request_type": "Trash/Recycling",
    "request_reason": "Request a Large Item Pick Up",
    "date_created": "2025-08-13T14:32:25.000",
    "date_modified": "2025-08-13T14:32:27.000",
    "request_status": "Pending",
    "responsible_agency": "Department of Sanitation",
    "final_address": "7617 Mackenzie St",
    "address_councildis": "E",
    "status": "Assigned to Contractor",
    "contractor": "Waste Pro",
    "rowid": "1218211",
    "final_x": "3711153.69355",
    "final_y": "565953.526883",
    "longitude": "-89.97314490161696",
    "latitude": "30.04924099378012",
    "geocoded_column": {
      "latitude": "30.04924099378012",
      "longitude": "-89.97314490161696"
    }
  },
  {
    "service_request": "2025-1218210",
    "request_type": "Trash/Recycling",
    "request_reason": "Order Trash Cart",
    "date_created": "2025-08-13T14:31:57.000",
    "date_modified": "2025-08-13T14:31:59.000",
    "request_status": "Pending",
    "responsible_agency": "Department of Sanitation",
    "final_address": "1901 Foucher St",
    "address_councildis": "B",
    "status": "Assigned to Contractor",
    "contractor": "IV Waste",
    "rowid": "1218210",
    "final_x": "3673158.89032",
    "final_y": "522353.161786",
    "longitude": "-90.09472148243546",
    "latitude": "29.930540500320518",
    "geocoded_column": {
      "latitude": "29.930540500320518",
      "longitude": "-90.09472148243546"
    }
  },
  {
    "service_request": "2025-1218209",
    "request_type": "Trash/Recycling",
    "request_reason": "Missed Trash Pick-Up",
    "date_created": "2025-08-13T14:28:50.000",
    "date_modified": "2025-08-13T16:23:11.000",
    "case_close_date": "2025-08-13T11:23:09.000",
    "request_status": "Closed",
    "responsible_agency": "Department of Sanitation",
    "final_address": "3034 St Philip St",
    "address_councildis": "A",
    "status": "Invalid Request",
    "contractor": "IV Waste",
    "contractor_action": "Invalid",
    "rowid": "1218209",
    "final_x": "3676155.32302",
    "final_y": "538757.574985",
    "longitude": "-90.08469786303225",
    "latitude": "29.975557758547694",
    "geocoded_column": {
      "latitude": "29.975557758547694",
      "longitude": "-90.08469786303225"
    }
  },
  {
    "service_request": "2025-1218208",
    "request_type": "Roads and Streets",
    "request_reason": "Road Shoulder Damage",
    "date_created": "2025-08-13T14:28:04.000",
    "date_modified": "2025-08-13T14:45:43.000",
    "request_status": "Pending",
    "responsible_agency": "Department of Public Works",
    "final_address": "8910 Lake Forest Blvd",
    "address_councildis": "E",
    "status": "Pending",
    "rowid": "1218208",
    "final_x": "3707235.28331",
    "final_y": "558268.572252",
    "longitude": "-89.98581499694734",
    "latitude": "30.02823772705595",
    "geocoded_column": {
      "latitude": "30.02823772705595",
      "longitude": "-89.98581499694734"
    }
  },
  {
    "service_request": "2025-1218207",
    "request_type": "General Services",
    "request_reason": "General Service Request",
    "date_created": "2025-08-13T14:27:59.000",
    "date_modified": "2025-08-13T14:28:02.000",
    "request_status": "Pending",
    "responsible_agency": "Orleans Parish Communication District",
    "final_address": "6050 Constance St",
    "address_councildis": "A",
    "status": "Pending",
    "rowid": "1218207",
    "final_x": "3664191.65978",
    "final_y": "518985.082295",
    "longitude": "-90.12314211190426",
    "latitude": "29.92154282652703",
    "geocoded_column": {
      "latitude": "29.92154282652703",
      "longitude": "-90.12314211190426"
    }
  },
  {
    "service_request": "2025-1218206",
    "request_type": "Trash/Recycling",
    "request_reason": "Request a Large Item Pick Up",
    "date_created": "2025-08-13T14:26:46.000",
    "date_modified": "2025-08-13T14:26:49.000",
    "request_status": "Pending",
    "responsible_agency": "Department of Sanitation",
    "final_address": "2941 Hudson St",
    "address_councildis": "C",
    "status": "Assigned to Contractor",
    "contractor": "Richards Disposal",
    "rowid": "1218206",
    "final_x": "3694170.35254",
    "final_y": "520212.68172",
    "longitude": "-90.0284686887166",
    "latitude": "29.924013661679744",
    "geocoded_column": {
      "latitude": "29.924013661679744",
      "longitude": "-90.0284686887166"
    }
  },
  {
    "service_request": "2025-1218205",
    "request_type": "Trash/Recycling",
    "request_reason": "Request a Large Item Pick Up",
    "date_created": "2025-08-13T14:25:51.000",
    "date_modified": "2025-08-13T14:25:53.000",
    "request_status": "Pending",
    "responsible_agency": "Department of Sanitation",
    "final_address": "7706 Briarwood Dr, New Orleans, Louisiana, 70128",
    "address_councildis": "E",
    "status": "Assigned to Contractor",
    "contractor": "Waste Pro",
    "rowid": "1218205",
    "final_x": "3717211.49336",
    "final_y": "571202.731112",
    "longitude": "-89.95379905427127",
    "latitude": "30.06347501960808",
    "geocoded_column": {
      "latitude": "30.06347501960808",
      "longitude": "-89.95379905427127"
    }
  },
  {
    "service_request": "2025-1218204",
    "request_type": "Roads and Streets",
    "request_reason": "Pothole",
    "date_created": "2025-08-13T14:22:59.000",
    "date_modified": "2025-08-13T14:25:48.000",
    "request_status": "Pending",
    "responsible_agency": "Department of Public Works",
    "final_address": "2525 First St",
    "address_councildis": "B",
    "status": "Pending",
    "rowid": "1218204",
    "final_x": "3675043.45345",
    "final_y": "526173.261182",
    "longitude": "-90.08864119242156",
    "latitude": "29.94098837774725",
    "geocoded_column": {
      "latitude": "29.94098837774725",
      "longitude": "-90.08864119242156"
    }
  },
  {
    "service_request": "2025-1218203",
    "request_type": "Trash/Recycling",
    "request_reason": "Request a Large Item Pick Up",
    "date_created": "2025-08-13T14:21:43.000",
    "date_modified": "2025-08-13T14:21:45.000",
    "request_status": "Pending",
    "responsible_agency": "Department of Sanitation",
    "final_address": "4531 Rosemont Pl",
    "address_councildis": "E",
    "status": "Assigned to Contractor",
    "contractor": "Waste Pro",
    "rowid": "1218203",
    "final_x": "3702913.74302",
    "final_y": "553783.649687",
    "longitude": "-89.99963567352769",
    "latitude": "30.01604494901647",
    "geocoded_column": {
      "latitude": "30.01604494901647",
      "longitude": "-89.99963567352769"
    }
  },
  {
    "service_request": "2025-1218202",
    "request_type": "Property Maintenance",
    "request_reason": "Property Maintenance",
    "date_created": "2025-08-13T14:19:14.000",
    "date_modified": "2025-08-13T14:19:15.000",
    "request_status": "Pending",
    "responsible_agency": "Department of Code Enforcement",
    "final_address": "BULLARD AVE & BULLARD EXIT & I 10 E ONRAMP",
    "address_councildis": "E",
    "status": "Pending",
    "rowid": "1218202",
    "final_x": "3715053.1",
    "final_y": "564701.98",
    "longitude": "-89.96086792252497",
    "latitude": "30.04567189724097",
    "geocoded_column": {
      "latitude": "30.04567189724097",
      "longitude": "-89.96086792252497"
    }
  },
  {
    "service_request": "2025-1218201",
    "request_type": "Trash/Recycling",
    "request_reason": "Request a Large Item Pick Up",
    "date_created": "2025-08-13T14:17:31.000",
    "date_modified": "2025-08-13T14:17:33.000",
    "request_status": "Pending",
    "responsible_agency": "Department of Sanitation",
    "final_address": "6549 General Haig St",
    "address_councildis": "A",
    "status": "Assigned to Contractor",
    "contractor": "IV Waste",
    "rowid": "1218201",
    "final_x": "3670979.06855",
    "final_y": "550887.851285",
    "longitude": "-90.10063378806356",
    "latitude": "30.009065914208787",
    "geocoded_column": {
      "latitude": "30.009065914208787",
      "longitude": "-90.10063378806356"
    }
  },
  {
    "service_request": "2025-1218200",
    "request_type": "Trash/Recycling",
    "request_reason": "Repair Trash Cart",
    "date_created": "2025-08-13T14:16:26.000",
    "date_modified": "2025-08-13T14:16:28.000",
    "request_status": "Pending",
    "responsible_agency": "Department of Sanitation",
    "final_address": "2101 Octavia St",
    "address_councildis": "A",
    "status": "Assigned to Contractor",
    "contractor": "IV Waste",
    "rowid": "1218200",
    "final_x": "3667484.55367",
    "final_y": "523416.153019",
    "longitude": "-90.112598827012",
    "latitude": "29.933630825883753",
    "geocoded_column": {
      "latitude": "29.933630825883753",
      "longitude": "-90.112598827012"
    }
  },
  {
    "service_request": "2025-1218199",
    "request_type": "Abandoned Vehicles",
    "request_reason": "Abandoned/Junk Vehicles",
    "date_created": "2025-08-13T14:15:20.000",
    "date_modified": "2025-08-13T14:16:39.000",
    "request_status": "Pending",
    "responsible_agency": "Department of Public Works",
    "final_address": "3809 Octavia St",
    "address_councildis": "A",
    "status": "Pending",
    "rowid": "1218199",
    "final_x": "3668835.06932",
    "final_y": "529432.573249",
    "longitude": "-90.10813221555938",
    "latitude": "29.95013440404665",
    "geocoded_column": {
      "latitude": "29.95013440404665",
      "longitude": "-90.10813221555938"
    }
  },
  {
    "service_request": "2025-1218198",
    "request_type": "Trash/Recycling",
    "request_reason": "Request a Large Item Pick Up",
    "date_created": "2025-08-13T14:14:57.000",
    "date_modified": "2025-08-13T14:14:58.000",
    "request_status": "Pending",
    "responsible_agency": "Department of Sanitation",
    "final_address": "35 Seaward Ct",
    "address_councildis": "C",
    "status": "Assigned to Contractor",
    "contractor": "Richards Disposal",
    "rowid": "1218198",
    "final_x": "3704401.55748",
    "final_y": "522727.65657",
    "longitude": "-89.99608001933123",
    "latitude": "29.930604634519213",
    "geocoded_column": {
      "latitude": "29.930604634519213",
      "longitude": "-89.99608001933123"
    }
  },
  {
    "service_request": "2025-1218197",
    "request_type": "Property Maintenance",
    "request_reason": "Property Maintenance",
    "date_created": "2025-08-13T14:14:41.000",
    "date_modified": "2025-08-13T14:14:43.000",
    "request_status": "Pending",
    "responsible_agency": "Department of Code Enforcement",
    "final_address": "5414 Macarthur Blvd",
    "address_councildis": "C",
    "status": "Pending",
    "rowid": "1218197",
    "final_x": "3704073.96913",
    "final_y": "519660.39564",
    "longitude": "-89.99722706639425",
    "latitude": "29.922181241680395",
    "geocoded_column": {
      "latitude": "29.922181241680395",
      "longitude": "-89.99722706639425"
    }
  },
  {
    "service_request": "2025-1218196",
    "request_type": "Trash/Recycling",
    "request_reason": "Repair Trash Cart",
    "date_created": "2025-08-13T14:12:28.000",
    "date_modified": "2025-08-13T14:12:30.000",
    "request_status": "Pending",
    "responsible_agency": "Department of Sanitation",
    "final_address": "762 Delachaise St",
    "address_councildis": "B",
    "status": "Assigned to Contractor",
    "contractor": "IV Waste",
    "rowid": "1218196",
    "final_x": "3675107.23336",
    "final_y": "518355.413046",
    "longitude": "-90.08870793027232",
    "latitude": "29.919489926158708",
    "geocoded_column": {
      "latitude": "29.919489926158708",
      "longitude": "-90.08870793027232"
    }
  },
  {
    "service_request": "2025-1218195",
    "request_type": "Trash/Recycling",
    "request_reason": "Replace Trash Cart",
    "date_created": "2025-08-13T14:12:05.000",
    "date_modified": "2025-08-13T14:13:22.000",
    "request_status": "Pending",
    "responsible_agency": "Department of Sanitation",
    "final_address": "5810 Wright Rd",
    "address_councildis": "E",
    "status": "Assigned to Contractor",
    "contractor": "Waste Pro",
    "rowid": "1218195",
    "final_x": "3714113.46757",
    "final_y": "561193.235806",
    "longitude": "-89.96397011971533",
    "latitude": "30.036055178574355",
    "geocoded_column": {
      "latitude": "30.036055178574355",
      "longitude": "-89.96397011971533"
    }
  },
  {
    "service_request": "2025-1218194",
    "request_type": "Trash/Recycling",
    "request_reason": "Request a Large Item Pick Up",
    "date_created": "2025-08-13T14:09:51.000",
    "date_modified": "2025-08-13T14:09:53.000",
    "request_status": "Pending",
    "responsible_agency": "Department of Sanitation",
    "final_address": "1900 Jena St",
    "address_councildis": "B",
    "status": "Assigned to Contractor",
    "contractor": "IV Waste",
    "rowid": "1218194",
    "final_x": "3670300.8834",
    "final_y": "521976.01113",
    "longitude": "-90.10375658319747",
    "latitude": "29.92958809593163",
    "geocoded_column": {
      "latitude": "29.92958809593163",
      "longitude": "-90.10375658319747"
    }
  },
  {
    "service_request": "2025-1218193",
    "request_type": "Trash/Recycling",
    "request_reason": "Repair Trash Cart",
    "date_created": "2025-08-13T14:08:43.000",
    "date_modified": "2025-08-13T14:08:45.000",
    "request_status": "Pending",
    "responsible_agency": "Department of Sanitation",
    "final_address": "6523 Colbert St",
    "address_councildis": "A",
    "status": "Assigned to Contractor",
    "contractor": "IV Waste",
    "rowid": "1218193",
    "final_x": "3667836.4489",
    "final_y": "550987.479893",
    "longitude": "-90.1105590537242",
    "latitude": "30.009432444792758",
    "geocoded_column": {
      "latitude": "30.009432444792758",
      "longitude": "-90.1105590537242"
    }
  },
  {
    "service_request": "2025-1218191",
    "request_type": "Property Maintenance",
    "request_reason": "Property Maintenance",
    "date_created": "2025-08-13T14:07:32.000",
    "date_modified": "2025-08-13T14:07:34.000",
    "request_status": "Pending",
    "responsible_agency": "Department of Code Enforcement",
    "final_address": "1874 N Miro St",
    "address_councildis": "D",
    "status": "Pending",
    "rowid": "1218191",
    "final_x": "3682392.4102",
    "final_y": "540045.244939",
    "longitude": "-90.0649544294537",
    "latitude": "29.97891004451356",
    "geocoded_column": {
      "latitude": "29.97891004451356",
      "longitude": "-90.0649544294537"
    }
  },
  {
    "service_request": "2025-1218190",
    "request_type": "Trash/Recycling",
    "request_reason": "Illegal Dumping",
    "date_created": "2025-08-13T14:07:01.000",
    "date_modified": "2025-08-13T14:07:03.000",
    "request_status": "Pending",
    "responsible_agency": "Department of Sanitation",
    "final_address": "2380 Allen Toussaint Blvd",
    "address_councildis": "D",
    "status": "Pending",
    "rowid": "1218190",
    "final_x": "3684813.49449",
    "final_y": "555761.623193",
    "longitude": "-90.05675471735726",
    "latitude": "30.02205051385706",
    "geocoded_column": {
      "latitude": "30.02205051385706",
      "longitude": "-90.05675471735726"
    }
  },
  {
    "service_request": "2025-1218189",
    "request_type": "Abandoned Vehicles",
    "request_reason": "Abandoned/Junk Vehicles",
    "date_created": "2025-08-13T14:01:29.000",
    "date_modified": "2025-08-13T14:01:32.000",
    "request_status": "Pending",
    "responsible_agency": "Department of Public Works",
    "final_address": "6601 Dorian St",
    "address_councildis": "D",
    "status": "Pending",
    "rowid": "1218189",
    "final_x": "3696525.33507",
    "final_y": "555381.504089",
    "longitude": "-90.01976222869723",
    "latitude": "30.02064135427605",
    "geocoded_column": {
      "latitude": "30.02064135427605",
      "longitude": "-90.01976222869723"
    }
  },
  {
    "service_request": "2025-1218188",
    "request_type": "Streetlights",
    "request_reason": "New Streetlight Request",
    "date_created": "2025-08-13T13:59:50.000",
    "date_modified": "2025-08-13T13:59:52.000",
    "request_status": "Pending",
    "responsible_agency": "Department of Public Works",
    "final_address": "2900 BLK Cherry St",
    "address_councildis": "A",
    "status": "Pending",
    "contractor": "Legacy Professional Services",
    "rowid": "1218188",
    "final_x": "3663055.27457",
    "final_y": "535856.145923",
    "longitude": "-90.12616815507195",
    "latitude": "29.967965805317057",
    "geocoded_column": {
      "latitude": "29.967965805317057",
      "longitude": "-90.12616815507195"
    }
  },
  {
    "service_request": "2025-1218187",
    "request_type": "Trash/Recycling",
    "request_reason": "Replace Trash Cart",
    "date_created": "2025-08-13T13:58:20.000",
    "date_modified": "2025-08-13T13:59:01.000",
    "request_status": "Pending",
    "responsible_agency": "Department of Sanitation",
    "final_address": "831 St Peter St",
    "address_councildis": "C",
    "status": "Assigned to Contractor",
    "contractor": "IV Waste",
    "rowid": "1218187",
    "final_x": "3682061.72271",
    "final_y": "532841.456068",
    "longitude": "-90.06625046308497",
    "latitude": "29.959112170169504",
    "geocoded_column": {
      "latitude": "29.959112170169504",
      "longitude": "-90.06625046308497"
    }
  },
  {
    "service_request": "2025-1218186",
    "request_type": "Streetlights",
    "request_reason": "Streetlight Outage/Malfunction",
    "date_created": "2025-08-13T13:57:32.000",
    "date_modified": "2025-08-13T13:57:34.000",
    "request_status": "Pending",
    "responsible_agency": "Department of Public Works",
    "final_address": "2928 Cherry St",
    "address_councildis": "A",
    "status": "Pending",
    "contractor": "Legacy Professional Services",
    "rowid": "1218186",
    "final_x": "3663046.95635",
    "final_y": "535900.233159",
    "longitude": "-90.12619295764681",
    "latitude": "29.968087271678986",
    "geocoded_column": {
      "latitude": "29.968087271678986",
      "longitude": "-90.12619295764681"
    }
  },
  {
    "service_request": "2025-1218185",
    "request_type": "Trash/Recycling",
    "request_reason": "Request a Large Item Pick Up",
    "date_created": "2025-08-13T13:56:33.000",
    "date_modified": "2025-08-13T13:56:35.000",
    "request_status": "Pending",
    "responsible_agency": "Department of Sanitation",
    "final_address": "7818 Marquis St",
    "address_councildis": "E",
    "status": "Assigned to Contractor",
    "contractor": "Waste Pro",
    "rowid": "1218185",
    "final_x": "3710778.77022",
    "final_y": "566897.19114",
    "longitude": "-89.97429450099436",
    "latitude": "30.051847920602",
    "geocoded_column": {
      "latitude": "30.051847920602",
      "longitude": "-89.97429450099436"
    }
  },
  {
    "service_request": "2025-1218184",
    "request_type": "Parks & Parkways",
    "request_reason": "Request Grass Cutting Service (City Owned Property)",
    "date_created": "2025-08-13T13:55:52.000",
    "date_modified": "2025-08-13T14:32:17.000",
    "request_status": "Pending",
    "responsible_agency": "Department of Code Enforcement",
    "final_address": "4101 Martin Luther King, Jr. Blvd",
    "address_councildis": "B",
    "status": "Pending",
    "rowid": "1218184",
    "final_x": "3671394.19643",
    "final_y": "530560.356098",
    "longitude": "-90.10001350085311",
    "latitude": "29.953159946327233",
    "geocoded_column": {
      "latitude": "29.953159946327233",
      "longitude": "-90.10001350085311"
    }
  },
  {
    "service_request": "2025-1218183",
    "request_type": "Streetlights",
    "request_reason": "Streetlight Outage/Malfunction",
    "date_created": "2025-08-13T13:55:37.000",
    "date_modified": "2025-08-13T13:55:39.000",
    "request_status": "Pending",
    "responsible_agency": "Department of Public Works",
    "final_address": "5342 Camp St",
    "address_councildis": "B",
    "status": "Pending",
    "contractor": "Legacy Professional Services",
    "rowid": "1218183",
    "final_x": "3667159.04762",
    "final_y": "519040.332727",
    "longitude": "-90.11377346661614",
    "latitude": "29.921608238362314",
    "geocoded_column": {
      "latitude": "29.921608238362314",
      "longitude": "-90.11377346661614"
    }
  },
  {
    "service_request": "2025-1218182",
    "request_type": "Trash/Recycling",
    "request_reason": "Request a Large Item Pick Up",
    "date_created": "2025-08-13T13:54:06.000",
    "date_modified": "2025-08-13T13:55:11.000",
    "request_status": "Pending",
    "responsible_agency": "Department of Sanitation",
    "final_address": "1512 St Philip St",
    "address_councildis": "C",
    "status": "Pending",
    "rowid": "1218182",
    "final_x": "3680854.78664",
    "final_y": "535113.084998",
    "longitude": "-90.06998257987387",
    "latitude": "29.96539501770498",
    "geocoded_column": {
      "latitude": "29.96539501770498",
      "longitude": "-90.06998257987387"
    }
  },
  {
    "service_request": "2025-1218181",
    "request_type": "Streetlights",
    "request_reason": "Streetlight Outage/Malfunction",
    "date_created": "2025-08-13T13:54:02.000",
    "date_modified": "2025-08-13T14:05:06.000",
    "request_status": "Pending",
    "responsible_agency": "Department of Public Works",
    "final_address": "2100 BLK Allen St",
    "address_councildis": "D",
    "status": "Pending",
    "contractor": "Legacy Professional Services",
    "rowid": "1218181",
    "final_x": "3682466.30826",
    "final_y": "539991.909961",
    "longitude": "-90.06472289646896",
    "latitude": "29.978761142494744",
    "geocoded_column": {
      "latitude": "29.978761142494744",
      "longitude": "-90.06472289646896"
    }
  },
  {
    "service_request": "2025-1218180",
    "request_type": "Trash/Recycling",
    "request_reason": "Repair Trash Cart",
    "date_created": "2025-08-13T13:53:49.000",
    "date_modified": "2025-08-13T13:53:51.000",
    "request_status": "Pending",
    "responsible_agency": "Department of Sanitation",
    "final_address": "3665 Tchoupitoulas St",
    "address_councildis": "B",
    "status": "Assigned to Contractor",
    "contractor": "IV Waste",
    "rowid": "1218180",
    "final_x": "3674089.39329",
    "final_y": "517795.891126",
    "longitude": "-90.0919398825908",
    "latitude": "29.917981780522116",
    "geocoded_column": {
      "latitude": "29.917981780522116",
      "longitude": "-90.0919398825908"
    }
  },
  {
    "service_request": "2025-1218179",
    "request_type": "Trash/Recycling",
    "request_reason": "Repair Trash Cart",
    "date_created": "2025-08-13T13:52:59.000",
    "date_modified": "2025-08-13T13:53:01.000",
    "request_status": "Pending",
    "responsible_agency": "Department of Sanitation",
    "final_address": "3663 Tchoupitoulas St",
    "address_councildis": "B",
    "status": "Assigned to Contractor",
    "contractor": "IV Waste",
    "rowid": "1218179",
    "final_x": "3674102.93499",
    "final_y": "517802.14111",
    "longitude": "-90.09189692504415",
    "latitude": "29.917998562572283",
    "geocoded_column": {
      "latitude": "29.917998562572283",
      "longitude": "-90.09189692504415"
    }
  },
  {
    "service_request": "2025-1218178",
    "request_type": "Abandoned Vehicles",
    "request_reason": "Abandoned/Junk Vehicles",
    "date_created": "2025-08-13T13:52:37.000",
    "date_modified": "2025-08-13T13:52:39.000",
    "request_status": "Pending",
    "responsible_agency": "Department of Public Works",
    "final_address": "2436 Joseph St",
    "address_councildis": "A",
    "status": "Pending",
    "rowid": "1218178",
    "final_x": "3667397.22663",
    "final_y": "525067.694205",
    "longitude": "-90.11281897873181",
    "latitude": "29.938174593277274",
    "geocoded_column": {
      "latitude": "29.938174593277274",
      "longitude": "-90.11281897873181"
    }
  },
  {
    "service_request": "2025-1218177",
    "request_type": "Trash/Recycling",
    "request_reason": "Request a Large Item Pick Up",
    "date_created": "2025-08-13T13:50:46.000",
    "date_modified": "2025-08-13T13:50:57.000",
    "request_status": "Pending",
    "responsible_agency": "Department of Sanitation",
    "final_address": "5021 E Lemans St",
    "address_councildis": "E",
    "status": "Assigned to Contractor",
    "contractor": "Waste Pro",
    "rowid": "1218177",
    "final_x": "3727338.77529",
    "final_y": "562774.42032",
    "longitude": "-89.92211472665403",
    "latitude": "30.039961566542207",
    "geocoded_column": {
      "latitude": "30.039961566542207",
      "longitude": "-89.92211472665403"
    }
  },
  {
    "service_request": "2025-1218176",
    "request_type": "Trash/Recycling",
    "request_reason": "Request a Large Item Pick Up",
    "date_created": "2025-08-13T13:50:38.000",
    "date_modified": "2025-08-13T13:50:41.000",
    "request_status": "Pending",
    "responsible_agency": "Department of Sanitation",
    "final_address": "2340 Peniston St",
    "address_councildis": "B",
    "status": "Assigned to Contractor",
    "contractor": "IV Waste",
    "rowid": "1218176",
    "final_x": "3672180.91329",
    "final_y": "523831.574011",
    "longitude": "-90.09775848991701",
    "latitude": "29.934634688829203",
    "geocoded_column": {
      "latitude": "29.934634688829203",
      "longitude": "-90.09775848991701"
    }
  },
  {
    "service_request": "2025-1218175",
    "request_type": "Parks & Parkways",
    "request_reason": "Request Grass Cutting Service (City Owned Property)",
    "date_created": "2025-08-13T13:49:48.000",
    "date_modified": "2025-08-13T14:31:06.000",
    "request_status": "Pending",
    "responsible_agency": "Department of Code Enforcement",
    "final_address": "7909 Tarpon St",
    "address_councildis": "E",
    "status": "Pending",
    "rowid": "1218175",
    "final_x": "3698457.04957",
    "final_y": "560782.855646",
    "longitude": "-90.01346203486953",
    "latitude": "30.035431967512345",
    "geocoded_column": {
      "latitude": "30.035431967512345",
      "longitude": "-90.01346203486953"
    }
  },
  {
    "service_request": "2025-1218174",
    "request_type": "Trash/Recycling",
    "request_reason": "Return Trash Cart",
    "date_created": "2025-08-13T13:49:11.000",
    "date_modified": "2025-08-13T13:49:13.000",
    "request_status": "Pending",
    "responsible_agency": "Department of Sanitation",
    "final_address": "8228 Hickory St",
    "address_councildis": "A",
    "status": "Assigned to Contractor",
    "contractor": "IV Waste",
    "rowid": "1218174",
    "final_x": "3662918.44077",
    "final_y": "530292.727617",
    "longitude": "-90.12678528644986",
    "latitude": "29.95267218043274",
    "geocoded_column": {
      "latitude": "29.95267218043274",
      "longitude": "-90.12678528644986"
    }
  },
  {
    "service_request": "2025-1218173",
    "request_type": "Trash/Recycling",
    "request_reason": "Missed Trash Pick-Up",
    "date_created": "2025-08-13T13:49:03.000",
    "date_modified": "2025-08-13T15:25:00.000",
    "case_close_date": "2025-08-13T10:24:59.000",
    "request_status": "Closed",
    "responsible_agency": "Department of Sanitation",
    "final_address": "4170 Peoples Ave",
    "address_councildis": "D",
    "status": "Invalid Request",
    "contractor": "IV Waste",
    "contractor_action": "Invalid",
    "rowid": "1218173",
    "final_x": "3688349.02063",
    "final_y": "548386.612818",
    "longitude": "-90.04584521818143",
    "latitude": "30.001663167988262",
    "geocoded_column": {
      "latitude": "30.001663167988262",
      "longitude": "-90.04584521818143"
    }
  },
  {
    "service_request": "2025-1218172",
    "request_type": "Abandoned Vehicles",
    "request_reason": "Abandoned/Junk Vehicles",
    "date_created": "2025-08-13T13:46:41.000",
    "date_modified": "2025-08-13T13:46:43.000",
    "request_status": "Pending",
    "responsible_agency": "Department of Public Works",
    "final_address": "1920 Lafreniere St",
    "address_councildis": "D",
    "status": "Pending",
    "rowid": "1218172",
    "final_x": "3682235.09096",
    "final_y": "545290.102479",
    "longitude": "-90.06526798066581",
    "latitude": "29.993336344805282",
    "geocoded_column": {
      "latitude": "29.993336344805282",
      "longitude": "-90.06526798066581"
    }
  },
  {
    "service_request": "2025-1218171",
    "request_type": "Trash/Recycling",
    "request_reason": "Order Trash Cart",
    "date_created": "2025-08-13T13:45:49.000",
    "date_modified": "2025-08-13T13:45:51.000",
    "request_status": "Pending",
    "responsible_agency": "Department of Sanitation",
    "final_address": "3201 Canal St",
    "address_councildis": "B",
    "status": "Assigned to Contractor",
    "contractor": "IV Waste",
    "rowid": "1218171",
    "final_x": "3673911.88129",
    "final_y": "536344.937415",
    "longitude": "-90.09186583679846",
    "latitude": "29.9689908542007",
    "geocoded_column": {
      "latitude": "29.9689908542007",
      "longitude": "-90.09186583679846"
    }
  },
  {
    "service_request": "2025-1218170",
    "request_type": "Roads and Streets",
    "request_reason": "Pothole",
    "date_created": "2025-08-13T13:44:18.000",
    "date_modified": "2025-08-13T13:44:20.000",
    "request_status": "Pending",
    "responsible_agency": "Department of Public Works",
    "final_address": "1920 Lafreniere St",
    "address_councildis": "D",
    "status": "Pending",
    "rowid": "1218170",
    "final_x": "3682235.09096",
    "final_y": "545290.102479",
    "longitude": "-90.06526798066581",
    "latitude": "29.993336344805282",
    "geocoded_column": {
      "latitude": "29.993336344805282",
      "longitude": "-90.06526798066581"
    }
  },
  {
    "service_request": "2025-1218169",
    "request_type": "Trash/Recycling",
    "request_reason": "Order Recycling Cart",
    "date_created": "2025-08-13T13:42:16.000",
    "date_modified": "2025-08-13T13:42:18.000",
    "request_status": "Pending",
    "responsible_agency": "Department of Sanitation",
    "final_address": "2256 Milton St",
    "address_councildis": "D",
    "status": "Pending",
    "rowid": "1218169",
    "final_x": "3684542.07042",
    "final_y": "546699.078417",
    "longitude": "-90.05793107917094",
    "latitude": "29.99714012302423",
    "geocoded_column": {
      "latitude": "29.99714012302423",
      "longitude": "-90.05793107917094"
    }
  },
  {
    "service_request": "2025-1218168",
    "request_type": "Trash/Recycling",
    "request_reason": "Repair Trash Cart",
    "date_created": "2025-08-13T13:41:39.000",
    "date_modified": "2025-08-13T13:41:41.000",
    "request_status": "Pending",
    "responsible_agency": "Department of Sanitation",
    "final_address": "6460 Pontchartrain Blvd",
    "address_councildis": "A",
    "status": "Assigned to Contractor",
    "contractor": "IV Waste",
    "rowid": "1218168",
    "final_x": "3666219.45946",
    "final_y": "551156.506389",
    "longitude": "-90.115662030048",
    "latitude": "30.00994455631236",
    "geocoded_column": {
      "latitude": "30.00994455631236",
      "longitude": "-90.115662030048"
    }
  },
  {
    "service_request": "2025-1218167",
    "request_type": "Trash/Recycling",
    "request_reason": "MIssed Recycling Pick-Up",
    "date_created": "2025-08-13T13:41:15.000",
    "date_modified": "2025-08-13T13:41:18.000",
    "request_status": "Pending",
    "responsible_agency": "Department of Sanitation",
    "final_address": "7853 Arcadia Ln",
    "address_councildis": "E",
    "status": "Assigned to Contractor",
    "contractor": "Waste Pro",
    "rowid": "1218167",
    "final_x": "3711932.43493",
    "final_y": "567800.575908",
    "longitude": "-89.97061420286431",
    "latitude": "30.054294187128615",
    "geocoded_column": {
      "latitude": "30.054294187128615",
      "longitude": "-89.97061420286431"
    }
  },
  {
    "service_request": "2025-1218166",
    "request_type": "Abandoned Vehicles",
    "request_reason": "Abandoned/Junk Vehicles",
    "date_created": "2025-08-13T13:39:47.000",
    "date_modified": "2025-08-13T13:41:18.000",
    "request_status": "Pending",
    "responsible_agency": "Department of Public Works",
    "final_address": "LYNHUBER ST & DREUX AVE",
    "address_councildis": "D",
    "status": "Inspected",
    "rowid": "1218166",
    "final_x": "3698057.9",
    "final_y": "554018.18",
    "longitude": "-90.01496937046359",
    "latitude": "30.016844332486272",
    "geocoded_column": {
      "latitude": "30.016844332486272",
      "longitude": "-90.01496937046359"
    }
  },
  {
    "service_request": "2025-1218165",
    "request_type": "Trash/Recycling",
    "request_reason": "Illegal Dumping",
    "date_created": "2025-08-13T13:35:26.000",
    "date_modified": "2025-08-13T13:35:28.000",
    "request_status": "Pending",
    "responsible_agency": "Department of Sanitation",
    "final_address": "7530 Farwood Dr",
    "address_councildis": "E",
    "status": "Pending",
    "rowid": "1218165",
    "final_x": "3702039.60189",
    "final_y": "556954.479578",
    "longitude": "-90.00228117499506",
    "latitude": "30.02479146280455",
    "geocoded_column": {
      "latitude": "30.02479146280455",
      "longitude": "-90.00228117499506"
    }
  },
  {
    "service_request": "2025-1218164",
    "request_type": "Trash/Recycling",
    "request_reason": "Replace Trash Cart",
    "date_created": "2025-08-13T13:33:57.000",
    "date_modified": "2025-08-13T13:34:00.000",
    "request_status": "Pending",
    "responsible_agency": "Department of Sanitation",
    "final_address": "3502 S Tonti St",
    "address_councildis": "B",
    "status": "Assigned to Contractor",
    "contractor": "IV Waste",
    "rowid": "1218164",
    "final_x": "3671184.07508",
    "final_y": "528260.998272",
    "longitude": "-90.10075507424078",
    "latitude": "29.946843684635024",
    "geocoded_column": {
      "latitude": "29.946843684635024",
      "longitude": "-90.10075507424078"
    }
  },