[
  {
    "service_request": "2025-1214159",
    "request_type": "Drainage",
    "request_reason": "Street Flooding",
    "date_created": "2025-07-30T23:27:24.000",
    "date_modified": "2025-07-30T23:27:25.000",
    "request_status": "Pending",
    "responsible_agency": "Sewerage & Water Board",
    "final_address": "2610 St Peter St",
    "address_councildis": "D",
    "status": "Pending",
    "rowid": "1214159",
    "final_x": "3676978.48648",
    "final_y": "536532.755719",
    "longitude": "-90.08217480914124",
    "latitude": "29.969415575955576",
    "geocoded_column": {
      "latitude": "29.969415575955576",
      "longitude": "-90.08217480914124"
    }
  },
  {
    "service_request": "2025-1214158",
    "request_type": "Trash/Recycling",
    "request_reason": "Request a Large Item Pick Up",
    "date_created": "2025-07-30T23:26:15.000",
    "date_modified": "2025-07-30T23:26:17.000",
    "request_status": "Pending",
    "responsible_agency": "Department of Sanitation",
    "final_address": "2603 Valence St",
    "address_councildis": "B",
    "status": "Assigned to Contractor",
    "contractor": "IV Waste",
    "rowid": "1214158",
    "final_x": "3669430.5771",
    "final_y": "524348.907836",
    "longitude": "-90.10642378388877",
    "latitude": "29.936138451633667",
    "geocoded_column": {
      "latitude": "29.936138451633667",
      "longitude": "-90.10642378388877"
    }
  },
  {
    "service_request": "2025-1214157",
    "request_type": "Drainage",
    "request_reason": "Street Flooding",
    "date_created": "2025-07-30T23:23:19.000",
    "date_modified": "2025-07-30T23:23:21.000",
    "request_status": "Pending",
    "responsible_agency": "Sewerage & Water Board",
    "final_address": "1933 Painters St",
    "address_councildis": "D",
    "status": "Pending",
    "rowid": "1214157",
    "final_x": "3687338.46146",
    "final_y": "539720.470666",
    "longitude": "-90.04934444855562",
    "latitude": "29.97786555961885",
    "geocoded_column": {
      "latitude": "29.97786555961885",
      "longitude": "-90.04934444855562"
    }
  },
  {
    "service_request": "2025-1214156",
    "request_type": "Parks & Parkways",
    "request_reason": "Request Tree Service (Right of Way/Public Property)",
    "date_created": "2025-07-30T23:17:52.000",
    "date_modified": "2025-07-30T23:17:55.000",
    "request_status": "Pending",
    "responsible_agency": "Department of Parks & Parkway",
    "final_address": "4661 Baccich St",
    "address_councildis": "D",
    "status": "Pending",
    "rowid": "1214156",
    "final_x": "3687800.88585",
    "final_y": "550227.804052",
    "longitude": "-90.04751155618321",
    "latitude": "30.006742697068326",
    "geocoded_column": {
      "latitude": "30.006742697068326",
      "longitude": "-90.04751155618321"
    }
  },
  {
    "service_request": "2025-1214155",
    "request_type": "Trash/Recycling",
    "request_reason": "Order Trash Cart",
    "date_created": "2025-07-30T22:45:34.000",
    "date_modified": "2025-07-30T22:45:36.000",
    "request_status": "Pending",
    "responsible_agency": "Department of Sanitation",
    "final_address": "2015 Kerlerec St",
    "address_councildis": "D",
    "status": "Assigned to Contractor",
    "contractor": "IV Waste",
    "rowid": "1214155",
    "final_x": "3680289.96277",
    "final_y": "537867.776265",
    "longitude": "-90.07167048154568",
    "latitude": "29.97298658409568",
    "geocoded_column": {
      "latitude": "29.97298658409568",
      "longitude": "-90.07167048154568"
    }
  },
  {
    "service_request": "2025-1214154",
    "request_type": "Trash/Recycling",
    "request_reason": "Order Trash Cart",
    "date_created": "2025-07-30T22:29:13.000",
    "date_modified": "2025-07-30T22:29:16.000",
    "request_status": "Pending",
    "responsible_agency": "Department of Sanitation",
    "final_address": "1914 Leonidas St Apt B",
    "address_councildis": "A",
    "status": "Assigned to Contractor",
    "contractor": "IV Waste",
    "rowid": "1214154",
    "final_x": "3662350.22771",
    "final_y": "531551.903299",
    "longitude": "-90.12853765202364",
    "latitude": "29.95615094632182",
    "geocoded_column": {
      "latitude": "29.95615094632182",
      "longitude": "-90.12853765202364"
    }
  },
  {
    "service_request": "2025-1214153",
    "request_type": "Trash/Recycling",
    "request_reason": "Replace Trash Cart",
    "date_created": "2025-07-30T22:20:19.000",
    "date_modified": "2025-07-30T22:20:25.000",
    "request_status": "Pending",
    "responsible_agency": "Department of Sanitation",
    "final_address": "2518 Pressburg St",
    "address_councildis": "D",
    "status": "Assigned to Contractor",
    "contractor": "IV Waste",
    "rowid": "1214153",
    "final_x": "3685918.58466",
    "final_y": "554719.729688",
    "longitude": "-90.05329969563975",
    "latitude": "30.019151792523203",
    "geocoded_column": {
      "latitude": "30.019151792523203",
      "longitude": "-90.05329969563975"
    }
  },
  {
    "service_request": "2025-1214152",
    "request_type": "Trash/Recycling",
    "request_reason": "Repair Trash Cart",
    "date_created": "2025-07-30T22:08:18.000",
    "date_modified": "2025-07-30T22:08:19.000",
    "request_status": "Pending",
    "responsible_agency": "Department of Sanitation",
    "final_address": "7142 Bundy Rd",
    "address_councildis": "E",
    "status": "Assigned to Contractor",
    "contractor": "Waste Pro",
    "rowid": "1214152",
    "final_x": "3706593.60862",
    "final_y": "561435.217758",
    "longitude": "-89.98772512588032",
    "latitude": "30.036965491716817",
    "geocoded_column": {
      "latitude": "30.036965491716817",
      "longitude": "-89.98772512588032"
    }
  },
  {
    "service_request": "2025-1214151",
    "request_type": "Trash/Recycling",
    "request_reason": "Missed Trash Pick-Up",
    "date_created": "2025-07-30T22:04:24.000",
    "date_modified": "2025-07-30T22:04:25.000",
    "request_status": "Pending",
    "responsible_agency": "Department of Sanitation",
    "final_address": "3616 Pin Oak Ave",
    "address_councildis": "C",
    "status": "Assigned to Contractor",
    "contractor": "Richards Disposal",
    "rowid": "1214151",
    "final_x": "3703773.67524",
    "final_y": "514935.449395",
    "longitude": "-89.99834872896463",
    "latitude": "29.90919888794525",
    "geocoded_column": {
      "latitude": "29.90919888794525",
      "longitude": "-89.99834872896463"
    }
  },
  {
    "service_request": "2025-1214150",
    "request_type": "Trash/Recycling",
    "request_reason": "Order Recycling Cart",
    "date_created": "2025-07-30T21:40:04.000",
    "date_modified": "2025-07-30T21:40:06.000",
    "request_status": "Pending",
    "responsible_agency": "Department of Sanitation",
    "final_address": "2331 Esplanade Ave",
    "address_councildis": "D",
    "status": "Pending",
    "rowid": "1214150",
    "final_x": "3679135.9245",
    "final_y": "538293.536713",
    "longitude": "-90.07530039479275",
    "latitude": "29.974192167902782",
    "geocoded_column": {
      "latitude": "29.974192167902782",
      "longitude": "-90.07530039479275"
    }
  },
  {
    "service_request": "2025-1214149",
    "request_type": "Trash/Recycling",
    "request_reason": "Damaged Caused By Contractor",
    "date_created": "2025-07-30T21:38:35.000",
    "date_modified": "2025-07-30T21:38:37.000",
    "request_status": "Pending",
    "responsible_agency": "Department of Sanitation",
    "final_address": "2331 Esplanade Ave",
    "address_councildis": "D",
    "status": "Assigned to Contractor",
    "contractor": "IV Waste",
    "rowid": "1214149",
    "final_x": "3679135.9245",
    "final_y": "538293.536713",
    "longitude": "-90.07530039479275",
    "latitude": "29.974192167902782",
    "geocoded_column": {
      "latitude": "29.974192167902782",
      "longitude": "-90.07530039479275"
    }
  },
  {
    "service_request": "2025-1214148",
    "request_type": "Trash/Recycling",
    "request_reason": "Request a Large Item Pick Up",
    "date_created": "2025-07-30T21:29:29.000",
    "date_modified": "2025-07-30T21:29:37.000",
    "request_status": "Pending",
    "responsible_agency": "Department of Sanitation",
    "final_address": "3809 Laurel St",
    "address_councildis": "B",
    "status": "Assigned to Contractor",
    "contractor": "IV Waste",
    "rowid": "1214148",
    "final_x": "3673465.3947",
    "final_y": "518348.272566",
    "longitude": "-90.09389064846286",
    "latitude": "29.919519227344004",
    "geocoded_column": {
      "latitude": "29.919519227344004",
      "longitude": "-90.09389064846286"
    }
  },
  {
    "service_request": "2025-1214147",
    "request_type": "Trash/Recycling",
    "request_reason": "Request a Large Item Pick Up",
    "date_created": "2025-07-30T21:23:18.000",
    "date_modified": "2025-07-30T21:23:21.000",
    "request_status": "Pending",
    "responsible_agency": "Department of Sanitation",
    "final_address": "4717 Loyola Ave",
    "address_councildis": "B",
    "status": "Assigned to Contractor",
    "contractor": "IV Waste",
    "rowid": "1214147",
    "final_x": "3669363.87822",
    "final_y": "522904.349947",
    "longitude": "-90.1066831761177",
    "latitude": "29.932168344872142",
    "geocoded_column": {
      "latitude": "29.932168344872142",
      "longitude": "-90.1066831761177"
    }
  },
  {
    "service_request": "2025-1214146",
    "request_type": "Trash/Recycling",
    "request_reason": "Request a Large Item Pick Up",
    "date_created": "2025-07-30T20:51:29.000",
    "date_modified": "2025-07-30T20:51:31.000",
    "request_status": "Pending",
    "responsible_agency": "Department of Sanitation",
    "final_address": "0 BLK Acadiana Pl",
    "address_councildis": "E",
    "status": "Assigned to Contractor",
    "contractor": "Waste Pro",
    "rowid": "1214146",
    "final_x": "3725131.4083",
    "final_y": "564393.680055",
    "longitude": "-89.92902788187175",
    "latitude": "30.04448842646984",
    "geocoded_column": {
      "latitude": "30.04448842646984",
      "longitude": "-89.92902788187175"
    }
  },
  {
    "service_request": "2025-1214145",
    "request_type": "Trash/Recycling",
    "request_reason": "Request a Large Item Pick Up",
    "date_created": "2025-07-30T20:40:59.000",
    "date_modified": "2025-07-30T20:41:01.000",
    "request_status": "Pending",
    "responsible_agency": "Department of Sanitation",
    "final_address": "0 BLK Acadiana Pl",
    "address_councildis": "E",
    "status": "Assigned to Contractor",
    "contractor": "Waste Pro",
    "rowid": "1214145",
    "final_x": "3725131.4083",
    "final_y": "564393.680055",
    "longitude": "-89.92902788187175",
    "latitude": "30.04448842646984",
    "geocoded_column": {
      "latitude": "30.04448842646984",
      "longitude": "-89.92902788187175"
    }
  },
  {
    "service_request": "2025-1214144",
    "request_type": "Trash/Recycling",
    "request_reason": "Replace Trash Cart",
    "date_created": "2025-07-30T20:36:49.000",
    "date_modified": "2025-07-30T20:36:51.000",
    "request_status": "Pending",
    "responsible_agency": "Department of Sanitation",
    "final_address": "1218 Napoleon Ave",
    "address_councildis": "B",
    "status": "Assigned to Contractor",
    "contractor": "IV Waste",
    "rowid": "1214144",
    "final_x": "3670811.67099",
    "final_y": "519972.138424",
    "longitude": "-90.10221208129997",
    "latitude": "29.924063005197947",
    "geocoded_column": {
      "latitude": "29.924063005197947",
      "longitude": "-90.10221208129997"
    }
  },
  {
    "service_request": "2025-1214143",
    "request_type": "New Orleans Recreation Development Commission (NORDC)",
    "request_reason": "Facilities and Parks Maintenance/Clean Up",
    "date_created": "2025-07-30T20:36:36.000",
    "date_modified": "2025-07-30T20:36:38.000",
    "request_status": "Pending",
    "responsible_agency": "New Orleans Recreation Development Commission",
    "final_address": "3126 Toulouse St",
    "address_councildis": "A",
    "status": "Pending",
    "rowid": "1214143",
    "final_x": "3674990.96155",
    "final_y": "537625.8258",
    "longitude": "-90.0884140756853",
    "latitude": "29.972480670889567",
    "geocoded_column": {
      "latitude": "29.972480670889567",
      "longitude": "-90.0884140756853"
    }
  },
  {
    "service_request": "2025-1214142",
    "request_type": "Trash/Recycling",
    "request_reason": "Request a Large Item Pick Up",
    "date_created": "2025-07-30T20:19:49.000",
    "date_modified": "2025-07-30T20:19:51.000",
    "request_status": "Pending",
    "responsible_agency": "Department of Sanitation",
    "final_address": "4800 Camelia St",
    "address_councildis": "E",
    "status": "Assigned to Contractor",
    "contractor": "Waste Pro",
    "rowid": "1214142",
    "final_x": "3701437.31223",
    "final_y": "554502.125912",
    "longitude": "-90.00427417792105",
    "latitude": "30.018067654044028",
    "geocoded_column": {
      "latitude": "30.018067654044028",
      "longitude": "-90.00427417792105"
    }
  },
  {
    "service_request": "2025-1214141",
    "request_type": "Trash/Recycling",
    "request_reason": "Request a Large Item Pick Up",
    "date_created": "2025-07-30T20:12:10.000",
    "date_modified": "2025-07-30T20:12:13.000",
    "request_status": "Pending",
    "responsible_agency": "Department of Sanitation",
    "final_address": "7911 Redfish St",
    "address_councildis": "E",
    "status": "Assigned to Contractor",
    "contractor": "Waste Pro",
    "rowid": "1214141",
    "final_x": "3698669.68528",
    "final_y": "560884.872798",
    "longitude": "-90.01278635821951",
    "latitude": "30.035705738788558",
    "geocoded_column": {
      "latitude": "30.035705738788558",
      "longitude": "-90.01278635821951"
    }
  },
  {
    "service_request": "2025-1214140",
    "request_type": "Trash/Recycling",
    "request_reason": "Replace Trash Cart",
    "date_created": "2025-07-30T20:05:47.000",
    "date_modified": "2025-07-30T20:05:48.000",
    "request_status": "Pending",
    "responsible_agency": "Department of Sanitation",
    "final_address": "2621 Laharpe St",
    "address_councildis": "D",
    "status": "Assigned to Contractor",
    "contractor": "IV Waste",
    "rowid": "1214140",
    "final_x": "3678719.52302",
    "final_y": "540040.119947",
    "longitude": "-90.07655498555317",
    "latitude": "29.97900723325404",
    "geocoded_column": {
      "latitude": "29.97900723325404",
      "longitude": "-90.07655498555317"
    }
  },
  {
    "service_request": "2025-1214139",
    "request_type": "Drainage",
    "request_reason": "Catch Basin Clogged",
    "date_created": "2025-07-30T19:40:40.000",
    "date_modified": "2025-07-30T19:40:42.000",
    "request_status": "Pending",
    "responsible_agency": "Sewerage & Water Board",
    "final_address": "100 BLK Bottinelli Pl",
    "address_councildis": "A",
    "status": "Pending",
    "rowid": "1214139",
    "final_x": "3668417.11359",
    "final_y": "540152.852881",
    "longitude": "-90.10909025182816",
    "latitude": "29.979623895888608",
    "geocoded_column": {
      "latitude": "29.979623895888608",
      "longitude": "-90.10909025182816"
    }
  },
  {
    "service_request": "2025-1214138",
    "request_type": "Trash/Recycling",
    "request_reason": "Request a Large Item Pick Up",
    "date_created": "2025-07-30T19:39:36.000",
    "date_modified": "2025-07-30T19:39:37.000",
    "request_status": "Pending",
    "responsible_agency": "Department of Sanitation",
    "final_address": "9763 W Rockton Cir",
    "address_councildis": "E",
    "status": "Assigned to Contractor",
    "contractor": "Waste Pro",
    "rowid": "1214138",
    "final_x": "3708063.53547",
    "final_y": "562701.965152",
    "longitude": "-89.9830327009913",
    "latitude": "30.040400998537717",
    "geocoded_column": {
      "latitude": "30.040400998537717",
      "longitude": "-89.9830327009913"
    }
  },
  {
    "service_request": "2025-1214137",
    "request_type": "Drainage",
    "request_reason": "Catch Basin Clogged",
    "date_created": "2025-07-30T19:33:11.000",
    "date_modified": "2025-07-30T19:33:12.000",
    "request_status": "Pending",
    "responsible_agency": "Sewerage & Water Board",
    "final_address": "120 City Park Ave",
    "address_councildis": "A",
    "status": "Pending",
    "rowid": "1214137",
    "final_x": "3667696.7346",
    "final_y": "540843.778059",
    "longitude": "-90.11134223468176",
    "latitude": "29.981544850479576",
    "geocoded_column": {
      "latitude": "29.981544850479576",
      "longitude": "-90.11134223468176"
    }
  },
  {
    "service_request": "2025-1214136",
    "request_type": "Trash/Recycling",
    "request_reason": "Request a Large Item Pick Up",
    "date_created": "2025-07-30T19:32:20.000",
    "date_modified": "2025-07-30T19:32:22.000",
    "request_status": "Pending",
    "responsible_agency": "Department of Sanitation",
    "final_address": "524 Florida Blvd",
    "address_councildis": "A",
    "status": "Assigned to Contractor",
    "contractor": "IV Waste",
    "rowid": "1214136",
    "final_x": "3667759.23981",
    "final_y": "545339.469584",
    "longitude": "-90.11099333857253",
    "latitude": "29.993904638043094",
    "geocoded_column": {
      "latitude": "29.993904638043094",
      "longitude": "-90.11099333857253"
    }
  },
  {
    "service_request": "2025-1214135",
    "request_type": "Trash/Recycling",
    "request_reason": "Request a Large Item Pick Up",
    "date_created": "2025-07-30T19:29:41.000",
    "date_modified": "2025-07-30T19:29:43.000",
    "request_status": "Pending",
    "responsible_agency": "Department of Sanitation",
    "final_address": "400 Egania St",
    "address_councildis": "E",
    "status": "Assigned to Contractor",
    "contractor": "Waste Pro",
    "rowid": "1214135",
    "final_x": "3696150.48432",
    "final_y": "531842.295107",
    "longitude": "-90.02179796014954",
    "latitude": "29.955928925737588",
    "geocoded_column": {
      "latitude": "29.955928925737588",
      "longitude": "-90.02179796014954"
    }
  },
  {
    "service_request": "2025-1214134",
    "request_type": "Trash/Recycling",
    "request_reason": "Missed Trash Pick-Up",
    "date_created": "2025-07-30T19:14:02.000",
    "date_modified": "2025-07-30T19:14:04.000",
    "request_status": "Pending",
    "responsible_agency": "Department of Sanitation",
    "final_address": "7430 Camberley Dr",
    "address_councildis": "E",
    "status": "Assigned to Contractor",
    "contractor": "Waste Pro",
    "rowid": "1214134",
    "final_x": "3712692.96523",
    "final_y": "565553.582626",
    "longitude": "-89.96829497604182",
    "latitude": "30.04809097801865",
    "geocoded_column": {
      "latitude": "30.04809097801865",
      "longitude": "-89.96829497604182"
    }
  },
  {
    "service_request": "2025-1214133",
    "request_type": "Trash/Recycling",
    "request_reason": "Order Recycling Cart",
    "date_created": "2025-07-30T19:08:56.000",
    "date_modified": "2025-07-30T19:08:58.000",
    "request_status": "Pending",
    "responsible_agency": "Department of Sanitation",
    "final_address": "302 33Rd St",
    "address_councildis": "A",
    "status": "Pending",
    "rowid": "1214133",
    "final_x": "3665206.02919",
    "final_y": "550927.958037",
    "longitude": "-90.11887149127955",
    "latitude": "30.009345701464817",
    "geocoded_column": {
      "latitude": "30.009345701464817",
      "longitude": "-90.11887149127955"
    }
  },
  {
    "service_request": "2025-1214132",
    "request_type": "Trash/Recycling",
    "request_reason": "Order Trash Cart",
    "date_created": "2025-07-30T19:06:31.000",
    "date_modified": "2025-07-30T19:06:34.000",
    "request_status": "Pending",
    "responsible_agency": "Department of Sanitation",
    "final_address": "6201 Wadsworth Dr",
    "address_councildis": "D",
    "status": "Assigned to Contractor",
    "contractor": "IV Waste",
    "rowid": "1214132",
    "final_x": "3681675.46824",
    "final_y": "555682.103833",
    "longitude": "-90.06667285708541",
    "latitude": "30.021927620559083",
    "geocoded_column": {
      "latitude": "30.021927620559083",
      "longitude": "-90.06667285708541"
    }
  },
  {
    "service_request": "2025-1214131",
    "request_type": "Property Maintenance",
    "request_reason": "Property Maintenance",
    "date_created": "2025-07-30T19:01:21.000",
    "date_modified": "2025-07-30T19:01:23.000",
    "request_status": "Pending",
    "responsible_agency": "Department of Code Enforcement",
    "final_address": "6302 Music St",
    "address_councildis": "D",
    "status": "Pending",
    "rowid": "1214131",
    "final_x": "3685174.93129",
    "final_y": "556328.252954",
    "longitude": "-90.05559270549631",
    "latitude": "30.02359745904347",
    "geocoded_column": {
      "latitude": "30.02359745904347",
      "longitude": "-90.05559270549631"
    }
  },
  {
    "service_request": "2025-1214130",
    "request_type": "Trash/Recycling",
    "request_reason": "Order Recycling Cart",
    "date_created": "2025-07-30T19:00:42.000",
    "date_modified": "2025-07-30T19:00:44.000",
    "request_status": "Pending",
    "responsible_agency": "Department of Sanitation",
    "final_address": "2734 Gladiolus St",
    "address_councildis": "D",
    "status": "Pending",
    "rowid": "1214130",
    "final_x": "3688051.98319",
    "final_y": "547542.95925",
    "longitude": "-90.0468135110275",
    "latitude": "29.999352600460607",
    "geocoded_column": {
      "latitude": "29.999352600460607",
      "longitude": "-90.0468135110275"
    }
  },
  {
    "service_request": "2025-1214129",
    "request_type": "Trash/Recycling",
    "request_reason": "MIssed Recycling Pick-Up",
    "date_created": "2025-07-30T18:50:32.000",
    "date_modified": "2025-07-30T18:50:34.000",
    "request_status": "Pending",
    "responsible_agency": "Department of Sanitation",
    "final_address": "917 S Carrollton Ave",
    "address_councildis": "A",
    "status": "Assigned to Contractor",
    "contractor": "IV Waste",
    "rowid": "1214129",
    "final_x": "3661480.68326",
    "final_y": "527593.346111",
    "longitude": "-90.13141450825945",
    "latitude": "29.945291295623804",
    "geocoded_column": {
      "latitude": "29.945291295623804",
      "longitude": "-90.13141450825945"
    }
  },
  {
    "service_request": "2025-1214128",
    "request_type": "Trash/Recycling",
    "request_reason": "Missed Trash Pick-Up",
    "date_created": "2025-07-30T18:49:24.000",
    "date_modified": "2025-07-30T18:49:26.000",
    "request_status": "Pending",
    "responsible_agency": "Department of Sanitation",
    "final_address": "917 S Carrollton Ave",
    "address_councildis": "A",
    "status": "Assigned to Contractor",
    "contractor": "IV Waste",
    "rowid": "1214128",
    "final_x": "3661480.68326",
    "final_y": "527593.346111",
    "longitude": "-90.13141450825945",
    "latitude": "29.945291295623804",
    "geocoded_column": {
      "latitude": "29.945291295623804",
      "longitude": "-90.13141450825945"
    }
  },
  {
    "service_request": "2025-1214127",
    "request_type": "Trash/Recycling",
    "request_reason": "Repair Recycling Cart",
    "date_created": "2025-07-30T18:35:37.000",
    "date_modified": "2025-07-30T18:35:40.000",
    "request_status": "Pending",
    "responsible_agency": "Department of Sanitation",
    "final_address": "6132 Pontchartrain Blvd",
    "address_councildis": "A",
    "status": "Pending",
    "rowid": "1214127",
    "final_x": "3666087.50701",
    "final_y": "548425.543506",
    "longitude": "-90.11617056915327",
    "latitude": "30.00243921085582",
    "geocoded_column": {
      "latitude": "30.00243921085582",
      "longitude": "-90.11617056915327"
    }
  },
  {
    "service_request": "2025-1214126",
    "request_type": "Trash/Recycling",
    "request_reason": "Missed Trash Pick-Up",
    "date_created": "2025-07-30T18:16:41.000",
    "date_modified": "2025-07-30T18:16:43.000",
    "request_status": "Pending",
    "responsible_agency": "Department of Sanitation",
    "final_address": "1905 Constantinople St, New Orleans, Louisiana, 70115",
    "status": "Assigned to Contractor",
    "rowid": "1214126",
    "longitude": "0.0",
    "latitude": "0.0",
    "geocoded_column": {
      "latitude": "0.0",
      "longitude": "0.0"
    }
  },
  {
    "service_request": "2025-1214125",
    "request_type": "Street and Traffic Signs",
    "request_reason": "Traffic or Parking Sign Damaged or Missing",
    "date_created": "2025-07-30T18:15:03.000",
    "date_modified": "2025-07-30T18:15:06.000",
    "request_status": "Pending",
    "responsible_agency": "Department of Public Works",
    "final_address": "7041 Ridgefield Dr",
    "address_councildis": "E",
    "status": "Pending",
    "rowid": "1214125",
    "final_x": "3719434.38092",
    "final_y": "569649.538214",
    "longitude": "-89.94683187187516",
    "latitude": "30.05913061424178",
    "geocoded_column": {
      "latitude": "30.05913061424178",
      "longitude": "-89.94683187187516"
    }
  },
  {
    "service_request": "2025-1214124",
    "request_type": "Trash/Recycling",
    "request_reason": "Request a Large Item Pick Up",
    "date_created": "2025-07-30T18:05:10.000",
    "date_modified": "2025-07-30T18:05:12.000",
    "request_status": "Pending",
    "responsible_agency": "Department of Sanitation",
    "final_address": "2432 Pauline St, New Orleans, Louisiana, 70117",
    "address_councildis": "D",
    "status": "Assigned to Contractor",
    "contractor": "IV Waste",
    "rowid": "1214124",
    "final_x": "3692446.72797",
    "final_y": "540621.374091",
    "longitude": "-90.03317854607431",
    "latitude": "29.980184339010027",
    "geocoded_column": {
      "latitude": "29.980184339010027",
      "longitude": "-90.03317854607431"
    }
  },
  {
    "service_request": "2025-1214123",
    "request_type": "Parks & Parkways",
    "request_reason": "Request Tree Service (Right of Way/Public Property)",
    "date_created": "2025-07-30T17:58:03.000",
    "date_modified": "2025-07-30T17:58:05.000",
    "request_status": "Pending",
    "responsible_agency": "Department of Parks & Parkway",
    "final_address": "1333 Montegut St",
    "address_councildis": "C",
    "status": "Pending",
    "rowid": "1214123",
    "final_x": "3688748.97302",
    "final_y": "537174.105352",
    "longitude": "-90.04498000089434",
    "latitude": "29.97082041721219",
    "geocoded_column": {
      "latitude": "29.97082041721219",
      "longitude": "-90.04498000089434"
    }
  },
  {
    "service_request": "2025-1214122",
    "request_type": "Drainage",
    "request_reason": "Catch Basin Clogged",
    "date_created": "2025-07-30T17:55:45.000",
    "date_modified": "2025-07-30T17:55:46.000",
    "request_status": "Pending",
    "responsible_agency": "Sewerage & Water Board",
    "final_address": "2403 St Charles Ave",
    "address_councildis": "B",
    "status": "Pending",
    "rowid": "1214122",
    "final_x": "3676877.13621",
    "final_y": "523246.707387",
    "longitude": "-90.08295274640982",
    "latitude": "29.932886418152176",
    "geocoded_column": {
      "latitude": "29.932886418152176",
      "longitude": "-90.08295274640982"
    }
  },
  {
    "service_request": "2025-1214121",
    "request_type": "Trash/Recycling",
    "request_reason": "Request a Large Item Pick Up",
    "date_created": "2025-07-30T17:55:07.000",
    "date_modified": "2025-07-30T17:55:09.000",
    "request_status": "Pending",
    "responsible_agency": "Department of Sanitation",
    "final_address": "3323 Loyola Ave Apt 1A",
    "address_councildis": "B",
    "status": "Assigned to Contractor",
    "contractor": "IV Waste",
    "rowid": "1214121",
    "final_x": "3673525.08788",
    "final_y": "523625.687547",
    "longitude": "-90.09352198326054",
    "latitude": "29.934028644550978",
    "geocoded_column": {
      "latitude": "29.934028644550978",
      "longitude": "-90.09352198326054"
    }
  },
  {
    "service_request": "2025-1214120",
    "request_type": "Roads and Streets",
    "request_reason": "Pothole",
    "date_created": "2025-07-30T17:48:00.000",
    "date_modified": "2025-07-30T17:48:03.000",
    "request_status": "Pending",
    "responsible_agency": "Department of Public Works",
    "final_address": "9999 Lake Forest Blvd",
    "address_councildis": "E",
    "status": "Pending",
    "rowid": "1214120",
    "final_x": "3710976.71409",
    "final_y": "560035.412509",
    "longitude": "-89.97392616951281",
    "latitude": "30.032974325442808",
    "geocoded_column": {
      "latitude": "30.032974325442808",
      "longitude": "-89.97392616951281"
    }
  },
  {
    "service_request": "2025-1214119",
    "request_type": "Trash/Recycling",
    "request_reason": "Request a Large Item Pick Up",
    "date_created": "2025-07-30T17:33:21.000",
    "date_modified": "2025-07-30T17:33:23.000",
    "request_status": "Pending",
    "responsible_agency": "Department of Sanitation",
    "final_address": "1015 Alabo St",
    "address_councildis": "E",
    "status": "Assigned to Contractor",
    "contractor": "Waste Pro",
    "rowid": "1214119",
    "final_x": "3698862.61866",
    "final_y": "533217.164036",
    "longitude": "-90.01318401388022",
    "latitude": "29.959623690547993",
    "geocoded_column": {
      "latitude": "29.959623690547993",
      "longitude": "-90.01318401388022"
    }
  },
  {
    "service_request": "2025-1214118",
    "request_type": "Trash/Recycling",
    "request_reason": "Return Trash Cart",
    "date_created": "2025-07-30T17:32:25.000",
    "date_modified": "2025-07-30T17:32:28.000",
    "request_status": "Pending",
    "responsible_agency": "Department of Sanitation",
    "final_address": "613 Elmira Ave",
    "address_councildis": "C",
    "status": "Assigned to Contractor",
    "contractor": "Richards Disposal",
    "rowid": "1214118",
    "final_x": "3688135.71894",
    "final_y": "529344.687745",
    "longitude": "-90.04719426641434",
    "latitude": "29.94931117673567",
    "geocoded_column": {
      "latitude": "29.94931117673567",
      "longitude": "-90.04719426641434"
    }
  },
  {
    "service_request": "2025-1214117",
    "request_type": "Trash/Recycling",
    "request_reason": "Request a Large Item Pick Up",
    "date_created": "2025-07-30T17:29:01.000",
    "date_modified": "2025-07-30T17:29:03.000",
    "request_status": "Pending",
    "responsible_agency": "Department of Sanitation",
    "final_address": "1001 Gordon St",
    "address_councildis": "E",
    "status": "Assigned to Contractor",
    "contractor": "Waste Pro",
    "rowid": "1214117",
    "final_x": "3699031.9098",
    "final_y": "533045.295876",
    "longitude": "-90.01265568989022",
    "latitude": "29.959145750088272",
    "geocoded_column": {
      "latitude": "29.959145750088272",
      "longitude": "-90.01265568989022"
    }
  },
  {
    "service_request": "2025-1214116",
    "request_type": "Trash/Recycling",
    "request_reason": "Request a Large Item Pick Up",
    "date_created": "2025-07-30T17:28:55.000",
    "date_modified": "2025-07-30T17:28:56.000",
    "request_status": "Pending",
    "responsible_agency": "Department of Sanitation",
    "final_address": "1608 St Roch Ave",
    "address_councildis": "D",
    "status": "Assigned to Contractor",
    "contractor": "IV Waste",
    "rowid": "1214116",
    "final_x": "3686242.92745",
    "final_y": "538358.440649",
    "longitude": "-90.05285259097836",
    "latitude": "29.974154165029574",
    "geocoded_column": {
      "latitude": "29.974154165029574",
      "longitude": "-90.05285259097836"
    }
  },
  {
    "service_request": "2025-1214115",
    "request_type": "Trash/Recycling",
    "request_reason": "Request a Large Item Pick Up",
    "date_created": "2025-07-30T17:07:30.000",
    "date_modified": "2025-07-30T17:07:33.000",
    "request_status": "Pending",
    "responsible_agency": "Department of Sanitation",
    "final_address": "8140 Aberdeen Rd",
    "address_councildis": "E",
    "status": "Assigned to Contractor",
    "contractor": "Waste Pro",
    "rowid": "1214115",
    "final_x": "3702882.73751",
    "final_y": "561294.199774",
    "longitude": "-89.99945739546129",
    "latitude": "30.03669704917998",
    "geocoded_column": {
      "latitude": "30.03669704917998",
      "longitude": "-89.99945739546129"
    }
  },
  {
    "service_request": "2025-1214114",
    "request_type": "Drainage",
    "request_reason": "Catch Basin Clogged",
    "date_created": "2025-07-30T17:02:55.000",
    "date_modified": "2025-07-30T17:02:57.000",
    "request_status": "Pending",
    "responsible_agency": "Sewerage & Water Board",
    "final_address": "4905 Canal St",
    "address_councildis": "A",
    "status": "Pending",
    "rowid": "1214114",
    "final_x": "3668559.03028",
    "final_y": "540461.875531",
    "longitude": "-90.10863158830065",
    "latitude": "29.980469433711686",
    "geocoded_column": {
      "latitude": "29.980469433711686",
      "longitude": "-90.10863158830065"
    }
  },
  {
    "service_request": "2025-1214113",
    "request_type": "Drainage",
    "request_reason": "Catch Basin Clogged",
    "date_created": "2025-07-30T17:00:12.000",
    "date_modified": "2025-07-30T17:00:16.000",
    "request_status": "Pending",
    "responsible_agency": "Sewerage & Water Board",
    "final_address": "3827 Canal St",
    "address_councildis": "A",
    "status": "Pending",
    "rowid": "1214113",
    "final_x": "3671998.41319",
    "final_y": "537899.680905",
    "longitude": "-90.09785576934745",
    "latitude": "29.973322740370623",
    "geocoded_column": {
      "latitude": "29.973322740370623",
      "longitude": "-90.09785576934745"
    }
  },
  {
    "service_request": "2025-1214112",
    "request_type": "Trash/Recycling",
    "request_reason": "Request a Large Item Pick Up",
    "date_created": "2025-07-30T16:58:43.000",
    "date_modified": "2025-07-30T16:58:44.000",
    "request_status": "Pending",
    "responsible_agency": "Department of Sanitation",
    "final_address": "5613 N Villere St",
    "address_councildis": "E",
    "status": "Assigned to Contractor",
    "contractor": "Waste Pro",
    "rowid": "1214112",
    "final_x": "3698479.05207",
    "final_y": "534893.31303",
    "longitude": "-90.01433429450884",
    "latitude": "29.964244649031198",
    "geocoded_column": {
      "latitude": "29.964244649031198",
      "longitude": "-90.01433429450884"
    }
  },
  {
    "service_request": "2025-1214111",
    "request_type": "Mosquito, Termite & Rodent Control",
    "request_reason": "Rodent Complaint (Mice & Rats)",
    "date_created": "2025-07-30T16:57:57.000",
    "date_modified": "2025-07-30T16:57:59.000",
    "request_status": "Pending",
    "responsible_agency": "Mosquito, Termite & Rodent Control Board",
    "final_address": "3625 Napoleon Ave",
    "address_councildis": "B",
    "status": "Pending",
    "rowid": "1214111",
    "final_x": "3670233.44257",
    "final_y": "528023.318143",
    "longitude": "-90.1037646300207",
    "latitude": "29.94621822555074",
    "geocoded_column": {
      "latitude": "29.94621822555074",
      "longitude": "-90.1037646300207"
    }
  },
  {
    "service_request": "2025-1214110",
    "request_type": "Property Maintenance",
    "request_reason": "Property Maintenance",
    "date_created": "2025-07-30T16:57:24.000",
    "date_modified": "2025-07-30T16:57:26.000",
    "request_status": "Pending",
    "responsible_agency": "Department of Code Enforcement",
    "final_address": "5834 E Deer Park Blvd",
    "address_councildis": "E",
    "status": "Pending",
    "rowid": "1214110",
    "final_x": "3712405.79186",
    "final_y": "561082.576414",
    "longitude": "-89.96937080724247",
    "latitude": "30.035806913054625",
    "geocoded_column": {
      "latitude": "30.035806913054625",
      "longitude": "-89.96937080724247"
    }
  },
  {
    "service_request": "2025-1214109",
    "request_type": "Drainage",
    "request_reason": "Catch Basin Clogged",
    "date_created": "2025-07-30T16:49:53.000",
    "date_modified": "2025-07-30T16:49:55.000",
    "request_status": "Pending",
    "responsible_agency": "Sewerage & Water Board",
    "final_address": "2039 Burdette St",
    "address_councildis": "A",
    "status": "Pending",
    "rowid": "1214109",
    "final_x": "3664935.84672",
    "final_y": "529887.554433",
    "longitude": "-90.12042874048392",
    "latitude": "29.95149952042086",
    "geocoded_column": {
      "latitude": "29.95149952042086",
      "longitude": "-90.12042874048392"
    }
  },
  {
    "service_request": "2025-1214108",
    "request_type": "Drainage",
    "request_reason": "Catch Basin Clogged",
    "date_created": "2025-07-30T16:48:43.000",
    "date_modified": "2025-07-30T16:48:44.000",
    "request_status": "Pending",
    "responsible_agency": "Sewerage & Water Board",
    "final_address": "3443 S Carrollton Ave",
    "address_councildis": "B",
    "status": "Pending",
    "rowid": "1214108",
    "final_x": "3667587.73671",
    "final_y": "534237.282949",
    "longitude": "-90.11190893013239",
    "latitude": "29.963382393105142",
    "geocoded_column": {
      "latitude": "29.963382393105142",
      "longitude": "-90.11190893013239"
    }
  },
  {
    "service_request": "2025-1214107",
    "request_type": "Trash/Recycling",
    "request_reason": "Request a Large Item Pick Up",
    "date_created": "2025-07-30T16:45:15.000",
    "date_modified": "2025-07-30T16:45:17.000",
    "request_status": "Pending",
    "responsible_agency": "Department of Sanitation",
    "final_address": "4808 St Claude Ave",
    "address_councildis": "E",
    "status": "Assigned to Contractor",
    "contractor": "Waste Pro",
    "rowid": "1214107",
    "final_x": "3695140.33008",
    "final_y": "534421.409861",
    "longitude": "-90.0248946657472",
    "latitude": "29.963052336513883",
    "geocoded_column": {
      "latitude": "29.963052336513883",
      "longitude": "-90.0248946657472"
    }
  },
  {
    "service_request": "2025-1214106",
    "request_type": "Trash/Recycling",
    "request_reason": "Order Trash Cart",
    "date_created": "2025-07-30T16:41:38.000",
    "date_modified": "2025-07-30T16:41:39.000",
    "request_status": "Pending",
    "responsible_agency": "Department of Sanitation",
    "final_address": "4767 Marque Dr",
    "address_councildis": "E",
    "status": "Assigned to Contractor",
    "contractor": "Waste Pro",
    "rowid": "1214106",
    "final_x": "3710091.4124",
    "final_y": "555909.268313",
    "longitude": "-89.97687813457641",
    "latitude": "30.0216579027419",
    "geocoded_column": {
      "latitude": "30.0216579027419",
      "longitude": "-89.97687813457641"
    }
  },
  {
    "service_request": "2025-1214105",
    "request_type": "Abandoned Vehicles",
    "request_reason": "Abandoned/Junk Vehicles",
    "date_created": "2025-07-30T16:39:57.000",
    "date_modified": "2025-07-30T16:39:59.000",
    "request_status": "Pending",
    "responsible_agency": "Department of Public Works",
    "final_address": "4550 Lynhuber Dr",
    "address_councildis": "D",
    "status": "Pending",
    "rowid": "1214105",
    "final_x": "3698055.02736",
    "final_y": "553336.524567",
    "longitude": "-90.0150032263222",
    "latitude": "30.014970128540018",
    "geocoded_column": {
      "latitude": "30.014970128540018",
      "longitude": "-90.0150032263222"
    }
  },
  {
    "service_request": "2025-1214104",
    "request_type": "Safety & Permits",
    "request_reason": "Zoning Enforcement",
    "date_created": "2025-07-30T16:39:53.000",
    "date_modified": "2025-07-30T16:39:55.000",
    "request_status": "Pending",
    "responsible_agency": "Safety and Permits",
    "final_address": "2051 N Tonti St",
    "address_councildis": "D",
    "status": "Pending",
    "rowid": "1214104",
    "final_x": "3683231.71976",
    "final_y": "540643.288971",
    "longitude": "-90.06228262087713",
    "latitude": "29.98052888344038",
    "geocoded_column": {
      "latitude": "29.98052888344038",
      "longitude": "-90.06228262087713"
    }
  },
  {
    "service_request": "2025-1214103",
    "request_type": "Streetlights",
    "request_reason": "Streetlight Outage/Malfunction",
    "date_created": "2025-07-30T16:35:42.000",
    "date_modified": "2025-07-30T16:35:45.000",
    "request_status": "Pending",
    "responsible_agency": "Department of Public Works",
    "final_address": "5242 Michoud Blvd",
    "address_councildis": "E",
    "status": "Pending",
    "contractor": "Legacy Professional Services",
    "rowid": "1214103",
    "final_x": "3724690.9166",
    "final_y": "562703.125216",
    "longitude": "-89.93048543016496",
    "latitude": "30.039854936404147",
    "geocoded_column": {
      "latitude": "30.039854936404147",
      "longitude": "-89.93048543016496"
    }
  },
  {
    "service_request": "2025-1214102",
    "request_type": "Trash/Recycling",
    "request_reason": "Request a Large Item Pick Up",
    "date_created": "2025-07-30T16:34:19.000",
    "date_modified": "2025-07-30T16:34:21.000",
    "request_status": "Pending",
    "responsible_agency": "Department of Sanitation",
    "final_address": "4683 Galahad Dr",
    "address_councildis": "E",
    "status": "Assigned to Contractor",
    "contractor": "Waste Pro",
    "rowid": "1214102",
    "final_x": "3707326.25182",
    "final_y": "555049.647001",
    "longitude": "-89.98564717785155",
    "latitude": "30.019383994745276",
    "geocoded_column": {
      "latitude": "30.019383994745276",
      "longitude": "-89.98564717785155"
    }
  },
  {
    "service_request": "2025-1214101",
    "request_type": "Trash/Recycling",
    "request_reason": "Repair Trash Cart",
    "date_created": "2025-07-30T16:33:05.000",
    "date_modified": "2025-07-30T16:33:07.000",
    "request_status": "Pending",
    "responsible_agency": "Department of Sanitation",
    "final_address": "4024 Constance St",
    "address_councildis": "B",
    "status": "Assigned to Contractor",
    "contractor": "IV Waste",
    "rowid": "1214101",
    "final_x": "3672339.00116",
    "final_y": "518500.723255",
    "longitude": "-90.09744092892",
    "latitude": "29.91997187242374",
    "geocoded_column": {
      "latitude": "29.91997187242374",
      "longitude": "-90.09744092892"
    }
  },
  {
    "service_request": "2025-1214100",
    "request_type": "Trash/Recycling",
    "request_reason": "Request a Large Item Pick Up",
    "date_created": "2025-07-30T16:31:36.000",
    "date_modified": "2025-07-30T16:31:39.000",
    "request_status": "Pending",
    "responsible_agency": "Department of Sanitation",
    "final_address": "6941 Salem Dr",
    "address_councildis": "E",
    "status": "Assigned to Contractor",
    "contractor": "Waste Pro",
    "rowid": "1214100",
    "final_x": "3706868.35364",
    "final_y": "560497.880542",
    "longitude": "-89.98689168645035",
    "latitude": "30.034379309738394",
    "geocoded_column": {
      "latitude": "30.034379309738394",
      "longitude": "-89.98689168645035"
    }
  },
  {
    "service_request": "2025-1214099",
    "request_type": "Trash/Recycling",
    "request_reason": "Request a Large Item Pick Up",
    "date_created": "2025-07-30T16:30:22.000",
    "date_modified": "2025-07-30T16:30:24.000",
    "request_status": "Pending",
    "responsible_agency": "Department of Sanitation",
    "final_address": "6923 Salem Dr",
    "address_councildis": "E",
    "status": "Assigned to Contractor",
    "contractor": "Waste Pro",
    "rowid": "1214099",
    "final_x": "3706889.80395",
    "final_y": "560426.393758",
    "longitude": "-89.98682655579907",
    "latitude": "30.034182056160695",
    "geocoded_column": {
      "latitude": "30.034182056160695",
      "longitude": "-89.98682655579907"
    }
  },
  {
    "service_request": "2025-1214098",
    "request_type": "Abandoned Vehicles",
    "request_reason": "Abandoned/Junk Vehicles",
    "date_created": "2025-07-30T16:29:09.000",
    "date_modified": "2025-07-30T16:29:11.000",
    "request_status": "Pending",
    "responsible_agency": "Department of Public Works",
    "final_address": "4550 Lynhuber Dr",
    "address_councildis": "D",
    "status": "Pending",
    "rowid": "1214098",
    "final_x": "3698055.02736",
    "final_y": "553336.524567",
    "longitude": "-90.0150032263222",
    "latitude": "30.014970128540018",
    "geocoded_column": {
      "latitude": "30.014970128540018",
      "longitude": "-90.0150032263222"
    }
  },
  {
    "service_request": "2025-1214097",
    "request_type": "Trash/Recycling",
    "request_reason": "Request a Large Item Pick Up",
    "date_created": "2025-07-30T16:29:06.000",
    "date_modified": "2025-07-30T16:29:09.000",
    "request_status": "Pending",
    "responsible_agency": "Department of Sanitation",
    "final_address": "711 Deslonde St",
    "address_councildis": "E",
    "status": "Assigned to Contractor",
    "contractor": "Waste Pro",
    "rowid": "1214097",
    "final_x": "3695051.72957",
    "final_y": "533040.76506",
    "longitude": "-90.02522422738578",
    "latitude": "29.95925883201622",
    "geocoded_column": {
      "latitude": "29.95925883201622",
      "longitude": "-90.02522422738578"
    }
  },
  {
    "service_request": "2025-1214096",
    "request_type": "Trash/Recycling",
    "request_reason": "Illegal Dumping",
    "date_created": "2025-07-30T16:27:34.000",
    "date_modified": "2025-07-30T16:27:36.000",
    "request_status": "Pending",
    "responsible_agency": "Department of Sanitation",
    "final_address": "2354 Mendez St",
    "address_councildis": "D",
    "status": "Pending",
    "rowid": "1214096",
    "final_x": "3684900.08725",
    "final_y": "553455.259351",
    "longitude": "-90.05656230898677",
    "latitude": "30.01570620892543",
    "geocoded_column": {
      "latitude": "30.01570620892543",
      "longitude": "-90.05656230898677"
    }
  },
  {
    "service_request": "2025-1214095",
    "request_type": "Roads and Streets",
    "request_reason": "Street Subsidence (Sinking)",
    "date_created": "2025-07-30T16:26:13.000",
    "date_modified": "2025-07-30T16:26:15.000",
    "request_status": "Pending",
    "responsible_agency": "Department of Public Works",
    "final_address": "4550 Lynhuber Dr",
    "address_councildis": "D",
    "status": "Pending",
    "rowid": "1214095",
    "final_x": "3698055.02736",
    "final_y": "553336.524567",
    "longitude": "-90.0150032263222",
    "latitude": "30.014970128540018",
    "geocoded_column": {
      "latitude": "30.014970128540018",
      "longitude": "-90.0150032263222"
    }
  },
  {
    "service_request": "2025-1214094",
    "request_type": "Trash/Recycling",
    "request_reason": "Request a Large Item Pick Up",
    "date_created": "2025-07-30T16:23:14.000",
    "date_modified": "2025-07-30T16:23:16.000",
    "request_status": "Pending",
    "responsible_agency": "Department of Sanitation",
    "final_address": "5530 New England Dr",
    "address_councildis": "E",
    "status": "Assigned to Contractor",
    "contractor": "Waste Pro",
    "rowid": "1214094",
    "final_x": "3723625.88582",
    "final_y": "563753.894689",
    "longitude": "-89.93381065186179",
    "latitude": "30.042779928847647",
    "geocoded_column": {
      "latitude": "30.042779928847647",
      "longitude": "-89.93381065186179"
    }
  },
  {
    "service_request": "2025-1214093",
    "request_type": "Trash/Recycling",
    "request_reason": "Missed Trash Pick-Up",
    "date_created": "2025-07-30T16:21:46.000",
    "date_modified": "2025-07-30T16:48:11.000",
    "case_close_date": "2025-07-30T11:48:10.000",
    "request_status": "Closed",
    "responsible_agency": "Department of Sanitation",
    "final_address": "2366 Mendez St",
    "address_councildis": "D",
    "status": "Invalid Request",
    "contractor": "IV Waste",
    "contractor_action": "Invalid Request",
    "rowid": "1214093",
    "final_x": "3684989.91893",
    "final_y": "553462.133079",
    "longitude": "-90.05627824009723",
    "latitude": "30.015722356564524",
    "geocoded_column": {
      "latitude": "30.015722356564524",
      "longitude": "-90.05627824009723"
    }
  },
  {
    "service_request": "2025-1214092",
    "request_type": "Trash/Recycling",
    "request_reason": "Request a Large Item Pick Up",
    "date_created": "2025-07-30T16:21:07.000",
    "date_modified": "2025-07-30T16:21:09.000",
    "request_status": "Pending",
    "responsible_agency": "Department of Sanitation",
    "final_address": "4844 Montegut Dr",
    "address_councildis": "D",
    "status": "Assigned to Contractor",
    "contractor": "IV Waste",
    "rowid": "1214092",
    "final_x": "3689808.14422",
    "final_y": "550937.681813",
    "longitude": "-90.0411448299687",
    "latitude": "30.00863251255298",
    "geocoded_column": {
      "latitude": "30.00863251255298",
      "longitude": "-90.0411448299687"
    }
  },
  {
    "service_request": "2025-1214091",
    "request_type": "Trash/Recycling",
    "request_reason": "Request a Large Item Pick Up",
    "date_created": "2025-07-30T16:21:03.000",
    "date_modified": "2025-07-30T16:21:06.000",
    "request_status": "Pending",
    "responsible_agency": "Department of Sanitation",
    "final_address": "4533 LaSalle St",
    "address_councildis": "B",
    "status": "Assigned to Contractor",
    "contractor": "IV Waste",
    "rowid": "1214091",
    "final_x": "3669887.36468",
    "final_y": "523674.639227",
    "longitude": "-90.10500450819409",
    "latitude": "29.934270973300222",
    "geocoded_column": {
      "latitude": "29.934270973300222",
      "longitude": "-90.10500450819409"
    }
  },
  {
    "service_request": "2025-1214090",
    "request_type": "Trash/Recycling",
    "request_reason": "Request a Large Item Pick Up",
    "date_created": "2025-07-30T16:19:33.000",
    "date_modified": "2025-07-30T16:19:35.000",
    "request_status": "Pending",
    "responsible_agency": "Department of Sanitation",
    "final_address": "7095 Edgefield Dr",
    "address_councildis": "E",
    "status": "Assigned to Contractor",
    "contractor": "Waste Pro",
    "rowid": "1214090",
    "final_x": "3718586.25023",
    "final_y": "569528.63703",
    "longitude": "-89.94951732889695",
    "latitude": "30.05882637719464",
    "geocoded_column": {
      "latitude": "30.05882637719464",
      "longitude": "-89.94951732889695"
    }
  },
  {
    "service_request": "2025-1214089",
    "request_type": "Trash/Recycling",
    "request_reason": "Missed Trash Pick-Up",
    "date_created": "2025-07-30T16:17:32.000",
    "date_modified": "2025-07-30T16:17:43.000",
    "request_status": "Pending",
    "responsible_agency": "Department of Sanitation",
    "final_address": "9930 E Rockton Cir",
    "address_councildis": "E",
    "status": "Assigned to Contractor",
    "contractor": "Waste Pro",
    "rowid": "1214089",
    "final_x": "3708608.03076",
    "final_y": "562702.971552",
    "longitude": "-89.98131189526949",
    "latitude": "30.040386111473406",
    "geocoded_column": {
      "latitude": "30.040386111473406",
      "longitude": "-89.98131189526949"
    }
  },
  {
    "service_request": "2025-1214088",
    "request_type": "Streetlights",
    "request_reason": "Streetlight Outage/Malfunction",
    "date_created": "2025-07-30T16:16:02.000",
    "date_modified": "2025-07-30T16:16:04.000",
    "request_status": "Pending",
    "responsible_agency": "Department of Public Works",
    "final_address": "344 Lakeshore Prkwy",
    "address_councildis": "D",
    "status": "Pending",
    "contractor": "Legacy Professional Services",
    "rowid": "1214088",
    "final_x": "3667714.43879",
    "final_y": "556867.000218",
    "longitude": "-90.11074633112715",
    "latitude": "30.025602628990328",
    "geocoded_column": {
      "latitude": "30.025602628990328",
      "longitude": "-90.11074633112715"
    }
  },
  {
    "service_request": "2025-1214087",
    "request_type": "Trash/Recycling",
    "request_reason": "Order Trash Cart",
    "date_created": "2025-07-30T16:14:31.000",
    "date_modified": "2025-07-30T16:14:33.000",
    "request_status": "Pending",
    "responsible_agency": "Department of Sanitation",
    "final_address": "4915 Eastview Dr",
    "address_councildis": "E",
    "status": "Assigned to Contractor",
    "contractor": "Waste Pro",
    "rowid": "1214087",
    "final_x": "3705065.51582",
    "final_y": "556191.839322",
    "longitude": "-89.99274806026268",
    "latitude": "30.02259750059205",
    "geocoded_column": {
      "latitude": "30.02259750059205",
      "longitude": "-89.99274806026268"
    }
  },
  {
    "service_request": "2025-1214086",
    "request_type": "Trash/Recycling",
    "request_reason": "Repair Trash Cart",
    "date_created": "2025-07-30T16:13:10.000",
    "date_modified": "2025-07-30T16:13:13.000",
    "request_status": "Pending",
    "responsible_agency": "Department of Sanitation",
    "final_address": "4015 Laurel St",
    "address_councildis": "B",
    "status": "Assigned to Contractor",
    "contractor": "IV Waste",
    "rowid": "1214086",
    "final_x": "3672445.63054",
    "final_y": "518227.869558",
    "longitude": "-90.09711364287236",
    "latitude": "29.919218448809023",
    "geocoded_column": {
      "latitude": "29.919218448809023",
      "longitude": "-90.09711364287236"
    }
  },
  {
    "service_request": "2025-1214085",
    "request_type": "Property Maintenance",
    "request_reason": "Property Maintenance",
    "date_created": "2025-07-30T16:10:28.000",
    "date_modified": "2025-07-30T16:10:30.000",
    "request_status": "Pending",
    "responsible_agency": "Department of Code Enforcement",
    "final_address": "1924 Bayou Rd",
    "address_councildis": "D",
    "status": "Pending",
    "rowid": "1214085",
    "final_x": "3680340.20155",
    "final_y": "536874.903368",
    "longitude": "-90.07154634762765",
    "latitude": "29.970255004454046",
    "geocoded_column": {
      "latitude": "29.970255004454046",
      "longitude": "-90.07154634762765"
    }
  },
  {
    "service_request": "2025-1214084",
    "request_type": "Trash/Recycling",
    "request_reason": "Request a Large Item Pick Up",
    "date_created": "2025-07-30T16:09:12.000",
    "date_modified": "2025-07-30T16:09:14.000",
    "request_status": "Pending",
    "responsible_agency": "Department of Sanitation",
    "final_address": "1231 N Johnson St",
    "address_councildis": "D",
    "status": "Assigned to Contractor",
    "contractor": "IV Waste",
    "rowid": "1214084",
    "final_x": "3679876.85346",
    "final_y": "537164.016264",
    "longitude": "-90.07299960734221",
    "latitude": "29.971063987113133",
    "geocoded_column": {
      "latitude": "29.971063987113133",
      "longitude": "-90.07299960734221"
    }
  },
  {
    "service_request": "2025-1214083",
    "request_type": "Property Maintenance",
    "request_reason": "Property Maintenance",
    "date_created": "2025-07-30T16:07:25.000",
    "date_modified": "2025-07-30T16:07:27.000",
    "request_status": "Pending",
    "responsible_agency": "Department of Code Enforcement",
    "final_address": "1216 N Prieur St",
    "address_councildis": "D",
    "status": "Pending",
    "rowid": "1214083",
    "final_x": "3680196.12315",
    "final_y": "536800.79572",
    "longitude": "-90.0720039387774",
    "latitude": "29.970055595644684",
    "geocoded_column": {
      "latitude": "29.970055595644684",
      "longitude": "-90.0720039387774"
    }
  },
  {
    "service_request": "2025-1214082",
    "request_type": "Trash/Recycling",
    "request_reason": "Request a Large Item Pick Up",
    "date_created": "2025-07-30T15:59:57.000",
    "date_modified": "2025-07-30T15:59:59.000",
    "request_status": "Pending",
    "responsible_agency": "Department of Sanitation",
    "final_address": "6185 Bellaire Dr",
    "address_councildis": "A",
    "status": "Assigned to Contractor",
    "contractor": "IV Waste",
    "rowid": "1214082",
    "final_x": "3664408.69389",
    "final_y": "548974.592787",
    "longitude": "-90.12145582974414",
    "latitude": "30.003997835239442",
    "geocoded_column": {
      "latitude": "30.003997835239442",
      "longitude": "-90.12145582974414"
    }
  },
  {
    "service_request": "2025-1214081",
    "request_type": "Parks & Parkways",
    "request_reason": "Request Tree Service (Right of Way/Public Property)",
    "date_created": "2025-07-30T15:57:27.000",
    "date_modified": "2025-07-30T15:57:29.000",
    "request_status": "Pending",
    "responsible_agency": "Department of Parks & Parkway",
    "final_address": "810 N Broad St",
    "address_councildis": "D",
    "status": "Pending",
    "rowid": "1214081",
    "final_x": "3677035.64309",
    "final_y": "537274.414728",
    "longitude": "-90.0819687246351",
    "latitude": "29.97145316900082",
    "geocoded_column": {
      "latitude": "29.97145316900082",
      "longitude": "-90.0819687246351"
    }
  },
  {
    "service_request": "2025-1214080",
    "request_type": "Trash/Recycling",
    "request_reason": "Replace Trash Cart",
    "date_created": "2025-07-30T15:54:54.000",
    "date_modified": "2025-07-30T15:54:56.000",
    "request_status": "Pending",
    "responsible_agency": "Department of Sanitation",
    "final_address": "7035 Chestnut St",
    "address_councildis": "A",
    "status": "Assigned to Contractor",
    "contractor": "IV Waste",
    "rowid": "1214080",
    "final_x": "3661525.91776",
    "final_y": "521721.145338",
    "longitude": "-90.13146615765028",
    "latitude": "29.92914329397861",
    "geocoded_column": {
      "latitude": "29.92914329397861",
      "longitude": "-90.13146615765028"
    }
  },
  {
    "service_request": "2025-1214079",
    "request_type": "Traffic Safety",
    "request_reason": "Request for Traffic Calming due to Speeding",
    "date_created": "2025-07-30T15:54:00.000",
    "date_modified": "2025-07-30T15:54:02.000",
    "request_status": "Pending",
    "responsible_agency": "Department of Public Works",
    "final_address": "7319 Heather Ct",
    "address_councildis": "E",
    "status": "Pending",
    "rowid": "1214079",
    "final_x": "3705683.32945",
    "final_y": "562146.296991",
    "longitude": "-89.99057545084975",
    "latitude": "30.038950040582716",
    "geocoded_column": {
      "latitude": "30.038950040582716",
      "longitude": "-89.99057545084975"
    }
  },
  {
    "service_request": "2025-1214078",
    "request_type": "Trash/Recycling",
    "request_reason": "Request a Large Item Pick Up",
    "date_created": "2025-07-30T15:52:24.000",
    "date_modified": "2025-07-30T15:52:26.000",
    "request_status": "Pending",
    "responsible_agency": "Department of Sanitation",
    "final_address": "2309 Lamanche St",
    "address_councildis": "E",
    "status": "Assigned to Contractor",
    "contractor": "Waste Pro",
    "rowid": "1214078",
    "final_x": "3699631.37117",
    "final_y": "538269.631433",
    "longitude": "-90.01057230617705",
    "latitude": "29.97349178657203",
    "geocoded_column": {
      "latitude": "29.97349178657203",
      "longitude": "-90.01057230617705"
    }
  },
  {
    "service_request": "2025-1214077",
    "request_type": "Trash/Recycling",
    "request_reason": "Repair Trash Cart",
    "date_created": "2025-07-30T15:52:00.000",
    "date_modified": "2025-07-30T15:52:03.000",
    "request_status": "Pending",
    "responsible_agency": "Department of Sanitation",
    "final_address": "23 Fontainebleau Dr",
    "address_councildis": "A",
    "status": "Assigned to Contractor",
    "contractor": "IV Waste",
    "rowid": "1214077",
    "final_x": "3665902.38285",
    "final_y": "531691.954947",
    "longitude": "-90.11731641395382",
    "latitude": "29.956432866743118",
    "geocoded_column": {
      "latitude": "29.956432866743118",
      "longitude": "-90.11731641395382"
    }
  },
  {
    "service_request": "2025-1214076",
    "request_type": "Trash/Recycling",
    "request_reason": "Request a Large Item Pick Up",
    "date_created": "2025-07-30T15:47:41.000",
    "date_modified": "2025-07-30T15:48:09.000",
    "request_status": "Pending",
    "responsible_agency": "Department of Sanitation",
    "final_address": "56 Flamingo St",
    "address_councildis": "D",
    "status": "Assigned to Contractor",
    "contractor": "IV Waste",
    "rowid": "1214076",
    "final_x": "3674600.92072",
    "final_y": "555634.262809",
    "longitude": "-90.0890282838544",
    "latitude": "30.022009212930612",
    "geocoded_column": {
      "latitude": "30.022009212930612",
      "longitude": "-90.0890282838544"
    }
  },
  {
    "service_request": "2025-1214075",
    "request_type": "Trash/Recycling",
    "request_reason": "Replace Trash Cart",
    "date_created": "2025-07-30T15:45:35.000",
    "date_modified": "2025-07-30T15:45:38.000",
    "request_status": "Pending",
    "responsible_agency": "Department of Sanitation",
    "final_address": "127 Pinewood Ct",
    "address_councildis": "C",
    "status": "Assigned to Contractor",
    "contractor": "Richards Disposal",
    "rowid": "1214075",
    "final_x": "3695831.93424",
    "final_y": "523338.936123",
    "longitude": "-90.0231108518221",
    "latitude": "29.932557661400956",
    "geocoded_column": {
      "latitude": "29.932557661400956",
      "longitude": "-90.0231108518221"
    }
  },
  {
    "service_request": "2025-1214074",
    "request_type": "Traffic Signals",
    "request_reason": "Traffic Signal Malfunctioning or Damaged",
    "date_created": "2025-07-30T15:41:28.000",
    "date_modified": "2025-07-30T15:41:30.000",
    "request_status": "Pending",
    "responsible_agency": "Department of Public Works",
    "final_address": "EARHART BLVD & CALLIOPE ST",
    "address_councildis": "B",
    "status": "Pending",
    "rowid": "1214074",
    "final_x": "3677082.11",
    "final_y": "528341.94",
    "longitude": "-90.08213001570319",
    "latitude": "29.946890476885816",
    "geocoded_column": {
      "latitude": "29.946890476885816",
      "longitude": "-90.08213001570319"
    }
  },
  {
    "service_request": "2025-1214073",
    "request_type": "Trash/Recycling",
    "request_reason": "Request a Large Item Pick Up",
    "date_created": "2025-07-30T15:38:49.000",
    "date_modified": "2025-07-30T15:38:52.000",
    "request_status": "Pending",
    "responsible_agency": "Department of Sanitation",
    "final_address": "4668 Francisco Verrett Dr",
    "address_councildis": "E",
    "status": "Assigned to Contractor",
    "contractor": "Waste Pro",
    "rowid": "1214073",
    "final_x": "3704225.39236",
    "final_y": "554817.277016",
    "longitude": "-89.99545334385458",
    "latitude": "30.018844983673084",
    "geocoded_column": {
      "latitude": "30.018844983673084",
      "longitude": "-89.99545334385458"
    }
  },
  {
    "service_request": "2025-1214072",
    "request_type": "Trash/Recycling",
    "request_reason": "Request a Large Item Pick Up",
    "date_created": "2025-07-30T15:32:31.000",
    "date_modified": "2025-07-30T15:32:33.000",
    "request_status": "Pending",
    "responsible_agency": "Department of Sanitation",
    "final_address": "4835 Chrysler St",
    "address_councildis": "E",
    "status": "Assigned to Contractor",
    "contractor": "Waste Pro",
    "rowid": "1214072",
    "final_x": "3715310.23186",
    "final_y": "557259.123483",
    "longitude": "-89.96033713086734",
    "latitude": "30.025198562513776",
    "geocoded_column": {
      "latitude": "30.025198562513776",
      "longitude": "-89.96033713086734"
    }
  },
  {
    "service_request": "2025-1214071",
    "request_type": "Trash/Recycling",
    "request_reason": "Request a Large Item Pick Up",
    "date_created": "2025-07-30T15:26:34.000",
    "date_modified": "2025-07-30T15:26:36.000",
    "request_status": "Pending",
    "responsible_agency": "Department of Sanitation",
    "final_address": "2776 Dreux Ave",
    "address_councildis": "D",
    "status": "Assigned to Contractor",
    "contractor": "IV Waste",
    "rowid": "1214071",
    "final_x": "3688006.84265",
    "final_y": "552296.080982",
    "longitude": "-90.04678752035544",
    "latitude": "30.0124233440232",
    "geocoded_column": {
      "latitude": "30.0124233440232",
      "longitude": "-90.04678752035544"
    }
  },
  {
    "service_request": "2025-1214070",
    "request_type": "Trash/Recycling",
    "request_reason": "Request a Large Item Pick Up",
    "date_created": "2025-07-30T15:26:08.000",
    "date_modified": "2025-07-30T15:26:10.000",
    "request_status": "Pending",
    "responsible_agency": "Department of Sanitation",
    "final_address": "2437 Frenchmen St",
    "address_councildis": "D",
    "status": "Assigned to Contractor",
    "contractor": "IV Waste",
    "rowid": "1214070",
    "final_x": "3684208.98492",
    "final_y": "541361.06446",
    "longitude": "-90.05917079056783",
    "latitude": "29.982472669746127",
    "geocoded_column": {
      "latitude": "29.982472669746127",
      "longitude": "-90.05917079056783"
    }
  },
  {
    "service_request": "2025-1214069",
    "request_type": "Traffic Signals",
    "request_reason": "Traffic Signal Malfunctioning or Damaged",
    "date_created": "2025-07-30T15:24:21.000",
    "date_modified": "2025-07-30T15:24:22.000",
    "request_status": "Pending",
    "responsible_agency": "Department of Public Works",
    "final_address": "SIMON BOLIVAR AVE & JACKSON AVE",
    "address_councildis": "B",
    "status": "Pending",
    "rowid": "1214069",
    "final_x": "3676268.4",
    "final_y": "525468.48",
    "longitude": "-90.08479805655436",
    "latitude": "29.93901381672783",
    "geocoded_column": {
      "latitude": "29.93901381672783",
      "longitude": "-90.08479805655436"
    }
  },
  {
    "service_request": "2025-1214068",
    "request_type": "Trash/Recycling",
    "request_reason": "Request a Large Item Pick Up",
    "date_created": "2025-07-30T15:17:22.000",
    "date_modified": "2025-07-30T15:17:24.000",
    "request_status": "Pending",
    "responsible_agency": "Department of Sanitation",
    "final_address": "3501 Annunciation St",
    "address_councildis": "B",
    "status": "Assigned to Contractor",
    "contractor": "IV Waste",
    "rowid": "1214068",
    "final_x": "3674775.35713",
    "final_y": "518399.114934",
    "longitude": "-90.0897540022201",
    "latitude": "29.91962000043516",
    "geocoded_column": {
      "latitude": "29.91962000043516",
      "longitude": "-90.0897540022201"
    }
  },
  {
    "service_request": "2025-1214067",
    "request_type": "Trash/Recycling",
    "request_reason": "Request a Large Item Pick Up",
    "date_created": "2025-07-30T15:10:46.000",
    "date_modified": "2025-07-30T15:10:48.000",
    "request_status": "Pending",
    "responsible_agency": "Department of Sanitation",
    "final_address": "3305 Chestnut St",
    "address_councildis": "B",
    "status": "Assigned to Contractor",
    "contractor": "IV Waste",
    "rowid": "1214067",
    "final_x": "3675028.4395",
    "final_y": "520477.706232",
    "longitude": "-90.08888388819318",
    "latitude": "29.925327903238923",
    "geocoded_column": {
      "latitude": "29.925327903238923",
      "longitude": "-90.08888388819318"
    }
  },
  {
    "service_request": "2025-1214066",
    "request_type": "Trash/Recycling",
    "request_reason": "Request a Large Item Pick Up",
    "date_created": "2025-07-30T15:07:42.000",
    "date_modified": "2025-07-30T15:07:44.000",
    "request_status": "Pending",
    "responsible_agency": "Department of Sanitation",
    "final_address": "731 Esplanade Ave",
    "address_councildis": "C",
    "status": "Assigned to Contractor",
    "contractor": "IV Waste",
    "rowid": "1214066",
    "final_x": "3683880.45084",
    "final_y": "534622.222022",
    "longitude": "-90.06044490757917",
    "latitude": "29.963953239377616",
    "geocoded_column": {
      "latitude": "29.963953239377616",
      "longitude": "-90.06044490757917"
    }
  },
  {
    "service_request": "2025-1214065",
    "request_type": "Roads and Streets",
    "request_reason": "Pothole",
    "date_created": "2025-07-30T15:04:58.000",
    "date_modified": "2025-07-30T15:05:00.000",
    "request_status": "Pending",
    "responsible_agency": "Department of Public Works",
    "final_address": "4205 Iberville St",
    "address_councildis": "A",
    "status": "Pending",
    "rowid": "1214065",
    "final_x": "3670847.1979",
    "final_y": "539196.267466",
    "longitude": "-90.1014475273644",
    "latitude": "29.976921995739847",
    "geocoded_column": {
      "latitude": "29.976921995739847",
      "longitude": "-90.1014475273644"
    }
  },
  {
    "service_request": "2025-1214064",
    "request_type": "Trash/Recycling",
    "request_reason": "Replace Trash Cart",
    "date_created": "2025-07-30T15:04:43.000",
    "date_modified": "2025-07-30T15:09:45.000",
    "request_status": "Pending",
    "responsible_agency": "Department of Sanitation",
    "final_address": "8601 Pritchard Pl",
    "address_councildis": "A",
    "status": "Assigned to Contractor",
    "contractor": "IV Waste",
    "rowid": "1214064",
    "final_x": "3664745.23463",
    "final_y": "534131.029061",
    "longitude": "-90.12088882650752",
    "latitude": "29.96317323857447",
    "geocoded_column": {
      "latitude": "29.96317323857447",
      "longitude": "-90.12088882650752"
    }
  },
  {
    "service_request": "2025-1214063",
    "request_type": "Trash/Recycling",
    "request_reason": "Repair Trash Cart",
    "date_created": "2025-07-30T15:00:42.000",
    "date_modified": "2025-07-30T15:00:44.000",
    "request_status": "Pending",
    "responsible_agency": "Department of Sanitation",
    "final_address": "1450 Jackson Ave",
    "address_councildis": "B",
    "status": "Assigned to Contractor",
    "contractor": "IV Waste",
    "rowid": "1214063",
    "final_x": "3677937.57986",
    "final_y": "523185.087995",
    "longitude": "-90.07960713282867",
    "latitude": "29.932685123417535",
    "geocoded_column": {
      "latitude": "29.932685123417535",
      "longitude": "-90.07960713282867"
    }
  },
  {
    "service_request": "2025-1214062",
    "request_type": "Trash/Recycling",
    "request_reason": "Request a Large Item Pick Up",
    "date_created": "2025-07-30T14:59:02.000",
    "date_modified": "2025-07-30T14:59:05.000",
    "request_status": "Pending",
    "responsible_agency": "Department of Sanitation",
    "final_address": "3737 Tall Pines Dr",
    "address_councildis": "C",
    "status": "Assigned to Contractor",
    "contractor": "Richards Disposal",
    "rowid": "1214062",
    "final_x": "3703918.43505",
    "final_y": "513428.946098",
    "longitude": "-89.99794725823303",
    "latitude": "29.90505187902184",
    "geocoded_column": {
      "latitude": "29.90505187902184",
      "longitude": "-89.99794725823303"
    }
  },
  {
    "service_request": "2025-1214061",
    "request_type": "Trash/Recycling",
    "request_reason": "Order Recycling Cart",
    "date_created": "2025-07-30T14:56:37.000",
    "date_modified": "2025-07-30T14:56:38.000",
    "request_status": "Pending",
    "responsible_agency": "Department of Sanitation",
    "final_address": "835 Clouet St",
    "address_councildis": "C",
    "status": "Pending",
    "rowid": "1214061",
    "final_x": "3688813.60559",
    "final_y": "535134.077894",
    "longitude": "-90.04484833071616",
    "latitude": "29.965209057598656",
    "geocoded_column": {
      "latitude": "29.965209057598656",
      "longitude": "-90.04484833071616"
    }
  },
  {
    "service_request": "2025-1214060",
    "request_type": "Street and Traffic Signs",
    "request_reason": "Traffic or Parking Sign Damaged or Missing",
    "date_created": "2025-07-30T14:56:11.000",
    "date_modified": "2025-07-30T14:56:13.000",
    "request_status": "Pending",
    "responsible_agency": "Department of Public Works",
    "final_address": "925 Race St Apt A",
    "address_councildis": "B",
    "status": "Pending",
    "rowid": "1214060",
    "final_x": "3680806.45365",
    "final_y": "523738.228795",
    "longitude": "-90.07053109236075",
    "latitude": "29.934119454285227",
    "geocoded_column": {
      "latitude": "29.934119454285227",
      "longitude": "-90.07053109236075"
    }
  },
  {
    "service_request": "2025-1214059",
    "request_type": "Trash/Recycling",
    "request_reason": "Return Recycling Cart",
    "date_created": "2025-07-30T14:54:32.000",
    "date_modified": "2025-07-30T14:54:35.000",
    "request_status": "Pending",
    "responsible_agency": "Department of Sanitation",
    "final_address": "4521 Loyola Ave",
    "address_councildis": "B",
    "status": "Pending",
    "rowid": "1214059",
    "final_x": "3670053.30183",
    "final_y": "522978.491899",
    "longitude": "-90.10450421729877",
    "latitude": "29.932351899613472",
    "geocoded_column": {
      "latitude": "29.932351899613472",
      "longitude": "-90.10450421729877"
    }
  },
  {
    "service_request": "2025-1214058",
    "request_type": "Trash/Recycling",
    "request_reason": "Repair Trash Cart",
    "date_created": "2025-07-30T14:53:44.000",
    "date_modified": "2025-07-30T14:53:46.000",
    "request_status": "Pending",
    "responsible_agency": "Department of Sanitation",
    "final_address": "400 BLK S Saint Patrick St",
    "address_councildis": "A",
    "status": "Assigned to Contractor",
    "contractor": "IV Waste",
    "rowid": "1214058",
    "final_x": "3668263.21363",
    "final_y": "538716.334428",
    "longitude": "-90.10962478598687",
    "latitude": "29.975678474452607",
    "geocoded_column": {
      "latitude": "29.975678474452607",
      "longitude": "-90.10962478598687"
    }
  },
  {
    "service_request": "2025-1214057",
    "request_type": "Trash/Recycling",
    "request_reason": "Replace Trash Cart",
    "date_created": "2025-07-30T14:52:19.000",
    "date_modified": "2025-07-30T14:52:21.000",
    "request_status": "Pending",
    "responsible_agency": "Department of Sanitation",
    "final_address": "835 Clouet St",
    "address_councildis": "C",
    "status": "Assigned to Contractor",
    "contractor": "IV Waste",
    "rowid": "1214057",
    "final_x": "3688813.60559",
    "final_y": "535134.077894",
    "longitude": "-90.04484833071616",
    "latitude": "29.965209057598656",
    "geocoded_column": {
      "latitude": "29.965209057598656",
      "longitude": "-90.04484833071616"
    }
  },
  {
    "service_request": "2025-1214056",
    "request_type": "Street and Traffic Signs",
    "request_reason": "Traffic or Parking Sign Damaged or Missing",
    "date_created": "2025-07-30T14:51:21.000",
    "date_modified": "2025-07-30T14:51:23.000",
    "request_status": "Pending",
    "responsible_agency": "Department of Public Works",
    "final_address": "2343 Prytania St",
    "address_councildis": "B",
    "status": "Pending",
    "rowid": "1214056",
    "final_x": "3677281.27502",
    "final_y": "522926.885179",
    "longitude": "-90.08168793872933",
    "latitude": "29.931994879128844",
    "geocoded_column": {
      "latitude": "29.931994879128844",
      "longitude": "-90.08168793872933"
    }
  },
  {
    "service_request": "2025-1214055",
    "request_type": "Trash/Recycling",
    "request_reason": "Order Trash Cart",
    "date_created": "2025-07-30T14:49:33.000",
    "date_modified": "2025-07-30T14:49:37.000",
    "request_status": "Pending",
    "responsible_agency": "Department of Sanitation",
    "final_address": "2257 N Miro St",
    "address_councildis": "D",
    "status": "Assigned to Contractor",
    "contractor": "IV Waste",
    "rowid": "1214055",
    "final_x": "3685259.12105",
    "final_y": "540441.582027",
    "longitude": "-90.05588632571185",
    "latitude": "29.979912266474685",
    "geocoded_column": {
      "latitude": "29.979912266474685",
      "longitude": "-90.05588632571185"
    }
  },
  {
    "service_request": "2025-1214054",
    "request_type": "Trash/Recycling",
    "request_reason": "Order Trash Cart",
    "date_created": "2025-07-30T14:46:57.000",
    "date_modified": "2025-07-30T14:46:59.000",
    "request_status": "Pending",
    "responsible_agency": "Department of Sanitation",
    "final_address": "2255 N Miro St",
    "address_councildis": "D",
    "status": "Assigned to Contractor",
    "contractor": "IV Waste",
    "rowid": "1214054",
    "final_x": "3685245.49865",
    "final_y": "540440.218443",
    "longitude": "-90.05592939880573",
    "latitude": "29.979908934681344",
    "geocoded_column": {
      "latitude": "29.979908934681344",
      "longitude": "-90.05592939880573"
    }
  },
  {
    "service_request": "2025-1214053",
    "request_type": "Abandoned Vehicles",
    "request_reason": "Abandoned/Junk Vehicles",
    "date_created": "2025-07-30T14:46:18.000",
    "date_modified": "2025-07-30T14:46:21.000",
    "request_status": "Pending",
    "responsible_agency": "Department of Public Works",
    "final_address": "1245 Annunciation St",
    "address_councildis": "B",
    "status": "Pending",
    "rowid": "1214053",
    "final_x": "3681297.67445",
    "final_y": "525089.937405",
    "longitude": "-90.06893323883664",
    "latitude": "29.937821309937412",
    "geocoded_column": {
      "latitude": "29.937821309937412",
      "longitude": "-90.06893323883664"
    }
  },
  {
    "service_request": "2025-1214052",
    "request_type": "Abandoned Vehicles",
    "request_reason": "Abandoned/Junk Vehicles",
    "date_created": "2025-07-30T14:46:16.000",
    "date_modified": "2025-07-30T14:46:17.000",
    "request_status": "Closed",
    "responsible_agency": "Department of Public Works",
    "final_address": "224 Millaudon St",
    "address_councildis": "A",
    "status": "Pending",
    "rowid": "1214052",
    "final_x": "3661129.64211",
    "final_y": "523832.169211",
    "longitude": "-90.13264729897489",
    "latitude": "29.934959370481593",
    "geocoded_column": {
      "latitude": "29.934959370481593",
      "longitude": "-90.13264729897489"
    }
  },
  {
    "service_request": "2025-1214051",
    "request_type": "Trash/Recycling",
    "request_reason": "Order Second Trash Cart",
    "date_created": "2025-07-30T14:45:37.000",
    "date_modified": "2025-07-30T14:45:40.000",
    "request_status": "Pending",
    "responsible_agency": "Department of Sanitation",
    "final_address": "2257 N Miro St",
    "address_councildis": "D",
    "status": "Assigned to Contractor",
    "contractor": "IV Waste",
    "rowid": "1214051",
    "final_x": "3685259.12105",
    "final_y": "540441.582027",
    "longitude": "-90.05588632571185",
    "latitude": "29.979912266474685",
    "geocoded_column": {
      "latitude": "29.979912266474685",
      "longitude": "-90.05588632571185"
    }
  },
  {
    "service_request": "2025-1214050",
    "request_type": "Abandoned Vehicles",
    "request_reason": "Abandoned/Junk Vehicles",
    "date_created": "2025-07-30T14:41:34.000",
    "date_modified": "2025-07-30T14:41:36.000",
    "request_status": "Pending",
    "responsible_agency": "Department of Public Works",
    "final_address": "GARFIELD ST & MILLAUDON ST",
    "address_councildis": "A",
    "status": "Pending",
    "rowid": "1214050",
    "final_x": "3661252.6",
    "final_y": "523912.78",
    "longitude": "-90.13225645249788",
    "latitude": "29.93517748142136",
    "geocoded_column": {
      "latitude": "29.93517748142136",
      "longitude": "-90.13225645249788"
    }
  },
  {
    "service_request": "2025-1214049",
    "request_type": "Parks & Parkways",
    "request_reason": "Request Tree Service (Right of Way/Public Property)",
    "date_created": "2025-07-30T14:39:41.000",
    "date_modified": "2025-07-30T14:39:43.000",
    "request_status": "Pending",
    "responsible_agency": "Department of Parks & Parkway",
    "final_address": "931 Kerlerec St",
    "address_councildis": "C",
    "status": "Pending",
    "rowid": "1214049",
    "final_x": "3683542.29711",
    "final_y": "535285.041158",
    "longitude": "-90.06148953145365",
    "latitude": "29.96578608839588",
    "geocoded_column": {
      "latitude": "29.96578608839588",
      "longitude": "-90.06148953145365"
    }
  },
  {
    "service_request": "2025-1214048",
    "request_type": "Traffic Signals",
    "request_reason": "Traffic Signal Malfunctioning or Damaged",
    "date_created": "2025-07-30T14:37:24.000",
    "date_modified": "2025-07-30T14:37:25.000",
    "request_status": "Pending",
    "responsible_agency": "Department of Public Works",
    "final_address": "MARTIN LUTHER KING JR BLVD & S CLAIBORNE AVE",
    "address_councildis": "B",
    "status": "Pending",
    "rowid": "1214048",
    "final_x": "3675047.7",
    "final_y": "528193.58",
    "longitude": "-90.08855849278287",
    "latitude": "29.946543462384728",
    "geocoded_column": {
      "latitude": "29.946543462384728",
      "longitude": "-90.08855849278287"
    }
  },
  {
    "service_request": "2025-1214047",
    "request_type": "Abandoned Vehicles",
    "request_reason": "Abandoned/Junk Vehicles",
    "date_created": "2025-07-30T14:37:11.000",
    "date_modified": "2025-07-30T14:37:12.000",
    "request_status": "Pending",
    "responsible_agency": "Department of Public Works",
    "final_address": "219 Millaudon St",
    "address_councildis": "A",
    "status": "Pending",
    "rowid": "1214047",
    "final_x": "3661161.57958",
    "final_y": "523764.197307",
    "longitude": "-90.13254872092256",
    "latitude": "29.934771548892154",
    "geocoded_column": {
      "latitude": "29.934771548892154",
      "longitude": "-90.13254872092256"
    }
  },
  {
    "service_request": "2025-1214046",
    "request_type": "Drainage",
    "request_reason": "Catch Basin Clogged",
    "date_created": "2025-07-30T14:37:11.000",
    "date_modified": "2025-07-30T14:37:57.000",
    "request_status": "Pending",
    "responsible_agency": "Sewerage & Water Board",
    "final_address": "11121 Woodvine Ln",
    "address_councildis": "E",
    "status": "Pending",
    "rowid": "1214046",
    "final_x": "3716116.83007",
    "final_y": "559623.374365",
    "longitude": "-89.95769874531777",
    "latitude": "30.031672708033263",
    "geocoded_column": {
      "latitude": "30.031672708033263",
      "longitude": "-89.95769874531777"
    }
  },
  {
    "service_request": "2025-1214045",
    "request_type": "Property Maintenance",
    "request_reason": "Property Maintenance",
    "date_created": "2025-07-30T14:36:10.000",
    "date_modified": "2025-07-30T15:38:21.000",
    "case_close_date": "2025-07-30T10:38:20.000",
    "request_status": "Closed",
    "responsible_agency": "Department of Code Enforcement",
    "final_address": "6053 Vermillion Blvd",
    "address_councildis": "D",
    "status": "Referred to Code Enforcement",
    "rowid": "1214045",
    "final_x": "3683167.14741",
    "final_y": "555504.733017",
    "longitude": "-90.06196575794591",
    "latitude": "30.02139449115145",
    "geocoded_column": {
      "latitude": "30.02139449115145",
      "longitude": "-90.06196575794591"
    }
  },
  {
    "service_request": "2025-1214044",
    "request_type": "Trash/Recycling",
    "request_reason": "Request a Large Item Pick Up",
    "date_created": "2025-07-30T14:35:29.000",
    "date_modified": "2025-07-30T14:35:32.000",
    "request_status": "Pending",
    "responsible_agency": "Department of Sanitation",
    "final_address": "5641 Chartres St Apt B",
    "address_councildis": "E",
    "status": "Assigned to Contractor",
    "contractor": "Waste Pro",
    "rowid": "1214044",
    "final_x": "3697838.91242",
    "final_y": "531905.297539",
    "longitude": "-90.01646423349408",
    "latitude": "29.956048912716746",
    "geocoded_column": {
      "latitude": "29.956048912716746",
      "longitude": "-90.01646423349408"
    }
  },
  {
    "service_request": "2025-1214043",
    "request_type": "Street and Traffic Signs",
    "request_reason": "Traffic or Parking Sign Damaged or Missing",
    "date_created": "2025-07-30T14:32:55.000",
    "date_modified": "2025-07-30T14:32:56.000",
    "request_status": "Pending",
    "responsible_agency": "Department of Public Works",
    "final_address": "201 St Charles Ave Ste 4444",
    "address_councildis": "B",
    "status": "Pending",
    "rowid": "1214043",
    "final_x": "3680822.81749",
    "final_y": "530272.061121",
    "longitude": "-90.070252056335",
    "latitude": "29.95208481602721",
    "geocoded_column": {
      "latitude": "29.95208481602721",
      "longitude": "-90.070252056335"
    }
  },
  {
    "service_request": "2025-1214042",
    "request_type": "Trash/Recycling",
    "request_reason": "Return Trash Cart",
    "date_created": "2025-07-30T14:30:17.000",
    "date_modified": "2025-07-30T14:30:19.000",
    "request_status": "Pending",
    "responsible_agency": "Department of Sanitation",
    "final_address": "7923 Dorsett Dr",
    "address_councildis": "E",
    "status": "Assigned to Contractor",
    "contractor": "Waste Pro",
    "rowid": "1214042",
    "final_x": "3712261.49739",
    "final_y": "568270.446053",
    "longitude": "-89.96955644708531",
    "latitude": "30.055575373666244",
    "geocoded_column": {
      "latitude": "30.055575373666244",
      "longitude": "-89.96955644708531"
    }
  },
  {
    "service_request": "2025-1214041",
    "request_type": "Street and Traffic Signs",
    "request_reason": "Street Name Sign Damaged or Missing",
    "date_created": "2025-07-30T14:30:11.000",
    "date_modified": "2025-07-30T14:30:13.000",
    "request_status": "Pending",
    "responsible_agency": "Department of Public Works",
    "final_address": "LOMBARD ST & ARTS ST",
    "address_councildis": "D",
    "status": "Pending",
    "rowid": "1214041",
    "final_x": "3685994.1",
    "final_y": "549589.88",
    "longitude": "-90.05324216965226",
    "latitude": "30.00504426318077",
    "geocoded_column": {
      "latitude": "30.00504426318077",
      "longitude": "-90.05324216965226"
    }
  },
  {
    "service_request": "2025-1214040",
    "request_type": "Trash/Recycling",
    "request_reason": "Repair Trash Cart",
    "date_created": "2025-07-30T14:30:00.000",
    "date_modified": "2025-07-30T14:30:02.000",
    "request_status": "Pending",
    "responsible_agency": "Department of Sanitation",
    "final_address": "223 N Clark St",
    "address_councildis": "B",
    "status": "Assigned to Contractor",
    "contractor": "IV Waste",
    "rowid": "1214040",
    "final_x": "3673217.48763",
    "final_y": "537538.954888",
    "longitude": "-90.09401799839833",
    "latitude": "29.972294667170612",
    "geocoded_column": {
      "latitude": "29.972294667170612",
      "longitude": "-90.09401799839833"
    }
  },
  {
    "service_request": "2025-1214039",
    "request_type": "Trash/Recycling",
    "request_reason": "Replace Trash Cart",
    "date_created": "2025-07-30T14:29:26.000",
    "date_modified": "2025-07-30T14:29:27.000",
    "request_status": "Pending",
    "responsible_agency": "Department of Sanitation",
    "final_address": "3960 Peach Tree Ct",
    "address_councildis": "C",
    "status": "Assigned to Contractor",
    "contractor": "Richards Disposal",
    "rowid": "1214039",
    "final_x": "3704044.46174",
    "final_y": "512796.735281",
    "longitude": "-89.9975727753838",
    "latitude": "29.903309475002168",
    "geocoded_column": {
      "latitude": "29.903309475002168",
      "longitude": "-89.9975727753838"
    }
  },
  {
    "service_request": "2025-1214038",
    "request_type": "Trash/Recycling",
    "request_reason": "MIssed Recycling Pick-Up",
    "date_created": "2025-07-30T14:28:46.000",
    "date_modified": "2025-07-30T14:28:50.000",
    "request_status": "Pending",
    "responsible_agency": "Department of Sanitation",
    "final_address": "7923 Dorsett Dr",
    "address_councildis": "E",
    "status": "Assigned to Contractor",
    "contractor": "Waste Pro",
    "rowid": "1214038",
    "final_x": "3712261.49739",
    "final_y": "568270.446053",
    "longitude": "-89.96955644708531",
    "latitude": "30.055575373666244",
    "geocoded_column": {
      "latitude": "30.055575373666244",
      "longitude": "-89.96955644708531"
    }
  },
  {
    "service_request": "2025-1214037",
    "request_type": "Trash/Recycling",
    "request_reason": "Repair Trash Cart",
    "date_created": "2025-07-30T14:26:03.000",
    "date_modified": "2025-07-30T14:26:05.000",
    "request_status": "Pending",
    "responsible_agency": "Department of Sanitation",
    "final_address": "5772 E Louis Prima Dr",
    "address_councildis": "E",
    "status": "Assigned to Contractor",
    "contractor": "Waste Pro",
    "rowid": "1214037",
    "final_x": "3715865.8341",
    "final_y": "562484.054687",
    "longitude": "-89.95838342268479",
    "latitude": "30.03954671052308",
    "geocoded_column": {
      "latitude": "30.03954671052308",
      "longitude": "-89.95838342268479"
    }
  },
  {
    "service_request": "2025-1214036",
    "request_type": "Trash/Recycling",
    "request_reason": "Illegal Dumping",
    "date_created": "2025-07-30T14:25:38.000",
    "date_modified": "2025-07-30T14:26:39.000",
    "request_status": "Pending",
    "responsible_agency": "Department of Sanitation",
    "final_address": "BURGUNDY ST & DESLONDE ST",
    "address_councildis": "E",
    "status": "Pending",
    "rowid": "1214036",
    "final_x": "3695166.6",
    "final_y": "533639.38",
    "longitude": "-90.02483990999092",
    "latitude": "29.960901205761463",
    "geocoded_column": {
      "latitude": "29.960901205761463",
      "longitude": "-90.02483990999092"
    }
  },
  {
    "service_request": "2025-1214035",
    "request_type": "Trash/Recycling",
    "request_reason": "Request a Large Item Pick Up",
    "date_created": "2025-07-30T14:23:24.000",
    "date_modified": "2025-07-30T14:23:26.000",
    "request_status": "Pending",
    "responsible_agency": "Department of Sanitation",
    "final_address": "2508 Palmer Ave",
    "address_councildis": "A",
    "status": "Assigned to Contractor",
    "contractor": "IV Waste",
    "rowid": "1214035",
    "final_x": "3666432.72327",
    "final_y": "526004.241214",
    "longitude": "-90.11583259924609",
    "latitude": "29.940778010998873",
    "geocoded_column": {
      "latitude": "29.940778010998873",
      "longitude": "-90.11583259924609"
    }
  },
  {
    "service_request": "2025-1214034",
    "request_type": "Trash/Recycling",
    "request_reason": "Repair Trash Cart",
    "date_created": "2025-07-30T14:19:06.000",
    "date_modified": "2025-07-30T14:19:08.000",
    "request_status": "Pending",
    "responsible_agency": "Department of Sanitation",
    "final_address": "6330 Mandeville St",
    "address_councildis": "D",
    "status": "Assigned to Contractor",
    "contractor": "IV Waste",
    "rowid": "1214034",
    "final_x": "3684117.71618",
    "final_y": "556364.215514",
    "longitude": "-90.0589320209417",
    "latitude": "30.023728716222376",
    "geocoded_column": {
      "latitude": "30.023728716222376",
      "longitude": "-90.0589320209417"
    }
  },
  {
    "service_request": "2025-1214033",
    "request_type": "Property Maintenance",
    "request_reason": "Property Maintenance",
    "date_created": "2025-07-30T14:18:59.000",
    "date_modified": "2025-07-30T14:19:00.000",
    "request_status": "Pending",
    "responsible_agency": "Department of Code Enforcement",
    "final_address": "5108 Sandhurst Dr",
    "address_councildis": "E",
    "status": "Pending",
    "rowid": "1214033",
    "final_x": "3705097.04369",
    "final_y": "556725.911706",
    "longitude": "-89.9926286951745",
    "latitude": "30.024064978491367",
    "geocoded_column": {
      "latitude": "30.024064978491367",
      "longitude": "-89.9926286951745"
    }
  },
  {
    "service_request": "2025-1214032",
    "request_type": "Property Maintenance",
    "request_reason": "Property Maintenance",
    "date_created": "2025-07-30T14:18:10.000",
    "date_modified": "2025-07-30T14:18:12.000",
    "request_status": "Pending",
    "responsible_agency": "Department of Code Enforcement",
    "final_address": "5101 Sandhurst Dr",
    "address_councildis": "E",
    "status": "Pending",
    "rowid": "1214032",
    "final_x": "3705272.05028",
    "final_y": "556679.877082",
    "longitude": "-89.99207741461058",
    "latitude": "30.023932769594037",
    "geocoded_column": {
      "latitude": "30.023932769594037",
      "longitude": "-89.99207741461058"
    }
  },
  {
    "service_request": "2025-1214031",
    "request_type": "Street and Traffic Signs",
    "request_reason": "Street Name Sign Damaged or Missing",
    "date_created": "2025-07-30T14:17:41.000",
    "date_modified": "2025-07-30T14:17:42.000",
    "request_status": "Pending",
    "responsible_agency": "Department of Public Works",
    "final_address": "N BROAD ST & REPUBLIC ST",
    "address_councildis": "D",
    "status": "Pending",
    "rowid": "1214031",
    "final_x": "3680722.6",
    "final_y": "542336.18",
    "longitude": "-90.07014855729182",
    "latitude": "29.985260035010125",
    "geocoded_column": {
      "latitude": "29.985260035010125",
      "longitude": "-90.07014855729182"
    }
  },
  {
    "service_request": "2025-1214030",
    "request_type": "Trash/Recycling",
    "request_reason": "Repair Recycling Cart",
    "date_created": "2025-07-30T14:16:59.000",
    "date_modified": "2025-07-30T14:17:01.000",
    "request_status": "Pending",
    "responsible_agency": "Department of Sanitation",
    "final_address": "1420 Eighth St",
    "address_councildis": "B",
    "status": "Pending",
    "rowid": "1214030",
    "final_x": "3675402.97953",
    "final_y": "521209.412601",
    "longitude": "-90.0876764719434",
    "latitude": "29.927328669037912",
    "geocoded_column": {
      "latitude": "29.927328669037912",
      "longitude": "-90.0876764719434"
    }
  },
  {
    "service_request": "2025-1214029",
    "request_type": "Parks & Parkways",
    "request_reason": "Request Tree Service (Right of Way/Public Property)",
    "date_created": "2025-07-30T14:15:42.000",
    "date_modified": "2025-07-30T14:15:45.000",
    "request_status": "Pending",
    "responsible_agency": "Department of Parks & Parkway",
    "final_address": "3300 BLK Spain St",
    "address_councildis": "D",
    "status": "Pending",
    "rowid": "1214029",
    "final_x": "3685438.05035",
    "final_y": "545048.117697",
    "longitude": "-90.05515889778269",
    "latitude": "29.992573119949963",
    "geocoded_column": {
      "latitude": "29.992573119949963",
      "longitude": "-90.05515889778269"
    }
  },
  {
    "service_request": "2025-1214028",
    "request_type": "Trash/Recycling",
    "request_reason": "Replace Trash Cart",
    "date_created": "2025-07-30T14:15:40.000",
    "date_modified": "2025-07-30T14:15:43.000",
    "request_status": "Pending",
    "responsible_agency": "Department of Sanitation",
    "final_address": "3020 Danneel St",
    "address_councildis": "B",
    "status": "Assigned to Contractor",
    "contractor": "IV Waste",
    "rowid": "1214028",
    "final_x": "3674301.642",
    "final_y": "523149.603195",
    "longitude": "-90.0910867230687",
    "latitude": "29.932696440552057",
    "geocoded_column": {
      "latitude": "29.932696440552057",
      "longitude": "-90.0910867230687"
    }
  },
  {
    "service_request": "2025-1214027",
    "request_type": "Trash/Recycling",
    "request_reason": "Repair Trash Cart",
    "date_created": "2025-07-30T14:15:10.000",
    "date_modified": "2025-07-30T14:15:12.000",
    "request_status": "Pending",
    "responsible_agency": "Department of Sanitation",
    "final_address": "5817 St Claude Ave",
    "address_councildis": "E",
    "status": "Assigned to Contractor",
    "contractor": "Waste Pro",
    "rowid": "1214027",
    "final_x": "3698804.8593",
    "final_y": "533684.134661",
    "longitude": "-90.0133494166915",
    "latitude": "29.960909523315223",
    "geocoded_column": {
      "latitude": "29.960909523315223",
      "longitude": "-90.0133494166915"
    }
  },
  {
    "service_request": "2025-1214026",
    "request_type": "Trash/Recycling",
    "request_reason": "Replace Trash Cart",
    "date_created": "2025-07-30T14:13:39.000",
    "date_modified": "2025-07-30T14:13:41.000",
    "request_status": "Pending",
    "responsible_agency": "Department of Sanitation",
    "final_address": "3018 Danneel St",
    "address_councildis": "B",
    "status": "Assigned to Contractor",
    "contractor": "IV Waste",
    "rowid": "1214026",
    "final_x": "3674315.13646",
    "final_y": "523154.635707",
    "longitude": "-90.09104394984816",
    "latitude": "29.932709876047205",
    "geocoded_column": {
      "latitude": "29.932709876047205",
      "longitude": "-90.09104394984816"
    }
  },
  {
    "service_request": "2025-1214025",
    "request_type": "Trash/Recycling",
    "request_reason": "Missed Trash Pick-Up",
    "date_created": "2025-07-30T14:12:08.000",
    "date_modified": "2025-07-30T14:12:09.000",
    "request_status": "Pending",
    "responsible_agency": "Department of Sanitation",
    "final_address": "4789 Charlene Dr",
    "address_councildis": "E",
    "status": "Assigned to Contractor",
    "contractor": "Waste Pro",
    "rowid": "1214025",
    "final_x": "3707937.88484",
    "final_y": "555894.048217",
    "longitude": "-89.98368321551924",
    "latitude": "30.021685975568253",
    "geocoded_column": {
      "latitude": "30.021685975568253",
      "longitude": "-89.98368321551924"
    }
  },
  {
    "service_request": "2025-1214024",
    "request_type": "Trash/Recycling",
    "request_reason": "Request a Large Item Pick Up",
    "date_created": "2025-07-30T14:10:05.000",
    "date_modified": "2025-07-30T14:10:07.000",
    "request_status": "Pending",
    "responsible_agency": "Department of Sanitation",
    "final_address": "2653 Abundance St",
    "address_councildis": "D",
    "status": "Assigned to Contractor",
    "contractor": "IV Waste",
    "rowid": "1214024",
    "final_x": "3687856.895",
    "final_y": "543986.29179",
    "longitude": "-90.04755587612932",
    "latitude": "29.98957906681047",
    "geocoded_column": {
      "latitude": "29.98957906681047",
      "longitude": "-90.04755587612932"
    }
  },
  {
    "service_request": "2025-1214023",
    "request_type": "Trash/Recycling",
    "request_reason": "Repair Trash Cart",
    "date_created": "2025-07-30T14:08:59.000",
    "date_modified": "2025-07-30T14:24:23.000",
    "request_status": "Pending",
    "responsible_agency": "Department of Sanitation",
    "final_address": "1420 Eighth St",
    "address_councildis": "B",
    "status": "Assigned to Contractor",
    "contractor": "IV Waste",
    "rowid": "1214023",
    "final_x": "3675402.97953",
    "final_y": "521209.412601",
    "longitude": "-90.0876764719434",
    "latitude": "29.927328669037912",
    "geocoded_column": {
      "latitude": "29.927328669037912",
      "longitude": "-90.0876764719434"
    }
  },
  {
    "service_request": "2025-1214022",
    "request_type": "Streetlights",
    "request_reason": "Streetlight Outage/Malfunction",
    "date_created": "2025-07-30T14:08:50.000",
    "date_modified": "2025-07-30T14:08:51.000",
    "request_status": "Pending",
    "responsible_agency": "Department of Public Works",
    "final_address": "N PRIEUR ST & EGANIA ST",
    "address_councildis": "E",
    "status": "Pending",
    "contractor": "Legacy Professional Services",
    "rowid": "1214022",
    "final_x": "3697636.3",
    "final_y": "537050.48",
    "longitude": "-90.01691735788151",
    "latitude": "29.970202734896397",
    "geocoded_column": {
      "latitude": "29.970202734896397",
      "longitude": "-90.01691735788151"
    }
  },