[
  {
    "service_request": "2024-1077028",
    "request_type": "Trash/Recycling",
    "request_reason": "Replace Trash Cart",
    "date_created": "2024-03-19T23:41:46.000",
    "date_modified": "2024-03-19T23:41:47.000",
    "request_status": "Pending",
    "responsible_agency": "Department of Sanitation",
    "final_address": "1912 Clouet St",
    "address_councildis": "D",
    "status": "Assigned to Contractor",
    "contractor": "IV Waste",
    "rowid": "1077028",
    "final_x": "3689749.15606",
    "final_y": "539134.758922",
    "longitude": "-90.04175151269149",
    "latitude": "29.976180562281296",
    "geocoded_column": {
      "latitude": "29.976180562281296",
      "longitude": "-90.04175151269149"
    }
  },
  {
    "service_request": "2024-1077027",
    "request_type": "Roads/Drainage",
    "request_reason": "Pothole",
    "date_created": "2024-03-19T23:05:57.000",
    "date_modified": "2024-03-19T23:05:57.000",
    "request_status": "Pending",
    "responsible_agency": "Department of Public Works",
    "final_address": "1122 Aline St",
    "address_councildis": "B",
    "status": "Pending",
    "rowid": "1077027",
    "final_x": "3674288.77825",
    "final_y": "519514.088503",
    "longitude": "-90.09125174299426",
    "latitude": "29.92270033208624",
    "geocoded_column": {
      "latitude": "29.92270033208624",
      "longitude": "-90.09125174299426"
    }
  },
  {
    "service_request": "2024-1077026",
    "request_type": "Trash/Recycling",
    "request_reason": "Missed Trash Pick-Up",
    "date_created": "2024-03-19T22:59:39.000",
    "date_modified": "2024-03-19T22:59:40.000",
    "request_status": "Pending",
    "responsible_agency": "Department of Sanitation",
    "final_address": "333 S Alexander St",
    "address_councildis": "A",
    "status": "Assigned to Contractor",
    "contractor": "Richards Disposal",
    "rowid": "1077026",
    "final_x": "3669314.65012",
    "final_y": "538352.877577",
    "longitude": "-90.10631633897438",
    "latitude": "29.974648172996986",
    "geocoded_column": {
      "latitude": "29.974648172996986",
      "longitude": "-90.10631633897438"
    }
  },
  {
    "service_request": "2024-1077024",
    "request_type": "Abandoned Vehicles",
    "request_reason": "Abandoned/Junk Vehicles",
    "date_created": "2024-03-19T22:37:28.000",
    "date_modified": "2024-03-19T22:37:28.000",
    "request_status": "Pending",
    "responsible_agency": "Department of Public Works",
    "final_address": "2608 Republic St",
    "address_councildis": "D",
    "status": "Pending",
    "rowid": "1077024",
    "final_x": "3680742.50165",
    "final_y": "541597.383436",
    "longitude": "-90.07011142233945",
    "latitude": "29.9832279996181",
    "geocoded_column": {
      "latitude": "29.9832279996181",
      "longitude": "-90.07011142233945"
    }
  },
  {
    "service_request": "2024-1077023",
    "request_type": "Abandoned Vehicles",
    "request_reason": "Abandoned/Junk Vehicles",
    "date_created": "2024-03-19T22:29:30.000",
    "date_modified": "2024-03-19T22:29:31.000",
    "request_status": "Pending",
    "responsible_agency": "Department of Public Works",
    "final_address": "540 Turquoise St",
    "address_councildis": "D",
    "status": "Pending",
    "rowid": "1077023",
    "final_x": "3668496.03751",
    "final_y": "555292.160025",
    "longitude": "-90.10832978166168",
    "latitude": "30.02124942589741",
    "geocoded_column": {
      "latitude": "30.02124942589741",
      "longitude": "-90.10832978166168"
    }
  },
  {
    "service_request": "2024-1077022",
    "request_type": "Trash/Recycling",
    "request_reason": "Request a Large Item Pick Up",
    "date_created": "2024-03-19T22:24:04.000",
    "date_modified": "2024-03-19T22:24:04.000",
    "request_status": "Pending",
    "responsible_agency": "Department of Sanitation",
    "final_address": "4746 Rosalia Dr",
    "address_councildis": "E",
    "status": "Assigned to Contractor",
    "contractor": "Waste Pro",
    "rowid": "1077022",
    "final_x": "3711131.8483",
    "final_y": "555853.416281",
    "longitude": "-89.97359276039418",
    "latitude": "30.021470424003702",
    "geocoded_column": {
      "latitude": "30.021470424003702",
      "longitude": "-89.97359276039418"
    }
  },
  {
    "service_request": "2024-1077021",
    "request_type": "Traffic Signals/Signs/Striping/Streetlights",
    "request_reason": "Street Light Outage/Malfunction",
    "date_created": "2024-03-19T22:07:51.000",
    "date_modified": "2024-03-19T22:07:52.000",
    "request_status": "Pending",
    "responsible_agency": "Department of Public Works",
    "final_address": "4100 BLK Vendome Pl",
    "address_councildis": "B",
    "status": "Assigned to Contractor",
    "contractor": "Legacy Professional Services",
    "rowid": "1077021",
    "final_x": "3668887.99519",
    "final_y": "530720.296615",
    "longitude": "-90.1079216201178",
    "latitude": "29.95367366561618",
    "geocoded_column": {
      "latitude": "29.95367366561618",
      "longitude": "-90.1079216201178"
    }
  },
  {
    "service_request": "2024-1077020",
    "request_type": "Trash/Recycling",
    "request_reason": "Replace Trash Cart",
    "date_created": "2024-03-19T21:37:44.000",
    "date_modified": "2024-03-19T21:37:44.000",
    "request_status": "Pending",
    "responsible_agency": "Department of Sanitation",
    "final_address": "2621 Rousseau St",
    "address_councildis": "B",
    "status": "Assigned to Contractor",
    "contractor": "Richards Disposal",
    "rowid": "1077020",
    "final_x": "3678641.1837",
    "final_y": "519208.824631",
    "longitude": "-90.07752348716248",
    "latitude": "29.921730509074422",
    "geocoded_column": {
      "latitude": "29.921730509074422",
      "longitude": "-90.07752348716248"
    }
  },
  {
    "service_request": "2024-1077019",
    "request_type": "Trash/Recycling",
    "request_reason": "Request a Large Item Pick Up",
    "date_created": "2024-03-19T21:13:33.000",
    "date_modified": "2024-03-19T21:13:33.000",
    "request_status": "Pending",
    "responsible_agency": "Department of Sanitation",
    "final_address": "1861 Pleasure St",
    "address_councildis": "D",
    "status": "Assigned to Contractor",
    "contractor": "IV Waste",
    "rowid": "1077019",
    "final_x": "3681867.34428",
    "final_y": "545022.006415",
    "longitude": "-90.06643899520317",
    "latitude": "29.992610360839812",
    "geocoded_column": {
      "latitude": "29.992610360839812",
      "longitude": "-90.06643899520317"
    }
  },
  {
    "service_request": "2024-1077018",
    "request_type": "Traffic Signals/Signs/Striping/Streetlights",
    "request_reason": "Traffic Signal Malfunctioning/Damaged",
    "date_created": "2024-03-19T20:57:48.000",
    "date_modified": "2024-03-19T20:57:49.000",
    "request_status": "Pending",
    "responsible_agency": "Department of Public Works",
    "final_address": "LOUISIANA AVE & ST CHARLES AVE",
    "address_councildis": "B",
    "status": "Pending",
    "rowid": "1077018",
    "final_x": "3674222.3",
    "final_y": "521573.08",
    "longitude": "-90.09139114344369",
    "latitude": "29.928363877118993",
    "geocoded_column": {
      "latitude": "29.928363877118993",
      "longitude": "-90.09139114344369"
    }
  },
  {
    "service_request": "2024-1077017",
    "request_type": "Trash/Recycling",
    "request_reason": "Replace Trash Cart",
    "date_created": "2024-03-19T20:56:56.000",
    "date_modified": "2024-03-19T20:56:57.000",
    "request_status": "Pending",
    "responsible_agency": "Department of Sanitation",
    "final_address": "3016 Boyd St",
    "address_councildis": "C",
    "status": "Assigned to Contractor",
    "contractor": "Richards Disposal",
    "rowid": "1077017",
    "final_x": "3708163.71364",
    "final_y": "519518.310135",
    "longitude": "-89.98432283291693",
    "latitude": "29.92165879543141",
    "geocoded_column": {
      "latitude": "29.92165879543141",
      "longitude": "-89.98432283291693"
    }
  },
  {
    "service_request": "2024-1077016",
    "request_type": "Trash/Recycling",
    "request_reason": "Missed Trash Pick-Up",
    "date_created": "2024-03-19T20:50:46.000",
    "date_modified": "2024-03-19T20:50:47.000",
    "request_status": "Pending",
    "responsible_agency": "Department of Sanitation",
    "final_address": "2211 Dumaine St",
    "address_councildis": "D",
    "status": "Assigned to Contractor",
    "contractor": "Richards Disposal",
    "rowid": "1077016",
    "final_x": "3678741.46312",
    "final_y": "536359.188423",
    "longitude": "-90.07661319818857",
    "latitude": "29.96888527609258",
    "geocoded_column": {
      "latitude": "29.96888527609258",
      "longitude": "-90.07661319818857"
    }
  },
  {
    "service_request": "2024-1077015",
    "request_type": "Traffic Signals/Signs/Striping/Streetlights",
    "request_reason": "Street Light Outage/Malfunction",
    "date_created": "2024-03-19T20:23:51.000",
    "date_modified": "2024-03-19T20:23:52.000",
    "request_status": "Pending",
    "responsible_agency": "Department of Public Works",
    "final_address": "3809 State Street Dr",
    "address_councildis": "A",
    "status": "Assigned to Contractor",
    "contractor": "Legacy Professional Services",
    "rowid": "1077015",
    "final_x": "3668104.67284",
    "final_y": "529580.225345",
    "longitude": "-90.11043345276177",
    "latitude": "29.95056185340376",
    "geocoded_column": {
      "latitude": "29.95056185340376",
      "longitude": "-90.11043345276177"
    }
  },
  {
    "service_request": "2024-1077014",
    "request_type": "Roads/Drainage",
    "request_reason": "Street Flooding / Drainage",
    "date_created": "2024-03-19T20:13:15.000",
    "date_modified": "2024-03-19T20:13:15.000",
    "request_status": "Pending",
    "responsible_agency": "Department of Public Works",
    "final_address": "318 Country Club Dr",
    "address_councildis": "A",
    "status": "Pending",
    "rowid": "1077014",
    "final_x": "3664631.70509",
    "final_y": "544215.660686",
    "longitude": "-90.12091037457805",
    "latitude": "29.99090591257426",
    "geocoded_column": {
      "latitude": "29.99090591257426",
      "longitude": "-90.12091037457805"
    }
  },
  {
    "service_request": "2024-1077013",
    "request_type": "Trash/Recycling",
    "request_reason": "Missed Trash Pick-Up",
    "date_created": "2024-03-19T19:46:58.000",
    "date_modified": "2024-03-19T19:46:59.000",
    "request_status": "Pending",
    "responsible_agency": "Department of Sanitation",
    "final_address": "0 BLK Tern St",
    "address_councildis": "D",
    "status": "Assigned to Contractor",
    "contractor": "IV Waste",
    "rowid": "1077013",
    "final_x": "3674407.93133",
    "final_y": "557384.416515",
    "longitude": "-90.08957805616764",
    "latitude": "30.026827263850446",
    "geocoded_column": {
      "latitude": "30.026827263850446",
      "longitude": "-90.08957805616764"
    }
  },
  {
    "service_request": "2024-1077012",
    "request_type": "Traffic Signals/Signs/Striping/Streetlights",
    "request_reason": "Street Light Outage/Malfunction",
    "date_created": "2024-03-19T19:30:32.000",
    "date_modified": "2024-03-19T19:30:32.000",
    "request_status": "Pending",
    "responsible_agency": "Department of Public Works",
    "final_address": "6868 General Haig St",
    "address_councildis": "A",
    "status": "Assigned to Contractor",
    "contractor": "Legacy Professional Services",
    "rowid": "1077012",
    "final_x": "3670962.95105",
    "final_y": "553002.658775",
    "longitude": "-90.10061282888314",
    "latitude": "30.01488136427897",
    "geocoded_column": {
      "latitude": "30.01488136427897",
      "longitude": "-90.10061282888314"
    }
  },
  {
    "service_request": "2024-1077011",
    "request_type": "Trash/Recycling",
    "request_reason": "Request a Large Item Pick Up",
    "date_created": "2024-03-19T19:19:00.000",
    "date_modified": "2024-03-19T19:19:01.000",
    "request_status": "Pending",
    "responsible_agency": "Department of Sanitation",
    "final_address": "4942 Read Blvd",
    "address_councildis": "E",
    "status": "Assigned to Contractor",
    "contractor": "Waste Pro",
    "rowid": "1077011",
    "final_x": "3712560.90674",
    "final_y": "557240.273755",
    "longitude": "-89.96902519512157",
    "latitude": "30.025237029198802",
    "geocoded_column": {
      "latitude": "30.025237029198802",
      "longitude": "-89.96902519512157"
    }
  },
  {
    "service_request": "2024-1077010",
    "request_type": "Roads/Drainage",
    "request_reason": "Street Flooding / Drainage",
    "date_created": "2024-03-19T19:18:40.000",
    "date_modified": "2024-03-19T19:18:40.000",
    "request_status": "Pending",
    "responsible_agency": "Department of Public Works",
    "final_address": "4313 S Derbigny St",
    "address_councildis": "B",
    "status": "Pending",
    "rowid": "1077010",
    "final_x": "3670572.56795",
    "final_y": "526321.31411",
    "longitude": "-90.10275160340542",
    "latitude": "29.94152825818461",
    "geocoded_column": {
      "latitude": "29.94152825818461",
      "longitude": "-90.10275160340542"
    }
  },
  {
    "service_request": "2024-1077009",
    "request_type": "Trash/Recycling",
    "request_reason": "Replace Trash Cart",
    "date_created": "2024-03-19T19:17:07.000",
    "date_modified": "2024-03-19T19:17:07.000",
    "request_status": "Pending",
    "responsible_agency": "Department of Sanitation",
    "final_address": "1326 N Rendon St",
    "address_councildis": "A",
    "status": "Assigned to Contractor",
    "contractor": "Richards Disposal",
    "rowid": "1077009",
    "final_x": "3676168.38907",
    "final_y": "540159.146379",
    "longitude": "-90.08460835674877",
    "latitude": "29.979411207243103",
    "geocoded_column": {
      "latitude": "29.979411207243103",
      "longitude": "-90.08460835674877"
    }
  },
  {
    "service_request": "2024-1077008",
    "request_type": "Trash/Recycling",
    "request_reason": "Replace Trash Cart",
    "date_created": "2024-03-19T19:01:33.000",
    "date_modified": "2024-03-19T19:01:33.000",
    "request_status": "Pending",
    "responsible_agency": "Department of Sanitation",
    "final_address": "1239 S Carrollton Ave",
    "address_councildis": "A",
    "status": "Assigned to Contractor",
    "contractor": "Richards Disposal",
    "rowid": "1077008",
    "final_x": "3662288.7824",
    "final_y": "528483.84544",
    "longitude": "-90.12883351500743",
    "latitude": "29.947716551560887",
    "geocoded_column": {
      "latitude": "29.947716551560887",
      "longitude": "-90.12883351500743"
    }
  },
  {
    "service_request": "2024-1077007",
    "request_type": "Trash/Recycling",
    "request_reason": "MIssed Recycling Pick-Up",
    "date_created": "2024-03-19T18:55:42.000",
    "date_modified": "2024-03-19T18:55:43.000",
    "request_status": "Pending",
    "responsible_agency": "Department of Sanitation",
    "final_address": "1528 St Philip St",
    "address_councildis": "C",
    "status": "Assigned to Contractor",
    "contractor": "Richards Disposal",
    "rowid": "1077007",
    "final_x": "3680772.24552",
    "final_y": "535182.214022",
    "longitude": "-90.07024083428946",
    "latitude": "29.96558760095176",
    "geocoded_column": {
      "latitude": "29.96558760095176",
      "longitude": "-90.07024083428946"
    }
  },
  {
    "service_request": "2024-1077006",
    "request_type": "Abandoned Vehicles",
    "request_reason": "Abandoned/Junk Vehicles",
    "date_created": "2024-03-19T18:54:45.000",
    "date_modified": "2024-03-19T18:54:45.000",
    "request_status": "Pending",
    "responsible_agency": "Department of Public Works",
    "final_address": "4435 Iberville St, New Orleans, Louisiana, 70119",
    "address_councildis": "A",
    "status": "Pending",
    "rowid": "1077006",
    "final_x": "3670051.73774",
    "final_y": "539738.681034",
    "longitude": "-90.103941470067",
    "latitude": "29.97843694045407",
    "geocoded_column": {
      "latitude": "29.97843694045407",
      "longitude": "-90.103941470067"
    }
  },
  {
    "service_request": "2024-1077005",
    "request_type": "Trash/Recycling",
    "request_reason": "Repair Recycling Cart",
    "date_created": "2024-03-19T18:32:03.000",
    "date_modified": "2024-03-19T18:32:03.000",
    "request_status": "Pending",
    "responsible_agency": "Department of Sanitation",
    "final_address": "724 Hagan St",
    "address_councildis": "A",
    "status": "Pending",
    "rowid": "1077005",
    "final_x": "3674809.00833",
    "final_y": "538608.776393",
    "longitude": "-90.08895500404932",
    "latitude": "29.975188884574695",
    "geocoded_column": {
      "latitude": "29.975188884574695",
      "longitude": "-90.08895500404932"
    }
  },
  {
    "service_request": "2024-1077004",
    "request_type": "Trash/Recycling",
    "request_reason": "Replace Recycling Cart",
    "date_created": "2024-03-19T18:19:26.000",
    "date_modified": "2024-03-19T18:19:26.000",
    "request_status": "Pending",
    "responsible_agency": "Department of Sanitation",
    "final_address": "1023 Adams St, New Orleans, Louisiana, 70118",
    "address_councildis": "A",
    "status": "Pending",
    "rowid": "1077004",
    "final_x": "3662758.29875",
    "final_y": "527006.877822",
    "longitude": "-90.1274001392045",
    "latitude": "29.9436417838913",
    "geocoded_column": {
      "latitude": "29.9436417838913",
      "longitude": "-90.1274001392045"
    }
  },
  {
    "service_request": "2024-1077003",
    "request_type": "Trash/Recycling",
    "request_reason": "Order Recycling Cart",
    "date_created": "2024-03-19T18:09:59.000",
    "date_modified": "2024-03-19T18:09:59.000",
    "request_status": "Pending",
    "responsible_agency": "Department of Sanitation",
    "final_address": "6309 Tchoupitoulas St",
    "address_councildis": "A",
    "status": "Pending",
    "rowid": "1077003",
    "final_x": "3662669.41651",
    "final_y": "518197.151414",
    "longitude": "-90.12797336026402",
    "latitude": "29.91942038124139",
    "geocoded_column": {
      "latitude": "29.91942038124139",
      "longitude": "-90.12797336026402"
    }
  },
  {
    "service_request": "2024-1077002",
    "request_type": "Trash/Recycling",
    "request_reason": "Replace Trash Cart",
    "date_created": "2024-03-19T18:07:22.000",
    "date_modified": "2024-03-19T18:07:23.000",
    "request_status": "Pending",
    "responsible_agency": "Department of Sanitation",
    "final_address": "4721 Carondelet St",
    "address_councildis": "B",
    "status": "Assigned to Contractor",
    "contractor": "Richards Disposal",
    "rowid": "1077002",
    "final_x": "3669534.71143",
    "final_y": "521219.765241",
    "longitude": "-90.10620082452263",
    "latitude": "29.92753124570429",
    "geocoded_column": {
      "latitude": "29.92753124570429",
      "longitude": "-90.10620082452263"
    }
  },
  {
    "service_request": "2024-1077001",
    "request_type": "Trash/Recycling",
    "request_reason": "MIssed Recycling Pick-Up",
    "date_created": "2024-03-19T18:06:01.000",
    "date_modified": "2024-03-19T18:06:02.000",
    "request_status": "Pending",
    "responsible_agency": "Department of Sanitation",
    "final_address": "205 Germain St",
    "address_councildis": "A",
    "status": "Assigned to Contractor",
    "contractor": "IV Waste",
    "rowid": "1077001",
    "final_x": "3666951.77095",
    "final_y": "548087.39797",
    "longitude": "-90.11345161326166",
    "latitude": "30.001484155855557",
    "geocoded_column": {
      "latitude": "30.001484155855557",
      "longitude": "-90.11345161326166"
    }
  },
  {
    "service_request": "2024-1077000",
    "request_type": "Trash/Recycling",
    "request_reason": "Request a Large Item Pick Up",
    "date_created": "2024-03-19T18:04:29.000",
    "date_modified": "2024-03-19T18:04:29.000",
    "request_status": "Pending",
    "responsible_agency": "Department of Sanitation",
    "final_address": "4717 Carondelet St",
    "address_councildis": "B",
    "status": "Assigned to Contractor",
    "contractor": "Richards Disposal",
    "rowid": "1077000",
    "final_x": "3669534.68839",
    "final_y": "521157.595513",
    "longitude": "-90.10620299903245",
    "latitude": "29.927360299450815",
    "geocoded_column": {
      "latitude": "29.927360299450815",
      "longitude": "-90.10620299903245"
    }
  },
  {
    "service_request": "2024-1076999",
    "request_type": "Property Maintenance",
    "request_reason": "Property Maintenance",
    "date_created": "2024-03-19T18:00:16.000",
    "date_modified": "2024-03-19T18:00:16.000",
    "request_status": "Pending",
    "responsible_agency": "Department of Code Enforcement",
    "final_address": "MENDEZ ST & PRESS DR",
    "address_councildis": "D",
    "status": "Pending",
    "rowid": "1076999",
    "final_x": "3689418.1",
    "final_y": "553921.98",
    "longitude": "-90.04227086858594",
    "latitude": "30.016850319876784",
    "geocoded_column": {
      "latitude": "30.016850319876784",
      "longitude": "-90.04227086858594"
    }
  },
  {
    "service_request": "2024-1076998",
    "request_type": "Trash/Recycling",
    "request_reason": "MIssed Recycling Pick-Up",
    "date_created": "2024-03-19T17:55:13.000",
    "date_modified": "2024-03-19T17:55:13.000",
    "request_status": "Pending",
    "responsible_agency": "Department of Sanitation",
    "final_address": "1551 Chippewa St, New Orleans, Louisiana, 70130",
    "address_councildis": "B",
    "status": "Assigned to Contractor",
    "contractor": "Richards Disposal",
    "rowid": "1076998",
    "final_x": "3681147.498",
    "final_y": "523118.835707",
    "longitude": "-90.06947599636001",
    "latitude": "29.932405988765613",
    "geocoded_column": {
      "latitude": "29.932405988765613",
      "longitude": "-90.06947599636001"
    }
  },
  {
    "service_request": "2024-1076997",
    "request_type": "Trash/Recycling",
    "request_reason": "Repair Trash Cart",
    "date_created": "2024-03-19T17:51:27.000",
    "date_modified": "2024-03-19T17:51:27.000",
    "request_status": "Pending",
    "responsible_agency": "Department of Sanitation",
    "final_address": "7831 Sandpiper Dr",
    "address_councildis": "E",
    "status": "Assigned to Contractor",
    "contractor": "Waste Pro",
    "rowid": "1076997",
    "final_x": "3715529.50559",
    "final_y": "570320.686823",
    "longitude": "-89.95914929583377",
    "latitude": "30.06110533649423",
    "geocoded_column": {
      "latitude": "30.06110533649423",
      "longitude": "-89.95914929583377"
    }
  },
  {
    "service_request": "2024-1076996",
    "request_type": "Health Related Request",
    "request_reason": "Noise Ordinance Complaint",
    "date_created": "2024-03-19T17:41:57.000",
    "date_modified": "2024-03-19T17:41:57.000",
    "request_status": "Pending",
    "responsible_agency": "Health Department",
    "final_address": "1015 N. Claiborne ave",
    "address_councildis": "D",
    "status": "Pending",
    "rowid": "1076996",
    "final_x": "3680383.01128",
    "final_y": "535722.163847",
    "longitude": "-90.07145124149515",
    "latitude": "29.967084070169896",
    "geocoded_column": {
      "latitude": "29.967084070169896",
      "longitude": "-90.07145124149515"
    }
  },
  {
    "service_request": "2024-1076995",
    "request_type": "Trash/Recycling",
    "request_reason": "Illegal Dumping",
    "date_created": "2024-03-19T17:38:05.000",
    "date_modified": "2024-03-19T17:38:05.000",
    "request_status": "Pending",
    "responsible_agency": "Department of Sanitation",
    "final_address": "2018 Foucher St",
    "address_councildis": "B",
    "status": "Pending",
    "rowid": "1076995",
    "final_x": "3672923.80276",
    "final_y": "522801.342651",
    "longitude": "-90.09544833517236",
    "latitude": "29.93177983838529",
    "geocoded_column": {
      "latitude": "29.93177983838529",
      "longitude": "-90.09544833517236"
    }
  },
  {
    "service_request": "2024-1076994",
    "request_type": "Abandoned Vehicles",
    "request_reason": "Abandoned/Junk Vehicles",
    "date_created": "2024-03-19T17:36:19.000",
    "date_modified": "2024-03-19T17:36:19.000",
    "request_status": "Pending",
    "responsible_agency": "Department of Public Works",
    "final_address": "3709 Dumaine St",
    "address_councildis": "A",
    "status": "Pending",
    "rowid": "1076994",
    "final_x": "3674021.0818",
    "final_y": "539971.030155",
    "longitude": "-90.0913968554771",
    "latitude": "29.978958122292486",
    "geocoded_column": {
      "latitude": "29.978958122292486",
      "longitude": "-90.0913968554771"
    }
  },
  {
    "service_request": "2024-1076993",
    "request_type": "Roads/Drainage",
    "request_reason": "Catch Basin - Clogged",
    "date_created": "2024-03-19T17:27:35.000",
    "date_modified": "2024-03-19T17:27:35.000",
    "request_status": "Pending",
    "responsible_agency": "Department of Public Works",
    "final_address": "2437 Joseph St",
    "address_councildis": "A",
    "status": "Pending",
    "rowid": "1076993",
    "final_x": "3667518.79668",
    "final_y": "525052.233789",
    "longitude": "-90.11243568964282",
    "latitude": "29.938128520911754",
    "geocoded_column": {
      "latitude": "29.938128520911754",
      "longitude": "-90.11243568964282"
    }
  },
  {
    "service_request": "2024-1076992",
    "request_type": "Roads/Drainage",
    "request_reason": "Catch Basin - Clogged",
    "date_created": "2024-03-19T17:27:29.000",
    "date_modified": "2024-03-19T17:27:29.000",
    "request_status": "Pending",
    "responsible_agency": "Department of Public Works",
    "final_address": "1323 St Andrew St",
    "address_councildis": "B",
    "status": "Pending",
    "rowid": "1076992",
    "final_x": "3678947.4708",
    "final_y": "523300.927675",
    "longitude": "-90.07641497790495",
    "latitude": "29.93297322263293",
    "geocoded_column": {
      "latitude": "29.93297322263293",
      "longitude": "-90.07641497790495"
    }
  },
  {
    "service_request": "2024-1076991",
    "request_type": "Roads/Drainage",
    "request_reason": "Pothole",
    "date_created": "2024-03-19T17:22:30.000",
    "date_modified": "2024-03-19T17:22:30.000",
    "request_status": "Pending",
    "responsible_agency": "Department of Public Works",
    "final_address": "5431 St Claude Ave",
    "address_councildis": "E",
    "status": "Pending",
    "rowid": "1076991",
    "final_x": "3697490.29655",
    "final_y": "534013.095813",
    "longitude": "-90.01748860500376",
    "latitude": "29.96185562358703",
    "geocoded_column": {
      "latitude": "29.96185562358703",
      "longitude": "-90.01748860500376"
    }
  },
  {
    "service_request": "2024-1076990",
    "request_type": "Roads/Drainage",
    "request_reason": "Pothole",
    "date_created": "2024-03-19T17:18:56.000",
    "date_modified": "2024-03-19T17:18:56.000",
    "request_status": "Pending",
    "responsible_agency": "Department of Public Works",
    "final_address": "HARRISON AVE & MARCONI DR",
    "address_councildis": "A",
    "status": "Pending",
    "rowid": "1076990",
    "final_x": "3671555.5",
    "final_y": "549053.28",
    "longitude": "-90.09887508622282",
    "latitude": "30.00400442416237",
    "geocoded_column": {
      "latitude": "30.00400442416237",
      "longitude": "-90.09887508622282"
    }
  },
  {
    "service_request": "2024-1076989",
    "request_type": "Roads/Drainage",
    "request_reason": "Pothole",
    "date_created": "2024-03-19T17:15:28.000",
    "date_modified": "2024-03-19T17:15:28.000",
    "request_status": "Pending",
    "responsible_agency": "Department of Public Works",
    "final_address": "5431 St Claude Ave",
    "address_councildis": "E",
    "status": "Pending",
    "rowid": "1076989",
    "final_x": "3697490.29655",
    "final_y": "534013.095813",
    "longitude": "-90.01748860500376",
    "latitude": "29.96185562358703",
    "geocoded_column": {
      "latitude": "29.96185562358703",
      "longitude": "-90.01748860500376"
    }
  },
  {
    "service_request": "2024-1076988",
    "request_type": "Traffic Signals/Signs/Striping/Streetlights",
    "request_reason": "Street Light Outage/Malfunction",
    "date_created": "2024-03-19T17:09:04.000",
    "date_modified": "2024-03-19T17:09:04.000",
    "request_status": "Pending",
    "responsible_agency": "Department of Public Works",
    "final_address": "5000 BLK Bullard Ave",
    "address_councildis": "E",
    "status": "Assigned to Contractor",
    "contractor": "Legacy Professional Services",
    "rowid": "1076988",
    "final_x": "3719180.9097",
    "final_y": "559071.375083",
    "longitude": "-89.9480373059314",
    "latitude": "30.03005343002431",
    "geocoded_column": {
      "latitude": "30.03005343002431",
      "longitude": "-89.9480373059314"
    }
  },
  {
    "service_request": "2024-1076987",
    "request_type": "Trash/Recycling",
    "request_reason": "Missed Trash Pick-Up",
    "date_created": "2024-03-19T17:03:38.000",
    "date_modified": "2024-03-19T17:03:39.000",
    "request_status": "Pending",
    "responsible_agency": "Department of Sanitation",
    "final_address": "5252 Annunciation St",
    "address_councildis": "B",
    "status": "Assigned to Contractor",
    "contractor": "Richards Disposal",
    "rowid": "1076987",
    "final_x": "3667535.18861",
    "final_y": "517534.757814",
    "longitude": "-90.11263677711774",
    "latitude": "29.91745736721848",
    "geocoded_column": {
      "latitude": "29.91745736721848",
      "longitude": "-90.11263677711774"
    }
  },
  {
    "service_request": "2024-1076986",
    "request_type": "Trash/Recycling",
    "request_reason": "Request a Large Item Pick Up",
    "date_created": "2024-03-19T16:46:46.000",
    "date_modified": "2024-03-19T16:46:46.000",
    "request_status": "Pending",
    "responsible_agency": "Department of Sanitation",
    "final_address": "3354 State Street Dr",
    "address_councildis": "A",
    "status": "Assigned to Contractor",
    "contractor": "Richards Disposal",
    "rowid": "1076986",
    "final_x": "3667753.08199",
    "final_y": "528772.3168",
    "longitude": "-90.11157079881546",
    "latitude": "29.948350680918676",
    "geocoded_column": {
      "latitude": "29.948350680918676",
      "longitude": "-90.11157079881546"
    }
  },
  {
    "service_request": "2024-1076985",
    "request_type": "Traffic Signals/Signs/Striping/Streetlights",
    "request_reason": "Street Light Outage/Malfunction",
    "date_created": "2024-03-19T16:46:35.000",
    "date_modified": "2024-03-19T16:46:35.000",
    "request_status": "Pending",
    "responsible_agency": "Department of Public Works",
    "final_address": "11417 Melvin Pl",
    "address_councildis": "E",
    "status": "Assigned to Contractor",
    "contractor": "Legacy Professional Services",
    "rowid": "1076985",
    "final_x": "3717823.43845",
    "final_y": "561685.377631",
    "longitude": "-89.95222730128802",
    "latitude": "30.03728593803662",
    "geocoded_column": {
      "latitude": "30.03728593803662",
      "longitude": "-89.95222730128802"
    }
  },
  {
    "service_request": "2024-1076984",
    "request_type": "Trash/Recycling",
    "request_reason": "Request a Large Item Pick Up",
    "date_created": "2024-03-19T16:38:44.000",
    "date_modified": "2024-03-19T16:38:44.000",
    "request_status": "Pending",
    "responsible_agency": "Department of Sanitation",
    "final_address": "4319 Orleans Ave",
    "address_councildis": "A",
    "status": "Assigned to Contractor",
    "contractor": "Richards Disposal",
    "rowid": "1076984",
    "final_x": "3671633.16327",
    "final_y": "541040.684172",
    "longitude": "-90.09890243679028",
    "latitude": "29.981970256320707",
    "geocoded_column": {
      "latitude": "29.981970256320707",
      "longitude": "-90.09890243679028"
    }
  },
  {
    "service_request": "2024-1076983",
    "request_type": "Traffic Signals/Signs/Striping/Streetlights",
    "request_reason": "Street Light Outage/Malfunction",
    "date_created": "2024-03-19T16:38:17.000",
    "date_modified": "2024-03-19T16:38:18.000",
    "request_status": "Pending",
    "responsible_agency": "Department of Public Works",
    "final_address": "5661 Bullard Ave",
    "address_councildis": "E",
    "status": "Assigned to Contractor",
    "contractor": "Legacy Professional Services",
    "rowid": "1076983",
    "final_x": "3717217.88274",
    "final_y": "562232.219551",
    "longitude": "-89.95412017240513",
    "latitude": "30.038809587180545",
    "geocoded_column": {
      "latitude": "30.038809587180545",
      "longitude": "-89.95412017240513"
    }
  },
  {
    "service_request": "2024-1076982",
    "request_type": "Property Maintenance",
    "request_reason": "Property Maintenance",
    "date_created": "2024-03-19T16:33:14.000",
    "date_modified": "2024-03-19T16:33:15.000",
    "request_status": "Pending",
    "responsible_agency": "Department of Code Enforcement",
    "final_address": "5353 Berkley Dr",
    "address_councildis": "C",
    "status": "Pending",
    "rowid": "1076982",
    "final_x": "3703732.32567",
    "final_y": "518105.796598",
    "longitude": "-89.99836265705274",
    "latitude": "29.91791758037602",
    "geocoded_column": {
      "latitude": "29.91791758037602",
      "longitude": "-89.99836265705274"
    }
  },
  {
    "service_request": "2024-1076981",
    "request_type": "Property Maintenance",
    "request_reason": "Property Maintenance",
    "date_created": "2024-03-19T16:31:51.000",
    "date_modified": "2024-03-19T16:31:51.000",
    "request_status": "Pending",
    "responsible_agency": "Department of Code Enforcement",
    "final_address": "9224 Fig St",
    "address_councildis": "A",
    "status": "Pending",
    "rowid": "1076981",
    "final_x": "3663264.43008",
    "final_y": "535857.116487",
    "longitude": "-90.12550759931962",
    "latitude": "29.967962413526852",
    "geocoded_column": {
      "latitude": "29.967962413526852",
      "longitude": "-90.12550759931962"
    }
  },
  {
    "service_request": "2024-1076980",
    "request_type": "Trash/Recycling",
    "request_reason": "Repair Trash Cart",
    "date_created": "2024-03-19T16:30:10.000",
    "date_modified": "2024-03-19T16:30:10.000",
    "case_close_date": "2024-03-05T18:00:00.000",
    "request_status": "Closed",
    "responsible_agency": "Department of Sanitation",
    "final_address": "5242 Revel St",
    "address_councildis": "E",
    "status": "Assigned to Contractor",
    "contractor": "Waste Pro",
    "contractor_action": "Additional information required from resident",
    "rowid": "1076980",
    "final_x": "3725035.09228",
    "final_y": "562747.269152",
    "longitude": "-89.9293960345029",
    "latitude": "30.039964723379747",
    "geocoded_column": {
      "latitude": "30.039964723379747",
      "longitude": "-89.9293960345029"
    }
  },
  {
    "service_request": "2024-1076979",
    "request_type": "Trash/Recycling",
    "request_reason": "Request a Large Item Pick Up",
    "date_created": "2024-03-19T16:28:43.000",
    "date_modified": "2024-03-19T16:28:44.000",
    "request_status": "Pending",
    "responsible_agency": "Department of Sanitation",
    "final_address": "8931 Curran Blvd, New Orleans, Louisiana, 70127",
    "status": "Assigned to Contractor",
    "rowid": "1076979",
    "longitude": "0.0",
    "latitude": "0.0",
    "geocoded_column": {
      "latitude": "0.0",
      "longitude": "0.0"
    }
  },
  {
    "service_request": "2024-1076978",
    "request_type": "Trash/Recycling",
    "request_reason": "Request a Large Item Pick Up",
    "date_created": "2024-03-19T16:27:40.000",
    "date_modified": "2024-03-19T16:27:40.000",
    "request_status": "Pending",
    "responsible_agency": "Department of Sanitation",
    "final_address": "9226 Fig St",
    "address_councildis": "A",
    "status": "Assigned to Contractor",
    "contractor": "Richards Disposal",
    "rowid": "1076978",
    "final_x": "3663243.74195",
    "final_y": "535877.504007",
    "longitude": "-90.12557225481635",
    "latitude": "29.968019072109456",
    "geocoded_column": {
      "latitude": "29.968019072109456",
      "longitude": "-90.12557225481635"
    }
  },
  {
    "service_request": "2024-1076977",
    "request_type": "Trash/Recycling",
    "request_reason": "Repair Trash Cart",
    "date_created": "2024-03-19T16:25:01.000",
    "date_modified": "2024-03-19T16:25:01.000",
    "request_status": "Pending",
    "responsible_agency": "Department of Sanitation",
    "final_address": "5101 Carlisle Ct",
    "address_councildis": "C",
    "status": "Assigned to Contractor",
    "contractor": "Richards Disposal",
    "rowid": "1076977",
    "final_x": "3703018.04644",
    "final_y": "516283.081204",
    "longitude": "-90.0006841406826",
    "latitude": "29.912928600803188",
    "geocoded_column": {
      "latitude": "29.912928600803188",
      "longitude": "-90.0006841406826"
    }
  },
  {
    "service_request": "2024-1076976",
    "request_type": "Abandoned Vehicles",
    "request_reason": "Abandoned/Junk Vehicles",
    "date_created": "2024-03-19T16:25:00.000",
    "date_modified": "2024-03-19T16:25:00.000",
    "request_status": "Pending",
    "responsible_agency": "Department of Public Works",
    "final_address": "5353 Berkley Dr",
    "address_councildis": "C",
    "status": "Pending",
    "rowid": "1076976",
    "final_x": "3703732.32567",
    "final_y": "518105.796598",
    "longitude": "-89.99836265705274",
    "latitude": "29.91791758037602",
    "geocoded_column": {
      "latitude": "29.91791758037602",
      "longitude": "-89.99836265705274"
    }
  },
  {
    "service_request": "2024-1076975",
    "request_type": "Trash/Recycling",
    "request_reason": "Dead Animal Pick Up",
    "date_created": "2024-03-19T16:23:54.000",
    "date_modified": "2024-03-19T16:23:55.000",
    "request_status": "Pending",
    "responsible_agency": "Department of Sanitation",
    "final_address": "7723 Zimple St",
    "address_councildis": "A",
    "status": "Assigned to Contractor",
    "contractor": "Richards Disposal",
    "rowid": "1076975",
    "final_x": "3662680.40275",
    "final_y": "527298.340095",
    "longitude": "-90.12763639575444",
    "latitude": "29.94444546604061",
    "geocoded_column": {
      "latitude": "29.94444546604061",
      "longitude": "-90.12763639575444"
    }
  },
  {
    "service_request": "2024-1076974",
    "request_type": "Trash/Recycling",
    "request_reason": "Start Trash Service",
    "date_created": "2024-03-19T16:23:48.000",
    "date_modified": "2024-03-19T16:23:49.000",
    "request_status": "Pending",
    "responsible_agency": "Department of Sanitation",
    "final_address": "111 Lennox Ct",
    "address_councildis": "C",
    "status": "Assigned to Contractor",
    "contractor": "Richards Disposal",
    "rowid": "1076974",
    "final_x": "3706718.01361",
    "final_y": "521365.477945",
    "longitude": "-89.98881782971915",
    "latitude": "29.92678458298396",
    "geocoded_column": {
      "latitude": "29.92678458298396",
      "longitude": "-89.98881782971915"
    }
  },
  {
    "service_request": "2024-1076973",
    "request_type": "Property Maintenance",
    "request_reason": "Property Maintenance",
    "date_created": "2024-03-19T16:19:52.000",
    "date_modified": "2024-03-19T16:19:53.000",
    "request_status": "Pending",
    "responsible_agency": "Department of Code Enforcement",
    "final_address": "2502 Wisteria St",
    "address_councildis": "D",
    "status": "Pending",
    "rowid": "1076973",
    "final_x": "3686287.34377",
    "final_y": "548268.026258",
    "longitude": "-90.05236243836141",
    "latitude": "30.001400633263685",
    "geocoded_column": {
      "latitude": "30.001400633263685",
      "longitude": "-90.05236243836141"
    }
  },
  {
    "service_request": "2024-1076972",
    "request_type": "Trash/Recycling",
    "request_reason": "Repair Trash Cart",
    "date_created": "2024-03-19T16:16:59.000",
    "date_modified": "2024-03-19T16:16:59.000",
    "request_status": "Pending",
    "responsible_agency": "Department of Sanitation",
    "final_address": "1343 Alvar St",
    "address_councildis": "D",
    "status": "Assigned to Contractor",
    "contractor": "IV Waste",
    "rowid": "1076972",
    "final_x": "3691802.96092",
    "final_y": "536430.358023",
    "longitude": "-90.0353617700354",
    "latitude": "29.968680603145852",
    "geocoded_column": {
      "latitude": "29.968680603145852",
      "longitude": "-90.0353617700354"
    }
  },
  {
    "service_request": "2024-1076971",
    "request_type": "Abandoned Vehicles",
    "request_reason": "Abandoned/Junk Vehicles",
    "date_created": "2024-03-19T16:16:56.000",
    "date_modified": "2024-03-19T16:16:56.000",
    "request_status": "Pending",
    "responsible_agency": "Department of Public Works",
    "final_address": "1412 Touro St",
    "address_councildis": "C",
    "status": "Pending",
    "rowid": "1076971",
    "final_x": "3684100.64783",
    "final_y": "537453.834376",
    "longitude": "-90.05965015058207",
    "latitude": "29.97173246560968",
    "geocoded_column": {
      "latitude": "29.97173246560968",
      "longitude": "-90.05965015058207"
    }
  },
  {
    "service_request": "2024-1076970",
    "request_type": "Trash/Recycling",
    "request_reason": "Repair Trash Cart",
    "date_created": "2024-03-19T16:16:38.000",
    "date_modified": "2024-03-19T16:16:39.000",
    "request_status": "Pending",
    "responsible_agency": "Department of Sanitation",
    "final_address": "1342 Alvar St",
    "address_councildis": "D",
    "status": "Assigned to Contractor",
    "contractor": "IV Waste",
    "rowid": "1076970",
    "final_x": "3691721.37577",
    "final_y": "536465.807495",
    "longitude": "-90.03561815171136",
    "latitude": "29.968780617581285",
    "geocoded_column": {
      "latitude": "29.968780617581285",
      "longitude": "-90.03561815171136"
    }
  },
  {
    "service_request": "2024-1076969",
    "request_type": "Trash/Recycling",
    "request_reason": "Repair Trash Cart",
    "date_created": "2024-03-19T16:15:34.000",
    "date_modified": "2024-03-19T16:15:35.000",
    "request_status": "Pending",
    "responsible_agency": "Department of Sanitation",
    "final_address": "719 Henry Clay Ave",
    "address_councildis": "A",
    "status": "Assigned to Contractor",
    "contractor": "Richards Disposal",
    "rowid": "1076969",
    "final_x": "3663762.13101",
    "final_y": "519361.563831",
    "longitude": "-90.12448541662881",
    "latitude": "29.92259050016629",
    "geocoded_column": {
      "latitude": "29.92259050016629",
      "longitude": "-90.12448541662881"
    }
  },
  {
    "service_request": "2024-1076968",
    "request_type": "Trash/Recycling",
    "request_reason": "Repair Trash Cart",
    "date_created": "2024-03-19T16:15:30.000",
    "date_modified": "2024-03-19T16:15:30.000",
    "request_status": "Pending",
    "responsible_agency": "Department of Sanitation",
    "final_address": "1630 Palmer Ave",
    "address_councildis": "A",
    "status": "Assigned to Contractor",
    "contractor": "Richards Disposal",
    "rowid": "1076968",
    "final_x": "3665251.13664",
    "final_y": "523188.223675",
    "longitude": "-90.11965725979925",
    "latitude": "29.933069329277476",
    "geocoded_column": {
      "latitude": "29.933069329277476",
      "longitude": "-90.11965725979925"
    }
  },
  {
    "service_request": "2024-1076967",
    "request_type": "Roads/Drainage",
    "request_reason": "Pothole",
    "date_created": "2024-03-19T16:11:49.000",
    "date_modified": "2024-03-19T16:11:49.000",
    "request_status": "Pending",
    "responsible_agency": "Department of Public Works",
    "final_address": "4216 Chestnut St",
    "address_councildis": "B",
    "status": "Pending",
    "rowid": "1076967",
    "final_x": "3671574.31393",
    "final_y": "519539.203703",
    "longitude": "-90.09981939416457",
    "latitude": "29.922850019854593",
    "geocoded_column": {
      "latitude": "29.922850019854593",
      "longitude": "-90.09981939416457"
    }
  },
  {
    "service_request": "2024-1076966",
    "request_type": "Trash/Recycling",
    "request_reason": "Request a Large Item Pick Up",
    "date_created": "2024-03-19T16:08:06.000",
    "date_modified": "2024-03-19T16:08:06.000",
    "request_status": "Pending",
    "responsible_agency": "Department of Sanitation",
    "final_address": "4666 Lurline St",
    "address_councildis": "E",
    "status": "Assigned to Contractor",
    "contractor": "Waste Pro",
    "rowid": "1076966",
    "final_x": "3711940.13611",
    "final_y": "555689.569049",
    "longitude": "-89.97104497154652",
    "latitude": "30.02099350993239",
    "geocoded_column": {
      "latitude": "30.02099350993239",
      "longitude": "-89.97104497154652"
    }
  },
  {
    "service_request": "2024-1076965",
    "request_type": "Roads/Drainage",
    "request_reason": "Street Subsidence (Sinking)",
    "date_created": "2024-03-19T16:07:27.000",
    "date_modified": "2024-03-19T16:13:35.000",
    "request_status": "Pending",
    "responsible_agency": "Department of Public Works",
    "final_address": "4400 Washington Ave",
    "address_councildis": "B",
    "status": "Inspected",
    "rowid": "1076965",
    "final_x": "3670209.97966",
    "final_y": "531428.105475",
    "longitude": "-90.10372335059913",
    "latitude": "29.955580966153367",
    "geocoded_column": {
      "latitude": "29.955580966153367",
      "longitude": "-90.10372335059913"
    }
  },
  {
    "service_request": "2024-1076964",
    "request_type": "Property Maintenance",
    "request_reason": "Property Maintenance",
    "date_created": "2024-03-19T16:03:43.000",
    "date_modified": "2024-03-19T16:03:43.000",
    "request_status": "Pending",
    "responsible_agency": "Department of Code Enforcement",
    "final_address": "6969 Canal Blvd",
    "address_councildis": "A",
    "status": "Pending",
    "rowid": "1076964",
    "final_x": "3669236.11764",
    "final_y": "553822.087511",
    "longitude": "-90.10604107950685",
    "latitude": "30.017185472299932",
    "geocoded_column": {
      "latitude": "30.017185472299932",
      "longitude": "-90.10604107950685"
    }
  },
  {
    "service_request": "2024-1076963",
    "request_type": "Roads/Drainage",
    "request_reason": "Accessibility Ramps, Curbs and Sidewalk Repair",
    "date_created": "2024-03-19T16:00:56.000",
    "date_modified": "2024-03-19T16:00:57.000",
    "request_status": "Pending",
    "responsible_agency": "Department of Public Works",
    "final_address": "4826 Brittany Ct",
    "address_councildis": "E",
    "status": "Pending",
    "rowid": "1076963",
    "final_x": "3726840.02022",
    "final_y": "561510.524383",
    "longitude": "-89.92374006261865",
    "latitude": "30.036503256297053",
    "geocoded_column": {
      "latitude": "30.036503256297053",
      "longitude": "-89.92374006261865"
    }
  },
  {
    "service_request": "2024-1076962",
    "request_type": "Trash/Recycling",
    "request_reason": "Illegal Dumping",
    "date_created": "2024-03-19T15:59:44.000",
    "date_modified": "2024-03-19T15:59:44.000",
    "request_status": "Pending",
    "responsible_agency": "Department of Sanitation",
    "final_address": "14008 Linden St",
    "address_councildis": "E",
    "status": "Pending",
    "rowid": "1076962",
    "final_x": "3718411.87417",
    "final_y": "572410.550633",
    "longitude": "-89.94995853113588",
    "latitude": "30.066756225896324",
    "geocoded_column": {
      "latitude": "30.066756225896324",
      "longitude": "-89.94995853113588"
    }
  },
  {
    "service_request": "2024-1076961",
    "request_type": "Roads/Drainage",
    "request_reason": "Catch Basin - Broken/Damage",
    "date_created": "2024-03-19T15:58:20.000",
    "date_modified": "2024-03-19T16:06:12.000",
    "request_status": "Pending",
    "responsible_agency": "Department of Public Works",
    "final_address": "4400 Washington Ave",
    "address_councildis": "B",
    "status": "Inspected",
    "rowid": "1076961",
    "final_x": "3670209.97966",
    "final_y": "531428.105475",
    "longitude": "-90.10372335059913",
    "latitude": "29.955580966153367",
    "geocoded_column": {
      "latitude": "29.955580966153367",
      "longitude": "-90.10372335059913"
    }
  },
  {
    "service_request": "2024-1076960",
    "request_type": "Trash/Recycling",
    "request_reason": "Order Recycling Cart",
    "date_created": "2024-03-19T15:57:58.000",
    "date_modified": "2024-03-19T15:57:58.000",
    "request_status": "Pending",
    "responsible_agency": "Department of Sanitation",
    "final_address": "6357 Colbert St",
    "address_councildis": "A",
    "status": "Pending",
    "rowid": "1076960",
    "final_x": "3667741.26906",
    "final_y": "549924.03266",
    "longitude": "-90.11089560493667",
    "latitude": "30.006511128552486",
    "geocoded_column": {
      "latitude": "30.006511128552486",
      "longitude": "-90.11089560493667"
    }
  },
  {
    "service_request": "2024-1076959",
    "request_type": "Trash/Recycling",
    "request_reason": "Request a Large Item Pick Up",
    "date_created": "2024-03-19T15:57:52.000",
    "date_modified": "2024-03-19T15:57:53.000",
    "request_status": "Pending",
    "responsible_agency": "Department of Sanitation",
    "final_address": "2538 St Nick Dr",
    "address_councildis": "C",
    "status": "Assigned to Contractor",
    "contractor": "Richards Disposal",
    "rowid": "1076959",
    "final_x": "3699406.94724",
    "final_y": "521794.624506",
    "longitude": "-90.01188113714208",
    "latitude": "29.9281984500036",
    "geocoded_column": {
      "latitude": "29.9281984500036",
      "longitude": "-90.01188113714208"
    }
  },
  {
    "service_request": "2024-1076958",
    "request_type": "Trash/Recycling",
    "request_reason": "Order Recycling Cart",
    "date_created": "2024-03-19T15:55:52.000",
    "date_modified": "2024-03-19T15:55:52.000",
    "request_status": "Pending",
    "responsible_agency": "Department of Sanitation",
    "final_address": "8017 Parry St",
    "address_councildis": "E",
    "status": "Pending",
    "rowid": "1076958",
    "final_x": "3713629.86495",
    "final_y": "569625.888742",
    "longitude": "-89.96518018964075",
    "latitude": "30.059257432675217",
    "geocoded_column": {
      "latitude": "30.059257432675217",
      "longitude": "-89.96518018964075"
    }
  },
  {
    "service_request": "2024-1076957",
    "request_type": "Roads/Drainage",
    "request_reason": "Catch Basin - Clogged",
    "date_created": "2024-03-19T15:52:19.000",
    "date_modified": "2024-03-19T15:52:19.000",
    "request_status": "Pending",
    "responsible_agency": "Department of Public Works",
    "final_address": "5 Tennyson Pl",
    "address_councildis": "C",
    "status": "Pending",
    "rowid": "1076957",
    "final_x": "3705116.53675",
    "final_y": "517412.961653",
    "longitude": "-89.99401905894882",
    "latitude": "29.915968107375114",
    "geocoded_column": {
      "latitude": "29.915968107375114",
      "longitude": "-89.99401905894882"
    }
  },
  {
    "service_request": "2024-1076956",
    "request_type": "Trash/Recycling",
    "request_reason": "Repair Recycling Cart",
    "date_created": "2024-03-19T15:50:50.000",
    "date_modified": "2024-03-19T15:50:51.000",
    "request_status": "Pending",
    "responsible_agency": "Department of Sanitation",
    "final_address": "2017 Valence St",
    "address_councildis": "B",
    "status": "Pending",
    "rowid": "1076956",
    "final_x": "3669625.86842",
    "final_y": "522333.432186",
    "longitude": "-90.10587540349071",
    "latitude": "29.93059078936777",
    "geocoded_column": {
      "latitude": "29.93059078936777",
      "longitude": "-90.10587540349071"
    }
  },
  {
    "service_request": "2024-1076955",
    "request_type": "Roads/Drainage",
    "request_reason": "Pothole",
    "date_created": "2024-03-19T15:48:33.000",
    "date_modified": "2024-03-19T15:48:33.000",
    "request_status": "Pending",
    "responsible_agency": "Department of Public Works",
    "final_address": "1312 Milan St",
    "address_councildis": "B",
    "status": "Pending",
    "rowid": "1076955",
    "final_x": "3671625.82823",
    "final_y": "520286.919608",
    "longitude": "-90.09963137110304",
    "latitude": "29.92490447494246",
    "geocoded_column": {
      "latitude": "29.92490447494246",
      "longitude": "-90.09963137110304"
    }
  },
  {
    "service_request": "2024-1076954",
    "request_type": "Trash/Recycling",
    "request_reason": "Replace Trash Cart",
    "date_created": "2024-03-19T15:48:19.000",
    "date_modified": "2024-03-19T15:48:20.000",
    "request_status": "Pending",
    "responsible_agency": "Department of Sanitation",
    "final_address": "3326 Fern St",
    "address_councildis": "B",
    "status": "Assigned to Contractor",
    "contractor": "Richards Disposal",
    "rowid": "1076954",
    "final_x": "3667707.63764",
    "final_y": "533583.740549",
    "longitude": "-90.11155230091424",
    "latitude": "29.961581852568063",
    "geocoded_column": {
      "latitude": "29.961581852568063",
      "longitude": "-90.11155230091424"
    }
  },
  {
    "service_request": "2024-1076953",
    "request_type": "Trash/Recycling",
    "request_reason": "Missed Trash Pick-Up",
    "date_created": "2024-03-19T15:45:00.000",
    "date_modified": "2024-03-19T15:45:01.000",
    "request_status": "Pending",
    "responsible_agency": "Department of Sanitation",
    "final_address": "7420 Benson St",
    "address_councildis": "E",
    "status": "Assigned to Contractor",
    "contractor": "Waste Pro",
    "rowid": "1076953",
    "final_x": "3704682.64055",
    "final_y": "561890.333343",
    "longitude": "-89.99374734240372",
    "latitude": "30.038278447130963",
    "geocoded_column": {
      "latitude": "30.038278447130963",
      "longitude": "-89.99374734240372"
    }
  },
  {
    "service_request": "2024-1076952",
    "request_type": "Trash/Recycling",
    "request_reason": "Request a Large Item Pick Up",
    "date_created": "2024-03-19T15:43:22.000",
    "date_modified": "2024-03-19T15:43:22.000",
    "request_status": "Pending",
    "responsible_agency": "Department of Sanitation",
    "final_address": "4616 Wright Rd",
    "address_councildis": "E",
    "status": "Assigned to Contractor",
    "contractor": "Waste Pro",
    "rowid": "1076952",
    "final_x": "3716678.92063",
    "final_y": "556214.28841",
    "longitude": "-89.95605201881217",
    "latitude": "30.022280516387756",
    "geocoded_column": {
      "latitude": "30.022280516387756",
      "longitude": "-89.95605201881217"
    }
  },
  {
    "service_request": "2024-1076951",
    "request_type": "Roads/Drainage",
    "request_reason": "Street Subsidence (Sinking)",
    "date_created": "2024-03-19T15:33:05.000",
    "date_modified": "2024-03-19T15:33:06.000",
    "request_status": "Pending",
    "responsible_agency": "Department of Public Works",
    "final_address": "3300 BLK La Salle St",
    "address_councildis": "B",
    "status": "Pending",
    "rowid": "1076951",
    "final_x": "3673243.41824",
    "final_y": "524282.344596",
    "longitude": "-90.09438879001799",
    "latitude": "29.935842615477437",
    "geocoded_column": {
      "latitude": "29.935842615477437",
      "longitude": "-90.09438879001799"
    }
  },
  {
    "service_request": "2024-1076950",
    "request_type": "Trash/Recycling",
    "request_reason": "Request a Large Item Pick Up",
    "date_created": "2024-03-19T15:30:16.000",
    "date_modified": "2024-03-19T15:30:17.000",
    "request_status": "Pending",
    "responsible_agency": "Department of Sanitation",
    "final_address": "4759 Painters St",
    "address_councildis": "D",
    "status": "Assigned to Contractor",
    "contractor": "IV Waste",
    "rowid": "1076950",
    "final_x": "3686281.83074",
    "final_y": "550702.131477",
    "longitude": "-90.05229388590628",
    "latitude": "30.008093708480573",
    "geocoded_column": {
      "latitude": "30.008093708480573",
      "longitude": "-90.05229388590628"
    }
  },
  {
    "service_request": "2024-1076949",
    "request_type": "Abandoned Vehicles",
    "request_reason": "Vehicle Blocking Your Driveway",
    "date_created": "2024-03-19T15:28:43.000",
    "date_modified": "2024-03-19T15:31:52.000",
    "request_status": "Pending",
    "responsible_agency": "Department of Public Works",
    "final_address": "320 N Tonti St",
    "address_councildis": "B",
    "rowid": "1076949",
    "final_x": "3677099.00174",
    "final_y": "535020.05287",
    "longitude": "-90.0818463890123",
    "latitude": "29.965252538574237",
    "geocoded_column": {
      "latitude": "29.965252538574237",
      "longitude": "-90.0818463890123"
    }
  },
  {
    "service_request": "2024-1076948",
    "request_type": "Trash/Recycling",
    "request_reason": "Request a Large Item Pick Up",
    "date_created": "2024-03-19T15:26:50.000",
    "date_modified": "2024-03-19T15:26:51.000",
    "request_status": "Pending",
    "responsible_agency": "Department of Sanitation",
    "final_address": "4527 Knight Dr",
    "address_councildis": "E",
    "status": "Assigned to Contractor",
    "contractor": "Waste Pro",
    "rowid": "1076948",
    "final_x": "3708334.25668",
    "final_y": "554277.82108",
    "longitude": "-89.98249100171125",
    "latitude": "30.01722913566983",
    "geocoded_column": {
      "latitude": "30.01722913566983",
      "longitude": "-89.98249100171125"
    }
  },
  {
    "service_request": "2024-1076947",
    "request_type": "Abandoned Vehicles",
    "request_reason": "Abandoned/Junk Vehicles",
    "date_created": "2024-03-19T15:26:26.000",
    "date_modified": "2024-03-19T15:26:26.000",
    "request_status": "Pending",
    "responsible_agency": "Department of Public Works",
    "final_address": "2404 Orleans Ave",
    "address_councildis": "D",
    "status": "Inspected",
    "rowid": "1076947",
    "final_x": "3677723.73147",
    "final_y": "536215.862087",
    "longitude": "-90.07983221255017",
    "latitude": "29.968521830389353",
    "geocoded_column": {
      "latitude": "29.968521830389353",
      "longitude": "-90.07983221255017"
    }
  },
  {
    "service_request": "2024-1076946",
    "request_type": "Roads/Drainage",
    "request_reason": "Street Subsidence (Sinking)",
    "date_created": "2024-03-19T15:26:02.000",
    "date_modified": "2024-03-19T15:26:02.000",
    "request_status": "Pending",
    "responsible_agency": "Department of Public Works",
    "final_address": "1643 N Galvez St",
    "address_councildis": "D",
    "status": "Pending",
    "rowid": "1076946",
    "final_x": "3680987.54127",
    "final_y": "539193.851146",
    "longitude": "-90.06942119943643",
    "latitude": "29.97661169265054",
    "geocoded_column": {
      "latitude": "29.97661169265054",
      "longitude": "-90.06942119943643"
    }
  },
  {
    "service_request": "2024-1076945",
    "request_type": "Roads/Drainage",
    "request_reason": "Pothole",
    "date_created": "2024-03-19T15:24:20.000",
    "date_modified": "2024-03-19T15:24:20.000",
    "request_status": "Pending",
    "responsible_agency": "Department of Public Works",
    "final_address": "1301 Constantinople St",
    "address_councildis": "B",
    "status": "Pending",
    "rowid": "1076945",
    "final_x": "3672430.66305",
    "final_y": "520250.7726",
    "longitude": "-90.09709199725775",
    "latitude": "29.924781230435865",
    "geocoded_column": {
      "latitude": "29.924781230435865",
      "longitude": "-90.09709199725775"
    }
  },
  {
    "service_request": "2024-1076944",
    "request_type": "Trash/Recycling",
    "request_reason": "Replace Trash Cart",
    "date_created": "2024-03-19T15:22:51.000",
    "date_modified": "2024-03-19T15:22:51.000",
    "request_status": "Pending",
    "responsible_agency": "Department of Sanitation",
    "final_address": "7910 Trout St",
    "address_councildis": "E",
    "status": "Assigned to Contractor",
    "contractor": "Waste Pro",
    "rowid": "1076944",
    "final_x": "3699489.92688",
    "final_y": "561222.33763",
    "longitude": "-90.01018194882344",
    "latitude": "30.036607618277575",
    "geocoded_column": {
      "latitude": "30.036607618277575",
      "longitude": "-90.01018194882344"
    }
  },
  {
    "service_request": "2024-1076943",
    "request_type": "Roads/Drainage",
    "request_reason": "Pothole",
    "date_created": "2024-03-19T15:20:29.000",
    "date_modified": "2024-03-19T15:20:30.000",
    "request_status": "Pending",
    "responsible_agency": "Department of Public Works",
    "final_address": "1208 Thayer St",
    "address_councildis": "C",
    "status": "Pending",
    "rowid": "1076943",
    "final_x": "3689449.70665",
    "final_y": "527028.58099",
    "longitude": "-90.04312777984666",
    "latitude": "29.942902056321003",
    "geocoded_column": {
      "latitude": "29.942902056321003",
      "longitude": "-90.04312777984666"
    }
  },
  {
    "service_request": "2024-1076942",
    "request_type": "Traffic Signals/Signs/Striping/Streetlights",
    "request_reason": "Traffic Sign Missing/Damaged",
    "date_created": "2024-03-19T15:19:45.000",
    "date_modified": "2024-03-19T15:19:45.000",
    "request_status": "Pending",
    "responsible_agency": "Department of Public Works",
    "final_address": "PATTERSON ST & VALLETTE ST",
    "address_councildis": "C",
    "status": "Pending",
    "rowid": "1076942",
    "final_x": "3687599.8",
    "final_y": "531446.98",
    "longitude": "-90.04881198377869",
    "latitude": "29.955108288784608",
    "geocoded_column": {
      "latitude": "29.955108288784608",
      "longitude": "-90.04881198377869"
    }
  },
  {
    "service_request": "2024-1076940",
    "request_type": "Roads/Drainage",
    "request_reason": "Street Flooding / Drainage",
    "date_created": "2024-03-19T15:18:43.000",
    "date_modified": "2024-03-19T15:18:43.000",
    "request_status": "Pending",
    "responsible_agency": "Department of Public Works",
    "final_address": "1401 S Rendon St",
    "address_councildis": "B",
    "status": "Pending",
    "rowid": "1076940",
    "final_x": "3670077.35284",
    "final_y": "531554.604995",
    "longitude": "-90.10413785485666",
    "latitude": "29.955932710853986",
    "geocoded_column": {
      "latitude": "29.955932710853986",
      "longitude": "-90.10413785485666"
    }
  },
  {
    "service_request": "2024-1076939",
    "request_type": "Trash/Recycling",
    "request_reason": "Replace Trash Cart",
    "date_created": "2024-03-19T15:18:07.000",
    "date_modified": "2024-03-19T15:18:08.000",
    "request_status": "Pending",
    "responsible_agency": "Department of Sanitation",
    "final_address": "2512 Palmer Ave",
    "address_councildis": "A",
    "status": "Assigned to Contractor",
    "contractor": "Richards Disposal",
    "rowid": "1076939",
    "final_x": "3666448.1074",
    "final_y": "526039.235774",
    "longitude": "-90.11578285469726",
    "latitude": "29.940873785321735",
    "geocoded_column": {
      "latitude": "29.940873785321735",
      "longitude": "-90.11578285469726"
    }
  },
  {
    "service_request": "2024-1076938",
    "request_type": "Trash/Recycling",
    "request_reason": "Illegal Dumping",
    "date_created": "2024-03-19T15:14:16.000",
    "date_modified": "2024-03-19T15:14:17.000",
    "request_status": "Pending",
    "responsible_agency": "Department of Sanitation",
    "final_address": "8649 Grant St",
    "address_councildis": "E",
    "status": "Pending",
    "rowid": "1076938",
    "final_x": "3707480.6835",
    "final_y": "554464.716248",
    "longitude": "-89.98518097512552",
    "latitude": "30.0177706665698",
    "geocoded_column": {
      "latitude": "30.0177706665698",
      "longitude": "-89.98518097512552"
    }
  },
  {
    "service_request": "2024-1076937",
    "request_type": "Traffic Signals/Signs/Striping/Streetlights",
    "request_reason": "Street Light Outage/Malfunction",
    "date_created": "2024-03-19T15:13:48.000",
    "date_modified": "2024-03-19T15:13:48.000",
    "request_status": "Pending",
    "responsible_agency": "Department of Public Works",
    "final_address": "1716 Murl St",
    "address_councildis": "C",
    "status": "Assigned to Contractor",
    "contractor": "Legacy Professional Services",
    "rowid": "1076937",
    "final_x": "3695413.24413",
    "final_y": "525000.674109",
    "longitude": "-90.02437268637127",
    "latitude": "29.937140028104395",
    "geocoded_column": {
      "latitude": "29.937140028104395",
      "longitude": "-90.02437268637127"
    }
  },
  {
    "service_request": "2024-1076936",
    "request_type": "Trash/Recycling",
    "request_reason": "Request a Large Item Pick Up",
    "date_created": "2024-03-19T15:09:52.000",
    "date_modified": "2024-03-19T15:09:53.000",
    "request_status": "Pending",
    "responsible_agency": "Department of Sanitation",
    "final_address": "2718 Painters St",
    "address_councildis": "D",
    "status": "Assigned to Contractor",
    "contractor": "IV Waste",
    "rowid": "1076936",
    "final_x": "3687006.80098",
    "final_y": "542942.573133",
    "longitude": "-90.0502779936753",
    "latitude": "29.986735414636556",
    "geocoded_column": {
      "latitude": "29.986735414636556",
      "longitude": "-90.0502779936753"
    }
  },
  {
    "service_request": "2024-1076935",
    "request_type": "Traffic Signals/Signs/Striping/Streetlights",
    "request_reason": "Street Light Outage/Malfunction",
    "date_created": "2024-03-19T15:07:17.000",
    "date_modified": "2024-03-19T15:07:18.000",
    "request_status": "Pending",
    "responsible_agency": "Department of Public Works",
    "final_address": "3RD ST & WILLOW ST",
    "address_councildis": "B",
    "status": "Assigned to Contractor",
    "contractor": "Legacy Professional Services",
    "rowid": "1076935",
    "final_x": "3673908.8",
    "final_y": "526705.58",
    "longitude": "-90.09220530048488",
    "latitude": "29.942485922114553",
    "geocoded_column": {
      "latitude": "29.942485922114553",
      "longitude": "-90.09220530048488"
    }
  },
  {
    "service_request": "2024-1076934",
    "request_type": "Trash/Recycling",
    "request_reason": "Request a Large Item Pick Up",
    "date_created": "2024-03-19T15:05:02.000",
    "date_modified": "2024-03-19T15:05:03.000",
    "request_status": "Pending",
    "responsible_agency": "Department of Sanitation",
    "final_address": "1719 St Ann St",
    "address_councildis": "D",
    "status": "Assigned to Contractor",
    "contractor": "Richards Disposal",
    "rowid": "1076934",
    "final_x": "3679835.70639",
    "final_y": "535060.856198",
    "longitude": "-90.0732026008287",
    "latitude": "29.965282261903386",
    "geocoded_column": {
      "latitude": "29.965282261903386",
      "longitude": "-90.0732026008287"
    }
  },
  {
    "service_request": "2024-1076933",
    "request_type": "Trash/Recycling",
    "request_reason": "Request a Large Item Pick Up",
    "date_created": "2024-03-19T15:02:49.000",
    "date_modified": "2024-03-19T15:02:50.000",
    "request_status": "Pending",
    "responsible_agency": "Department of Sanitation",
    "final_address": "1401 Port St",
    "address_councildis": "C",
    "status": "Assigned to Contractor",
    "contractor": "IV Waste",
    "rowid": "1076933",
    "final_x": "3687738.50979",
    "final_y": "537525.013704",
    "longitude": "-90.0481587319164",
    "latitude": "29.971816493376927",
    "geocoded_column": {
      "latitude": "29.971816493376927",
      "longitude": "-90.0481587319164"
    }
  },
  {
    "service_request": "2024-1076932",
    "request_type": "Roads/Drainage",
    "request_reason": "Catch Basin - Clogged",
    "date_created": "2024-03-19T15:02:01.000",
    "date_modified": "2024-03-19T15:02:02.000",
    "request_status": "Pending",
    "responsible_agency": "Department of Public Works",
    "final_address": "2725 Pine St",
    "address_councildis": "B",
    "status": "Pending",
    "rowid": "1076932",
    "final_x": "3667073.34305",
    "final_y": "531373.706371",
    "longitude": "-90.11362959225532",
    "latitude": "29.955523565992237",
    "geocoded_column": {
      "latitude": "29.955523565992237",
      "longitude": "-90.11362959225532"
    }
  },
  {
    "service_request": "2024-1076931",
    "request_type": "Traffic Signals/Signs/Striping/Streetlights",
    "request_reason": "Street Light Outage/Malfunction",
    "date_created": "2024-03-19T14:56:33.000",
    "date_modified": "2024-03-19T14:56:34.000",
    "request_status": "Pending",
    "responsible_agency": "Department of Public Works",
    "final_address": "2500 BLK Willow St",
    "address_councildis": "B",
    "status": "Assigned to Contractor",
    "contractor": "Legacy Professional Services",
    "rowid": "1076931",
    "final_x": "3674036.62958",
    "final_y": "526787.882236",
    "longitude": "-90.09179889720892",
    "latitude": "29.942708418460406",
    "geocoded_column": {
      "latitude": "29.942708418460406",
      "longitude": "-90.09179889720892"
    }
  },
  {
    "service_request": "2024-1076930",
    "request_type": "Property Maintenance",
    "request_reason": "Property Maintenance",
    "date_created": "2024-03-19T14:53:15.000",
    "date_modified": "2024-03-19T14:53:15.000",
    "request_status": "Pending",
    "responsible_agency": "Department of Code Enforcement",
    "final_address": "2614 St Claude Ave",
    "address_councildis": "C",
    "status": "Pending",
    "rowid": "1076930",
    "final_x": "3687260.29174",
    "final_y": "536391.462983",
    "longitude": "-90.04970911962272",
    "latitude": "29.968714364924857",
    "geocoded_column": {
      "latitude": "29.968714364924857",
      "longitude": "-90.04970911962272"
    }
  },
  {
    "service_request": "2024-1076929",
    "request_type": "Trash/Recycling",
    "request_reason": "Request a Large Item Pick Up",
    "date_created": "2024-03-19T14:51:07.000",
    "date_modified": "2024-03-19T14:51:07.000",
    "request_status": "Pending",
    "responsible_agency": "Department of Sanitation",
    "final_address": "1856 Tupelo St",
    "address_councildis": "E",
    "status": "Assigned to Contractor",
    "contractor": "Waste Pro",
    "rowid": "1076929",
    "final_x": "3700537.54455",
    "final_y": "536150.312263",
    "longitude": "-90.00778786938527",
    "latitude": "29.967635629586606",
    "geocoded_column": {
      "latitude": "29.967635629586606",
      "longitude": "-90.00778786938527"
    }
  },
  {
    "service_request": "2024-1076928",
    "request_type": "Roads/Drainage",
    "request_reason": "Street Flooding / Drainage",
    "date_created": "2024-03-19T14:46:53.000",
    "date_modified": "2024-03-19T14:46:54.000",
    "request_status": "Pending",
    "responsible_agency": "Department of Public Works",
    "final_address": "3829 General Taylor St",
    "address_councildis": "B",
    "status": "Pending",
    "rowid": "1076928",
    "final_x": "3670836.83335",
    "final_y": "528855.662272",
    "longitude": "-90.10183126688909",
    "latitude": "29.94848908218978",
    "geocoded_column": {
      "latitude": "29.94848908218978",
      "longitude": "-90.10183126688909"
    }
  },
  {
    "service_request": "2024-1076927",
    "request_type": "Property Maintenance",
    "request_reason": "Property Maintenance",
    "date_created": "2024-03-19T14:41:58.000",
    "date_modified": "2024-03-19T14:41:59.000",
    "request_status": "Pending",
    "responsible_agency": "Department of Code Enforcement",
    "final_address": "5108 Sandhurst Dr",
    "address_councildis": "E",
    "status": "Pending",
    "rowid": "1076927",
    "final_x": "3705097.04369",
    "final_y": "556725.911706",
    "longitude": "-89.9926286951745",
    "latitude": "30.024064978491367",
    "geocoded_column": {
      "latitude": "30.024064978491367",
      "longitude": "-89.9926286951745"
    }
  },
  {
    "service_request": "2024-1076926",
    "request_type": "Trash/Recycling",
    "request_reason": "Order Trash Cart",
    "date_created": "2024-03-19T14:39:04.000",
    "date_modified": "2024-03-19T14:39:38.000",
    "request_status": "Pending",
    "responsible_agency": "Department of Sanitation",
    "final_address": "650 N Pierce St",
    "address_councildis": "A",
    "status": "Assigned to Contractor",
    "contractor": "Richards Disposal",
    "rowid": "1076926",
    "final_x": "3672884.20449",
    "final_y": "539738.386378",
    "longitude": "-90.09499549657681",
    "latitude": "29.97835226411648",
    "geocoded_column": {
      "latitude": "29.97835226411648",
      "longitude": "-90.09499549657681"
    }
  },
  {
    "service_request": "2024-1076925",
    "request_type": "Trash/Recycling",
    "request_reason": "Repair Trash Cart",
    "date_created": "2024-03-19T14:36:30.000",
    "date_modified": "2024-03-19T14:36:31.000",
    "request_status": "Pending",
    "responsible_agency": "Department of Sanitation",
    "final_address": "3654 Meadow Park Ln",
    "address_councildis": "C",
    "status": "Assigned to Contractor",
    "contractor": "Richards Disposal",
    "rowid": "1076925",
    "final_x": "3703863.1809",
    "final_y": "510894.976431",
    "longitude": "-89.99821482496958",
    "latitude": "29.89808609160284",
    "geocoded_column": {
      "latitude": "29.89808609160284",
      "longitude": "-89.99821482496958"
    }
  },
  {
    "service_request": "2024-1076924",
    "request_type": "Trash/Recycling",
    "request_reason": "Replace Trash Cart",
    "date_created": "2024-03-19T14:36:17.000",
    "date_modified": "2024-03-19T14:36:18.000",
    "request_status": "Pending",
    "responsible_agency": "Department of Sanitation",
    "final_address": "1737 Bordeaux St",
    "address_councildis": "B",
    "status": "Assigned to Contractor",
    "contractor": "Richards Disposal",
    "rowid": "1076924",
    "final_x": "3669357.8082",
    "final_y": "521368.113209",
    "longitude": "-90.10675425341698",
    "latitude": "29.92794436350474",
    "geocoded_column": {
      "latitude": "29.92794436350474",
      "longitude": "-90.10675425341698"
    }
  },
  {
    "service_request": "2024-1076923",
    "request_type": "Trash/Recycling",
    "request_reason": "Request a Large Item Pick Up",
    "date_created": "2024-03-19T14:34:00.000",
    "date_modified": "2024-03-19T14:34:01.000",
    "request_status": "Pending",
    "responsible_agency": "Department of Sanitation",
    "final_address": "1518 Dante St",
    "address_councildis": "A",
    "status": "Assigned to Contractor",
    "contractor": "Richards Disposal",
    "rowid": "1076923",
    "final_x": "3662208.22855",
    "final_y": "529791.630721",
    "longitude": "-90.1290444582394",
    "latitude": "29.951314869325973",
    "geocoded_column": {
      "latitude": "29.951314869325973",
      "longitude": "-90.1290444582394"
    }
  },
  {
    "service_request": "2024-1076922",
    "request_type": "Traffic Signals/Signs/Striping/Streetlights",
    "request_reason": "Street Light Outage/Malfunction",
    "date_created": "2024-03-19T14:33:16.000",
    "date_modified": "2024-03-19T14:34:01.000",
    "request_status": "Pending",
    "responsible_agency": "Department of Public Works",
    "final_address": "8510 Scottsdale Dr",
    "address_councildis": "E",
    "status": "Assigned to Contractor",
    "contractor": "Legacy Professional Services",
    "rowid": "1076922",
    "final_x": "3704438.24785",
    "final_y": "561489.143647",
    "longitude": "-89.99453449481085",
    "latitude": "30.03718318706802",
    "geocoded_column": {
      "latitude": "30.03718318706802",
      "longitude": "-89.99453449481085"
    }
  },
  {
    "service_request": "2024-1076921",
    "request_type": "Property Maintenance",
    "request_reason": "Property Maintenance",
    "date_created": "2024-03-19T14:25:47.000",
    "date_modified": "2024-03-19T14:25:47.000",
    "request_status": "Pending",
    "responsible_agency": "Department of Code Enforcement",
    "final_address": "2936 Ursulines Ave",
    "address_councildis": "A",
    "status": "Pending",
    "rowid": "1076921",
    "final_x": "3676539.22984",
    "final_y": "538898.642378",
    "longitude": "-90.08348051909451",
    "latitude": "29.975934136802906",
    "geocoded_column": {
      "latitude": "29.975934136802906",
      "longitude": "-90.08348051909451"
    }
  },
  {
    "service_request": "2024-1076920",
    "request_type": "Trash/Recycling",
    "request_reason": "Request a Large Item Pick Up",
    "date_created": "2024-03-19T14:24:00.000",
    "date_modified": "2024-03-19T14:24:01.000",
    "request_status": "Pending",
    "responsible_agency": "Department of Sanitation",
    "final_address": "306 S Murat St",
    "address_councildis": "A",
    "status": "Assigned to Contractor",
    "contractor": "Richards Disposal",
    "rowid": "1076920",
    "final_x": "3669207.60308",
    "final_y": "538676.676553",
    "longitude": "-90.10664347293086",
    "latitude": "29.97554166270201",
    "geocoded_column": {
      "latitude": "29.97554166270201",
      "longitude": "-90.10664347293086"
    }
  },
  {
    "service_request": "2024-1076919",
    "request_type": "Traffic Signals/Signs/Striping/Streetlights",
    "request_reason": "Traffic Signal Malfunctioning/Damaged",
    "date_created": "2024-03-19T14:22:59.000",
    "date_modified": "2024-03-19T14:23:00.000",
    "request_status": "Pending",
    "responsible_agency": "Department of Public Works",
    "final_address": "NAPOLEON AVE & WILLOW ST",
    "address_councildis": "B",
    "status": "Pending",
    "rowid": "1076919",
    "final_x": "3670355.1",
    "final_y": "525435.48",
    "longitude": "-90.10346821303257",
    "latitude": "29.939098921630098",
    "geocoded_column": {
      "latitude": "29.939098921630098",
      "longitude": "-90.10346821303257"
    }
  },
  {
    "service_request": "2024-1076918",
    "request_type": "Trash/Recycling",
    "request_reason": "Order Trash Cart",
    "date_created": "2024-03-19T14:19:45.000",
    "date_modified": "2024-03-19T14:19:45.000",
    "request_status": "Pending",
    "responsible_agency": "Department of Sanitation",
    "final_address": "25478 Chef Menteur Hwy",
    "address_councildis": "E",
    "status": "Assigned to Contractor",
    "contractor": "Waste Pro",
    "rowid": "1076918",
    "final_x": "3780329.67416",
    "final_y": "599575.220674",
    "longitude": "-89.75304859975697",
    "latitude": "30.139244729982753",
    "geocoded_column": {
      "latitude": "30.139244729982753",
      "longitude": "-89.75304859975697"
    }
  },
  {
    "service_request": "2024-1076917",
    "request_type": "Trash/Recycling",
    "request_reason": "Request a Large Item Pick Up",
    "date_created": "2024-03-19T14:19:31.000",
    "date_modified": "2024-03-19T14:19:31.000",
    "request_status": "Pending",
    "responsible_agency": "Department of Sanitation",
    "final_address": "4634 Lurline St",
    "address_councildis": "E",
    "status": "Assigned to Contractor",
    "contractor": "Waste Pro",
    "rowid": "1076917",
    "final_x": "3711964.08254",
    "final_y": "555451.444505",
    "longitude": "-89.97097825421177",
    "latitude": "30.02033797802489",
    "geocoded_column": {
      "latitude": "30.02033797802489",
      "longitude": "-89.97097825421177"
    }
  },
  {
    "service_request": "2024-1076916",
    "request_type": "Roads/Drainage",
    "request_reason": "Catch Basin - Clogged",
    "date_created": "2024-03-19T14:19:13.000",
    "date_modified": "2024-03-19T14:19:13.000",
    "request_status": "Pending",
    "responsible_agency": "Department of Public Works",
    "final_address": "1300 Calhoun St",
    "address_councildis": "A",
    "status": "Pending",
    "rowid": "1076916",
    "final_x": "3664084.53325",
    "final_y": "521346.913337",
    "longitude": "-90.12340154248078",
    "latitude": "29.928040232169252",
    "geocoded_column": {
      "latitude": "29.928040232169252",
      "longitude": "-90.12340154248078"
    }
  },
  {
    "service_request": "2024-1076915",
    "request_type": "Trash/Recycling",
    "request_reason": "Missed Trash Pick-Up",
    "date_created": "2024-03-19T14:18:51.000",
    "date_modified": "2024-03-19T14:35:41.000",
    "case_close_date": "2024-03-19T09:35:41.000",
    "request_status": "Closed",
    "responsible_agency": "Department of Sanitation",
    "final_address": "44 Swallow St",
    "address_councildis": "D",
    "status": "Invalid Request",
    "contractor": "IV Waste",
    "contractor_action": "Invalid Request",
    "rowid": "1076915",
    "final_x": "3673660.87336",
    "final_y": "557191.549275",
    "longitude": "-90.09194529009912",
    "latitude": "30.02631922426473",
    "geocoded_column": {
      "latitude": "30.02631922426473",
      "longitude": "-90.09194529009912"
    }
  },
  {
    "service_request": "2024-1076914",
    "request_type": "Abandoned Vehicles",
    "request_reason": "Abandoned/Junk Vehicles",
    "date_created": "2024-03-19T14:16:56.000",
    "date_modified": "2024-03-19T14:16:57.000",
    "request_status": "Pending",
    "responsible_agency": "Department of Public Works",
    "final_address": "3150 Marais St",
    "address_councildis": "C",
    "status": "Pending",
    "rowid": "1076914",
    "final_x": "3689482.03843",
    "final_y": "536210.342983",
    "longitude": "-90.04269917899938",
    "latitude": "29.96814772513122",
    "geocoded_column": {
      "latitude": "29.96814772513122",
      "longitude": "-90.04269917899938"
    }
  },
  {
    "service_request": "2024-1076913",
    "request_type": "Abandoned Vehicles",
    "request_reason": "Abandoned/Junk Vehicles",
    "date_created": "2024-03-19T14:16:19.000",
    "date_modified": "2024-03-19T14:16:19.000",
    "request_status": "Pending",
    "responsible_agency": "Department of Public Works",
    "final_address": "129 Carondelet St",
    "address_councildis": "B",
    "status": "Pending",
    "rowid": "1076913",
    "final_x": "3680687.4701",
    "final_y": "530679.433858",
    "longitude": "-90.0706652454544",
    "latitude": "29.953209055333968",
    "geocoded_column": {
      "latitude": "29.953209055333968",
      "longitude": "-90.0706652454544"
    }
  },
  {
    "service_request": "2024-1076912",
    "request_type": "Abandoned Vehicles",
    "request_reason": "Abandoned/Junk Vehicles",
    "date_created": "2024-03-19T14:10:20.000",
    "date_modified": "2024-03-19T14:10:20.000",
    "request_status": "Pending",
    "responsible_agency": "Department of Public Works",
    "final_address": "1913 Seventh St",
    "address_councildis": "B",
    "status": "Pending",
    "rowid": "1076912",
    "final_x": "3674603.22139",
    "final_y": "523116.139643",
    "longitude": "-90.09013580632002",
    "latitude": "29.932595433071757",
    "geocoded_column": {
      "latitude": "29.932595433071757",
      "longitude": "-90.09013580632002"
    }
  },
  {
    "service_request": "2024-1076911",
    "request_type": "Trash/Recycling",
    "request_reason": "Repair Recycling Cart",
    "date_created": "2024-03-19T14:07:52.000",
    "date_modified": "2024-03-19T14:07:52.000",
    "request_status": "Pending",
    "responsible_agency": "Department of Sanitation",
    "final_address": "2320 Lark St",
    "address_councildis": "D",
    "status": "Pending",
    "rowid": "1076911",
    "final_x": "3684246.80444",
    "final_y": "557752.016923",
    "longitude": "-90.05847533915886",
    "latitude": "30.027540707810367",
    "geocoded_column": {
      "latitude": "30.027540707810367",
      "longitude": "-90.05847533915886"
    }
  },
  {
    "service_request": "2024-1076910",
    "request_type": "Roads/Drainage",
    "request_reason": "Catch Basin - Clogged",
    "date_created": "2024-03-19T14:03:19.000",
    "date_modified": "2024-03-19T14:03:19.000",
    "request_status": "Pending",
    "responsible_agency": "Department of Public Works",
    "final_address": "4153 Patterson St",
    "address_councildis": "C",
    "status": "Pending",
    "rowid": "1076910",
    "final_x": "3699480.11428",
    "final_y": "526178.040958",
    "longitude": "-90.01149053779721",
    "latitude": "29.940249006001082",
    "geocoded_column": {
      "latitude": "29.940249006001082",
      "longitude": "-90.01149053779721"
    }
  },
  {
    "service_request": "2024-1076909",
    "request_type": "Abandoned Vehicles",
    "request_reason": "Abandoned/Junk Vehicles",
    "date_created": "2024-03-19T14:02:41.000",
    "date_modified": "2024-03-19T14:02:41.000",
    "request_status": "Pending",
    "responsible_agency": "Department of Public Works",
    "final_address": "1913 Seventh St",
    "address_councildis": "B",
    "status": "Pending",
    "rowid": "1076909",
    "final_x": "3674603.22139",
    "final_y": "523116.139643",
    "longitude": "-90.09013580632002",
    "latitude": "29.932595433071757",
    "geocoded_column": {
      "latitude": "29.932595433071757",
      "longitude": "-90.09013580632002"
    }
  },
  {
    "service_request": "2024-1076908",
    "request_type": "Property Maintenance",
    "request_reason": "Property Maintenance",
    "date_created": "2024-03-19T14:02:16.000",
    "date_modified": "2024-03-19T14:02:16.000",
    "request_status": "Pending",
    "responsible_agency": "Department of Code Enforcement",
    "final_address": "2926 Johnny Jackson Jr Blvd",
    "address_councildis": "D",
    "status": "Pending",
    "rowid": "1076908",
    "final_x": "3691353.32329",
    "final_y": "543252.621838",
    "longitude": "-90.03653791146694",
    "latitude": "29.98745339508312",
    "geocoded_column": {
      "latitude": "29.98745339508312",
      "longitude": "-90.03653791146694"
    }
  },
  {
    "service_request": "2024-1076907",
    "request_type": "Traffic Signals/Signs/Striping/Streetlights",
    "request_reason": "Street Light Outage/Malfunction",
    "date_created": "2024-03-19T14:01:45.000",
    "date_modified": "2024-03-19T14:01:45.000",
    "request_status": "Pending",
    "responsible_agency": "Department of Public Works",
    "final_address": "4323 Chestnut St",
    "address_councildis": "B",
    "status": "Assigned to Contractor",
    "contractor": "Legacy Professional Services",
    "rowid": "1076907",
    "final_x": "3671187.35508",
    "final_y": "519581.33292",
    "longitude": "-90.10103944403296",
    "latitude": "29.922977310352888",
    "geocoded_column": {
      "latitude": "29.922977310352888",
      "longitude": "-90.10103944403296"
    }
  },
  {
    "service_request": "2024-1076906",
    "request_type": "Abandoned Vehicles",
    "request_reason": "Abandoned/Junk Vehicles",
    "date_created": "2024-03-19T14:01:06.000",
    "date_modified": "2024-03-19T14:01:06.000",
    "request_status": "Pending",
    "responsible_agency": "Department of Public Works",
    "final_address": "500 S Scott St",
    "address_councildis": "B",
    "status": "Pending",
    "rowid": "1076906",
    "final_x": "3670824.25217",
    "final_y": "536445.321479",
    "longitude": "-90.10161339299228",
    "latitude": "29.969358500070214",
    "geocoded_column": {
      "latitude": "29.969358500070214",
      "longitude": "-90.10161339299228"
    }
  },
  {
    "service_request": "2024-1076905",
    "request_type": "Property Maintenance",
    "request_reason": "Property Maintenance",
    "date_created": "2024-03-19T14:00:36.000",
    "date_modified": "2024-03-19T14:00:36.000",
    "request_status": "Pending",
    "responsible_agency": "Department of Code Enforcement",
    "final_address": "2849 Johnny Jackson Jr Blvd",
    "address_councildis": "D",
    "status": "Pending",
    "rowid": "1076905",
    "final_x": "3691416.59958",
    "final_y": "543010.833485",
    "longitude": "-90.03634668913419",
    "latitude": "29.986786594922606",
    "geocoded_column": {
      "latitude": "29.986786594922606",
      "longitude": "-90.03634668913419"
    }
  },
  {
    "service_request": "2024-1076904",
    "request_type": "Roads/Drainage",
    "request_reason": "Catch Basin - Clogged",
    "date_created": "2024-03-19T14:00:28.000",
    "date_modified": "2024-03-19T14:00:28.000",
    "request_status": "Pending",
    "responsible_agency": "Department of Public Works",
    "final_address": "6207 Perrier St",
    "address_councildis": "A",
    "status": "Pending",
    "rowid": "1076904",
    "final_x": "3664170.43168",
    "final_y": "520928.168825",
    "longitude": "-90.12314434073598",
    "latitude": "29.92688632213094",
    "geocoded_column": {
      "latitude": "29.92688632213094",
      "longitude": "-90.12314434073598"
    }
  },
  {
    "service_request": "2024-1076903",
    "request_type": "Parks & Parkways",
    "request_reason": "Request Tree Service (Right of Way/Public Property)",
    "date_created": "2024-03-19T13:58:44.000",
    "date_modified": "2024-03-19T13:58:44.000",
    "request_status": "Pending",
    "responsible_agency": "Department of Parks & Parkway",
    "final_address": "4952 Kendall Dr",
    "address_councildis": "D",
    "status": "Pending",
    "rowid": "1076903",
    "final_x": "3690166.35177",
    "final_y": "551824.589462",
    "longitude": "-90.0399815132846",
    "latitude": "30.01106006951715",
    "geocoded_column": {
      "latitude": "30.01106006951715",
      "longitude": "-90.0399815132846"
    }
  },
  {
    "service_request": "2024-1076902",
    "request_type": "Traffic Signals/Signs/Striping/Streetlights",
    "request_reason": "Traffic Sign Missing/Damaged",
    "date_created": "2024-03-19T13:58:37.000",
    "date_modified": "2024-03-19T13:58:38.000",
    "request_status": "Pending",
    "responsible_agency": "Department of Public Works",
    "final_address": "GENERAL DE GAULLE DR & KABEL DR",
    "address_councildis": "C",
    "status": "Pending",
    "rowid": "1076902",
    "final_x": "3700602.7",
    "final_y": "517489.68",
    "longitude": "-90.00826359187937",
    "latitude": "29.916323357455582",
    "geocoded_column": {
      "latitude": "29.916323357455582",
      "longitude": "-90.00826359187937"
    }
  },
  {
    "service_request": "2024-1076901",
    "request_type": "Roads/Drainage",
    "request_reason": "Pothole",
    "date_created": "2024-03-19T13:58:08.000",
    "date_modified": "2024-03-19T13:58:08.000",
    "request_status": "Pending",
    "responsible_agency": "Department of Public Works",
    "final_address": "7400 Freret St, New Orleans, Louisiana, 70118",
    "address_councildis": "A",
    "status": "Pending",
    "rowid": "1076901",
    "final_x": "3663199.31706",
    "final_y": "526259.013118",
    "longitude": "-90.12603259958138",
    "latitude": "29.94157262481918",
    "geocoded_column": {
      "latitude": "29.94157262481918",
      "longitude": "-90.12603259958138"
    }
  },
  {
    "service_request": "2024-1076900",
    "request_type": "Abandoned Vehicles",
    "request_reason": "Vehicle Blocking Your Driveway",
    "date_created": "2024-03-19T13:56:38.000",
    "date_modified": "2024-03-19T13:56:38.000",
    "request_status": "Pending",
    "responsible_agency": "Department of Public Works",
    "final_address": "6070 St Anthony Ave",
    "address_councildis": "D",
    "status": "Pending",
    "rowid": "1076900",
    "final_x": "3681891.82754",
    "final_y": "555235.560857",
    "longitude": "-90.06600482337949",
    "latitude": "30.020693212861428",
    "geocoded_column": {
      "latitude": "30.020693212861428",
      "longitude": "-90.06600482337949"
    }
  },
  {
    "service_request": "2024-1076899",
    "request_type": "Abandoned Vehicles",
    "request_reason": "Abandoned/Junk Vehicles",
    "date_created": "2024-03-19T13:56:35.000",
    "date_modified": "2024-03-19T13:56:35.000",
    "request_status": "Pending",
    "responsible_agency": "Department of Public Works",
    "final_address": "5549 Providence Pl",
    "address_councildis": "D",
    "status": "Inspected",
    "rowid": "1076899",
    "final_x": "3688387.90057",
    "final_y": "553833.938327",
    "longitude": "-90.04552898584092",
    "latitude": "30.016640114423687",
    "geocoded_column": {
      "latitude": "30.016640114423687",
      "longitude": "-90.04552898584092"
    }
  },
  {
    "service_request": "2024-1076898",
    "request_type": "Traffic Signals/Signs/Striping/Streetlights",
    "request_reason": "Crosswalks and Signage",
    "date_created": "2024-03-19T13:56:29.000",
    "date_modified": "2024-03-19T13:56:29.000",
    "request_status": "Pending",
    "responsible_agency": "Department of Public Works",
    "final_address": "1135 Henry Clay Ave",
    "address_councildis": "A",
    "status": "Pending",
    "rowid": "1076898",
    "final_x": "3664328.40576",
    "final_y": "520776.845369",
    "longitude": "-90.12265070344512",
    "latitude": "29.926465641530474",
    "geocoded_column": {
      "latitude": "29.926465641530474",
      "longitude": "-90.12265070344512"
    }
  },
  {
    "service_request": "2024-1076897",
    "request_type": "Abandoned Vehicles",
    "request_reason": "Abandoned/Junk Vehicles",
    "date_created": "2024-03-19T13:49:33.000",
    "date_modified": "2024-03-19T13:49:33.000",
    "request_status": "Pending",
    "responsible_agency": "Department of Public Works",
    "final_address": "1400 BLK Thalia St",
    "address_councildis": "B",
    "status": "Pending",
    "rowid": "1076897",
    "final_x": "3679952.37169",
    "final_y": "525427.949916",
    "longitude": "-90.07316873129828",
    "latitude": "29.93879148264581",
    "geocoded_column": {
      "latitude": "29.93879148264581",
      "longitude": "-90.07316873129828"
    }
  },
  {
    "service_request": "2024-1076895",
    "request_type": "Trash/Recycling",
    "request_reason": "Request a Large Item Pick Up",
    "date_created": "2024-03-19T13:46:36.000",
    "date_modified": "2024-03-19T14:18:43.000",
    "case_close_date": "2024-03-19T09:18:43.000",
    "request_status": "Closed",
    "responsible_agency": "Department of Sanitation",
    "final_address": "6450 Argonne Blvd, New Orleans, Louisiana, 70124",
    "address_councildis": "A",
    "status": "Assigned to Contractor",
    "contractor": "IV Waste",
    "contractor_action": "Completed",
    "rowid": "1076895",
    "final_x": "3670362.71316",
    "final_y": "550329.97794",
    "longitude": "-90.10259999781404",
    "latitude": "30.0075501763571",
    "geocoded_column": {
      "latitude": "30.0075501763571",
      "longitude": "-90.10259999781404"
    }
  },
  {
    "service_request": "2024-1076894",
    "request_type": "Abandoned Vehicles",
    "request_reason": "Abandoned/Junk Vehicles",
    "date_created": "2024-03-19T13:45:29.000",
    "date_modified": "2024-03-19T13:45:29.000",
    "request_status": "Pending",
    "responsible_agency": "Department of Public Works",
    "final_address": "3453 Annunciation St",
    "address_councildis": "B",
    "status": "Pending",
    "rowid": "1076894",
    "final_x": "3674996.86363",
    "final_y": "518472.262326",
    "longitude": "-90.08905230766119",
    "latitude": "29.91981452021576",
    "geocoded_column": {
      "latitude": "29.91981452021576",
      "longitude": "-90.08905230766119"
    }
  },
  {
    "service_request": "2024-1076893",
    "request_type": "Trash/Recycling",
    "request_reason": "Order Trash Cart",
    "date_created": "2024-03-19T13:43:12.000",
    "date_modified": "2024-03-19T13:43:13.000",
    "request_status": "Pending",
    "responsible_agency": "Department of Sanitation",
    "final_address": "2685 Verbena St",
    "address_councildis": "D",
    "status": "Assigned to Contractor",
    "contractor": "IV Waste",
    "rowid": "1076893",
    "final_x": "3687688.87395",
    "final_y": "547932.689426",
    "longitude": "-90.04794676932302",
    "latitude": "30.000435422313522",
    "geocoded_column": {
      "latitude": "30.000435422313522",
      "longitude": "-90.04794676932302"
    }
  },
  {
    "service_request": "2024-1076892",
    "request_type": "Trash/Recycling",
    "request_reason": "Request a Large Item Pick Up",
    "date_created": "2024-03-19T13:40:15.000",
    "date_modified": "2024-03-19T13:40:16.000",
    "request_status": "Pending",
    "responsible_agency": "Department of Sanitation",
    "final_address": "1727 Tupelo St",
    "address_councildis": "E",
    "status": "Assigned to Contractor",
    "contractor": "Waste Pro",
    "rowid": "1076892",
    "final_x": "3700472.50724",
    "final_y": "535617.071494",
    "longitude": "-90.00801273498192",
    "latitude": "29.966171477915584",
    "geocoded_column": {
      "latitude": "29.966171477915584",
      "longitude": "-90.00801273498192"
    }
  },
  {
    "service_request": "2024-1076891",
    "request_type": "Roads/Drainage",
    "request_reason": "Accessibility Ramps, Curbs and Sidewalk Repair",
    "date_created": "2024-03-19T13:39:43.000",
    "date_modified": "2024-03-19T13:39:44.000",
    "request_status": "Pending",
    "responsible_agency": "Department of Public Works",
    "final_address": "4780 De Montluzin St",
    "address_councildis": "D",
    "status": "Pending",
    "rowid": "1076891",
    "final_x": "3687054.16354",
    "final_y": "550911.954709",
    "longitude": "-90.04984643158691",
    "latitude": "30.0086468810593",
    "geocoded_column": {
      "latitude": "30.0086468810593",
      "longitude": "-90.04984643158691"
    }
  },
  {
    "service_request": "2024-1076890",
    "request_type": "Roads/Drainage",
    "request_reason": "Catch Basin - Clogged",
    "date_created": "2024-03-19T13:39:06.000",
    "date_modified": "2024-03-19T13:39:06.000",
    "request_status": "Pending",
    "responsible_agency": "Department of Public Works",
    "final_address": "81 Neron Pl",
    "address_councildis": "A",
    "status": "Pending",
    "rowid": "1076890",
    "final_x": "3666098.25524",
    "final_y": "529983.516417",
    "longitude": "-90.1167551885446",
    "latitude": "29.95172950042253",
    "geocoded_column": {
      "latitude": "29.95172950042253",
      "longitude": "-90.1167551885446"
    }
  },
  {
    "service_request": "2024-1076889",
    "request_type": "Trash/Recycling",
    "request_reason": "Request a Large Item Pick Up",
    "date_created": "2024-03-19T13:37:58.000",
    "date_modified": "2024-03-19T13:37:59.000",
    "request_status": "Pending",
    "responsible_agency": "Department of Sanitation",
    "final_address": "7111 Whitmore Pl",
    "address_councildis": "E",
    "status": "Assigned to Contractor",
    "contractor": "Waste Pro",
    "rowid": "1076889",
    "final_x": "3718795.75474",
    "final_y": "569616.507686",
    "longitude": "-89.94885175578489",
    "latitude": "30.059061026343468",
    "geocoded_column": {
      "latitude": "30.059061026343468",
      "longitude": "-89.94885175578489"
    }
  },
  {
    "service_request": "2024-1076888",
    "request_type": "Trash/Recycling",
    "request_reason": "Repair Trash Cart",
    "date_created": "2024-03-19T13:34:11.000",
    "date_modified": "2024-03-19T13:34:12.000",
    "request_status": "Pending",
    "responsible_agency": "Department of Sanitation",
    "final_address": "1679 Jo Ann Pl",
    "address_councildis": "C",
    "status": "Assigned to Contractor",
    "contractor": "Richards Disposal",
    "rowid": "1076888",
    "final_x": "3694893.20579",
    "final_y": "524757.778044",
    "longitude": "-90.02602321923328",
    "latitude": "29.93648847204947",
    "geocoded_column": {
      "latitude": "29.93648847204947",
      "longitude": "-90.02602321923328"
    }
  },