[
  {
    "service_request": "2023-1009571",
    "request_type": "Trash/Recycling",
    "request_reason": "Order Recycling Cart",
    "date_created": "2023-06-19T01:10:17.000",
    "date_modified": "2023-06-19T01:10:17.000",
    "request_status": "Pending",
    "responsible_agency": "Department of Sanitation",
    "final_address": "2652 Orleans Ave",
    "address_councildis": "D",
    "status": "Pending",
    "rowid": "1009571",
    "final_x": "3676857.22241",
    "final_y": "536871.746184",
    "longitude": "-90.08254608498291",
    "latitude": "29.970351324460935",
    "geocoded_column": {
      "latitude": "29.970351324460935",
      "longitude": "-90.08254608498291"
    }
  },
  {
    "service_request": "2023-1009570",
    "request_type": "Roads/Drainage",
    "request_reason": "Pothole",
    "date_created": "2023-06-18T23:59:12.000",
    "date_modified": "2023-06-18T23:59:13.000",
    "request_status": "Pending",
    "responsible_agency": "Department of Public Works",
    "final_address": "5600 BLK Danneel St",
    "address_councildis": "A",
    "status": "Pending",
    "rowid": "1009570",
    "final_x": "3666779.53058",
    "final_y": "522471.736996",
    "longitude": "-90.11485626141044",
    "latitude": "29.9310546165781",
    "geocoded_column": {
      "latitude": "29.9310546165781",
      "longitude": "-90.11485626141044"
    }
  },
  {
    "service_request": "2023-1009569",
    "request_type": "Trash/Recycling",
    "request_reason": "Order Recycling Cart",
    "date_created": "2023-06-18T23:10:55.000",
    "date_modified": "2023-06-18T23:10:55.000",
    "request_status": "Pending",
    "responsible_agency": "Department of Sanitation",
    "final_address": "7613 Poitevent Ave",
    "address_councildis": "E",
    "status": "Pending",
    "rowid": "1009569",
    "final_x": "3707024.39403",
    "final_y": "564133.426721",
    "longitude": "-89.98626351736839",
    "latitude": "30.044370578504644",
    "geocoded_column": {
      "latitude": "30.044370578504644",
      "longitude": "-89.98626351736839"
    }
  },
  {
    "service_request": "2023-1009568",
    "request_type": "Tax and Revenue",
    "request_reason": "Occupational License Tax",
    "date_created": "2023-06-18T23:09:08.000",
    "date_modified": "2023-06-18T23:09:08.000",
    "request_status": "Pending",
    "responsible_agency": "Bureau of Revenue",
    "final_address": "1139 St Bernard Ave",
    "address_councildis": "C",
    "status": "Pending",
    "rowid": "1009568",
    "final_x": "3683182.77832",
    "final_y": "536033.897031",
    "longitude": "-90.06259865177628",
    "latitude": "29.967856151484312",
    "geocoded_column": {
      "latitude": "29.967856151484312",
      "longitude": "-90.06259865177628"
    }
  },
  {
    "service_request": "2023-1009567",
    "request_type": "Safety & Permits",
    "request_reason": "Licenses & Permits",
    "date_created": "2023-06-18T23:07:39.000",
    "date_modified": "2023-06-18T23:07:39.000",
    "request_status": "Pending",
    "responsible_agency": "Safety and Permits",
    "final_address": "1139 St Bernard Ave",
    "address_councildis": "C",
    "status": "Pending",
    "rowid": "1009567",
    "final_x": "3683182.77832",
    "final_y": "536033.897031",
    "longitude": "-90.06259865177628",
    "latitude": "29.967856151484312",
    "geocoded_column": {
      "latitude": "29.967856151484312",
      "longitude": "-90.06259865177628"
    }
  },
  {
    "service_request": "2023-1009566",
    "request_type": "Health Related Request",
    "request_reason": "Noise Ordinance Complaint",
    "date_created": "2023-06-18T23:05:10.000",
    "date_modified": "2023-06-18T23:05:10.000",
    "request_status": "Pending",
    "responsible_agency": "Health Department",
    "final_address": "1139 St Bernard Ave",
    "address_councildis": "C",
    "status": "Pending",
    "rowid": "1009566",
    "final_x": "3683182.77832",
    "final_y": "536033.897031",
    "longitude": "-90.06259865177628",
    "latitude": "29.967856151484312",
    "geocoded_column": {
      "latitude": "29.967856151484312",
      "longitude": "-90.06259865177628"
    }
  },
  {
    "service_request": "2023-1009565",
    "request_type": "Traffic Signals/Signs/Striping/Streetlights",
    "request_reason": "Street Light Outage/Malfunction",
    "date_created": "2023-06-18T22:52:37.000",
    "date_modified": "2023-06-18T22:52:38.000",
    "request_status": "Pending",
    "responsible_agency": "Department of Public Works",
    "final_address": "4233 Ulloa St",
    "address_councildis": "A",
    "status": "Assigned to Contractor",
    "contractor": "Legacy Professional Services",
    "rowid": "1009565",
    "final_x": "3668984.03092",
    "final_y": "537053.460488",
    "longitude": "-90.10740442617896",
    "latitude": "29.971084942823826",
    "geocoded_column": {
      "latitude": "29.971084942823826",
      "longitude": "-90.10740442617896"
    }
  },
  {
    "service_request": "2023-1009564",
    "request_type": "Roads/Drainage",
    "request_reason": "Catch Basin - Clogged",
    "date_created": "2023-06-18T22:19:45.000",
    "date_modified": "2023-06-18T22:19:45.000",
    "request_status": "Pending",
    "responsible_agency": "Department of Public Works",
    "final_address": "7501 Hickman St",
    "address_councildis": "E",
    "status": "Pending",
    "rowid": "1009564",
    "final_x": "3706420.44407",
    "final_y": "562972.875488",
    "longitude": "-89.9882153149863",
    "latitude": "30.041199032522098",
    "geocoded_column": {
      "latitude": "30.041199032522098",
      "longitude": "-89.9882153149863"
    }
  },
  {
    "service_request": "2023-1009563",
    "request_type": "Health Related Request",
    "request_reason": "Noise Ordinance Complaint",
    "date_created": "2023-06-18T22:17:57.000",
    "date_modified": "2023-06-18T22:17:57.000",
    "request_status": "Pending",
    "responsible_agency": "Health Department",
    "final_address": "600 BLK N Broad St",
    "address_councildis": "D",
    "status": "Pending",
    "rowid": "1009563",
    "final_x": "3676411.44045",
    "final_y": "536496.197136",
    "longitude": "-90.08396684646866",
    "latitude": "29.96933206503225",
    "geocoded_column": {
      "latitude": "29.96933206503225",
      "longitude": "-90.08396684646866"
    }
  },
  {
    "service_request": "2023-1009561",
    "request_type": "Trash/Recycling",
    "request_reason": "Request a Large Item Pick Up",
    "date_created": "2023-06-18T21:57:35.000",
    "date_modified": "2023-06-18T21:57:36.000",
    "request_status": "Pending",
    "responsible_agency": "Department of Sanitation",
    "final_address": "3203 Bienville Ave",
    "address_councildis": "B",
    "status": "Assigned to Contractor",
    "contractor": "Richards Disposal",
    "rowid": "1009561",
    "final_x": "3674349.25672",
    "final_y": "536946.527432",
    "longitude": "-90.090463966474",
    "latitude": "29.970631985728392",
    "geocoded_column": {
      "latitude": "29.970631985728392",
      "longitude": "-90.090463966474"
    }
  },
  {
    "service_request": "2023-1009560",
    "request_type": "Parks & Parkways",
    "request_reason": "Request Tree Service (Right of Way/Public Property)",
    "date_created": "2023-06-18T21:44:56.000",
    "date_modified": "2023-06-18T21:44:56.000",
    "request_status": "Pending",
    "responsible_agency": "Department of Parks & Parkway",
    "final_address": "3245 Calhoun St",
    "address_councildis": "A",
    "status": "Pending",
    "rowid": "1009560",
    "final_x": "3667440.38049",
    "final_y": "528730.355584",
    "longitude": "-90.11255954185555",
    "latitude": "29.94824446546456",
    "geocoded_column": {
      "latitude": "29.94824446546456",
      "longitude": "-90.11255954185555"
    }
  },
  {
    "service_request": "2023-1009559",
    "request_type": "Trash/Recycling",
    "request_reason": "MIssed Recycling Pick-Up",
    "date_created": "2023-06-18T21:38:29.000",
    "date_modified": "2023-06-18T21:38:30.000",
    "request_status": "Pending",
    "responsible_agency": "Department of Sanitation",
    "final_address": "425 S White St",
    "address_councildis": "B",
    "status": "Assigned to Contractor",
    "contractor": "Richards Disposal",
    "rowid": "1009559",
    "final_x": "3673937.32744",
    "final_y": "534339.043717",
    "longitude": "-90.09185411088967",
    "latitude": "29.963474564369214",
    "geocoded_column": {
      "latitude": "29.963474564369214",
      "longitude": "-90.09185411088967"
    }
  },
  {
    "service_request": "2023-1009558",
    "request_type": "Taxi Issues",
    "request_reason": "Taxi Lost & Found Item",
    "date_created": "2023-06-18T21:26:39.000",
    "date_modified": "2023-06-18T21:26:40.000",
    "request_status": "Pending",
    "responsible_agency": "Ground Transportation Bureau",
    "final_address": "130 Roosevelt Way",
    "address_councildis": "B",
    "status": "Pending",
    "rowid": "1009558",
    "final_x": "3680098.32175",
    "final_y": "531043.278402",
    "longitude": "-90.07251287919232",
    "latitude": "29.954227343254153",
    "geocoded_column": {
      "latitude": "29.954227343254153",
      "longitude": "-90.07251287919232"
    }
  },
  {
    "service_request": "2023-1009557",
    "request_type": "Trash/Recycling",
    "request_reason": "Request a Large Item Pick Up",
    "date_created": "2023-06-18T21:06:53.000",
    "date_modified": "2023-06-18T21:06:54.000",
    "request_status": "Pending",
    "responsible_agency": "Department of Sanitation",
    "final_address": "2817 Broadway St",
    "address_councildis": "B",
    "status": "Assigned to Contractor",
    "contractor": "Richards Disposal",
    "rowid": "1009557",
    "final_x": "3667401.17165",
    "final_y": "531361.03533",
    "longitude": "-90.11259484991487",
    "latitude": "29.955479125441872",
    "geocoded_column": {
      "latitude": "29.955479125441872",
      "longitude": "-90.11259484991487"
    }
  },
  {
    "service_request": "2023-1009556",
    "request_type": "Abandoned Vehicles",
    "request_reason": "Abandoned/Junk Vehicles",
    "date_created": "2023-06-18T21:04:06.000",
    "date_modified": "2023-06-18T21:04:06.000",
    "request_status": "Pending",
    "responsible_agency": "Department of Public Works",
    "final_address": "2129 Clara St",
    "address_councildis": "B",
    "status": "Pending",
    "rowid": "1009556",
    "final_x": "3675118.71451",
    "final_y": "527170.438911",
    "longitude": "-90.08836937314535",
    "latitude": "29.94372804043218",
    "geocoded_column": {
      "latitude": "29.94372804043218",
      "longitude": "-90.08836937314535"
    }
  },
  {
    "service_request": "2023-1009555",
    "request_type": "Traffic Signals/Signs/Striping/Streetlights",
    "request_reason": "Street Light Outage/Malfunction",
    "date_created": "2023-06-18T20:59:49.000",
    "date_modified": "2023-06-18T20:59:50.000",
    "request_status": "Pending",
    "responsible_agency": "Department of Public Works",
    "final_address": "530 Ptolemy St",
    "address_councildis": "C",
    "status": "Assigned to Contractor",
    "contractor": "Legacy Professional Services",
    "rowid": "1009555",
    "final_x": "3687422.38991",
    "final_y": "526103.727166",
    "longitude": "-90.04956120709441",
    "latitude": "29.94042163369699",
    "geocoded_column": {
      "latitude": "29.94042163369699",
      "longitude": "-90.04956120709441"
    }
  },
  {
    "service_request": "2023-1009554",
    "request_type": "Property Maintenance",
    "request_reason": "Property Maintenance",
    "date_created": "2023-06-18T20:32:50.000",
    "date_modified": "2023-06-18T20:32:50.000",
    "request_status": "Pending",
    "responsible_agency": "Department of Code Enforcement",
    "final_address": "6679 Avenue B",
    "address_councildis": "A",
    "status": "Pending",
    "rowid": "1009554",
    "final_x": "3665822.43431",
    "final_y": "552567.972566",
    "longitude": "-90.11686903995401",
    "latitude": "30.013837190631925",
    "geocoded_column": {
      "latitude": "30.013837190631925",
      "longitude": "-90.11686903995401"
    }
  },
  {
    "service_request": "2023-1009553",
    "request_type": "Trash/Recycling",
    "request_reason": "Order Recycling Cart",
    "date_created": "2023-06-18T20:01:06.000",
    "date_modified": "2023-06-18T20:01:06.000",
    "request_status": "Pending",
    "responsible_agency": "Department of Sanitation",
    "final_address": "443 Philip St",
    "address_councildis": "B",
    "status": "Pending",
    "rowid": "1009553",
    "final_x": "3680046.79151",
    "final_y": "519938.3294",
    "longitude": "-90.0730612591802",
    "latitude": "29.923693975765023",
    "geocoded_column": {
      "latitude": "29.923693975765023",
      "longitude": "-90.0730612591802"
    }
  },
  {
    "service_request": "2023-1009552",
    "request_type": "Trash/Recycling",
    "request_reason": "Order Recycling Cart",
    "date_created": "2023-06-18T19:59:37.000",
    "date_modified": "2023-06-18T19:59:37.000",
    "request_status": "Pending",
    "responsible_agency": "Department of Sanitation",
    "final_address": "443 Philip St",
    "address_councildis": "B",
    "status": "Pending",
    "rowid": "1009552",
    "final_x": "3680046.79151",
    "final_y": "519938.3294",
    "longitude": "-90.0730612591802",
    "latitude": "29.923693975765023",
    "geocoded_column": {
      "latitude": "29.923693975765023",
      "longitude": "-90.0730612591802"
    }
  },
  {
    "service_request": "2023-1009551",
    "request_type": "Roads/Drainage",
    "request_reason": "Catch Basin - Broken/Damage",
    "date_created": "2023-06-18T19:53:18.000",
    "date_modified": "2023-06-18T19:53:18.000",
    "request_status": "Pending",
    "responsible_agency": "Department of Public Works",
    "final_address": "6240 Memphis St",
    "address_councildis": "A",
    "status": "Pending",
    "rowid": "1009551",
    "final_x": "3669270.08122",
    "final_y": "548941.906963",
    "longitude": "-90.10609891516108",
    "latitude": "30.003765690098582",
    "geocoded_column": {
      "latitude": "30.003765690098582",
      "longitude": "-90.10609891516108"
    }
  },
  {
    "service_request": "2023-1009550",
    "request_type": "Property Maintenance",
    "request_reason": "Property Maintenance",
    "date_created": "2023-06-18T19:47:32.000",
    "date_modified": "2023-06-18T19:47:32.000",
    "request_status": "Pending",
    "responsible_agency": "Department of Code Enforcement",
    "final_address": "3919 Dryades St",
    "address_councildis": "B",
    "status": "Pending",
    "rowid": "1009550",
    "final_x": "3672239.67873",
    "final_y": "522128.266362",
    "longitude": "-90.09763095845628",
    "latitude": "29.929949400023155",
    "geocoded_column": {
      "latitude": "29.929949400023155",
      "longitude": "-90.09763095845628"
    }
  },
  {
    "service_request": "2023-1009549",
    "request_type": "Traffic Signals/Signs/Striping/Streetlights",
    "request_reason": "Street Light Outage/Malfunction",
    "date_created": "2023-06-18T19:42:58.000",
    "date_modified": "2023-06-18T19:42:59.000",
    "request_status": "Pending",
    "responsible_agency": "Department of Public Works",
    "final_address": "2808 St Claude Ave",
    "address_councildis": "C",
    "status": "Assigned to Contractor",
    "contractor": "Legacy Professional Services",
    "rowid": "1009549",
    "final_x": "3687794.43516",
    "final_y": "536265.975559",
    "longitude": "-90.048026713356",
    "latitude": "29.96835285436863",
    "geocoded_column": {
      "latitude": "29.96835285436863",
      "longitude": "-90.048026713356"
    }
  },
  {
    "service_request": "2023-1009548",
    "request_type": "Trash/Recycling",
    "request_reason": "Request a Large Item Pick Up",
    "date_created": "2023-06-18T19:39:22.000",
    "date_modified": "2023-06-18T19:39:22.000",
    "request_status": "Pending",
    "responsible_agency": "Department of Sanitation",
    "final_address": "423 26th St, New Orleans, Louisiana, 70124",
    "address_councildis": "A",
    "status": "Assigned to Contractor",
    "contractor": "IV Waste",
    "rowid": "1009548",
    "final_x": "3664658.17197",
    "final_y": "550025.432532",
    "longitude": "-90.1206325463129",
    "latitude": "30.00688002404691",
    "geocoded_column": {
      "latitude": "30.00688002404691",
      "longitude": "-90.1206325463129"
    }
  },
  {
    "service_request": "2023-1009547",
    "request_type": "Trash/Recycling",
    "request_reason": "Request a Large Item Pick Up",
    "date_created": "2023-06-18T19:34:51.000",
    "date_modified": "2023-06-18T19:34:51.000",
    "request_status": "Pending",
    "responsible_agency": "Department of Sanitation",
    "final_address": "822 Jena St",
    "address_councildis": "B",
    "status": "Assigned to Contractor",
    "contractor": "Richards Disposal",
    "rowid": "1009547",
    "final_x": "3670636.04039",
    "final_y": "518561.896055",
    "longitude": "-90.10281429248332",
    "latitude": "29.92019047439104",
    "geocoded_column": {
      "latitude": "29.92019047439104",
      "longitude": "-90.10281429248332"
    }
  },
  {
    "service_request": "2023-1009544",
    "request_type": "Trash/Recycling",
    "request_reason": "Request a Large Item Pick Up",
    "date_created": "2023-06-18T19:08:32.000",
    "date_modified": "2023-06-18T19:08:32.000",
    "request_status": "Pending",
    "responsible_agency": "Department of Sanitation",
    "final_address": "237 Adams St",
    "address_councildis": "A",
    "status": "Assigned to Contractor",
    "contractor": "Richards Disposal",
    "rowid": "1009544",
    "final_x": "3660917.43552",
    "final_y": "524980.091837",
    "longitude": "-90.13327928222685",
    "latitude": "29.938121908461333",
    "geocoded_column": {
      "latitude": "29.938121908461333",
      "longitude": "-90.13327928222685"
    }
  },
  {
    "service_request": "2023-1009543",
    "request_type": "Trash/Recycling",
    "request_reason": "Request a Large Item Pick Up",
    "date_created": "2023-06-18T17:59:55.000",
    "date_modified": "2023-06-18T17:59:56.000",
    "request_status": "Pending",
    "responsible_agency": "Department of Sanitation",
    "final_address": "5535 S Claiborne Ave",
    "address_councildis": "A",
    "status": "Assigned to Contractor",
    "contractor": "Richards Disposal",
    "rowid": "1009543",
    "final_x": "3667920.75892",
    "final_y": "526803.48755",
    "longitude": "-90.11110767977765",
    "latitude": "29.942932121616217",
    "geocoded_column": {
      "latitude": "29.942932121616217",
      "longitude": "-90.11110767977765"
    }
  },
  {
    "service_request": "2023-1009542",
    "request_type": "Mosquito, Termite & Rodent Control",
    "request_reason": "Non-Rodent Complaint (Mice, Possums, Snakes)",
    "date_created": "2023-06-18T17:55:07.000",
    "date_modified": "2023-06-18T17:55:07.000",
    "request_status": "Pending",
    "responsible_agency": "Mosquito, Termite & Rodent Control Board",
    "final_address": "2629 Upperline St",
    "address_councildis": "B",
    "status": "Pending",
    "rowid": "1009542",
    "final_x": "3669222.87905",
    "final_y": "524510.542204",
    "longitude": "-90.10707403332556",
    "latitude": "29.93658900757433",
    "geocoded_column": {
      "latitude": "29.93658900757433",
      "longitude": "-90.10707403332556"
    }
  },
  {
    "service_request": "2023-1009541",
    "request_type": "Trash/Recycling",
    "request_reason": "Request a Large Item Pick Up",
    "date_created": "2023-06-18T17:33:00.000",
    "date_modified": "2023-06-18T17:33:01.000",
    "request_status": "Pending",
    "responsible_agency": "Department of Sanitation",
    "final_address": "1510 Paul Morphy St, New Orleans, Louisiana, 70119",
    "address_councildis": "D",
    "status": "Assigned to Contractor",
    "contractor": "IV Waste",
    "rowid": "1009541",
    "final_x": "3678458.88648",
    "final_y": "539887.536458",
    "longitude": "-90.07738345829046",
    "latitude": "29.97859553929219",
    "geocoded_column": {
      "latitude": "29.97859553929219",
      "longitude": "-90.07738345829046"
    }
  },
  {
    "service_request": "2023-1009540",
    "request_type": "Abandoned Vehicles",
    "request_reason": "Abandoned/Junk Vehicles",
    "date_created": "2023-06-18T17:15:30.000",
    "date_modified": "2023-06-18T17:15:30.000",
    "request_status": "Pending",
    "responsible_agency": "Department of Public Works",
    "final_address": "100 BLK Smith St",
    "address_councildis": "A",
    "status": "Pending",
    "rowid": "1009540",
    "final_x": "3666908.90138",
    "final_y": "551280.486465",
    "longitude": "-90.113479654309",
    "latitude": "30.01026529460573",
    "geocoded_column": {
      "latitude": "30.01026529460573",
      "longitude": "-90.113479654309"
    }
  },
  {
    "service_request": "2023-1009539",
    "request_type": "Trash/Recycling",
    "request_reason": "Replace Trash Cart",
    "date_created": "2023-06-18T16:59:16.000",
    "date_modified": "2023-06-18T16:59:17.000",
    "request_status": "Pending",
    "responsible_agency": "Department of Sanitation",
    "final_address": "11007 N Hardy St",
    "address_councildis": "E",
    "status": "Assigned to Contractor",
    "contractor": "Waste Pro",
    "rowid": "1009539",
    "final_x": "3712885.9475",
    "final_y": "562386.092703",
    "longitude": "-89.96780435241944",
    "latitude": "30.039375336098704",
    "geocoded_column": {
      "latitude": "30.039375336098704",
      "longitude": "-89.96780435241944"
    }
  },
  {
    "service_request": "2023-1009538",
    "request_type": "Traffic Signals/Signs/Striping/Streetlights",
    "request_reason": "Street Light Outage/Malfunction",
    "date_created": "2023-06-18T16:33:52.000",
    "date_modified": "2023-06-18T16:33:54.000",
    "request_status": "Pending",
    "responsible_agency": "Department of Public Works",
    "final_address": "44 Yosemite Dr",
    "address_councildis": "C",
    "status": "Assigned to Contractor",
    "contractor": "Legacy Professional Services",
    "rowid": "1009538",
    "final_x": "3700015.00663",
    "final_y": "516968.635125",
    "longitude": "-90.01013756761661",
    "latitude": "29.914909335566335",
    "geocoded_column": {
      "latitude": "29.914909335566335",
      "longitude": "-90.01013756761661"
    }
  },
  {
    "service_request": "2023-1009537",
    "request_type": "Abandoned Vehicles",
    "request_reason": "Abandoned/Junk Vehicles",
    "date_created": "2023-06-18T16:21:45.000",
    "date_modified": "2023-06-18T16:21:45.000",
    "request_status": "Pending",
    "responsible_agency": "Department of Public Works",
    "final_address": "1819 N Broad St",
    "address_councildis": "D",
    "status": "Pending",
    "rowid": "1009537",
    "final_x": "3680041.274",
    "final_y": "541548.82382",
    "longitude": "-90.07232794959057",
    "latitude": "29.983115715498162",
    "geocoded_column": {
      "latitude": "29.983115715498162",
      "longitude": "-90.07232794959057"
    }
  },
  {
    "service_request": "2023-1009535",
    "request_type": "Abandoned Vehicles",
    "request_reason": "Abandoned/Junk Vehicles",
    "date_created": "2023-06-18T15:28:47.000",
    "date_modified": "2023-06-18T15:28:47.000",
    "request_status": "Pending",
    "responsible_agency": "Department of Public Works",
    "final_address": "200 N Alexander St, New Orleans, Louisiana, 70119",
    "address_councildis": "A",
    "status": "Pending",
    "rowid": "1009535",
    "final_x": "3670320.48129",
    "final_y": "539536.255946",
    "longitude": "-90.1030995415415",
    "latitude": "29.97787240894996",
    "geocoded_column": {
      "latitude": "29.97787240894996",
      "longitude": "-90.1030995415415"
    }
  },
  {
    "service_request": "2023-1009533",
    "request_type": "Safety & Permits",
    "request_reason": "Safety & Permits Request (Cyber Incident Back Up)",
    "date_created": "2023-06-18T13:30:22.000",
    "date_modified": "2023-06-18T13:30:22.000",
    "request_status": "Pending",
    "responsible_agency": "Safety and Permits",
    "final_address": "1432 Japonica St",
    "address_councildis": "D",
    "status": "Pending",
    "rowid": "1009533",
    "final_x": "3693977.52931",
    "final_y": "536232.585735",
    "longitude": "-90.02850150244653",
    "latitude": "29.96806888859753",
    "geocoded_column": {
      "latitude": "29.96806888859753",
      "longitude": "-90.02850150244653"
    }
  },
  {
    "service_request": "2023-1009531",
    "request_type": "Abandoned Vehicles",
    "request_reason": "Vehicle Blocking Your Driveway",
    "date_created": "2023-06-18T13:06:36.000",
    "date_modified": "2023-06-18T13:06:36.000",
    "request_status": "Pending",
    "responsible_agency": "Department of Public Works",
    "final_address": "829 Dublin St",
    "address_councildis": "A",
    "status": "Pending",
    "rowid": "1009531",
    "final_x": "3660953.80973",
    "final_y": "527736.278463",
    "longitude": "-90.13307329685153",
    "latitude": "29.945699499856417",
    "geocoded_column": {
      "latitude": "29.945699499856417",
      "longitude": "-90.13307329685153"
    }
  },
  {
    "service_request": "2023-1009530",
    "request_type": "Property Maintenance",
    "request_reason": "Property Maintenance",
    "date_created": "2023-06-18T12:57:29.000",
    "date_modified": "2023-06-18T12:57:29.000",
    "request_status": "Pending",
    "responsible_agency": "Department of Code Enforcement",
    "final_address": "3218 Pine St",
    "address_councildis": "B",
    "status": "Pending",
    "rowid": "1009530",
    "final_x": "3667996.71681",
    "final_y": "532815.437444",
    "longitude": "-90.11066532274532",
    "latitude": "29.959460793826242",
    "geocoded_column": {
      "latitude": "29.959460793826242",
      "longitude": "-90.11066532274532"
    }
  },
  {
    "service_request": "2023-1009529",
    "request_type": "Roads/Drainage",
    "request_reason": "Man hole cover issue",
    "date_created": "2023-06-18T12:50:52.000",
    "date_modified": "2023-06-18T12:50:52.000",
    "request_status": "Pending",
    "responsible_agency": "Department of Public Works",
    "final_address": "3312 Joliet St",
    "address_councildis": "A",
    "status": "Pending",
    "rowid": "1009529",
    "final_x": "3666005.53844",
    "final_y": "534986.193414",
    "longitude": "-90.11688024978044",
    "latitude": "29.96548792990083",
    "geocoded_column": {
      "latitude": "29.96548792990083",
      "longitude": "-90.11688024978044"
    }
  },
  {
    "service_request": "2023-1009528",
    "request_type": "Trash/Recycling",
    "request_reason": "Request a Large Item Pick Up",
    "date_created": "2023-06-18T12:41:20.000",
    "date_modified": "2023-06-18T12:41:20.000",
    "request_status": "Pending",
    "responsible_agency": "Department of Sanitation",
    "final_address": "721 Philip St",
    "address_councildis": "B",
    "status": "Assigned to Contractor",
    "contractor": "Richards Disposal",
    "rowid": "1009528",
    "final_x": "3679363.83279",
    "final_y": "520850.985081",
    "longitude": "-90.0751854768973",
    "latitude": "29.926224118259004",
    "geocoded_column": {
      "latitude": "29.926224118259004",
      "longitude": "-90.0751854768973"
    }
  },
  {
    "service_request": "2023-1009527",
    "request_type": "Traffic Signals/Signs/Striping/Streetlights",
    "request_reason": "Traffic Signal Malfunctioning/Damaged",
    "date_created": "2023-06-18T12:38:10.000",
    "date_modified": "2023-06-18T12:38:10.000",
    "request_status": "Pending",
    "responsible_agency": "Department of Public Works",
    "final_address": "GENERAL DE GAULLE DR & WESTBEND PKWY",
    "address_councildis": "C",
    "status": "Pending",
    "rowid": "1009527",
    "final_x": "3696463.6",
    "final_y": "520687.78",
    "longitude": "-90.02121258781013",
    "latitude": "29.92524801305741",
    "geocoded_column": {
      "latitude": "29.92524801305741",
      "longitude": "-90.02121258781013"
    }
  },
  {
    "service_request": "2023-1009526",
    "request_type": "Trash/Recycling",
    "request_reason": "Order Trash Cart",
    "date_created": "2023-06-18T12:37:05.000",
    "date_modified": "2023-06-18T12:37:06.000",
    "request_status": "Pending",
    "responsible_agency": "Department of Sanitation",
    "final_address": "1204 Race St",
    "address_councildis": "B",
    "status": "Assigned to Contractor",
    "contractor": "Richards Disposal",
    "rowid": "1009526",
    "final_x": "3679673.1748",
    "final_y": "523922.88742",
    "longitude": "-90.07410240552706",
    "latitude": "29.93466149822084",
    "geocoded_column": {
      "latitude": "29.93466149822084",
      "longitude": "-90.07410240552706"
    }
  },
  {
    "service_request": "2023-1009525",
    "request_type": "Trash/Recycling",
    "request_reason": "Repair Recycling Cart",
    "date_created": "2023-06-18T12:31:19.000",
    "date_modified": "2023-06-18T12:31:19.000",
    "request_status": "Pending",
    "responsible_agency": "Department of Sanitation",
    "final_address": "3405 Octavia St",
    "address_councildis": "A",
    "status": "Pending",
    "rowid": "1009525",
    "final_x": "3668543.35649",
    "final_y": "528105.886719",
    "longitude": "-90.10909804882809",
    "latitude": "29.946495021626706",
    "geocoded_column": {
      "latitude": "29.946495021626706",
      "longitude": "-90.10909804882809"
    }
  },
  {
    "service_request": "2023-1009524",
    "request_type": "Property Maintenance",
    "request_reason": "Property Maintenance",
    "date_created": "2023-06-18T12:19:11.000",
    "date_modified": "2023-06-18T12:19:11.000",
    "request_status": "Pending",
    "responsible_agency": "Department of Code Enforcement",
    "final_address": "3233 Montegut St",
    "address_councildis": "D",
    "status": "Pending",
    "rowid": "1009524",
    "final_x": "3690661.63004",
    "final_y": "544707.808271",
    "longitude": "-90.03867078756586",
    "latitude": "29.991476139999293",
    "geocoded_column": {
      "latitude": "29.991476139999293",
      "longitude": "-90.03867078756586"
    }
  },
  {
    "service_request": "2023-1009523",
    "request_type": "Trash/Recycling",
    "request_reason": "Request a Large Item Pick Up",
    "date_created": "2023-06-18T12:13:59.000",
    "date_modified": "2023-06-18T12:14:00.000",
    "request_status": "Pending",
    "responsible_agency": "Department of Sanitation",
    "final_address": "4219 Jena St",
    "address_councildis": "A",
    "status": "Assigned to Contractor",
    "contractor": "Richards Disposal",
    "rowid": "1009523",
    "final_x": "3669464.24378",
    "final_y": "529032.215808",
    "longitude": "-90.1061591485912",
    "latitude": "29.94901503855076",
    "geocoded_column": {
      "latitude": "29.94901503855076",
      "longitude": "-90.1061591485912"
    }
  },
  {
    "service_request": "2023-1009522",
    "request_type": "Trash/Recycling",
    "request_reason": "Request a Large Item Pick Up",
    "date_created": "2023-06-18T12:05:46.000",
    "date_modified": "2023-06-18T12:36:23.000",
    "request_status": "Pending",
    "responsible_agency": "Department of Sanitation",
    "final_address": "2509 Joseph St",
    "address_councildis": "A",
    "status": "Assigned to Contractor",
    "contractor": "Richards Disposal",
    "rowid": "1009522",
    "final_x": "3667607.26791",
    "final_y": "525216.626365",
    "longitude": "-90.11215084571305",
    "latitude": "29.938577955375134",
    "geocoded_column": {
      "latitude": "29.938577955375134",
      "longitude": "-90.11215084571305"
    }
  },
  {
    "service_request": "2023-1009521",
    "request_type": "Trash/Recycling",
    "request_reason": "Replace Trash Cart",
    "date_created": "2023-06-18T12:03:08.000",
    "date_modified": "2023-06-18T12:03:09.000",
    "request_status": "Pending",
    "responsible_agency": "Department of Sanitation",
    "final_address": "428 Wagner St",
    "address_councildis": "C",
    "status": "Assigned to Contractor",
    "contractor": "Richards Disposal",
    "rowid": "1009521",
    "final_x": "3690647.55894",
    "final_y": "529952.327617",
    "longitude": "-90.03924163138679",
    "latitude": "29.95090421406172",
    "geocoded_column": {
      "latitude": "29.95090421406172",
      "longitude": "-90.03924163138679"
    }
  },
  {
    "service_request": "2023-1009520",
    "request_type": "Trash/Recycling",
    "request_reason": "Replace Trash Cart",
    "date_created": "2023-06-18T11:58:36.000",
    "date_modified": "2023-06-18T11:58:36.000",
    "request_status": "Pending",
    "responsible_agency": "Department of Sanitation",
    "final_address": "428 Wagner St, New Orleans, Louisiana, 70114",
    "address_councildis": "C",
    "status": "Assigned to Contractor",
    "contractor": "Richards Disposal",
    "rowid": "1009520",
    "final_x": "3690647.55894",
    "final_y": "529952.327617",
    "longitude": "-90.03924163138679",
    "latitude": "29.95090421406172",
    "geocoded_column": {
      "latitude": "29.95090421406172",
      "longitude": "-90.03924163138679"
    }
  },
  {
    "service_request": "2023-1009519",
    "request_type": "Trash/Recycling",
    "request_reason": "Request a Large Item Pick Up",
    "date_created": "2023-06-18T11:55:17.000",
    "date_modified": "2023-06-18T11:55:18.000",
    "request_status": "Pending",
    "responsible_agency": "Department of Sanitation",
    "final_address": "414 Delaronde St",
    "address_councildis": "C",
    "status": "Assigned to Contractor",
    "contractor": "Richards Disposal",
    "rowid": "1009519",
    "final_x": "3686658.76073",
    "final_y": "531097.757122",
    "longitude": "-90.05179576168031",
    "latitude": "29.9541770192208",
    "geocoded_column": {
      "latitude": "29.9541770192208",
      "longitude": "-90.05179576168031"
    }
  },
  {
    "service_request": "2023-1009518",
    "request_type": "Roads/Drainage",
    "request_reason": "WaterMain Break",
    "date_created": "2023-06-18T11:52:23.000",
    "date_modified": "2023-06-18T11:52:23.000",
    "request_status": "Pending",
    "responsible_agency": "Department of Public Works",
    "final_address": "6562 Marshal Foch St",
    "address_councildis": "A",
    "status": "Pending",
    "rowid": "1009518",
    "final_x": "3670090.65082",
    "final_y": "551093.637845",
    "longitude": "-90.10343362725116",
    "latitude": "30.009658005070083",
    "geocoded_column": {
      "latitude": "30.009658005070083",
      "longitude": "-90.10343362725116"
    }
  },
  {
    "service_request": "2023-1009517",
    "request_type": "Trash/Recycling",
    "request_reason": "Order Recycling Cart",
    "date_created": "2023-06-18T11:32:29.000",
    "date_modified": "2023-06-18T11:32:29.000",
    "request_status": "Pending",
    "responsible_agency": "Department of Sanitation",
    "final_address": "2014 S Rendon St",
    "address_councildis": "B",
    "status": "Pending",
    "rowid": "1009517",
    "final_x": "3669138.66868",
    "final_y": "529772.696257",
    "longitude": "-90.1071621145367",
    "latitude": "29.951060701444312",
    "geocoded_column": {
      "latitude": "29.951060701444312",
      "longitude": "-90.1071621145367"
    }
  },
  {
    "service_request": "2023-1009516",
    "request_type": "Traffic Signals/Signs/Striping/Streetlights",
    "request_reason": "Street Light Outage/Malfunction",
    "date_created": "2023-06-18T11:32:09.000",
    "date_modified": "2023-06-18T11:32:10.000",
    "request_status": "Pending",
    "responsible_agency": "Department of Public Works",
    "final_address": "6562 Marshal Foch St",
    "address_councildis": "A",
    "status": "Assigned to Contractor",
    "contractor": "Legacy Professional Services",
    "rowid": "1009516",
    "final_x": "3670090.65082",
    "final_y": "551093.637845",
    "longitude": "-90.10343362725116",
    "latitude": "30.009658005070083",
    "geocoded_column": {
      "latitude": "30.009658005070083",
      "longitude": "-90.10343362725116"
    }
  },
  {
    "service_request": "2023-1009515",
    "request_type": "Roads/Drainage",
    "request_reason": "WaterMain Break",
    "date_created": "2023-06-18T11:25:00.000",
    "date_modified": "2023-06-18T11:25:00.000",
    "request_status": "Pending",
    "responsible_agency": "Department of Public Works",
    "final_address": "6562 Marshal Foch St",
    "address_councildis": "A",
    "status": "Pending",
    "rowid": "1009515",
    "final_x": "3670090.65082",
    "final_y": "551093.637845",
    "longitude": "-90.10343362725116",
    "latitude": "30.009658005070083",
    "geocoded_column": {
      "latitude": "30.009658005070083",
      "longitude": "-90.10343362725116"
    }
  },
  {
    "service_request": "2023-1009514",
    "request_type": "Trash/Recycling",
    "request_reason": "Request a Large Item Pick Up",
    "date_created": "2023-06-18T11:20:18.000",
    "date_modified": "2023-06-18T11:20:18.000",
    "request_status": "Pending",
    "responsible_agency": "Department of Sanitation",
    "final_address": "2358 Magazine St",
    "address_councildis": "B",
    "status": "Assigned to Contractor",
    "contractor": "Richards Disposal",
    "rowid": "1009514",
    "final_x": "3678183.33237",
    "final_y": "521505.990713",
    "longitude": "-90.07888934382729",
    "latitude": "29.92806075897132",
    "geocoded_column": {
      "latitude": "29.92806075897132",
      "longitude": "-90.07888934382729"
    }
  },
  {
    "service_request": "2023-1009513",
    "request_type": "Traffic Signals/Signs/Striping/Streetlights",
    "request_reason": "Street Light Outage/Malfunction",
    "date_created": "2023-06-18T11:20:00.000",
    "date_modified": "2023-06-18T11:20:01.000",
    "request_status": "Pending",
    "responsible_agency": "Department of Public Works",
    "final_address": "7318 Malvern Dr",
    "address_councildis": "E",
    "status": "Assigned to Contractor",
    "contractor": "Legacy Professional Services",
    "rowid": "1009513",
    "final_x": "3702703.95626",
    "final_y": "560686.847006",
    "longitude": "-90.00004471131423",
    "latitude": "30.035032787742672",
    "geocoded_column": {
      "latitude": "30.035032787742672",
      "longitude": "-90.00004471131423"
    }
  },
  {
    "service_request": "2023-1009512",
    "request_type": "Trash/Recycling",
    "request_reason": "Request a Large Item Pick Up",
    "date_created": "2023-06-18T11:18:56.000",
    "date_modified": "2023-06-18T11:18:57.000",
    "request_status": "Pending",
    "responsible_agency": "Department of Sanitation",
    "final_address": "1333 Reynes St",
    "address_councildis": "E",
    "status": "Assigned to Contractor",
    "contractor": "Waste Pro",
    "rowid": "1009512",
    "final_x": "3696336.40547",
    "final_y": "535312.610502",
    "longitude": "-90.02108539425744",
    "latitude": "29.96546521274799",
    "geocoded_column": {
      "latitude": "29.96546521274799",
      "longitude": "-90.02108539425744"
    }
  },
  {
    "service_request": "2023-1009511",
    "request_type": "Traffic Signals/Signs/Striping/Streetlights",
    "request_reason": "Request for Stop Sign",
    "date_created": "2023-06-18T11:15:53.000",
    "date_modified": "2023-06-18T11:15:53.000",
    "request_status": "Pending",
    "responsible_agency": "Department of Public Works",
    "final_address": "1240 Reynes St",
    "address_councildis": "E",
    "status": "Pending",
    "rowid": "1009511",
    "final_x": "3696081.08528",
    "final_y": "534978.43591",
    "longitude": "-90.02190375794481",
    "latitude": "29.964554388826524",
    "geocoded_column": {
      "latitude": "29.964554388826524",
      "longitude": "-90.02190375794481"
    }
  },
  {
    "service_request": "2023-1009510",
    "request_type": "Roads/Drainage",
    "request_reason": "Leaking Hydrant",
    "date_created": "2023-06-18T11:14:47.000",
    "date_modified": "2023-06-18T11:14:47.000",
    "request_status": "Pending",
    "responsible_agency": "Department of Public Works",
    "final_address": "5700 Pauline Dr",
    "address_councildis": "D",
    "status": "Pending",
    "rowid": "1009510",
    "final_x": "3691774.28694",
    "final_y": "555003.215001",
    "longitude": "-90.03478761526398",
    "latitude": "30.01975010433921",
    "geocoded_column": {
      "latitude": "30.01975010433921",
      "longitude": "-90.03478761526398"
    }
  },
  {
    "service_request": "2023-1009509",
    "request_type": "Traffic Signals/Signs/Striping/Streetlights",
    "request_reason": "Street Light Outage/Malfunction",
    "date_created": "2023-06-18T11:13:25.000",
    "date_modified": "2023-06-18T11:13:26.000",
    "request_status": "Pending",
    "responsible_agency": "Department of Public Works",
    "final_address": "5700 Pauline Dr",
    "address_councildis": "D",
    "status": "Assigned to Contractor",
    "contractor": "Legacy Professional Services",
    "rowid": "1009509",
    "final_x": "3691774.28694",
    "final_y": "555003.215001",
    "longitude": "-90.03478761526398",
    "latitude": "30.01975010433921",
    "geocoded_column": {
      "latitude": "30.01975010433921",
      "longitude": "-90.03478761526398"
    }
  },
  {
    "service_request": "2023-1009508",
    "request_type": "Traffic Signals/Signs/Striping/Streetlights",
    "request_reason": "Additional signage",
    "date_created": "2023-06-18T11:00:09.000",
    "date_modified": "2023-06-18T11:00:10.000",
    "request_status": "Pending",
    "responsible_agency": "Department of Public Works",
    "final_address": "100 BLK Badine St W",
    "address_councildis": "C",
    "status": "Pending",
    "rowid": "1009508",
    "final_x": "3682749.46944",
    "final_y": "529786.661999",
    "longitude": "-90.0641855736959",
    "latitude": "29.950691595223194",
    "geocoded_column": {
      "latitude": "29.950691595223194",
      "longitude": "-90.0641855736959"
    }
  },
  {
    "service_request": "2023-1009507",
    "request_type": "Abandoned Vehicles",
    "request_reason": "Vehicle Blocking Your Driveway",
    "date_created": "2023-06-18T10:57:28.000",
    "date_modified": "2023-06-18T10:57:28.000",
    "request_status": "Pending",
    "responsible_agency": "Department of Public Works",
    "final_address": "863 Camp St",
    "address_councildis": "B",
    "status": "Pending",
    "rowid": "1009507",
    "final_x": "3680623.84744",
    "final_y": "527444.075967",
    "longitude": "-90.07097868475589",
    "latitude": "29.94431483515845",
    "geocoded_column": {
      "latitude": "29.94431483515845",
      "longitude": "-90.07097868475589"
    }
  },
  {
    "service_request": "2023-1009505",
    "request_type": "Trash/Recycling",
    "request_reason": "Repair Recycling Cart",
    "date_created": "2023-06-18T10:40:43.000",
    "date_modified": "2023-06-18T10:40:43.000",
    "request_status": "Pending",
    "responsible_agency": "Department of Sanitation",
    "final_address": "10 Olympic Ct",
    "address_councildis": "C",
    "status": "Pending",
    "rowid": "1009505",
    "final_x": "3700007.67556",
    "final_y": "516377.521653",
    "longitude": "-90.01018225167297",
    "latitude": "29.913284207139174",
    "geocoded_column": {
      "latitude": "29.913284207139174",
      "longitude": "-90.01018225167297"
    }
  },
  {
    "service_request": "2023-1009504",
    "request_type": "Abandoned Vehicles",
    "request_reason": "Abandoned/Junk Vehicles",
    "date_created": "2023-06-18T10:38:23.000",
    "date_modified": "2023-06-18T10:38:23.000",
    "request_status": "Pending",
    "responsible_agency": "Department of Public Works",
    "final_address": "3602 Cleveland Ave",
    "address_councildis": "B",
    "status": "Pending",
    "rowid": "1009504",
    "final_x": "3672249.58683",
    "final_y": "536804.115912",
    "longitude": "-90.09709983981921",
    "latitude": "29.970302857629715",
    "geocoded_column": {
      "latitude": "29.970302857629715",
      "longitude": "-90.09709983981921"
    }
  },
  {
    "service_request": "2023-1009503",
    "request_type": "Safety & Permits",
    "request_reason": "Licenses & Permits",
    "date_created": "2023-06-18T10:33:21.000",
    "date_modified": "2023-06-18T10:33:21.000",
    "request_status": "Pending",
    "responsible_agency": "Safety and Permits",
    "final_address": "4205 Burgundy St",
    "address_councildis": "C",
    "status": "Pending",
    "rowid": "1009503",
    "final_x": "3692277.94409",
    "final_y": "534438.079365",
    "longitude": "-90.03393310112727",
    "latitude": "29.963187735704754",
    "geocoded_column": {
      "latitude": "29.963187735704754",
      "longitude": "-90.03393310112727"
    }
  },
  {
    "service_request": "2023-1009502",
    "request_type": "Traffic Signals/Signs/Striping/Streetlights",
    "request_reason": "Street Name Sign Damaged or Missing",
    "date_created": "2023-06-18T09:58:03.000",
    "date_modified": "2023-06-18T09:58:03.000",
    "request_status": "Pending",
    "responsible_agency": "Department of Public Works",
    "final_address": "310 N Dupre St",
    "address_councildis": "B",
    "status": "Pending",
    "rowid": "1009502",
    "final_x": "3675203.1812",
    "final_y": "536387.455047",
    "longitude": "-90.08778636072445",
    "latitude": "29.96906923053452",
    "geocoded_column": {
      "latitude": "29.96906923053452",
      "longitude": "-90.08778636072445"
    }
  },
  {
    "service_request": "2023-1009501",
    "request_type": "Abandoned Vehicles",
    "request_reason": "Abandoned/Junk Vehicles",
    "date_created": "2023-06-18T09:36:37.000",
    "date_modified": "2023-06-18T09:36:37.000",
    "request_status": "Pending",
    "responsible_agency": "Department of Public Works",
    "final_address": "2926 Constance St",
    "address_councildis": "B",
    "status": "Pending",
    "rowid": "1009501",
    "final_x": "3676647.91342",
    "final_y": "520078.853688",
    "longitude": "-90.08378544422465",
    "latitude": "29.924182726035475",
    "geocoded_column": {
      "latitude": "29.924182726035475",
      "longitude": "-90.08378544422465"
    }
  },
  {
    "service_request": "2023-1009500",
    "request_type": "Trash/Recycling",
    "request_reason": "Request a Large Item Pick Up",
    "date_created": "2023-06-18T09:29:47.000",
    "date_modified": "2023-06-18T09:29:48.000",
    "request_status": "Pending",
    "responsible_agency": "Department of Sanitation",
    "final_address": "1 Mazant St",
    "address_councildis": "C",
    "status": "Assigned to Contractor",
    "contractor": "IV Waste",
    "rowid": "1009500",
    "final_x": "3692113.51561",
    "final_y": "534836.165958",
    "longitude": "-90.0344380947495",
    "latitude": "29.964287460104014",
    "geocoded_column": {
      "latitude": "29.964287460104014",
      "longitude": "-90.0344380947495"
    }
  },
  {
    "service_request": "2023-1009499",
    "request_type": "Trash/Recycling",
    "request_reason": "Request a Large Item Pick Up",
    "date_created": "2023-06-18T09:26:28.000",
    "date_modified": "2023-06-18T09:26:28.000",
    "request_status": "Pending",
    "responsible_agency": "Department of Sanitation",
    "final_address": "0 BLK Alice Ct",
    "address_councildis": "E",
    "status": "Assigned to Contractor",
    "contractor": "Waste Pro",
    "rowid": "1009499",
    "final_x": "3696830.85368",
    "final_y": "533835.980016",
    "longitude": "-90.01957742212986",
    "latitude": "29.961389424106756",
    "geocoded_column": {
      "latitude": "29.961389424106756",
      "longitude": "-90.01957742212986"
    }
  },
  {
    "service_request": "2023-1009498",
    "request_type": "Parks & Parkways",
    "request_reason": "Request Tree Service (Right of Way/Public Property)",
    "date_created": "2023-06-18T09:24:07.000",
    "date_modified": "2023-06-18T09:31:43.000",
    "request_status": "Pending",
    "responsible_agency": "Department of Parks & Parkway",
    "final_address": "3665 Clematis St",
    "address_councildis": "D",
    "status": "Pending",
    "rowid": "1009498",
    "final_x": "3686155.59023",
    "final_y": "546524.062993",
    "longitude": "-90.05284022681975",
    "latitude": "29.99660941227069",
    "geocoded_column": {
      "latitude": "29.99660941227069",
      "longitude": "-90.05284022681975"
    }
  },
  {
    "service_request": "2023-1009497",
    "request_type": "Trash/Recycling",
    "request_reason": "Request a Large Item Pick Up",
    "date_created": "2023-06-18T09:24:01.000",
    "date_modified": "2023-06-18T09:24:01.000",
    "request_status": "Pending",
    "responsible_agency": "Department of Sanitation",
    "final_address": "0 BLK Alice Ct",
    "address_councildis": "E",
    "status": "Assigned to Contractor",
    "contractor": "Waste Pro",
    "rowid": "1009497",
    "final_x": "3696830.85368",
    "final_y": "533835.980016",
    "longitude": "-90.01957742212986",
    "latitude": "29.961389424106756",
    "geocoded_column": {
      "latitude": "29.961389424106756",
      "longitude": "-90.01957742212986"
    }
  },
  {
    "service_request": "2023-1009495",
    "request_type": "Traffic Signals/Signs/Striping/Streetlights",
    "request_reason": "Street Name Sign Damaged or Missing",
    "date_created": "2023-06-18T08:55:43.000",
    "date_modified": "2023-06-18T08:55:43.000",
    "request_status": "Pending",
    "responsible_agency": "Department of Public Works",
    "final_address": "7700 Scottwood Dr",
    "address_councildis": "E",
    "status": "Pending",
    "rowid": "1009495",
    "final_x": "3717042.31832",
    "final_y": "570994.599911",
    "longitude": "-89.95434173815485",
    "latitude": "30.06290834472691",
    "geocoded_column": {
      "latitude": "30.06290834472691",
      "longitude": "-89.95434173815485"
    }
  },
  {
    "service_request": "2023-1009494",
    "request_type": "Trash/Recycling",
    "request_reason": "Replace Recycling Cart",
    "date_created": "2023-06-18T08:51:18.000",
    "date_modified": "2023-06-18T08:51:18.000",
    "request_status": "Pending",
    "responsible_agency": "Department of Sanitation",
    "final_address": "719 Navarre St",
    "address_councildis": "A",
    "status": "Pending",
    "rowid": "1009494",
    "final_x": "3668417.50049",
    "final_y": "543919.736526",
    "longitude": "-90.10896190239104",
    "latitude": "29.989981534169125",
    "geocoded_column": {
      "latitude": "29.989981534169125",
      "longitude": "-90.10896190239104"
    }
  },
  {
    "service_request": "2023-1009493",
    "request_type": "Trash/Recycling",
    "request_reason": "Repair Trash Cart",
    "date_created": "2023-06-18T08:32:30.000",
    "date_modified": "2023-06-18T08:32:30.000",
    "request_status": "Pending",
    "responsible_agency": "Department of Sanitation",
    "final_address": "2814 Broadway St",
    "address_councildis": "B",
    "status": "Assigned to Contractor",
    "contractor": "Richards Disposal",
    "rowid": "1009493",
    "final_x": "3667329.78657",
    "final_y": "531430.317123",
    "longitude": "-90.11281792880895",
    "latitude": "29.95567171864558",
    "geocoded_column": {
      "latitude": "29.95567171864558",
      "longitude": "-90.11281792880895"
    }
  },
  {
    "service_request": "2023-1009492",
    "request_type": "Trash/Recycling",
    "request_reason": "Missed Trash Pick-Up",
    "date_created": "2023-06-18T08:19:19.000",
    "date_modified": "2023-06-18T08:19:20.000",
    "request_status": "Pending",
    "responsible_agency": "Department of Sanitation",
    "final_address": "112 Sherwood Forest Dr",
    "address_councildis": "A",
    "status": "Assigned to Contractor",
    "contractor": "Richards Disposal",
    "rowid": "1009492",
    "final_x": "3673165.99412",
    "final_y": "541212.98542",
    "longitude": "-90.09405512990335",
    "latitude": "29.98239853048545",
    "geocoded_column": {
      "latitude": "29.98239853048545",
      "longitude": "-90.09405512990335"
    }
  },
  {
    "service_request": "2023-1009491",
    "request_type": "Trash/Recycling",
    "request_reason": "Order Recycling Cart",
    "date_created": "2023-06-18T08:05:47.000",
    "date_modified": "2023-06-18T08:05:47.000",
    "request_status": "Pending",
    "responsible_agency": "Department of Sanitation",
    "final_address": "4123 Orleans Ave",
    "address_councildis": "A",
    "status": "Pending",
    "rowid": "1009491",
    "final_x": "3672545.64308",
    "final_y": "540408.193739",
    "longitude": "-90.0960419552688",
    "latitude": "29.98020406235481",
    "geocoded_column": {
      "latitude": "29.98020406235481",
      "longitude": "-90.0960419552688"
    }
  },
  {
    "service_request": "2023-1009489",
    "request_type": "Trash/Recycling",
    "request_reason": "Request a Large Item Pick Up",
    "date_created": "2023-06-18T07:32:02.000",
    "date_modified": "2023-06-18T07:32:02.000",
    "request_status": "Pending",
    "responsible_agency": "Department of Sanitation",
    "final_address": "522 Washington Ave",
    "address_councildis": "B",
    "status": "Assigned to Contractor",
    "contractor": "Richards Disposal",
    "rowid": "1009489",
    "final_x": "3678072.23138",
    "final_y": "519199.856887",
    "longitude": "-90.07931973647801",
    "latitude": "29.921722984193423",
    "geocoded_column": {
      "latitude": "29.921722984193423",
      "longitude": "-90.07931973647801"
    }
  },
  {
    "service_request": "2023-1009486",
    "request_type": "Trash/Recycling",
    "request_reason": "Order Recycling Cart",
    "date_created": "2023-06-18T06:58:39.000",
    "date_modified": "2023-06-18T06:58:39.000",
    "request_status": "Pending",
    "responsible_agency": "Department of Sanitation",
    "final_address": "17 Navigation Ct",
    "address_councildis": "C",
    "status": "Pending",
    "rowid": "1009486",
    "final_x": "3703628.40286",
    "final_y": "523139.410619",
    "longitude": "-89.99850559354664",
    "latitude": "29.931761602303574",
    "geocoded_column": {
      "latitude": "29.931761602303574",
      "longitude": "-89.99850559354664"
    }
  },
  {
    "service_request": "2023-1009485",
    "request_type": "EMS",
    "request_reason": "EMS Complaint",
    "date_created": "2023-06-18T06:39:44.000",
    "date_modified": "2023-06-18T06:39:45.000",
    "request_status": "Pending",
    "responsible_agency": "Emergency Medical Services",
    "final_address": "1906 Wilton Dr",
    "address_councildis": "D",
    "status": "Pending",
    "rowid": "1009485",
    "final_x": "3681578.08156",
    "final_y": "550818.627093",
    "longitude": "-90.06715038675128",
    "latitude": "30.008557787427478",
    "geocoded_column": {
      "latitude": "30.008557787427478",
      "longitude": "-90.06715038675128"
    }
  },
  {
    "service_request": "2023-1009484",
    "request_type": "Roads/Drainage",
    "request_reason": "Pothole",
    "date_created": "2023-06-18T03:56:24.000",
    "date_modified": "2023-06-18T03:56:25.000",
    "request_status": "Pending",
    "responsible_agency": "Department of Public Works",
    "final_address": "1606 Foucher St",
    "address_councildis": "B",
    "status": "Pending",
    "rowid": "1009484",
    "final_x": "3673361.66715",
    "final_y": "521474.500473",
    "longitude": "-90.09411134375694",
    "latitude": "29.928118436481167",
    "geocoded_column": {
      "latitude": "29.928118436481167",
      "longitude": "-90.09411134375694"
    }
  },
  {
    "service_request": "2023-1009483",
    "request_type": "Health Related Request",
    "request_reason": "Noise Ordinance Complaint",
    "date_created": "2023-06-18T03:41:40.000",
    "date_modified": "2023-06-18T03:41:40.000",
    "request_status": "Pending",
    "responsible_agency": "Health Department",
    "final_address": "309 Decatur St, New Orleans, Louisiana, 70130",
    "address_councildis": "C",
    "status": "Pending",
    "rowid": "1009483",
    "final_x": "3682303.87119",
    "final_y": "530935.66509",
    "longitude": "-90.06555240294671",
    "latitude": "29.953864528206758",
    "geocoded_column": {
      "latitude": "29.953864528206758",
      "longitude": "-90.06555240294671"
    }
  },
  {
    "service_request": "2023-1009481",
    "request_type": "Traffic Signals/Signs/Striping/Streetlights",
    "request_reason": "Street Light Outage/Malfunction",
    "date_created": "2023-06-17T22:58:21.000",
    "date_modified": "2023-06-17T22:58:22.000",
    "request_status": "Pending",
    "responsible_agency": "Department of Public Works",
    "final_address": "2500 BLK Saint Thomas St",
    "address_councildis": "B",
    "status": "Assigned to Contractor",
    "contractor": "Legacy Professional Services",
    "rowid": "1009481",
    "final_x": "3678704.87221",
    "final_y": "519726.008236",
    "longitude": "-90.07730455459956",
    "latitude": "29.923150676688756",
    "geocoded_column": {
      "latitude": "29.923150676688756",
      "longitude": "-90.07730455459956"
    }
  },
  {
    "service_request": "2023-1009480",
    "request_type": "Traffic Signals/Signs/Striping/Streetlights",
    "request_reason": "Street Light Outage/Malfunction",
    "date_created": "2023-06-17T22:06:11.000",
    "date_modified": "2023-06-17T22:06:12.000",
    "request_status": "Pending",
    "responsible_agency": "Department of Public Works",
    "final_address": "329 33Rd St",
    "address_councildis": "A",
    "status": "Assigned to Contractor",
    "contractor": "Legacy Professional Services",
    "rowid": "1009480",
    "final_x": "3665082.64692",
    "final_y": "551022.483477",
    "longitude": "-90.11925813581043",
    "latitude": "30.009609208744394",
    "geocoded_column": {
      "latitude": "30.009609208744394",
      "longitude": "-90.11925813581043"
    }
  },
  {
    "service_request": "2023-1009479",
    "request_type": "Health Related Request",
    "request_reason": "Noise Ordinance Complaint",
    "date_created": "2023-06-17T21:59:42.000",
    "date_modified": "2023-06-17T21:59:42.000",
    "request_status": "Pending",
    "responsible_agency": "Health Department",
    "final_address": "309 Decatur St, New Orleans, Louisiana, 70130",
    "address_councildis": "C",
    "status": "Pending",
    "rowid": "1009479",
    "final_x": "3682303.87119",
    "final_y": "530935.66509",
    "longitude": "-90.06555240294671",
    "latitude": "29.953864528206758",
    "geocoded_column": {
      "latitude": "29.953864528206758",
      "longitude": "-90.06555240294671"
    }
  },
  {
    "service_request": "2023-1009478",
    "request_type": "Trash/Recycling",
    "request_reason": "Request a Large Item Pick Up",
    "date_created": "2023-06-17T21:56:34.000",
    "date_modified": "2023-06-17T21:56:34.000",
    "request_status": "Pending",
    "responsible_agency": "Department of Sanitation",
    "final_address": "7929 Freret St",
    "address_councildis": "A",
    "status": "Assigned to Contractor",
    "contractor": "Richards Disposal",
    "rowid": "1009478",
    "final_x": "3661926.85114",
    "final_y": "527522.518655",
    "longitude": "-90.13000815603785",
    "latitude": "29.9450836666227",
    "geocoded_column": {
      "latitude": "29.9450836666227",
      "longitude": "-90.13000815603785"
    }
  },
  {
    "service_request": "2023-1009477",
    "request_type": "Traffic Signals/Signs/Striping/Streetlights",
    "request_reason": "Street Light Outage/Malfunction",
    "date_created": "2023-06-17T21:52:27.000",
    "date_modified": "2023-06-17T21:52:28.000",
    "request_status": "Pending",
    "responsible_agency": "Department of Public Works",
    "final_address": "6000 BLK Eads St",
    "address_councildis": "D",
    "status": "Assigned to Contractor",
    "contractor": "Legacy Professional Services",
    "rowid": "1009477",
    "final_x": "3686761.52834",
    "final_y": "555405.396195",
    "longitude": "-90.05061203757387",
    "latitude": "30.02101120245843",
    "geocoded_column": {
      "latitude": "30.02101120245843",
      "longitude": "-90.05061203757387"
    }
  },
  {
    "service_request": "2023-1009476",
    "request_type": "Traffic Signals/Signs/Striping/Streetlights",
    "request_reason": "Street Light Outage/Malfunction",
    "date_created": "2023-06-17T21:16:28.000",
    "date_modified": "2023-06-17T21:16:29.000",
    "request_status": "Pending",
    "responsible_agency": "Department of Public Works",
    "final_address": "912 Constantinople St",
    "address_councildis": "B",
    "status": "Assigned to Contractor",
    "contractor": "Legacy Professional Services",
    "rowid": "1009476",
    "final_x": "3672423.56078",
    "final_y": "519047.624183",
    "longitude": "-90.09715539052341",
    "latitude": "29.921473167526436",
    "geocoded_column": {
      "latitude": "29.921473167526436",
      "longitude": "-90.09715539052341"
    }
  },
  {
    "service_request": "2023-1009475",
    "request_type": "Property Maintenance",
    "request_reason": "Property Maintenance",
    "date_created": "2023-06-17T20:18:05.000",
    "date_modified": "2023-06-17T20:18:05.000",
    "request_status": "Pending",
    "responsible_agency": "Department of Code Enforcement",
    "final_address": "7432 Ligustrum Dr",
    "address_councildis": "E",
    "status": "Pending",
    "rowid": "1009475",
    "final_x": "3701629.38455",
    "final_y": "560645.170974",
    "longitude": "-90.00344203315537",
    "latitude": "30.034952531323203",
    "geocoded_column": {
      "latitude": "30.034952531323203",
      "longitude": "-90.00344203315537"
    }
  },
  {
    "service_request": "2023-1009474",
    "request_type": "Safety & Permits",
    "request_reason": "Construction permit",
    "date_created": "2023-06-17T20:17:20.000",
    "date_modified": "2023-06-17T20:17:20.000",
    "request_status": "Pending",
    "responsible_agency": "Department of Code Enforcement",
    "final_address": "2725 Lafitte Ave",
    "address_councildis": "A",
    "status": "Pending",
    "rowid": "1009474",
    "final_x": "3676108.77614",
    "final_y": "536665.671687",
    "longitude": "-90.08491685352178",
    "latitude": "29.969807133085112",
    "geocoded_column": {
      "latitude": "29.969807133085112",
      "longitude": "-90.08491685352178"
    }
  },
  {
    "service_request": "2023-1009473",
    "request_type": "Trash/Recycling",
    "request_reason": "Order Trash Cart",
    "date_created": "2023-06-17T20:14:43.000",
    "date_modified": "2023-06-17T20:15:22.000",
    "request_status": "Pending",
    "responsible_agency": "Department of Sanitation",
    "final_address": "1705 Numa St",
    "address_councildis": "C",
    "status": "Assigned to Contractor",
    "contractor": "Richards Disposal",
    "rowid": "1009473",
    "final_x": "3691669.03657",
    "final_y": "525080.330685",
    "longitude": "-90.03619047924036",
    "latitude": "29.937476134948927",
    "geocoded_column": {
      "latitude": "29.937476134948927",
      "longitude": "-90.03619047924036"
    }
  },
  {
    "service_request": "2023-1009472",
    "request_type": "Trash/Recycling",
    "request_reason": "Order Recycling Cart",
    "date_created": "2023-06-17T19:48:26.000",
    "date_modified": "2023-06-17T19:48:26.000",
    "request_status": "Pending",
    "responsible_agency": "Department of Sanitation",
    "final_address": "1282 Owens Blvd",
    "address_councildis": "D",
    "status": "Pending",
    "rowid": "1009472",
    "final_x": "3677120.92507",
    "final_y": "548829.659859",
    "longitude": "-90.08130063967802",
    "latitude": "30.003223509540852",
    "geocoded_column": {
      "latitude": "30.003223509540852",
      "longitude": "-90.08130063967802"
    }
  },
  {
    "service_request": "2023-1009470",
    "request_type": "Trash/Recycling",
    "request_reason": "Missed Trash Pick-Up",
    "date_created": "2023-06-17T18:23:42.000",
    "date_modified": "2023-06-17T18:23:42.000",
    "request_status": "Pending",
    "responsible_agency": "Department of Sanitation",
    "final_address": "4316 Royal St",
    "address_councildis": "C",
    "status": "Assigned to Contractor",
    "contractor": "IV Waste",
    "rowid": "1009470",
    "final_x": "3692484.44835",
    "final_y": "533519.092804",
    "longitude": "-90.03331391277914",
    "latitude": "29.96065440438409",
    "geocoded_column": {
      "latitude": "29.96065440438409",
      "longitude": "-90.03331391277914"
    }
  },
  {
    "service_request": "2023-1009469",
    "request_type": "Trash/Recycling",
    "request_reason": "Replace Trash Cart",
    "date_created": "2023-06-17T17:20:14.000",
    "date_modified": "2023-06-17T17:20:15.000",
    "request_status": "Pending",
    "responsible_agency": "Department of Sanitation",
    "final_address": "4729 Cleveland Ave",
    "address_councildis": "A",
    "status": "Assigned to Contractor",
    "contractor": "Richards Disposal",
    "rowid": "1009469",
    "final_x": "3668704.93594",
    "final_y": "539703.366154",
    "longitude": "-90.1081963689284",
    "latitude": "29.978379500438734",
    "geocoded_column": {
      "latitude": "29.978379500438734",
      "longitude": "-90.1081963689284"
    }
  },
  {
    "service_request": "2023-1009468",
    "request_type": "Roads/Drainage",
    "request_reason": "Pothole",
    "date_created": "2023-06-17T17:19:24.000",
    "date_modified": "2023-06-17T17:19:24.000",
    "request_status": "Pending",
    "responsible_agency": "Department of Public Works",
    "final_address": "1200 Upperline St",
    "address_councildis": "B",
    "status": "Pending",
    "rowid": "1009468",
    "final_x": "3668997.17204",
    "final_y": "519723.231032",
    "longitude": "-90.10794823155727",
    "latitude": "29.92343207029184",
    "geocoded_column": {
      "latitude": "29.92343207029184",
      "longitude": "-90.10794823155727"
    }
  },
  {
    "service_request": "2023-1009467",
    "request_type": "Trash/Recycling",
    "request_reason": "Request a Large Item Pick Up",
    "date_created": "2023-06-17T16:39:24.000",
    "date_modified": "2023-06-17T16:39:25.000",
    "request_status": "Pending",
    "responsible_agency": "Department of Sanitation",
    "final_address": "814 Pelican Ave",
    "address_councildis": "C",
    "status": "Assigned to Contractor",
    "contractor": "Richards Disposal",
    "rowid": "1009467",
    "final_x": "3688035.59651",
    "final_y": "530805.482882",
    "longitude": "-90.04745863597145",
    "latitude": "29.953330952040186",
    "geocoded_column": {
      "latitude": "29.953330952040186",
      "longitude": "-90.04745863597145"
    }
  },
  {
    "service_request": "2023-1009466",
    "request_type": "Trash/Recycling",
    "request_reason": "Illegal Dumping",
    "date_created": "2023-06-17T16:37:49.000",
    "date_modified": "2023-06-17T16:37:49.000",
    "request_status": "Pending",
    "responsible_agency": "Department of Sanitation",
    "final_address": "431 N Lopez St",
    "address_councildis": "A",
    "status": "Pending",
    "rowid": "1009466",
    "final_x": "3674600.34945",
    "final_y": "537322.791048",
    "longitude": "-90.08965808723221",
    "latitude": "29.971659091725023",
    "geocoded_column": {
      "latitude": "29.971659091725023",
      "longitude": "-90.08965808723221"
    }
  },
  {
    "service_request": "2023-1009465",
    "request_type": "Trash/Recycling",
    "request_reason": "Request a Large Item Pick Up",
    "date_created": "2023-06-17T16:32:17.000",
    "date_modified": "2023-06-17T16:32:18.000",
    "request_status": "Pending",
    "responsible_agency": "Department of Sanitation",
    "final_address": "427 S Lopez St",
    "address_councildis": "B",
    "status": "Assigned to Contractor",
    "contractor": "Richards Disposal",
    "rowid": "1009465",
    "final_x": "3672955.25876",
    "final_y": "535088.066566",
    "longitude": "-90.0949298197953",
    "latitude": "29.965563346803236",
    "geocoded_column": {
      "latitude": "29.965563346803236",
      "longitude": "-90.0949298197953"
    }
  },
  {
    "service_request": "2023-1009464",
    "request_type": "Trash/Recycling",
    "request_reason": "Replace Trash Cart",
    "date_created": "2023-06-17T16:24:01.000",
    "date_modified": "2023-06-17T16:24:02.000",
    "request_status": "Pending",
    "responsible_agency": "Department of Sanitation",
    "final_address": "639 N Pierce St",
    "address_councildis": "A",
    "status": "Assigned to Contractor",
    "contractor": "Richards Disposal",
    "rowid": "1009464",
    "final_x": "3672772.85441",
    "final_y": "539721.003466",
    "longitude": "-90.09534777442563",
    "latitude": "29.9783077754646",
    "geocoded_column": {
      "latitude": "29.9783077754646",
      "longitude": "-90.09534777442563"
    }
  },
  {
    "service_request": "2023-1009463",
    "request_type": "Trash/Recycling",
    "request_reason": "Replace Recycling Cart",
    "date_created": "2023-06-17T16:22:53.000",
    "date_modified": "2023-06-17T16:22:53.000",
    "request_status": "Pending",
    "responsible_agency": "Department of Sanitation",
    "final_address": "3102 Robert Street 70125",
    "status": "Pending",
    "rowid": "1009463",
    "longitude": "0.0",
    "latitude": "0.0",
    "geocoded_column": {
      "latitude": "0.0",
      "longitude": "0.0"
    }
  },
  {
    "service_request": "2023-1009461",
    "request_type": "Traffic Signals/Signs/Striping/Streetlights",
    "request_reason": "Traffic Sign Missing/Damaged",
    "date_created": "2023-06-17T16:21:01.000",
    "date_modified": "2023-06-17T16:21:01.000",
    "request_status": "Pending",
    "responsible_agency": "Department of Public Works",
    "final_address": "PRYTANIA ST & SONIAT ST",
    "address_councildis": "B",
    "status": "Pending",
    "rowid": "1009461",
    "final_x": "3668393.6",
    "final_y": "520147.88",
    "longitude": "-90.10983917569007",
    "latitude": "29.924617455091152",
    "geocoded_column": {
      "latitude": "29.924617455091152",
      "longitude": "-90.10983917569007"
    }
  },
  {
    "service_request": "2023-1009460",
    "request_type": "Trash/Recycling",
    "request_reason": "Request a Large Item Pick Up",
    "date_created": "2023-06-17T16:08:44.000",
    "date_modified": "2023-06-17T16:08:44.000",
    "request_status": "Pending",
    "responsible_agency": "Department of Sanitation",
    "final_address": "2730 Jefferson Ave",
    "address_councildis": "A",
    "status": "Assigned to Contractor",
    "contractor": "Richards Disposal",
    "rowid": "1009460",
    "final_x": "3668149.83988",
    "final_y": "525559.197053",
    "longitude": "-90.110426340811",
    "latitude": "29.939504003429434",
    "geocoded_column": {
      "latitude": "29.939504003429434",
      "longitude": "-90.110426340811"
    }
  },
  {
    "service_request": "2023-1009459",
    "request_type": "Roads/Drainage",
    "request_reason": "Catch Basin - Broken/Damage",
    "date_created": "2023-06-17T16:03:14.000",
    "date_modified": "2023-06-17T16:03:14.000",
    "request_status": "Pending",
    "responsible_agency": "Department of Public Works",
    "final_address": "1200 Upperline St",
    "address_councildis": "B",
    "status": "Pending",
    "rowid": "1009459",
    "final_x": "3668997.17204",
    "final_y": "519723.231032",
    "longitude": "-90.10794823155727",
    "latitude": "29.92343207029184",
    "geocoded_column": {
      "latitude": "29.92343207029184",
      "longitude": "-90.10794823155727"
    }
  },
  {
    "service_request": "2023-1009458",
    "request_type": "Roads/Drainage",
    "request_reason": "Pothole",
    "date_created": "2023-06-17T16:00:27.000",
    "date_modified": "2023-06-17T16:00:27.000",
    "request_status": "Pending",
    "responsible_agency": "Department of Public Works",
    "status": "Pending",
    "rowid": "1009458",
    "longitude": "0.0",
    "latitude": "0.0",
    "geocoded_column": {
      "latitude": "0.0",
      "longitude": "0.0"
    }
  },
  {
    "service_request": "2023-1009457",
    "request_type": "Roads/Drainage",
    "request_reason": "Service Cut",
    "date_created": "2023-06-17T15:58:25.000",
    "date_modified": "2023-06-17T15:58:25.000",
    "request_status": "Pending",
    "responsible_agency": "Department of Public Works",
    "final_address": "1400 Prytania St",
    "address_councildis": "B",
    "status": "Pending",
    "rowid": "1009457",
    "final_x": "3679831.22818",
    "final_y": "525465.623229",
    "longitude": "-90.07354988712657",
    "latitude": "29.938898734609115",
    "geocoded_column": {
      "latitude": "29.938898734609115",
      "longitude": "-90.07354988712657"
    }
  },
  {
    "service_request": "2023-1009456",
    "request_type": "Roads/Drainage",
    "request_reason": "Pothole",
    "date_created": "2023-06-17T15:56:20.000",
    "date_modified": "2023-06-17T15:56:20.000",
    "request_status": "Pending",
    "responsible_agency": "Department of Public Works",
    "status": "Pending",
    "rowid": "1009456",
    "longitude": "0.0",
    "latitude": "0.0",
    "geocoded_column": {
      "latitude": "0.0",
      "longitude": "0.0"
    }
  },
  {
    "service_request": "2023-1009455",
    "request_type": "Property Maintenance",
    "request_reason": "Property Maintenance",
    "date_created": "2023-06-17T15:48:39.000",
    "date_modified": "2023-06-17T15:48:39.000",
    "request_status": "Pending",
    "responsible_agency": "Department of Code Enforcement",
    "final_address": "2619 Vienna St",
    "address_councildis": "D",
    "status": "Pending",
    "rowid": "1009455",
    "final_x": "3686616.25417",
    "final_y": "555253.537305",
    "longitude": "-90.05107643095891",
    "latitude": "30.02059811761947",
    "geocoded_column": {
      "latitude": "30.02059811761947",
      "longitude": "-90.05107643095891"
    }
  },
  {
    "service_request": "2023-1009454",
    "request_type": "Trash/Recycling",
    "request_reason": "Request a Large Item Pick Up",
    "date_created": "2023-06-17T15:14:58.000",
    "date_modified": "2023-06-17T15:14:59.000",
    "request_status": "Pending",
    "responsible_agency": "Department of Sanitation",
    "final_address": "5327 Eastern Street",
    "address_councildis": "D",
    "status": "Assigned to Contractor",
    "contractor": "IV Waste",
    "rowid": "1009454",
    "final_x": "3687908.11113",
    "final_y": "552539.991702",
    "longitude": "-90.04709080558497",
    "latitude": "30.013097056540513",
    "geocoded_column": {
      "latitude": "30.013097056540513",
      "longitude": "-90.04709080558497"
    }
  },
  {
    "service_request": "2023-1009453",
    "request_type": "Property Maintenance",
    "request_reason": "Property Maintenance",
    "date_created": "2023-06-17T14:33:03.000",
    "date_modified": "2023-06-17T14:33:03.000",
    "request_status": "Pending",
    "responsible_agency": "Department of Code Enforcement",
    "final_address": "7400 General Haig St",
    "address_councildis": "D",
    "status": "Pending",
    "rowid": "1009453",
    "final_x": "3671213.32046",
    "final_y": "555556.385625",
    "longitude": "-90.09973491467126",
    "latitude": "30.0218957945025",
    "geocoded_column": {
      "latitude": "30.0218957945025",
      "longitude": "-90.09973491467126"
    }
  },
  {
    "service_request": "2023-1009452",
    "request_type": "Trash/Recycling",
    "request_reason": "Missed Trash Pick-Up",
    "date_created": "2023-06-17T14:24:18.000",
    "date_modified": "2023-06-17T14:24:18.000",
    "request_status": "Pending",
    "responsible_agency": "Department of Sanitation",
    "final_address": "1720 St Bernard Ave",
    "address_councildis": "D",
    "status": "Assigned to Contractor",
    "contractor": "IV Waste",
    "rowid": "1009452",
    "final_x": "3681806.39388",
    "final_y": "538213.235017",
    "longitude": "-90.0668692437783",
    "latitude": "29.973890477521564",
    "geocoded_column": {
      "latitude": "29.973890477521564",
      "longitude": "-90.0668692437783"
    }
  },
  {
    "service_request": "2023-1009451",
    "request_type": "Abandoned Vehicles",
    "request_reason": "Abandoned/Junk Vehicles",
    "date_created": "2023-06-17T14:19:16.000",
    "date_modified": "2023-06-17T14:19:16.000",
    "request_status": "Pending",
    "responsible_agency": "Department of Public Works",
    "final_address": "4819 Perelli Dr",
    "address_councildis": "E",
    "status": "Pending",
    "rowid": "1009451",
    "final_x": "3711755.14802",
    "final_y": "556488.242394",
    "longitude": "-89.97159948445834",
    "latitude": "30.0231955939426",
    "geocoded_column": {
      "latitude": "30.0231955939426",
      "longitude": "-89.97159948445834"
    }
  },
  {
    "service_request": "2023-1009450",
    "request_type": "Trash/Recycling",
    "request_reason": "Order Recycling Cart",
    "date_created": "2023-06-17T14:12:48.000",
    "date_modified": "2023-06-17T14:12:49.000",
    "request_status": "Pending",
    "responsible_agency": "Department of Sanitation",
    "final_address": "8515 Freret St",
    "address_councildis": "A",
    "status": "Pending",
    "rowid": "1009450",
    "final_x": "3660365.61491",
    "final_y": "528939.054912",
    "longitude": "-90.13489071326899",
    "latitude": "29.94902368011597",
    "geocoded_column": {
      "latitude": "29.94902368011597",
      "longitude": "-90.13489071326899"
    }
  },
  {
    "service_request": "2023-1009448",
    "request_type": "Trash/Recycling",
    "request_reason": "Replace Trash Cart",
    "date_created": "2023-06-17T13:26:25.000",
    "date_modified": "2023-06-17T13:26:25.000",
    "request_status": "Pending",
    "responsible_agency": "Department of Sanitation",
    "final_address": "8212 Oak St",
    "address_councildis": "A",
    "status": "Assigned to Contractor",
    "contractor": "Richards Disposal",
    "rowid": "1009448",
    "final_x": "3661578.86957",
    "final_y": "528670.992",
    "longitude": "-90.13106880111206",
    "latitude": "29.948251645195377",
    "geocoded_column": {
      "latitude": "29.948251645195377",
      "longitude": "-90.13106880111206"
    }
  },
  {
    "service_request": "2023-1009447",
    "request_type": "Utility Poles",
    "request_reason": "Utility Pole Leaning",
    "date_created": "2023-06-17T13:21:37.000",
    "date_modified": "2023-06-17T13:21:39.000",
    "request_status": "Pending",
    "responsible_agency": "Utility Company Collective",
    "final_address": "2127 Clara St",
    "address_councildis": "B",
    "status": "Pending",
    "rowid": "1009447",
    "final_x": "3675127.19304",
    "final_y": "527177.376191",
    "longitude": "-90.0883423661431",
    "latitude": "29.94374686236571",
    "geocoded_column": {
      "latitude": "29.94374686236571",
      "longitude": "-90.0883423661431"
    }
  },
  {
    "service_request": "2023-1009446",
    "request_type": "Utility Poles",
    "request_reason": "Utility Pole Leaning",
    "date_created": "2023-06-17T13:14:53.000",
    "date_modified": "2023-06-17T13:14:57.000",
    "request_status": "Pending",
    "responsible_agency": "Utility Company Collective",
    "final_address": "2811 Jackson Ave",
    "address_councildis": "B",
    "status": "Pending",
    "rowid": "1009446",
    "final_x": "3674804.19829",
    "final_y": "527443.572799",
    "longitude": "-90.08935302416172",
    "latitude": "29.94448846123706",
    "geocoded_column": {
      "latitude": "29.94448846123706",
      "longitude": "-90.08935302416172"
    }
  },
  {
    "service_request": "2023-1009445",
    "request_type": "Utility Poles",
    "request_reason": "Utility Pole Leaning",
    "date_created": "2023-06-17T13:08:22.000",
    "date_modified": "2023-06-17T13:08:25.000",
    "request_status": "Pending",
    "responsible_agency": "Utility Company Collective",
    "final_address": "FELICITY ST & S CLAIBORNE AVE",
    "address_councildis": "B",
    "status": "Pending",
    "rowid": "1009445",
    "final_x": "3675074.8",
    "final_y": "527995.68",
    "longitude": "-90.08847971665318",
    "latitude": "29.945998493214656",
    "geocoded_column": {
      "latitude": "29.945998493214656",
      "longitude": "-90.08847971665318"
    }
  },
  {
    "service_request": "2023-1009444",
    "request_type": "Utility Poles",
    "request_reason": "Utility Pole Leaning",
    "date_created": "2023-06-17T12:56:26.000",
    "date_modified": "2023-06-17T12:56:30.000",
    "request_status": "Pending",
    "responsible_agency": "Utility Company Collective",
    "final_address": "FELICITY ST & CLARA ST",
    "address_councildis": "B",
    "status": "Pending",
    "rowid": "1009444",
    "final_x": "3675510.3",
    "final_y": "527560.18",
    "longitude": "-90.08711964850866",
    "latitude": "29.944787995309404",
    "geocoded_column": {
      "latitude": "29.944787995309404",
      "longitude": "-90.08711964850866"
    }
  },
  {
    "service_request": "2023-1009443",
    "request_type": "Trash/Recycling",
    "request_reason": "Illegal Dumping",
    "date_created": "2023-06-17T12:51:35.000",
    "date_modified": "2023-06-17T12:51:36.000",
    "request_status": "Pending",
    "responsible_agency": "Department of Sanitation",
    "final_address": "5526 Wilton Dr",
    "address_councildis": "D",
    "status": "Pending",
    "rowid": "1009443",
    "final_x": "3681755.90639",
    "final_y": "553587.391063",
    "longitude": "-90.06649187032583",
    "latitude": "30.016165480534514",
    "geocoded_column": {
      "latitude": "30.016165480534514",
      "longitude": "-90.06649187032583"
    }
  },
  {
    "service_request": "2023-1009441",
    "request_type": "Trash/Recycling",
    "request_reason": "Request a Large Item Pick Up",
    "date_created": "2023-06-17T12:41:34.000",
    "date_modified": "2023-06-17T12:41:35.000",
    "request_status": "Pending",
    "responsible_agency": "Department of Sanitation",
    "final_address": "7705 Berg Rd",
    "address_councildis": "E",
    "status": "Assigned to Contractor",
    "contractor": "Waste Pro",
    "rowid": "1009441",
    "final_x": "3711756.94136",
    "final_y": "567102.505892",
    "longitude": "-89.97119512116187",
    "latitude": "30.052380516201872",
    "geocoded_column": {
      "latitude": "30.052380516201872",
      "longitude": "-89.97119512116187"
    }
  },
  {
    "service_request": "2023-1009440",
    "request_type": "Utility Poles",
    "request_reason": "Utility Pole Leaning",
    "date_created": "2023-06-17T12:39:28.000",
    "date_modified": "2023-06-17T12:39:31.000",
    "request_status": "Pending",
    "responsible_agency": "Utility Company Collective",
    "final_address": "FELICITY ST & MAGNOLIA ST & TERPSICHORE ST",
    "address_councildis": "B",
    "status": "Pending",
    "rowid": "1009440",
    "final_x": "3675731.8",
    "final_y": "527348.58",
    "longitude": "-90.08642757569037",
    "latitude": "29.94419953927443",
    "geocoded_column": {
      "latitude": "29.94419953927443",
      "longitude": "-90.08642757569037"
    }
  },
  {
    "service_request": "2023-1009439",
    "request_type": "Property Maintenance",
    "request_reason": "Property Maintenance",
    "date_created": "2023-06-17T12:32:51.000",
    "date_modified": "2023-06-17T12:32:51.000",
    "request_status": "Pending",
    "responsible_agency": "Department of Code Enforcement",
    "final_address": "8415 Jeannette St",
    "address_councildis": "A",
    "status": "Pending",
    "rowid": "1009439",
    "final_x": "3661810.99059",
    "final_y": "529999.598657",
    "longitude": "-90.13029185215768",
    "latitude": "29.95189818819279",
    "geocoded_column": {
      "latitude": "29.95189818819279",
      "longitude": "-90.13029185215768"
    }
  },
  {
    "service_request": "2023-1009438",
    "request_type": "Utility Poles",
    "request_reason": "Utility Pole Leaning",
    "date_created": "2023-06-17T12:31:41.000",
    "date_modified": "2023-06-17T12:31:48.000",
    "request_status": "Pending",
    "responsible_agency": "Utility Company Collective",
    "final_address": "FELICITY ST & S ROBERTSON ST",
    "address_councildis": "B",
    "status": "Pending",
    "rowid": "1009438",
    "final_x": "3675938.5",
    "final_y": "527132.08",
    "longitude": "-90.08578240702407",
    "latitude": "29.943598049251662",
    "geocoded_column": {
      "latitude": "29.943598049251662",
      "longitude": "-90.08578240702407"
    }
  },
  {
    "service_request": "2023-1009437",
    "request_type": "Trash/Recycling",
    "request_reason": "Request a Large Item Pick Up",
    "date_created": "2023-06-17T12:19:59.000",
    "date_modified": "2023-06-17T12:20:00.000",
    "request_status": "Pending",
    "responsible_agency": "Department of Sanitation",
    "final_address": "2117 St Andrew St",
    "address_councildis": "B",
    "status": "Assigned to Contractor",
    "contractor": "Richards Disposal",
    "rowid": "1009437",
    "final_x": "3676946.40731",
    "final_y": "525802.684925",
    "longitude": "-90.08264598897831",
    "latitude": "29.939912439001294",
    "geocoded_column": {
      "latitude": "29.939912439001294",
      "longitude": "-90.08264598897831"
    }
  },
  {
    "service_request": "2023-1009436",
    "request_type": "Abandoned Vehicles",
    "request_reason": "Abandoned/Junk Vehicles",
    "date_created": "2023-06-17T12:16:06.000",
    "date_modified": "2023-06-17T12:16:07.000",
    "request_status": "Pending",
    "responsible_agency": "Department of Public Works",
    "final_address": "2319 Pauger St",
    "address_councildis": "D",
    "status": "Pending",
    "rowid": "1009436",
    "final_x": "3683797.5382",
    "final_y": "538231.518281",
    "longitude": "-90.06058013530686",
    "latitude": "29.973880086766044",
    "geocoded_column": {
      "latitude": "29.973880086766044",
      "longitude": "-90.06058013530686"
    }
  },
  {
    "service_request": "2023-1009435",
    "request_type": "Trash/Recycling",
    "request_reason": "Replace Trash Cart",
    "date_created": "2023-06-17T12:11:20.000",
    "date_modified": "2023-06-17T12:11:21.000",
    "request_status": "Pending",
    "responsible_agency": "Department of Sanitation",
    "final_address": "1347 Magazine St",
    "address_councildis": "B",
    "status": "Assigned to Contractor",
    "contractor": "Richards Disposal",
    "rowid": "1009435",
    "final_x": "3680400.3444",
    "final_y": "524860.841724",
    "longitude": "-90.07177414442371",
    "latitude": "29.937218568812625",
    "geocoded_column": {
      "latitude": "29.937218568812625",
      "longitude": "-90.07177414442371"
    }
  },
  {
    "service_request": "2023-1009434",
    "request_type": "Traffic Signals/Signs/Striping/Streetlights",
    "request_reason": "Street Light Outage/Malfunction",
    "date_created": "2023-06-17T11:49:11.000",
    "date_modified": "2023-06-17T11:49:12.000",
    "request_status": "Pending",
    "responsible_agency": "Department of Public Works",
    "final_address": "5930 Orleans Ave",
    "address_councildis": "A",
    "status": "Assigned to Contractor",
    "contractor": "Legacy Professional Services",
    "rowid": "1009434",
    "final_x": "3670751.77934",
    "final_y": "546669.172881",
    "longitude": "-90.10149515829322",
    "latitude": "29.99747274435227",
    "geocoded_column": {
      "latitude": "29.99747274435227",
      "longitude": "-90.10149515829322"
    }
  },
  {
    "service_request": "2023-1009433",
    "request_type": "Trash/Recycling",
    "request_reason": "Request a Large Item Pick Up",
    "date_created": "2023-06-17T11:44:05.000",
    "date_modified": "2023-06-17T11:44:05.000",
    "request_status": "Pending",
    "responsible_agency": "Department of Sanitation",
    "final_address": "5217 Camp St",
    "address_councildis": "B",
    "status": "Assigned to Contractor",
    "contractor": "Richards Disposal",
    "rowid": "1009433",
    "final_x": "3667932.14183",
    "final_y": "519066.132151",
    "longitude": "-90.11133226544077",
    "latitude": "29.92165653075858",
    "geocoded_column": {
      "latitude": "29.92165653075858",
      "longitude": "-90.11133226544077"
    }
  },
  {
    "service_request": "2023-1009432",
    "request_type": "Trash/Recycling",
    "request_reason": "Repair Trash Cart",
    "date_created": "2023-06-17T11:38:19.000",
    "date_modified": "2023-06-17T11:38:20.000",
    "request_status": "Pending",
    "responsible_agency": "Department of Sanitation",
    "final_address": "3326 Aurora Dr",
    "address_councildis": "C",
    "status": "Assigned to Contractor",
    "contractor": "Richards Disposal",
    "rowid": "1009432",
    "final_x": "3706967.59441",
    "final_y": "518463.611638",
    "longitude": "-89.98813751819816",
    "latitude": "29.918797408414374",
    "geocoded_column": {
      "latitude": "29.918797408414374",
      "longitude": "-89.98813751819816"
    }
  },
  {
    "service_request": "2023-1009431",
    "request_type": "Trash/Recycling",
    "request_reason": "Return Recycling Cart",
    "date_created": "2023-06-17T11:37:08.000",
    "date_modified": "2023-06-17T11:37:09.000",
    "request_status": "Pending",
    "responsible_agency": "Department of Sanitation",
    "final_address": "5928 Morrison Rd",
    "address_councildis": "D",
    "status": "Pending",
    "rowid": "1009431",
    "final_x": "3695299.97462",
    "final_y": "557318.614747",
    "longitude": "-90.02356402058662",
    "latitude": "30.02600624285247",
    "geocoded_column": {
      "latitude": "30.02600624285247",
      "longitude": "-90.02356402058662"
    }
  },
  {
    "service_request": "2023-1009430",
    "request_type": "Trash/Recycling",
    "request_reason": "Missed Trash Pick-Up",
    "date_created": "2023-06-17T11:33:05.000",
    "date_modified": "2023-06-17T11:33:05.000",
    "request_status": "Pending",
    "responsible_agency": "Department of Sanitation",
    "final_address": "5616 N. Dorgenois Street New Orleans, LA 70117",
    "address_councildis": "E",
    "status": "Assigned to Contractor",
    "contractor": "Waste Pro",
    "rowid": "1009430",
    "final_x": "3699599.06621",
    "final_y": "538901.431242",
    "longitude": "-90.01065129834431",
    "latitude": "29.97523003274961",
    "geocoded_column": {
      "latitude": "29.97523003274961",
      "longitude": "-90.01065129834431"
    }
  },
  {
    "service_request": "2023-1009429",
    "request_type": "Abandoned Vehicles",
    "request_reason": "Abandoned/Junk Vehicles",
    "date_created": "2023-06-17T11:29:29.000",
    "date_modified": "2023-06-17T11:29:29.000",
    "request_status": "Pending",
    "responsible_agency": "Department of Public Works",
    "final_address": "3343 Esplanade Ave",
    "address_councildis": "A",
    "status": "Pending",
    "rowid": "1009429",
    "final_x": "3675778.57781",
    "final_y": "540915.894027",
    "longitude": "-90.08581351461964",
    "latitude": "29.981503677945287",
    "geocoded_column": {
      "latitude": "29.981503677945287",
      "longitude": "-90.08581351461964"
    }
  },
  {
    "service_request": "2023-1009428",
    "request_type": "Trash/Recycling",
    "request_reason": "Missed Trash Pick-Up",
    "date_created": "2023-06-17T11:29:16.000",
    "date_modified": "2023-06-17T11:29:17.000",
    "request_status": "Pending",
    "responsible_agency": "Department of Sanitation",
    "final_address": "2733 Onzaga St Apt A",
    "address_councildis": "D",
    "status": "Assigned to Contractor",
    "contractor": "IV Waste",
    "rowid": "1009428",
    "final_x": "3678870.03266",
    "final_y": "540947.087499",
    "longitude": "-90.07604818667747",
    "latitude": "29.981496539605725",
    "geocoded_column": {
      "latitude": "29.981496539605725",
      "longitude": "-90.07604818667747"
    }
  },
  {
    "service_request": "2023-1009427",
    "request_type": "Trash/Recycling",
    "request_reason": "Request a Large Item Pick Up",
    "date_created": "2023-06-17T11:27:16.000",
    "date_modified": "2023-06-17T11:27:16.000",
    "request_status": "Pending",
    "responsible_agency": "Department of Sanitation",
    "final_address": "2733 Onzaga St Apt A",
    "address_councildis": "D",
    "status": "Assigned to Contractor",
    "contractor": "IV Waste",
    "rowid": "1009427",
    "final_x": "3678870.03266",
    "final_y": "540947.087499",
    "longitude": "-90.07604818667747",
    "latitude": "29.981496539605725",
    "geocoded_column": {
      "latitude": "29.981496539605725",
      "longitude": "-90.07604818667747"
    }
  },
  {
    "service_request": "2023-1009426",
    "request_type": "Parks & Parkways",
    "request_reason": "Request Tree Service (Right of Way/Public Property)",
    "date_created": "2023-06-17T11:11:44.000",
    "date_modified": "2023-06-17T11:11:45.000",
    "request_status": "Pending",
    "responsible_agency": "Department of Parks & Parkway",
    "final_address": "HAGAN ST & ST ANN ST",
    "address_councildis": "A",
    "status": "Pending",
    "rowid": "1009426",
    "final_x": "3674891.5",
    "final_y": "538766.88",
    "longitude": "-90.08868904941411",
    "latitude": "29.975621151963754",
    "geocoded_column": {
      "latitude": "29.975621151963754",
      "longitude": "-90.08868904941411"
    }
  },
  {
    "service_request": "2023-1009425",
    "request_type": "Trash/Recycling",
    "request_reason": "Order Recycling Cart",
    "date_created": "2023-06-17T11:10:25.000",
    "date_modified": "2023-06-17T11:10:25.000",
    "request_status": "Pending",
    "responsible_agency": "Department of Sanitation",
    "final_address": "2839 Audubon St",
    "address_councildis": "B",
    "status": "Pending",
    "rowid": "1009425",
    "final_x": "3667721.29466",
    "final_y": "531310.161474",
    "longitude": "-90.11158572626391",
    "latitude": "29.955329857449282",
    "geocoded_column": {
      "latitude": "29.955329857449282",
      "longitude": "-90.11158572626391"
    }
  },
  {
    "service_request": "2023-1009424",
    "request_type": "Property Maintenance",
    "request_reason": "Property Maintenance",
    "date_created": "2023-06-17T11:10:00.000",
    "date_modified": "2023-06-17T11:10:00.000",
    "request_status": "Pending",
    "responsible_agency": "Department of Code Enforcement",
    "final_address": "1610 Allen Toussaint Blvd",
    "address_councildis": "D",
    "status": "Pending",
    "rowid": "1009424",
    "final_x": "3679122.13621",
    "final_y": "555269.311065",
    "longitude": "-90.07475505755605",
    "latitude": "30.020869953757085",
    "geocoded_column": {
      "latitude": "30.020869953757085",
      "longitude": "-90.07475505755605"
    }
  },
  {
    "service_request": "2023-1009423",
    "request_type": "Roads/Drainage",
    "request_reason": "Accessibility Ramps, Curbs and Sidewalk Repair",
    "date_created": "2023-06-17T10:48:40.000",
    "date_modified": "2023-06-17T13:24:18.000",
    "request_status": "Pending",
    "responsible_agency": "Department of Public Works",
    "final_address": "14073 Wales St",
    "address_councildis": "E",
    "status": "Inspected",
    "rowid": "1009423",
    "final_x": "3718411.58604",
    "final_y": "572884.692137",
    "longitude": "-89.94994134629324",
    "latitude": "30.068059925635858",
    "geocoded_column": {
      "latitude": "30.068059925635858",
      "longitude": "-89.94994134629324"
    }
  },
  {
    "service_request": "2023-1009422",
    "request_type": "Trash/Recycling",
    "request_reason": "Repair Trash Cart",
    "date_created": "2023-06-17T10:31:20.000",
    "date_modified": "2023-06-17T10:31:21.000",
    "request_status": "Pending",
    "responsible_agency": "Department of Sanitation",
    "final_address": "8010 Sandpiper Dr",
    "address_councildis": "E",
    "status": "Assigned to Contractor",
    "contractor": "Waste Pro",
    "rowid": "1009422",
    "final_x": "3715114.60728",
    "final_y": "570651.694183",
    "longitude": "-89.96044823199861",
    "latitude": "30.062029144701775",
    "geocoded_column": {
      "latitude": "30.062029144701775",
      "longitude": "-89.96044823199861"
    }
  },
  {
    "service_request": "2023-1009421",
    "request_type": "Abandoned Vehicles",
    "request_reason": "Abandoned/Junk Vehicles",
    "date_created": "2023-06-17T10:25:41.000",
    "date_modified": "2023-06-17T10:27:03.000",
    "request_status": "Pending",
    "responsible_agency": "Department of Public Works",
    "final_address": "1001 First St",
    "address_councildis": "B",
    "status": "Pending",
    "rowid": "1009421",
    "final_x": "3678289.96392",
    "final_y": "521232.155961",
    "longitude": "-90.07856219835894",
    "latitude": "29.927304592344935",
    "geocoded_column": {
      "latitude": "29.927304592344935",
      "longitude": "-90.07856219835894"
    }
  },
  {
    "service_request": "2023-1009420",
    "request_type": "Trash/Recycling",
    "request_reason": "MIssed Recycling Pick-Up",
    "date_created": "2023-06-17T10:13:22.000",
    "date_modified": "2023-06-17T10:13:23.000",
    "request_status": "Pending",
    "responsible_agency": "Department of Sanitation",
    "final_address": "2723 N Robertson St",
    "address_councildis": "C",
    "status": "Assigned to Contractor",
    "contractor": "IV Waste",
    "rowid": "1009420",
    "final_x": "3687998.68713",
    "final_y": "537868.128521",
    "longitude": "-90.04732489175159",
    "latitude": "29.97275191218548",
    "geocoded_column": {
      "latitude": "29.97275191218548",
      "longitude": "-90.04732489175159"
    }
  },
  {
    "service_request": "2023-1009419",
    "request_type": "Trash/Recycling",
    "request_reason": "Missed Trash Pick-Up",
    "date_created": "2023-06-17T09:50:43.000",
    "date_modified": "2023-06-17T09:50:43.000",
    "request_status": "Pending",
    "responsible_agency": "Department of Sanitation",
    "final_address": "4756 Bonita Dr",
    "address_councildis": "E",
    "status": "Assigned to Contractor",
    "contractor": "Waste Pro",
    "rowid": "1009419",
    "final_x": "3704414.77214",
    "final_y": "555396.271385",
    "longitude": "-89.99483360551768",
    "latitude": "30.020430913871763",
    "geocoded_column": {
      "latitude": "30.020430913871763",
      "longitude": "-89.99483360551768"
    }
  },
  {
    "service_request": "2023-1009418",
    "request_type": "Trash/Recycling",
    "request_reason": "Request a Large Item Pick Up",
    "date_created": "2023-06-17T09:27:59.000",
    "date_modified": "2023-06-17T09:28:00.000",
    "request_status": "Pending",
    "responsible_agency": "Department of Sanitation",
    "final_address": "201 Alix St",
    "address_councildis": "C",
    "status": "Assigned to Contractor",
    "contractor": "Richards Disposal",
    "rowid": "1009418",
    "final_x": "3686171.33679",
    "final_y": "529736.450433",
    "longitude": "-90.05338286286938",
    "latitude": "29.95044887183086",
    "geocoded_column": {
      "latitude": "29.95044887183086",
      "longitude": "-90.05338286286938"
    }
  },
  {
    "service_request": "2023-1009416",
    "request_type": "Trash/Recycling",
    "request_reason": "Request a Large Item Pick Up",
    "date_created": "2023-06-17T09:24:27.000",
    "date_modified": "2023-06-17T09:24:27.000",
    "request_status": "Pending",
    "responsible_agency": "Department of Sanitation",
    "final_address": "7921 Windward Ct",
    "address_councildis": "E",
    "status": "Assigned to Contractor",
    "contractor": "Waste Pro",
    "rowid": "1009416",
    "final_x": "3715184.08594",
    "final_y": "570405.489383",
    "longitude": "-89.9602379375141",
    "latitude": "30.061349894309398",
    "geocoded_column": {
      "latitude": "30.061349894309398",
      "longitude": "-89.9602379375141"
    }
  },