[
  {
    "service_request": "2025-1169217",
    "request_type": "Streetlights",
    "request_reason": "Streetlight Outage/Malfunction",
    "date_created": "2025-02-15T22:16:04.000",
    "date_modified": "2025-02-15T22:16:05.000",
    "request_status": "Pending",
    "responsible_agency": "Department of Public Works",
    "final_address": "6000 BLK Saint Charles Ave",
    "address_councildis": "A",
    "status": "Pending",
    "contractor": "Legacy Professional Services",
    "rowid": "1169217",
    "final_x": "3665575.44145",
    "final_y": "522656.762545",
    "longitude": "-90.11865123380309",
    "latitude": "29.93159853061006",
    "geocoded_column": {
      "latitude": "29.93159853061006",
      "longitude": "-90.11865123380309"
    }
  },
  {
    "service_request": "2025-1169216",
    "request_type": "Trash/Recycling",
    "request_reason": "Request a Large Item Pick Up",
    "date_created": "2025-02-15T22:14:58.000",
    "date_modified": "2025-02-15T22:15:00.000",
    "request_status": "Pending",
    "responsible_agency": "Department of Sanitation",
    "final_address": "1011 Joliet St",
    "address_councildis": "A",
    "status": "Assigned to Contractor",
    "contractor": "IV Waste",
    "rowid": "1169216",
    "final_x": "3660530.2201",
    "final_y": "528861.301632",
    "longitude": "-90.1343735490156",
    "latitude": "29.94880514853095",
    "geocoded_column": {
      "latitude": "29.94880514853095",
      "longitude": "-90.1343735490156"
    }
  },
  {
    "service_request": "2025-1169215",
    "request_type": "Streetlights",
    "request_reason": "Streetlight Outage/Malfunction",
    "date_created": "2025-02-15T21:03:06.000",
    "date_modified": "2025-02-15T21:03:07.000",
    "request_status": "Pending",
    "responsible_agency": "Department of Public Works",
    "final_address": "5525 Woodlawn Pl",
    "address_councildis": "A",
    "status": "Pending",
    "contractor": "Legacy Professional Services",
    "rowid": "1169215",
    "final_x": "3667511.7017",
    "final_y": "544229.013262",
    "longitude": "-90.11181267302821",
    "latitude": "29.990858521775237",
    "geocoded_column": {
      "latitude": "29.990858521775237",
      "longitude": "-90.11181267302821"
    }
  },
  {
    "service_request": "2025-1169214",
    "request_type": "Streetlights",
    "request_reason": "Streetlight Outage/Malfunction",
    "date_created": "2025-02-15T19:53:16.000",
    "date_modified": "2025-02-15T19:53:17.000",
    "request_status": "Pending",
    "responsible_agency": "Department of Public Works",
    "final_address": "7230 Sardonyx St",
    "address_councildis": "D",
    "status": "Pending",
    "contractor": "Legacy Professional Services",
    "rowid": "1169214",
    "final_x": "3669493.15822",
    "final_y": "555335.654873",
    "longitude": "-90.10517767540836",
    "latitude": "30.021339672142325",
    "geocoded_column": {
      "latitude": "30.021339672142325",
      "longitude": "-90.10517767540836"
    }
  },
  {
    "service_request": "2025-1169213",
    "request_type": "Streetlights",
    "request_reason": "Streetlight Outage/Malfunction",
    "date_created": "2025-02-15T19:43:51.000",
    "date_modified": "2025-02-15T19:43:52.000",
    "request_status": "Pending",
    "responsible_agency": "Department of Public Works",
    "final_address": "7230 Sardonyx St",
    "address_councildis": "D",
    "status": "Pending",
    "contractor": "Legacy Professional Services",
    "rowid": "1169213",
    "final_x": "3669493.15822",
    "final_y": "555335.654873",
    "longitude": "-90.10517767540836",
    "latitude": "30.021339672142325",
    "geocoded_column": {
      "latitude": "30.021339672142325",
      "longitude": "-90.10517767540836"
    }
  },
  {
    "service_request": "2025-1169212",
    "request_type": "Abandoned Vehicles",
    "request_reason": "Abandoned/Junk Vehicles",
    "date_created": "2025-02-15T19:17:48.000",
    "date_modified": "2025-02-15T19:17:58.000",
    "request_status": "Pending",
    "responsible_agency": "Department of Public Works",
    "final_address": "2119 General Pershing St",
    "address_councildis": "B",
    "status": "Pending",
    "rowid": "1169212",
    "final_x": "3671101.43239",
    "final_y": "522860.407291",
    "longitude": "-90.10119936632204",
    "latitude": "29.931996255825638",
    "geocoded_column": {
      "latitude": "29.931996255825638",
      "longitude": "-90.10119936632204"
    }
  },
  {
    "service_request": "2025-1169211",
    "request_type": "Abandoned Vehicles",
    "request_reason": "Abandoned/Junk Vehicles",
    "date_created": "2025-02-15T19:12:08.000",
    "date_modified": "2025-02-15T19:12:10.000",
    "request_status": "Pending",
    "responsible_agency": "Department of Public Works",
    "status": "Pending",
    "rowid": "1169211",
    "longitude": "0.0",
    "latitude": "0.0",
    "geocoded_column": {
      "latitude": "0.0",
      "longitude": "0.0"
    }
  },
  {
    "service_request": "2025-1169210",
    "request_type": "Abandoned Vehicles",
    "request_reason": "Abandoned/Junk Vehicles",
    "date_created": "2025-02-15T19:11:58.000",
    "date_modified": "2025-02-15T19:12:00.000",
    "request_status": "Pending",
    "responsible_agency": "Department of Public Works",
    "status": "Pending",
    "rowid": "1169210",
    "longitude": "0.0",
    "latitude": "0.0",
    "geocoded_column": {
      "latitude": "0.0",
      "longitude": "0.0"
    }
  },
  {
    "service_request": "2025-1169209",
    "request_type": "Abandoned Vehicles",
    "request_reason": "Abandoned/Junk Vehicles",
    "date_created": "2025-02-15T19:11:42.000",
    "date_modified": "2025-02-15T19:11:44.000",
    "request_status": "Pending",
    "responsible_agency": "Department of Public Works",
    "status": "Pending",
    "rowid": "1169209",
    "longitude": "0.0",
    "latitude": "0.0",
    "geocoded_column": {
      "latitude": "0.0",
      "longitude": "0.0"
    }
  },
  {
    "service_request": "2025-1169208",
    "request_type": "Abandoned Vehicles",
    "request_reason": "Abandoned/Junk Vehicles",
    "date_created": "2025-02-15T19:08:00.000",
    "date_modified": "2025-02-15T19:08:01.000",
    "request_status": "Pending",
    "responsible_agency": "Department of Public Works",
    "status": "Pending",
    "rowid": "1169208",
    "longitude": "0.0",
    "latitude": "0.0",
    "geocoded_column": {
      "latitude": "0.0",
      "longitude": "0.0"
    }
  },
  {
    "service_request": "2025-1169207",
    "request_type": "Abandoned Vehicles",
    "request_reason": "Abandoned/Junk Vehicles",
    "date_created": "2025-02-15T19:07:44.000",
    "date_modified": "2025-02-15T19:07:46.000",
    "request_status": "Pending",
    "responsible_agency": "Department of Public Works",
    "status": "Pending",
    "rowid": "1169207",
    "longitude": "0.0",
    "latitude": "0.0",
    "geocoded_column": {
      "latitude": "0.0",
      "longitude": "0.0"
    }
  },
  {
    "service_request": "2025-1169206",
    "request_type": "Traffic Safety",
    "request_reason": "Request for Stop Sign",
    "date_created": "2025-02-15T18:30:11.000",
    "date_modified": "2025-02-15T18:30:14.000",
    "request_status": "Pending",
    "responsible_agency": "Department of Public Works",
    "final_address": "CONSTANCE ST & JOHN CHURCHILL CHASE ST",
    "address_councildis": "B",
    "status": "Pending",
    "rowid": "1169206",
    "final_x": "3681084.4",
    "final_y": "526240.48",
    "longitude": "-90.06956650125481",
    "latitude": "29.940991388712288",
    "geocoded_column": {
      "latitude": "29.940991388712288",
      "longitude": "-90.06956650125481"
    }
  },
  {
    "service_request": "2025-1169205",
    "request_type": "Trash/Recycling",
    "request_reason": "Illegal Dumping",
    "date_created": "2025-02-15T18:25:53.000",
    "date_modified": "2025-02-15T18:25:56.000",
    "request_status": "Pending",
    "responsible_agency": "Department of Sanitation",
    "final_address": "1600 Magazine St",
    "address_councildis": "B",
    "status": "Pending",
    "rowid": "1169205",
    "final_x": "3680051.53442",
    "final_y": "523064.898363",
    "longitude": "-90.0729377262837",
    "latitude": "29.932290872545426",
    "geocoded_column": {
      "latitude": "29.932290872545426",
      "longitude": "-90.0729377262837"
    }
  },
  {
    "service_request": "2025-1169204",
    "request_type": "Street and Traffic Signs",
    "request_reason": "Street Name Sign Damaged or Missing",
    "date_created": "2025-02-15T18:13:55.000",
    "date_modified": "2025-02-15T18:13:58.000",
    "request_status": "Pending",
    "responsible_agency": "Department of Public Works",
    "final_address": "N PETERS ST & MARIGNY ST",
    "address_councildis": "C",
    "status": "Pending",
    "rowid": "1169204",
    "final_x": "3685617.9",
    "final_y": "533892.28",
    "longitude": "-90.05498393107216",
    "latitude": "29.961892965599795",
    "geocoded_column": {
      "latitude": "29.961892965599795",
      "longitude": "-90.05498393107216"
    }
  },
  {
    "service_request": "2025-1169203",
    "request_type": "Trash/Recycling",
    "request_reason": "Order Recycling Cart",
    "date_created": "2025-02-15T17:50:36.000",
    "date_modified": "2025-02-15T17:50:37.000",
    "request_status": "Pending",
    "responsible_agency": "Department of Sanitation",
    "final_address": "4145 Vendome Pl",
    "address_councildis": "B",
    "status": "Pending",
    "rowid": "1169203",
    "final_x": "3668985.6875",
    "final_y": "530754.70093",
    "longitude": "-90.10761198559317",
    "latitude": "29.953765393080296",
    "geocoded_column": {
      "latitude": "29.953765393080296",
      "longitude": "-90.10761198559317"
    }
  },
  {
    "service_request": "2025-1169202",
    "request_type": "Trash/Recycling",
    "request_reason": "Order Second Trash Cart",
    "date_created": "2025-02-15T17:49:47.000",
    "date_modified": "2025-02-15T17:49:51.000",
    "request_status": "Pending",
    "responsible_agency": "Department of Sanitation",
    "final_address": "4145 Vendome Pl",
    "address_councildis": "B",
    "status": "Assigned to Contractor",
    "contractor": "IV Waste",
    "rowid": "1169202",
    "final_x": "3668985.6875",
    "final_y": "530754.70093",
    "longitude": "-90.10761198559317",
    "latitude": "29.953765393080296",
    "geocoded_column": {
      "latitude": "29.953765393080296",
      "longitude": "-90.10761198559317"
    }
  },
  {
    "service_request": "2025-1169201",
    "request_type": "Trash/Recycling",
    "request_reason": "Request a Large Item Pick Up",
    "date_created": "2025-02-15T17:43:29.000",
    "date_modified": "2025-02-15T17:43:33.000",
    "request_status": "Pending",
    "responsible_agency": "Department of Sanitation",
    "final_address": "1020 Valence St",
    "address_councildis": "B",
    "status": "Assigned to Contractor",
    "contractor": "IV Waste",
    "rowid": "1169201",
    "final_x": "3669837.72225",
    "final_y": "519204.511863",
    "longitude": "-90.10531247012325",
    "latitude": "29.921981013544297",
    "geocoded_column": {
      "latitude": "29.921981013544297",
      "longitude": "-90.10531247012325"
    }
  },
  {
    "service_request": "2025-1169200",
    "request_type": "Trash/Recycling",
    "request_reason": "Replace Trash Cart",
    "date_created": "2025-02-15T17:05:33.000",
    "date_modified": "2025-02-15T17:05:35.000",
    "request_status": "Pending",
    "responsible_agency": "Department of Sanitation",
    "final_address": "3690 Plymouth Pl",
    "address_councildis": "C",
    "status": "Assigned to Contractor",
    "contractor": "Richards Disposal",
    "rowid": "1169200",
    "final_x": "3702799.81527",
    "final_y": "516965.204597",
    "longitude": "-90.00134790993606",
    "latitude": "29.91481118388518",
    "geocoded_column": {
      "latitude": "29.91481118388518",
      "longitude": "-90.00134790993606"
    }
  },
  {
    "service_request": "2025-1169199",
    "request_type": "Trash/Recycling",
    "request_reason": "Request a Large Item Pick Up",
    "date_created": "2025-02-15T16:41:50.000",
    "date_modified": "2025-02-15T16:42:45.000",
    "request_status": "Pending",
    "responsible_agency": "Department of Sanitation",
    "final_address": "14600 Curran Rd",
    "address_councildis": "E",
    "status": "Assigned to Contractor",
    "contractor": "Waste Pro",
    "rowid": "1169199",
    "final_x": "3719869.31647",
    "final_y": "573341.09169",
    "longitude": "-89.94531574341127",
    "latitude": "30.069266360001002",
    "geocoded_column": {
      "latitude": "30.069266360001002",
      "longitude": "-89.94531574341127"
    }
  },
  {
    "service_request": "2025-1169198",
    "request_type": "Safety & Permits",
    "request_reason": "Licenses & Permits",
    "date_created": "2025-02-15T16:28:02.000",
    "date_modified": "2025-02-15T16:28:04.000",
    "request_status": "Pending",
    "responsible_agency": "Safety and Permits",
    "final_address": "1943 N Rampart St",
    "address_councildis": "C",
    "status": "Pending",
    "rowid": "1169198",
    "final_x": "3684229.0758",
    "final_y": "535901.470151",
    "longitude": "-90.05929906686211",
    "latitude": "29.967460076499936",
    "geocoded_column": {
      "latitude": "29.967460076499936",
      "longitude": "-90.05929906686211"
    }
  },
  {
    "service_request": "2025-1169197",
    "request_type": "Trash/Recycling",
    "request_reason": "Request a Large Item Pick Up",
    "date_created": "2025-02-15T16:03:30.000",
    "date_modified": "2025-02-15T16:03:32.000",
    "request_status": "Pending",
    "responsible_agency": "Department of Sanitation",
    "final_address": "4321 Trieste St",
    "address_councildis": "E",
    "status": "Assigned to Contractor",
    "contractor": "Waste Pro",
    "rowid": "1169197",
    "final_x": "3760220.06697",
    "final_y": "573504.147946",
    "longitude": "-89.81775378901686",
    "latitude": "30.06830896010249",
    "geocoded_column": {
      "latitude": "30.06830896010249",
      "longitude": "-89.81775378901686"
    }
  },
  {
    "service_request": "2025-1169196",
    "request_type": "Roads and Streets",
    "request_reason": "Street Subsidence (Sinking)",
    "date_created": "2025-02-15T16:00:36.000",
    "date_modified": "2025-02-15T16:00:37.000",
    "request_status": "Pending",
    "responsible_agency": "Department of Public Works",
    "final_address": "1200 BLK Felicity St",
    "address_councildis": "B",
    "status": "Pending",
    "rowid": "1169196",
    "final_x": "3679440.99804",
    "final_y": "523606.79575",
    "longitude": "-90.07484634302907",
    "latitude": "29.93379936406404",
    "geocoded_column": {
      "latitude": "29.93379936406404",
      "longitude": "-90.07484634302907"
    }
  },
  {
    "service_request": "2025-1169195",
    "request_type": "Roads and Streets",
    "request_reason": "Pothole",
    "date_created": "2025-02-15T15:57:36.000",
    "date_modified": "2025-02-15T15:57:38.000",
    "request_status": "Pending",
    "responsible_agency": "Department of Public Works",
    "final_address": "2315 Joliet St",
    "address_councildis": "A",
    "status": "Pending",
    "rowid": "1169195",
    "final_x": "3663642.94599",
    "final_y": "532284.778243",
    "longitude": "-90.12443125221093",
    "latitude": "29.958128676534663",
    "geocoded_column": {
      "latitude": "29.958128676534663",
      "longitude": "-90.12443125221093"
    }
  },
  {
    "service_request": "2025-1169194",
    "request_type": "Trash/Recycling",
    "request_reason": "Request a Large Item Pick Up",
    "date_created": "2025-02-15T15:57:25.000",
    "date_modified": "2025-02-15T15:57:27.000",
    "request_status": "Pending",
    "responsible_agency": "Department of Sanitation",
    "final_address": "14600 Curran Rd",
    "address_councildis": "E",
    "status": "Assigned to Contractor",
    "contractor": "Waste Pro",
    "rowid": "1169194",
    "final_x": "3719869.31647",
    "final_y": "573341.09169",
    "longitude": "-89.94531574341127",
    "latitude": "30.069266360001002",
    "geocoded_column": {
      "latitude": "30.069266360001002",
      "longitude": "-89.94531574341127"
    }
  },
  {
    "service_request": "2025-1169193",
    "request_type": "Property Maintenance",
    "request_reason": "Property Maintenance",
    "date_created": "2025-02-15T15:56:46.000",
    "date_modified": "2025-02-15T15:56:48.000",
    "request_status": "Pending",
    "responsible_agency": "Department of Code Enforcement",
    "final_address": "ULLOA ST & S SOLOMON ST",
    "address_councildis": "A",
    "status": "Pending",
    "rowid": "1169193",
    "final_x": "3669166.3",
    "final_y": "536852.48",
    "longitude": "-90.10683558844009",
    "latitude": "29.970526950450513",
    "geocoded_column": {
      "latitude": "29.970526950450513",
      "longitude": "-90.10683558844009"
    }
  },
  {
    "service_request": "2025-1169192",
    "request_type": "Drainage",
    "request_reason": "Catch Basin Clogged",
    "date_created": "2025-02-15T15:54:50.000",
    "date_modified": "2025-02-15T15:55:04.000",
    "request_status": "Pending",
    "responsible_agency": "Sewerage & Water Board ",
    "final_address": "4001 Vendome Pl",
    "address_councildis": "B",
    "status": "Pending",
    "rowid": "1169192",
    "final_x": "3668753.29319",
    "final_y": "529810.854145",
    "longitude": "-90.10837765325668",
    "latitude": "29.951176956964733",
    "geocoded_column": {
      "latitude": "29.951176956964733",
      "longitude": "-90.10837765325668"
    }
  },
  {
    "service_request": "2025-1169191",
    "request_type": "Trash/Recycling",
    "request_reason": "Order Trash Cart",
    "date_created": "2025-02-15T15:53:02.000",
    "date_modified": "2025-02-15T15:53:05.000",
    "request_status": "Pending",
    "responsible_agency": "Department of Sanitation",
    "final_address": "4001 Vendome Pl",
    "address_councildis": "B",
    "status": "Assigned to Contractor",
    "contractor": "IV Waste",
    "rowid": "1169191",
    "final_x": "3668753.29319",
    "final_y": "529810.854145",
    "longitude": "-90.10837765325668",
    "latitude": "29.951176956964733",
    "geocoded_column": {
      "latitude": "29.951176956964733",
      "longitude": "-90.10837765325668"
    }
  },
  {
    "service_request": "2025-1169190",
    "request_type": "Mosquito, Termite & Rodent Control",
    "request_reason": "Rodent Complaint (Rats)",
    "date_created": "2025-02-15T15:51:54.000",
    "date_modified": "2025-02-15T15:51:56.000",
    "request_status": "Pending",
    "responsible_agency": "Mosquito, Termite & Rodent Control Board",
    "final_address": "4001 Vendome Pl",
    "address_councildis": "B",
    "status": "Pending",
    "rowid": "1169190",
    "final_x": "3668753.29319",
    "final_y": "529810.854145",
    "longitude": "-90.10837765325668",
    "latitude": "29.951176956964733",
    "geocoded_column": {
      "latitude": "29.951176956964733",
      "longitude": "-90.10837765325668"
    }
  },
  {
    "service_request": "2025-1169189",
    "request_type": "Streetlights",
    "request_reason": "Streetlight Outage/Malfunction",
    "date_created": "2025-02-15T15:44:56.000",
    "date_modified": "2025-02-15T15:44:57.000",
    "request_status": "Pending",
    "responsible_agency": "Department of Public Works",
    "final_address": "1340 St Anthony St",
    "address_councildis": "C",
    "status": "Pending",
    "contractor": "Legacy Professional Services",
    "rowid": "1169189",
    "final_x": "3683396.12745",
    "final_y": "536884.075528",
    "longitude": "-90.06189509761259",
    "latitude": "29.970187340731506",
    "geocoded_column": {
      "latitude": "29.970187340731506",
      "longitude": "-90.06189509761259"
    }
  },
  {
    "service_request": "2025-1169188",
    "request_type": "Property Maintenance",
    "request_reason": "Property Maintenance",
    "date_created": "2025-02-15T15:41:20.000",
    "date_modified": "2025-02-15T15:41:22.000",
    "request_status": "Pending",
    "responsible_agency": "Department of Code Enforcement",
    "final_address": "2517 Andry St",
    "address_councildis": "E",
    "status": "Pending",
    "rowid": "1169188",
    "final_x": "3698682.56868",
    "final_y": "539374.99617",
    "longitude": "-90.01352859529746",
    "latitude": "29.976561222895175",
    "geocoded_column": {
      "latitude": "29.976561222895175",
      "longitude": "-90.01352859529746"
    }
  },
  {
    "service_request": "2025-1169187",
    "request_type": "Trash/Recycling",
    "request_reason": "Request a Large Item Pick Up",
    "date_created": "2025-02-15T15:31:22.000",
    "date_modified": "2025-02-15T15:31:24.000",
    "request_status": "Pending",
    "responsible_agency": "Department of Sanitation",
    "final_address": "1250 Aurora Dr",
    "address_councildis": "C",
    "status": "Assigned to Contractor",
    "contractor": "Richards Disposal",
    "rowid": "1169187",
    "final_x": "3706809.99505",
    "final_y": "517262.945141",
    "longitude": "-89.98867944743144",
    "latitude": "29.915501078444493",
    "geocoded_column": {
      "latitude": "29.915501078444493",
      "longitude": "-89.98867944743144"
    }
  },
  {
    "service_request": "2025-1169186",
    "request_type": "General Services",
    "request_reason": "General Service Request",
    "date_created": "2025-02-15T15:11:17.000",
    "date_modified": "2025-02-15T15:11:19.000",
    "request_status": "Pending",
    "responsible_agency": "Orleans Parish Communication District",
    "final_address": "1800 Baronne St",
    "address_councildis": "B",
    "status": "Pending",
    "rowid": "1169186",
    "final_x": "3677835.42005",
    "final_y": "525065.424573",
    "longitude": "-90.07986470672147",
    "latitude": "29.937858504553525",
    "geocoded_column": {
      "latitude": "29.937858504553525",
      "longitude": "-90.07986470672147"
    }
  },
  {
    "service_request": "2025-1169185",
    "request_type": "Trash/Recycling",
    "request_reason": "Order Trash Cart",
    "date_created": "2025-02-15T14:56:07.000",
    "date_modified": "2025-02-15T14:56:11.000",
    "request_status": "Pending",
    "responsible_agency": "Department of Sanitation",
    "final_address": "7915 Lamb Rd",
    "address_councildis": "E",
    "status": "Assigned to Contractor",
    "contractor": "Waste Pro",
    "rowid": "1169185",
    "final_x": "3696803.89917",
    "final_y": "560193.108637",
    "longitude": "-90.0187076269723",
    "latitude": "30.03386264596851",
    "geocoded_column": {
      "latitude": "30.03386264596851",
      "longitude": "-90.0187076269723"
    }
  },
  {
    "service_request": "2025-1169183",
    "request_type": "Parks & Parkways",
    "request_reason": "Park Maintenance/Clean Up",
    "date_created": "2025-02-15T14:12:36.000",
    "date_modified": "2025-02-15T14:12:40.000",
    "request_status": "Pending",
    "responsible_agency": "Department of Parks & Parkway",
    "final_address": "2664 Hyman Pl",
    "address_councildis": "C",
    "status": "Pending",
    "rowid": "1169183",
    "final_x": "3701099.58941",
    "final_y": "521127.674553",
    "longitude": "-90.00656225913308",
    "latitude": "29.926310784403544",
    "geocoded_column": {
      "latitude": "29.926310784403544",
      "longitude": "-90.00656225913308"
    }
  },
  {
    "service_request": "2025-1169182",
    "request_type": "Roads and Streets",
    "request_reason": "Pothole",
    "date_created": "2025-02-15T13:39:04.000",
    "date_modified": "2025-02-15T13:39:06.000",
    "request_status": "Pending",
    "responsible_agency": "Department of Public Works",
    "final_address": "212 Norland Ave",
    "address_councildis": "C",
    "status": "Pending",
    "rowid": "1169182",
    "final_x": "3706613.75281",
    "final_y": "520470.194744",
    "longitude": "-89.98918010316903",
    "latitude": "29.92432623069721",
    "geocoded_column": {
      "latitude": "29.92432623069721",
      "longitude": "-89.98918010316903"
    }
  },
  {
    "service_request": "2025-1169181",
    "request_type": "Roads and Streets",
    "request_reason": "Street Subsidence (Sinking)",
    "date_created": "2025-02-15T13:31:21.000",
    "date_modified": "2025-02-15T13:31:23.000",
    "request_status": "Pending",
    "responsible_agency": "Department of Public Works",
    "final_address": "1022 Arabella St",
    "address_councildis": "A",
    "status": "Pending",
    "rowid": "1169181",
    "final_x": "3665972.43527",
    "final_y": "519787.219384",
    "longitude": "-90.11749408769364",
    "latitude": "29.923696615853277",
    "geocoded_column": {
      "latitude": "29.923696615853277",
      "longitude": "-90.11749408769364"
    }
  },
  {
    "service_request": "2025-1169180",
    "request_type": "Trash/Recycling",
    "request_reason": "Request a Large Item Pick Up",
    "date_created": "2025-02-15T13:29:09.000",
    "date_modified": "2025-02-15T13:29:11.000",
    "request_status": "Pending",
    "responsible_agency": "Department of Sanitation",
    "final_address": "4401 Trieste St",
    "address_councildis": "E",
    "status": "Assigned to Contractor",
    "contractor": "Waste Pro",
    "rowid": "1169180",
    "final_x": "3760314.28284",
    "final_y": "574045.169642",
    "longitude": "-89.81743333443976",
    "latitude": "30.06979309375304",
    "geocoded_column": {
      "latitude": "30.06979309375304",
      "longitude": "-89.81743333443976"
    }
  },
  {
    "service_request": "2025-1169179",
    "request_type": "Trash/Recycling",
    "request_reason": "Order Recycling Cart",
    "date_created": "2025-02-15T13:24:45.000",
    "date_modified": "2025-02-15T13:24:47.000",
    "request_status": "Pending",
    "responsible_agency": "Department of Sanitation",
    "final_address": "1008 N Rocheblave St",
    "address_councildis": "D",
    "status": "Pending",
    "rowid": "1169179",
    "final_x": "3678298.24309",
    "final_y": "537294.22932",
    "longitude": "-90.07798056421507",
    "latitude": "29.971469677546324",
    "geocoded_column": {
      "latitude": "29.971469677546324",
      "longitude": "-90.07798056421507"
    }
  },
  {
    "service_request": "2025-1169178",
    "request_type": "Trash/Recycling",
    "request_reason": "Order Trash Cart",
    "date_created": "2025-02-15T13:21:41.000",
    "date_modified": "2025-02-15T13:21:43.000",
    "request_status": "Pending",
    "responsible_agency": "Department of Sanitation",
    "final_address": "1010 N Rocheblave St",
    "address_councildis": "D",
    "status": "Assigned to Contractor",
    "contractor": "IV Waste",
    "rowid": "1169178",
    "final_x": "3678306.12366",
    "final_y": "537302.572488",
    "longitude": "-90.07795538754439",
    "latitude": "29.971492380998786",
    "geocoded_column": {
      "latitude": "29.971492380998786",
      "longitude": "-90.07795538754439"
    }
  },
  {
    "service_request": "2025-1169177",
    "request_type": "Trash/Recycling",
    "request_reason": "Request a Large Item Pick Up",
    "date_created": "2025-02-15T13:21:34.000",
    "date_modified": "2025-02-15T13:21:36.000",
    "request_status": "Pending",
    "responsible_agency": "Department of Sanitation",
    "final_address": "2417 Marengo St",
    "address_councildis": "B",
    "status": "Assigned to Contractor",
    "contractor": "IV Waste",
    "rowid": "1169177",
    "final_x": "3671709.05761",
    "final_y": "523957.21958",
    "longitude": "-90.0992438600909",
    "latitude": "29.93499415565464",
    "geocoded_column": {
      "latitude": "29.93499415565464",
      "longitude": "-90.0992438600909"
    }
  },
  {
    "service_request": "2025-1169176",
    "request_type": "Trash/Recycling",
    "request_reason": "Order Trash Cart",
    "date_created": "2025-02-15T13:16:05.000",
    "date_modified": "2025-02-15T13:16:06.000",
    "request_status": "Pending",
    "responsible_agency": "Department of Sanitation",
    "final_address": "1008 N Rocheblave St",
    "address_councildis": "D",
    "status": "Assigned to Contractor",
    "contractor": "IV Waste",
    "rowid": "1169176",
    "final_x": "3678298.24309",
    "final_y": "537294.22932",
    "longitude": "-90.07798056421507",
    "latitude": "29.971469677546324",
    "geocoded_column": {
      "latitude": "29.971469677546324",
      "longitude": "-90.07798056421507"
    }
  },
  {
    "service_request": "2025-1169175",
    "request_type": "Trash/Recycling",
    "request_reason": "Order Recycling Cart",
    "date_created": "2025-02-15T13:11:51.000",
    "date_modified": "2025-02-15T13:11:53.000",
    "request_status": "Pending",
    "responsible_agency": "Department of Sanitation",
    "final_address": "1008 N Rocheblave St",
    "address_councildis": "D",
    "status": "Pending",
    "rowid": "1169175",
    "final_x": "3678298.24309",
    "final_y": "537294.22932",
    "longitude": "-90.07798056421507",
    "latitude": "29.971469677546324",
    "geocoded_column": {
      "latitude": "29.971469677546324",
      "longitude": "-90.07798056421507"
    }
  },
  {
    "service_request": "2025-1169174",
    "request_type": "Trash/Recycling",
    "request_reason": "Request a Large Item Pick Up",
    "date_created": "2025-02-15T13:08:38.000",
    "date_modified": "2025-02-15T13:08:39.000",
    "request_status": "Pending",
    "responsible_agency": "Department of Sanitation",
    "final_address": "9009 Hickory St",
    "address_councildis": "A",
    "status": "Assigned to Contractor",
    "contractor": "IV Waste",
    "rowid": "1169174",
    "final_x": "3660978.67578",
    "final_y": "532167.998083",
    "longitude": "-90.13284818891138",
    "latitude": "29.957884590255492",
    "geocoded_column": {
      "latitude": "29.957884590255492",
      "longitude": "-90.13284818891138"
    }
  },
  {
    "service_request": "2025-1169173",
    "request_type": "Trash/Recycling",
    "request_reason": "Replace Trash Cart",
    "date_created": "2025-02-15T13:07:10.000",
    "date_modified": "2025-02-15T13:07:11.000",
    "request_status": "Pending",
    "responsible_agency": "Department of Sanitation",
    "final_address": "3135 Louisiana Avenue Pkwy, New Orleans, Louisiana, 70125",
    "status": "Assigned to Contractor",
    "rowid": "1169173",
    "longitude": "0.0",
    "latitude": "0.0",
    "geocoded_column": {
      "latitude": "0.0",
      "longitude": "0.0"
    }
  },
  {
    "service_request": "2025-1169172",
    "request_type": "Trash/Recycling",
    "request_reason": "Request a Large Item Pick Up",
    "date_created": "2025-02-15T13:06:46.000",
    "date_modified": "2025-02-15T13:06:48.000",
    "request_status": "Pending",
    "responsible_agency": "Department of Sanitation",
    "final_address": "9005 Hickory St",
    "address_councildis": "A",
    "status": "Assigned to Contractor",
    "contractor": "IV Waste",
    "rowid": "1169172",
    "final_x": "3661006.47162",
    "final_y": "532144.078467",
    "longitude": "-90.1327612084773",
    "latitude": "29.957818018273002",
    "geocoded_column": {
      "latitude": "29.957818018273002",
      "longitude": "-90.1327612084773"
    }
  },
  {
    "service_request": "2025-1169171",
    "request_type": "Trash/Recycling",
    "request_reason": "Replace Trash Cart",
    "date_created": "2025-02-15T13:05:41.000",
    "date_modified": "2025-02-15T13:05:43.000",
    "request_status": "Pending",
    "responsible_agency": "Department of Sanitation",
    "final_address": "3137 Louisiana Avenue Pkwy, New Orleans, Louisiana, 70125",
    "status": "Assigned to Contractor",
    "rowid": "1169171",
    "longitude": "0.0",
    "latitude": "0.0",
    "geocoded_column": {
      "latitude": "0.0",
      "longitude": "0.0"
    }
  },
  {
    "service_request": "2025-1169169",
    "request_type": "Property Maintenance",
    "request_reason": "Property Maintenance",
    "date_created": "2025-02-15T12:48:40.000",
    "date_modified": "2025-02-15T12:48:42.000",
    "request_status": "Pending",
    "responsible_agency": "Department of Code Enforcement",
    "final_address": "3522 Clermont Dr",
    "address_councildis": "D",
    "status": "Pending",
    "rowid": "1169169",
    "final_x": "3685919.82358",
    "final_y": "545494.252304",
    "longitude": "-90.05362133009606",
    "latitude": "29.99378504470515",
    "geocoded_column": {
      "latitude": "29.99378504470515",
      "longitude": "-90.05362133009606"
    }
  },
  {
    "service_request": "2025-1169168",
    "request_type": "Roads and Streets",
    "request_reason": "Sidewalk Damaged or Missing",
    "date_created": "2025-02-15T12:37:54.000",
    "date_modified": "2025-02-15T12:37:56.000",
    "request_status": "Pending",
    "responsible_agency": "Department of Public Works",
    "final_address": "2014 Lapeyrouse St",
    "address_councildis": "D",
    "status": "Pending",
    "rowid": "1169168",
    "final_x": "3680867.28815",
    "final_y": "538652.316745",
    "longitude": "-90.06981985542009",
    "latitude": "29.97512630742418",
    "geocoded_column": {
      "latitude": "29.97512630742418",
      "longitude": "-90.06981985542009"
    }
  },
  {
    "service_request": "2025-1169167",
    "request_type": "Trash/Recycling",
    "request_reason": "Request a Large Item Pick Up",
    "date_created": "2025-02-15T11:40:11.000",
    "date_modified": "2025-02-15T11:40:13.000",
    "request_status": "Pending",
    "responsible_agency": "Department of Sanitation",
    "final_address": "900 N Villere St",
    "address_councildis": "C",
    "status": "Assigned to Contractor",
    "contractor": "IV Waste",
    "rowid": "1169167",
    "final_x": "3680924.13883",
    "final_y": "534788.790598",
    "longitude": "-90.06977486220028",
    "latitude": "29.964501216402365",
    "geocoded_column": {
      "latitude": "29.964501216402365",
      "longitude": "-90.06977486220028"
    }
  },
  {
    "service_request": "2025-1169166",
    "request_type": "Trash/Recycling",
    "request_reason": "Request a Large Item Pick Up",
    "date_created": "2025-02-15T11:20:51.000",
    "date_modified": "2025-02-15T11:20:54.000",
    "request_status": "Pending",
    "responsible_agency": "Department of Sanitation",
    "final_address": "14600 Curran Rd",
    "address_councildis": "E",
    "status": "Assigned to Contractor",
    "contractor": "Waste Pro",
    "rowid": "1169166",
    "final_x": "3719869.31647",
    "final_y": "573341.09169",
    "longitude": "-89.94531574341127",
    "latitude": "30.069266360001002",
    "geocoded_column": {
      "latitude": "30.069266360001002",
      "longitude": "-89.94531574341127"
    }
  },
  {
    "service_request": "2025-1169165",
    "request_type": "Trash/Recycling",
    "request_reason": "Request a Large Item Pick Up",
    "date_created": "2025-02-15T11:13:00.000",
    "date_modified": "2025-02-15T11:13:02.000",
    "request_status": "Pending",
    "responsible_agency": "Department of Sanitation",
    "final_address": "3583 Mimosa Ct",
    "address_councildis": "C",
    "status": "Assigned to Contractor",
    "contractor": "Richards Disposal",
    "rowid": "1169165",
    "final_x": "3703041.0705",
    "final_y": "513018.316209",
    "longitude": "-90.00073131128478",
    "latitude": "29.903950872315548",
    "geocoded_column": {
      "latitude": "29.903950872315548",
      "longitude": "-90.00073131128478"
    }
  },
  {
    "service_request": "2025-1169164",
    "request_type": "Trash/Recycling",
    "request_reason": "Request a Large Item Pick Up",
    "date_created": "2025-02-15T11:10:46.000",
    "date_modified": "2025-02-15T11:10:50.000",
    "request_status": "Pending",
    "responsible_agency": "Department of Sanitation",
    "final_address": "2721 Chelsea Dr",
    "address_councildis": "C",
    "status": "Assigned to Contractor",
    "contractor": "Richards Disposal",
    "rowid": "1169164",
    "final_x": "3704157.14359",
    "final_y": "521061.236025",
    "longitude": "-89.99691294788818",
    "latitude": "29.92603039967771",
    "geocoded_column": {
      "latitude": "29.92603039967771",
      "longitude": "-89.99691294788818"
    }
  },
  {
    "service_request": "2025-1169163",
    "request_type": "Roads and Streets",
    "request_reason": "Street Subsidence (Sinking)",
    "date_created": "2025-02-15T11:07:54.000",
    "date_modified": "2025-02-15T11:07:57.000",
    "request_status": "Pending",
    "responsible_agency": "Department of Public Works",
    "final_address": "3583 Mimosa Ct",
    "address_councildis": "C",
    "status": "Pending",
    "rowid": "1169163",
    "final_x": "3703041.0705",
    "final_y": "513018.316209",
    "longitude": "-90.00073131128478",
    "latitude": "29.903950872315548",
    "geocoded_column": {
      "latitude": "29.903950872315548",
      "longitude": "-90.00073131128478"
    }
  },
  {
    "service_request": "2025-1169162",
    "request_type": "Trash/Recycling",
    "request_reason": "Request a Large Item Pick Up",
    "date_created": "2025-02-15T11:05:17.000",
    "date_modified": "2025-02-15T11:05:19.000",
    "request_status": "Pending",
    "responsible_agency": "Department of Sanitation",
    "final_address": "2721 Chelsea Dr",
    "address_councildis": "C",
    "status": "Assigned to Contractor",
    "contractor": "Richards Disposal",
    "rowid": "1169162",
    "final_x": "3704157.14359",
    "final_y": "521061.236025",
    "longitude": "-89.99691294788818",
    "latitude": "29.92603039967771",
    "geocoded_column": {
      "latitude": "29.92603039967771",
      "longitude": "-89.99691294788818"
    }
  },
  {
    "service_request": "2025-1169161",
    "request_type": "Street and Traffic Signs",
    "request_reason": "Stop Sign Missing or Damaged",
    "date_created": "2025-02-15T11:04:50.000",
    "date_modified": "2025-02-15T11:04:52.000",
    "request_status": "Pending",
    "responsible_agency": "Department of Public Works",
    "final_address": "2415 Marr Ave",
    "address_councildis": "C",
    "status": "Pending",
    "rowid": "1169161",
    "final_x": "3691367.95248",
    "final_y": "521648.687737",
    "longitude": "-90.03726356261397",
    "latitude": "29.928049648533168",
    "geocoded_column": {
      "latitude": "29.928049648533168",
      "longitude": "-90.03726356261397"
    }
  },
  {
    "service_request": "2025-1169160",
    "request_type": "Drainage",
    "request_reason": "Street Flooding",
    "date_created": "2025-02-15T11:03:39.000",
    "date_modified": "2025-02-15T11:03:40.000",
    "request_status": "Pending",
    "responsible_agency": "Sewerage & Water Board ",
    "final_address": "7325 Sheffield St",
    "address_councildis": "E",
    "status": "Pending",
    "rowid": "1169160",
    "final_x": "3699609.68548",
    "final_y": "559418.331229",
    "longitude": "-90.00986933682132",
    "latitude": "30.031643496425843",
    "geocoded_column": {
      "latitude": "30.031643496425843",
      "longitude": "-90.00986933682132"
    }
  },
  {
    "service_request": "2025-1169159",
    "request_type": "Drainage",
    "request_reason": "Catch Basin Clogged",
    "date_created": "2025-02-15T10:49:02.000",
    "date_modified": "2025-02-15T10:49:04.000",
    "request_status": "Pending",
    "responsible_agency": "Sewerage & Water Board ",
    "final_address": "2141 S Roman St",
    "address_councildis": "B",
    "status": "Pending",
    "rowid": "1169159",
    "final_x": "3674185.35969",
    "final_y": "528339.914048",
    "longitude": "-90.09127620456125",
    "latitude": "29.94697156339113",
    "geocoded_column": {
      "latitude": "29.94697156339113",
      "longitude": "-90.09127620456125"
    }
  },
  {
    "service_request": "2025-1169158",
    "request_type": "Trash/Recycling",
    "request_reason": "Order Recycling Cart",
    "date_created": "2025-02-15T10:46:03.000",
    "date_modified": "2025-02-15T10:46:05.000",
    "request_status": "Pending",
    "responsible_agency": "Department of Sanitation",
    "final_address": "2436 Jefferson Ave",
    "address_councildis": "A",
    "status": "Pending",
    "rowid": "1169158",
    "final_x": "3667957.19796",
    "final_y": "524655.145788",
    "longitude": "-90.11106498511606",
    "latitude": "29.937023804952965",
    "geocoded_column": {
      "latitude": "29.937023804952965",
      "longitude": "-90.11106498511606"
    }
  },
  {
    "service_request": "2025-1169157",
    "request_type": "Trash/Recycling",
    "request_reason": "Order Trash Cart",
    "date_created": "2025-02-15T10:44:39.000",
    "date_modified": "2025-02-15T10:44:41.000",
    "request_status": "Pending",
    "responsible_agency": "Department of Sanitation",
    "final_address": "2536 Dumaine St",
    "address_councildis": "D",
    "status": "Assigned to Contractor",
    "contractor": "IV Waste",
    "rowid": "1169157",
    "final_x": "3677701.66869",
    "final_y": "537057.388488",
    "longitude": "-90.07987281607777",
    "latitude": "29.970836404295397",
    "geocoded_column": {
      "latitude": "29.970836404295397",
      "longitude": "-90.07987281607777"
    }
  },
  {
    "service_request": "2025-1169156",
    "request_type": "Trash/Recycling",
    "request_reason": "Order Recycling Cart",
    "date_created": "2025-02-15T10:43:00.000",
    "date_modified": "2025-02-15T10:43:04.000",
    "request_status": "Pending",
    "responsible_agency": "Department of Sanitation",
    "final_address": "2534 Dumaine St",
    "address_councildis": "D",
    "status": "Pending",
    "rowid": "1169156",
    "final_x": "3677709.72424",
    "final_y": "537051.277384",
    "longitude": "-90.0798475867567",
    "latitude": "29.970819358542503",
    "geocoded_column": {
      "latitude": "29.970819358542503",
      "longitude": "-90.0798475867567"
    }
  },
  {
    "service_request": "2025-1169155",
    "request_type": "Street and Traffic Signs",
    "request_reason": "Stop Sign Missing or Damaged",
    "date_created": "2025-02-15T10:14:09.000",
    "date_modified": "2025-02-15T10:14:11.000",
    "request_status": "Pending",
    "responsible_agency": "Department of Public Works",
    "final_address": "209 Magazine St",
    "address_councildis": "B",
    "status": "Pending",
    "rowid": "1169155",
    "final_x": "3681638.77653",
    "final_y": "529839.520257",
    "longitude": "-90.06769072703938",
    "latitude": "29.950870717717123",
    "geocoded_column": {
      "latitude": "29.950870717717123",
      "longitude": "-90.06769072703938"
    }
  },
  {
    "service_request": "2025-1169154",
    "request_type": "Property Maintenance",
    "request_reason": "Property Maintenance",
    "date_created": "2025-02-15T09:58:31.000",
    "date_modified": "2025-02-15T09:58:33.000",
    "request_status": "Pending",
    "responsible_agency": "Department of Code Enforcement",
    "final_address": "3440 Peoples Ave",
    "address_councildis": "D",
    "status": "Pending",
    "rowid": "1169154",
    "final_x": "3688518.09801",
    "final_y": "545913.506704",
    "longitude": "-90.0453989034942",
    "latitude": "29.994857797045718",
    "geocoded_column": {
      "latitude": "29.994857797045718",
      "longitude": "-90.0453989034942"
    }
  },
  {
    "service_request": "2025-1169153",
    "request_type": "Street and Traffic Signs",
    "request_reason": "Street Name Sign Damaged or Missing",
    "date_created": "2025-02-15T09:56:04.000",
    "date_modified": "2025-02-15T09:56:06.000",
    "request_status": "Pending",
    "responsible_agency": "Department of Public Works",
    "final_address": "2620 Constance St",
    "address_councildis": "B",
    "status": "Pending",
    "rowid": "1169153",
    "final_x": "3677635.74114",
    "final_y": "520718.010873",
    "longitude": "-90.08064515960905",
    "latitude": "29.92591054345066",
    "geocoded_column": {
      "latitude": "29.92591054345066",
      "longitude": "-90.08064515960905"
    }
  },
  {
    "service_request": "2025-1169152",
    "request_type": "Trash/Recycling",
    "request_reason": "Replace Recycling Cart",
    "date_created": "2025-02-15T09:53:04.000",
    "date_modified": "2025-02-15T09:53:08.000",
    "request_status": "Pending",
    "responsible_agency": "Department of Sanitation",
    "final_address": "2620 Constance St",
    "address_councildis": "B",
    "status": "Pending",
    "rowid": "1169152",
    "final_x": "3677635.74114",
    "final_y": "520718.010873",
    "longitude": "-90.08064515960905",
    "latitude": "29.92591054345066",
    "geocoded_column": {
      "latitude": "29.92591054345066",
      "longitude": "-90.08064515960905"
    }
  },
  {
    "service_request": "2025-1169151",
    "request_type": "Roads and Streets",
    "request_reason": "Street Subsidence (Sinking)",
    "date_created": "2025-02-15T09:50:01.000",
    "date_modified": "2025-02-15T09:50:03.000",
    "request_status": "Pending",
    "responsible_agency": "Department of Public Works",
    "final_address": "7358 Newcastle St",
    "address_councildis": "E",
    "status": "Pending",
    "rowid": "1169151",
    "final_x": "3697348.65405",
    "final_y": "558656.393372",
    "longitude": "-90.01704193092431",
    "latitude": "30.029620073160416",
    "geocoded_column": {
      "latitude": "30.029620073160416",
      "longitude": "-90.01704193092431"
    }
  },
  {
    "service_request": "2025-1169150",
    "request_type": "Trash/Recycling",
    "request_reason": "Request a Large Item Pick Up",
    "date_created": "2025-02-15T09:47:26.000",
    "date_modified": "2025-02-15T09:47:28.000",
    "request_status": "Pending",
    "responsible_agency": "Department of Sanitation",
    "final_address": "2620 Constance St",
    "address_councildis": "B",
    "status": "Assigned to Contractor",
    "contractor": "IV Waste",
    "rowid": "1169150",
    "final_x": "3677635.74114",
    "final_y": "520718.010873",
    "longitude": "-90.08064515960905",
    "latitude": "29.92591054345066",
    "geocoded_column": {
      "latitude": "29.92591054345066",
      "longitude": "-90.08064515960905"
    }
  },
  {
    "service_request": "2025-1169149",
    "request_type": "Street and Traffic Signs",
    "request_reason": "Crosswalk Signage Damaged or Missing",
    "date_created": "2025-02-15T09:37:57.000",
    "date_modified": "2025-02-15T09:37:59.000",
    "request_status": "Pending",
    "responsible_agency": "Department of Public Works",
    "final_address": "100 BLK N Carrollton Ave",
    "address_councildis": "A",
    "status": "Pending",
    "rowid": "1169149",
    "final_x": "3671209.18871",
    "final_y": "538468.700081",
    "longitude": "-90.10032896944338",
    "latitude": "29.97491072585336",
    "geocoded_column": {
      "latitude": "29.97491072585336",
      "longitude": "-90.10032896944338"
    }
  },
  {
    "service_request": "2025-1169148",
    "request_type": "Trash/Recycling",
    "request_reason": "Missed Trash Pick-Up",
    "date_created": "2025-02-15T09:13:05.000",
    "date_modified": "2025-02-15T09:13:08.000",
    "request_status": "Pending",
    "responsible_agency": "Department of Sanitation",
    "final_address": "7925 Hammond St",
    "address_councildis": "E",
    "status": "Assigned to Contractor",
    "contractor": "Waste Pro",
    "rowid": "1169148",
    "final_x": "3704553.18378",
    "final_y": "555642.557977",
    "longitude": "-89.99438717694655",
    "latitude": "30.021103660558946",
    "geocoded_column": {
      "latitude": "30.021103660558946",
      "longitude": "-89.99438717694655"
    }
  },
  {
    "service_request": "2025-1169147",
    "request_type": "Trash/Recycling",
    "request_reason": "Repair Recycling Cart",
    "date_created": "2025-02-15T08:57:32.000",
    "date_modified": "2025-02-15T08:57:34.000",
    "request_status": "Pending",
    "responsible_agency": "Department of Sanitation",
    "final_address": "4823 Perrier St",
    "address_councildis": "B",
    "status": "Pending",
    "rowid": "1169147",
    "final_x": "3669281.99681",
    "final_y": "519966.839864",
    "longitude": "-90.10704091395873",
    "latitude": "29.92409353876904",
    "geocoded_column": {
      "latitude": "29.92409353876904",
      "longitude": "-90.10704091395873"
    }
  },
  {
    "service_request": "2025-1169146",
    "request_type": "Utility Poles",
    "request_reason": "Utility Pole Leaning",
    "date_created": "2025-02-15T08:44:38.000",
    "date_modified": "2025-02-15T08:44:41.000",
    "request_status": "Pending",
    "responsible_agency": "Utility Company Collective",
    "final_address": "2345 N Villere St",
    "address_councildis": "C",
    "status": "Pending",
    "rowid": "1169146",
    "final_x": "3686115.85628",
    "final_y": "537539.849352",
    "longitude": "-90.05328279125408",
    "latitude": "29.97190722928507",
    "geocoded_column": {
      "latitude": "29.97190722928507",
      "longitude": "-90.05328279125408"
    }
  },
  {
    "service_request": "2025-1169145",
    "request_type": "Trash/Recycling",
    "request_reason": "Missed Trash Pick-Up",
    "date_created": "2025-02-15T08:37:16.000",
    "date_modified": "2025-02-15T11:39:02.000",
    "case_close_date": "2025-02-15T05:39:02.000",
    "request_status": "Closed",
    "responsible_agency": "Department of Sanitation",
    "final_address": "3212 St Charles Ave",
    "address_councildis": "B",
    "status": "Invalid Request",
    "contractor": "IV Waste",
    "contractor_action": "Invalid Pick-Up",
    "rowid": "1169145",
    "final_x": "3674753.54094",
    "final_y": "521705.572025",
    "longitude": "-90.08970959013618",
    "latitude": "29.928712344124584",
    "geocoded_column": {
      "latitude": "29.928712344124584",
      "longitude": "-90.08970959013618"
    }
  },
  {
    "service_request": "2025-1169144",
    "request_type": "Abandoned Vehicles",
    "request_reason": "Vehicle Blocking Your Driveway",
    "date_created": "2025-02-15T03:25:54.000",
    "date_modified": "2025-02-15T03:25:57.000",
    "request_status": "Pending",
    "responsible_agency": "Department of Public Works",
    "final_address": "4024 Vincennes Place",
    "status": "Pending",
    "rowid": "1169144",
    "longitude": "0.0",
    "latitude": "0.0",
    "geocoded_column": {
      "latitude": "0.0",
      "longitude": "0.0"
    }
  },
  {
    "service_request": "2025-1169143",
    "request_type": "Trash/Recycling",
    "request_reason": "Request a Large Item Pick Up",
    "date_created": "2025-02-15T03:03:52.000",
    "date_modified": "2025-02-15T03:03:53.000",
    "request_status": "Pending",
    "responsible_agency": "Department of Sanitation",
    "final_address": "421 S Genois St",
    "address_councildis": "B",
    "status": "Assigned to Contractor",
    "contractor": "IV Waste",
    "rowid": "1169143",
    "final_x": "3671661.44308",
    "final_y": "536029.731207",
    "longitude": "-90.09898361079348",
    "latitude": "29.968190994729735",
    "geocoded_column": {
      "latitude": "29.968190994729735",
      "longitude": "-90.09898361079348"
    }
  },
  {
    "service_request": "2025-1169142",
    "request_type": "Trash/Recycling",
    "request_reason": "Request a Large Item Pick Up",
    "date_created": "2025-02-15T03:01:19.000",
    "date_modified": "2025-02-15T03:01:21.000",
    "request_status": "Pending",
    "responsible_agency": "Department of Sanitation",
    "final_address": "421 S Genois St",
    "address_councildis": "B",
    "status": "Assigned to Contractor",
    "contractor": "IV Waste",
    "rowid": "1169142",
    "final_x": "3671661.44308",
    "final_y": "536029.731207",
    "longitude": "-90.09898361079348",
    "latitude": "29.968190994729735",
    "geocoded_column": {
      "latitude": "29.968190994729735",
      "longitude": "-90.09898361079348"
    }
  },
  {
    "service_request": "2025-1169140",
    "request_type": "Traffic Signals",
    "request_reason": "Traffic Signal Malfunctioning or Damaged",
    "date_created": "2025-02-15T00:22:02.000",
    "date_modified": "2025-02-15T00:22:05.000",
    "request_status": "Pending",
    "responsible_agency": "Department of Public Works",
    "final_address": "801 Canal St",
    "address_councildis": "C",
    "status": "Pending",
    "rowid": "1169140",
    "final_x": "3680951.89391",
    "final_y": "530998.395906",
    "longitude": "-90.0698192041145",
    "latitude": "29.954078078458494",
    "geocoded_column": {
      "latitude": "29.954078078458494",
      "longitude": "-90.0698192041145"
    }
  },
  {
    "service_request": "2025-1169139",
    "request_type": "Trash/Recycling",
    "request_reason": "Order Recycling Cart",
    "date_created": "2025-02-14T21:52:05.000",
    "date_modified": "2025-02-14T21:52:08.000",
    "request_status": "Pending",
    "responsible_agency": "Department of Sanitation",
    "final_address": "2213 St Roch Ave",
    "address_councildis": "D",
    "status": "Pending",
    "rowid": "1169139",
    "final_x": "3686239.20802",
    "final_y": "540616.962699",
    "longitude": "-90.05278462281895",
    "latitude": "29.98036442082828",
    "geocoded_column": {
      "latitude": "29.98036442082828",
      "longitude": "-90.05278462281895"
    }
  },
  {
    "service_request": "2025-1169138",
    "request_type": "Roads and Streets",
    "request_reason": "Pothole",
    "date_created": "2025-02-14T20:00:54.000",
    "date_modified": "2025-02-14T20:00:56.000",
    "request_status": "Pending",
    "responsible_agency": "Department of Public Works",
    "final_address": "BROADWAY ST & PALM ST",
    "address_councildis": "B",
    "status": "Pending",
    "rowid": "1169138",
    "final_x": "3668944.1",
    "final_y": "533548.18",
    "longitude": "-90.10764894912846",
    "latitude": "29.961447763096505",
    "geocoded_column": {
      "latitude": "29.961447763096505",
      "longitude": "-90.10764894912846"
    }
  },
  {
    "service_request": "2025-1169137",
    "request_type": "Roads and Streets",
    "request_reason": "Pothole",
    "date_created": "2025-02-14T19:55:03.000",
    "date_modified": "2025-02-14T19:55:06.000",
    "request_status": "Pending",
    "responsible_agency": "Department of Public Works",
    "final_address": "3500 BLK Audubon Ct",
    "address_councildis": "B",
    "status": "Pending",
    "rowid": "1169137",
    "final_x": "3669078.50334",
    "final_y": "533166.133915",
    "longitude": "-90.10723743454882",
    "latitude": "29.960393308954725",
    "geocoded_column": {
      "latitude": "29.960393308954725",
      "longitude": "-90.10723743454882"
    }
  },
  {
    "service_request": "2025-1169136",
    "request_type": "Roads and Streets",
    "request_reason": "Street Subsidence (Sinking)",
    "date_created": "2025-02-14T19:46:23.000",
    "date_modified": "2025-02-14T19:46:25.000",
    "request_status": "Pending",
    "responsible_agency": "Department of Public Works",
    "final_address": "3500 BLK Audubon Ct",
    "address_councildis": "B",
    "status": "Pending",
    "rowid": "1169136",
    "final_x": "3669078.50334",
    "final_y": "533166.133915",
    "longitude": "-90.10723743454882",
    "latitude": "29.960393308954725",
    "geocoded_column": {
      "latitude": "29.960393308954725",
      "longitude": "-90.10723743454882"
    }
  },
  {
    "service_request": "2025-1169135",
    "request_type": "Roads and Streets",
    "request_reason": "Pothole",
    "date_created": "2025-02-14T19:22:12.000",
    "date_modified": "2025-02-14T19:22:14.000",
    "request_status": "Pending",
    "responsible_agency": "Department of Public Works",
    "final_address": "3300 BLK Audubon St",
    "address_councildis": "B",
    "status": "Pending",
    "rowid": "1169135",
    "final_x": "3668647.37724",
    "final_y": "532660.026331",
    "longitude": "-90.10861592864129",
    "latitude": "29.9590143579496",
    "geocoded_column": {
      "latitude": "29.9590143579496",
      "longitude": "-90.10861592864129"
    }
  },
  {
    "service_request": "2025-1169134",
    "request_type": "Trash/Recycling",
    "request_reason": "Illegal Dumping",
    "date_created": "2025-02-14T19:07:25.000",
    "date_modified": "2025-02-14T19:07:27.000",
    "request_status": "Pending",
    "responsible_agency": "Department of Sanitation",
    "final_address": "TURNAROUND & S NORMAN C FRANCIS PKWY",
    "address_councildis": "B",
    "status": "Pending",
    "rowid": "1169134",
    "final_x": "3671278.0",
    "final_y": "534334.68",
    "longitude": "-90.10025214900065",
    "latitude": "29.963541523395158",
    "geocoded_column": {
      "latitude": "29.963541523395158",
      "longitude": "-90.10025214900065"
    }
  },
  {
    "service_request": "2025-1169133",
    "request_type": "Roads and Streets",
    "request_reason": "Pothole",
    "date_created": "2025-02-14T19:06:56.000",
    "date_modified": "2025-02-14T19:06:58.000",
    "request_status": "Pending",
    "responsible_agency": "Department of Public Works",
    "final_address": "7025 Edinburgh St",
    "address_councildis": "B",
    "status": "Pending",
    "rowid": "1169133",
    "final_x": "3669031.00564",
    "final_y": "533130.486852",
    "longitude": "-90.10738862735425",
    "latitude": "29.96029668873569",
    "geocoded_column": {
      "latitude": "29.96029668873569",
      "longitude": "-90.10738862735425"
    }
  },
  {
    "service_request": "2025-1169132",
    "request_type": "Roads and Streets",
    "request_reason": "Pothole",
    "date_created": "2025-02-14T19:02:54.000",
    "date_modified": "2025-02-14T19:02:58.000",
    "request_status": "Pending",
    "responsible_agency": "Department of Public Works",
    "final_address": "3500 BLK Audubon Ct",
    "address_councildis": "B",
    "status": "Pending",
    "rowid": "1169132",
    "final_x": "3669078.50334",
    "final_y": "533166.133915",
    "longitude": "-90.10723743454882",
    "latitude": "29.960393308954725",
    "geocoded_column": {
      "latitude": "29.960393308954725",
      "longitude": "-90.10723743454882"
    }
  },
  {
    "service_request": "2025-1169131",
    "request_type": "Roads and Streets",
    "request_reason": "Pothole",
    "date_created": "2025-02-14T18:58:11.000",
    "date_modified": "2025-02-14T18:58:13.000",
    "request_status": "Pending",
    "responsible_agency": "Department of Public Works",
    "final_address": "3500 BLK Audubon Ct",
    "address_councildis": "B",
    "status": "Pending",
    "rowid": "1169131",
    "final_x": "3669078.50334",
    "final_y": "533166.133915",
    "longitude": "-90.10723743454882",
    "latitude": "29.960393308954725",
    "geocoded_column": {
      "latitude": "29.960393308954725",
      "longitude": "-90.10723743454882"
    }
  },
  {
    "service_request": "2025-1169130",
    "request_type": "Roads and Streets",
    "request_reason": "Pothole",
    "date_created": "2025-02-14T18:51:56.000",
    "date_modified": "2025-02-14T18:51:58.000",
    "request_status": "Pending",
    "responsible_agency": "Department of Public Works",
    "final_address": "7734 Coolidge Ct",
    "address_councildis": "B",
    "status": "Pending",
    "rowid": "1169130",
    "final_x": "3668210.94785",
    "final_y": "533498.962564",
    "longitude": "-90.10996578465151",
    "latitude": "29.96133397498592",
    "geocoded_column": {
      "latitude": "29.96133397498592",
      "longitude": "-90.10996578465151"
    }
  },
  {
    "service_request": "2025-1169129",
    "request_type": "Roads and Streets",
    "request_reason": "Pothole",
    "date_created": "2025-02-14T18:48:22.000",
    "date_modified": "2025-02-14T18:48:25.000",
    "request_status": "Pending",
    "responsible_agency": "Department of Public Works",
    "final_address": "3300 BLK Lowerline St",
    "address_councildis": "B",
    "status": "Pending",
    "rowid": "1169129",
    "final_x": "3667995.12657",
    "final_y": "533255.525796",
    "longitude": "-90.11065551549572",
    "latitude": "29.96067093834164",
    "geocoded_column": {
      "latitude": "29.96067093834164",
      "longitude": "-90.11065551549572"
    }
  },
  {
    "service_request": "2025-1169128",
    "request_type": "Roads and Streets",
    "request_reason": "Pothole",
    "date_created": "2025-02-14T18:38:27.000",
    "date_modified": "2025-02-14T18:38:29.000",
    "request_status": "Pending",
    "responsible_agency": "Department of Public Works",
    "final_address": "7300 BLK Palm St",
    "address_councildis": "B",
    "status": "Pending",
    "rowid": "1169128",
    "final_x": "3668613.12894",
    "final_y": "533876.866417",
    "longitude": "-90.1086830089472",
    "latitude": "29.962361272548705",
    "geocoded_column": {
      "latitude": "29.962361272548705",
      "longitude": "-90.1086830089472"
    }
  },
  {
    "service_request": "2025-1169127",
    "request_type": "Roads and Streets",
    "request_reason": "Pothole",
    "date_created": "2025-02-14T18:36:52.000",
    "date_modified": "2025-02-14T18:36:55.000",
    "request_status": "Pending",
    "responsible_agency": "Department of Public Works",
    "final_address": "7200 BLK Palm St",
    "address_councildis": "B",
    "status": "Pending",
    "rowid": "1169127",
    "final_x": "3668844.44016",
    "final_y": "533657.678863",
    "longitude": "-90.10795996096455",
    "latitude": "29.96175177960699",
    "geocoded_column": {
      "latitude": "29.96175177960699",
      "longitude": "-90.10795996096455"
    }
  },
  {
    "service_request": "2025-1169126",
    "request_type": "Roads and Streets",
    "request_reason": "Pothole",
    "date_created": "2025-02-14T18:35:28.000",
    "date_modified": "2025-02-14T18:35:30.000",
    "request_status": "Pending",
    "responsible_agency": "Department of Public Works",
    "final_address": "7100 BLK Palm St",
    "address_councildis": "B",
    "status": "Pending",
    "rowid": "1169126",
    "final_x": "3669050.36823",
    "final_y": "533465.594274",
    "longitude": "-90.10731616169141",
    "latitude": "29.961217553634928",
    "geocoded_column": {
      "latitude": "29.961217553634928",
      "longitude": "-90.10731616169141"
    }
  },
  {
    "service_request": "2025-1169125",
    "request_type": "Property Maintenance",
    "request_reason": "Property Maintenance",
    "date_created": "2025-02-14T18:31:38.000",
    "date_modified": "2025-02-14T18:31:41.000",
    "request_status": "Pending",
    "responsible_agency": "Department of Code Enforcement",
    "final_address": "3500 BLK Audubon Ct",
    "address_councildis": "B",
    "status": "Pending",
    "rowid": "1169125",
    "final_x": "3669078.50334",
    "final_y": "533166.133915",
    "longitude": "-90.10723743454882",
    "latitude": "29.960393308954725",
    "geocoded_column": {
      "latitude": "29.960393308954725",
      "longitude": "-90.10723743454882"
    }
  },
  {
    "service_request": "2025-1169124",
    "request_type": "Roads and Streets",
    "request_reason": "Pothole",
    "date_created": "2025-02-14T18:25:47.000",
    "date_modified": "2025-02-14T18:25:50.000",
    "request_status": "Pending",
    "responsible_agency": "Department of Public Works",
    "final_address": "7100 BLK Forshey St",
    "address_councildis": "B",
    "status": "Pending",
    "rowid": "1169124",
    "final_x": "3668435.70541",
    "final_y": "532616.020514",
    "longitude": "-90.10928582221361",
    "latitude": "29.958899575680363",
    "geocoded_column": {
      "latitude": "29.958899575680363",
      "longitude": "-90.10928582221361"
    }
  },
  {
    "service_request": "2025-1169123",
    "request_type": "Roads and Streets",
    "request_reason": "Pothole",
    "date_created": "2025-02-14T18:24:09.000",
    "date_modified": "2025-02-14T18:24:11.000",
    "request_status": "Pending",
    "responsible_agency": "Department of Public Works",
    "final_address": "7000 BLK Forshey St",
    "address_councildis": "B",
    "status": "Pending",
    "rowid": "1169123",
    "final_x": "3668623.3635",
    "final_y": "532447.870916",
    "longitude": "-90.10869891832743",
    "latitude": "29.958431706238997",
    "geocoded_column": {
      "latitude": "29.958431706238997",
      "longitude": "-90.10869891832743"
    }
  },
  {
    "service_request": "2025-1169122",
    "request_type": "Property Maintenance",
    "request_reason": "Property Maintenance",
    "date_created": "2025-02-14T18:06:23.000",
    "date_modified": "2025-02-14T18:06:25.000",
    "request_status": "Pending",
    "responsible_agency": "Department of Code Enforcement",
    "final_address": "3400 BLK Lowerline St",
    "address_councildis": "B",
    "status": "Pending",
    "rowid": "1169122",
    "final_x": "3668143.57805",
    "final_y": "533472.996818",
    "longitude": "-90.11017940264682",
    "latitude": "29.961264555368032",
    "geocoded_column": {
      "latitude": "29.961264555368032",
      "longitude": "-90.11017940264682"
    }
  },
  {
    "service_request": "2025-1169121",
    "request_type": "Trash/Recycling",
    "request_reason": "Missed Trash Pick-Up",
    "date_created": "2025-02-14T18:03:56.000",
    "date_modified": "2025-02-15T07:30:12.000",
    "case_close_date": "2025-02-15T01:30:07.000",
    "request_status": "Closed",
    "responsible_agency": "Department of Sanitation",
    "final_address": "425 Celeste St",
    "address_councildis": "B",
    "status": "Invalid Request",
    "contractor": "IV Waste",
    "contractor_action": "Invalid Request",
    "rowid": "1169121",
    "final_x": "3682253.27951",
    "final_y": "521476.733881",
    "longitude": "-90.06604248169063",
    "latitude": "29.927857167766927",
    "geocoded_column": {
      "latitude": "29.927857167766927",
      "longitude": "-90.06604248169063"
    }
  },
  {
    "service_request": "2025-1169120",
    "request_type": "Drainage",
    "request_reason": "Catch Basin Clogged",
    "date_created": "2025-02-14T18:03:26.000",
    "date_modified": "2025-02-14T18:03:28.000",
    "request_status": "Pending",
    "responsible_agency": "Sewerage & Water Board ",
    "final_address": "7100 BLK Forshey St",
    "address_councildis": "B",
    "status": "Pending",
    "rowid": "1169120",
    "final_x": "3668435.70541",
    "final_y": "532616.020514",
    "longitude": "-90.10928582221361",
    "latitude": "29.958899575680363",
    "geocoded_column": {
      "latitude": "29.958899575680363",
      "longitude": "-90.10928582221361"
    }
  },
  {
    "service_request": "2025-1169119",
    "request_type": "Drainage",
    "request_reason": "Catch Basin Clogged",
    "date_created": "2025-02-14T18:01:48.000",
    "date_modified": "2025-02-14T18:01:51.000",
    "request_status": "Pending",
    "responsible_agency": "Sewerage & Water Board ",
    "final_address": "7000 BLK Forshey St",
    "address_councildis": "B",
    "status": "Pending",
    "rowid": "1169119",
    "final_x": "3668623.3635",
    "final_y": "532447.870916",
    "longitude": "-90.10869891832743",
    "latitude": "29.958431706238997",
    "geocoded_column": {
      "latitude": "29.958431706238997",
      "longitude": "-90.10869891832743"
    }
  },
  {
    "service_request": "2025-1169118",
    "request_type": "Property Maintenance",
    "request_reason": "Property Maintenance",
    "date_created": "2025-02-14T18:00:40.000",
    "date_modified": "2025-02-14T18:00:41.000",
    "request_status": "Pending",
    "responsible_agency": "Department of Code Enforcement",
    "final_address": "7557 Avalon Way",
    "address_councildis": "E",
    "status": "Pending",
    "rowid": "1169118",
    "final_x": "3709214.0995",
    "final_y": "564330.452385",
    "longitude": "-89.97933576004013",
    "latitude": "30.04484135616043",
    "geocoded_column": {
      "latitude": "30.04484135616043",
      "longitude": "-89.97933576004013"
    }
  },
  {
    "service_request": "2025-1169117",
    "request_type": "Drainage",
    "request_reason": "Street Flooding",
    "date_created": "2025-02-14T17:59:22.000",
    "date_modified": "2025-02-14T17:59:24.000",
    "request_status": "Pending",
    "responsible_agency": "Sewerage & Water Board ",
    "final_address": "3400 BLK Lowerline St",
    "address_councildis": "B",
    "status": "Pending",
    "rowid": "1169117",
    "final_x": "3668143.57805",
    "final_y": "533472.996818",
    "longitude": "-90.11017940264682",
    "latitude": "29.961264555368032",
    "geocoded_column": {
      "latitude": "29.961264555368032",
      "longitude": "-90.11017940264682"
    }
  },
  {
    "service_request": "2025-1169116",
    "request_type": "Roads and Streets",
    "request_reason": "Road Shoulder Damage",
    "date_created": "2025-02-14T17:44:16.000",
    "date_modified": "2025-02-15T11:22:55.000",
    "case_close_date": "2025-02-15T05:22:54.000",
    "request_status": "Closed",
    "responsible_agency": "Department of Public Works",
    "final_address": "5611 Painters St",
    "address_councildis": "D",
    "status": "Duplicate Request",
    "rowid": "1169116",
    "final_x": "3686223.08335",
    "final_y": "553710.706647",
    "longitude": "-90.05237322795638",
    "latitude": "30.016367994379024",
    "geocoded_column": {
      "latitude": "30.016367994379024",
      "longitude": "-90.05237322795638"
    }
  },
  {
    "service_request": "2025-1169115",
    "request_type": "Drainage",
    "request_reason": "Catch Basin Clogged",
    "date_created": "2025-02-14T17:32:30.000",
    "date_modified": "2025-02-14T17:32:32.000",
    "request_status": "Pending",
    "responsible_agency": "Sewerage & Water Board ",
    "final_address": "3200 BLK Pine St",
    "address_councildis": "B",
    "status": "Pending",
    "rowid": "1169115",
    "final_x": "3668023.65899",
    "final_y": "532781.77576",
    "longitude": "-90.11058137968499",
    "latitude": "29.959367444768535",
    "geocoded_column": {
      "latitude": "29.959367444768535",
      "longitude": "-90.11058137968499"
    }
  },
  {
    "service_request": "2025-1169114",
    "request_type": "Drainage",
    "request_reason": "Street Flooding",
    "date_created": "2025-02-14T17:25:18.000",
    "date_modified": "2025-02-14T17:25:20.000",
    "request_status": "Pending",
    "responsible_agency": "Sewerage & Water Board ",
    "final_address": "2800 Milan St",
    "address_councildis": "B",
    "status": "Pending",
    "rowid": "1169114",
    "final_x": "3671132.01358",
    "final_y": "525212.680765",
    "longitude": "-90.1010229616528",
    "latitude": "29.938463344017",
    "geocoded_column": {
      "latitude": "29.938463344017",
      "longitude": "-90.1010229616528"
    }
  },
  {
    "service_request": "2025-1169113",
    "request_type": "Trash/Recycling",
    "request_reason": "Replace Trash Cart",
    "date_created": "2025-02-14T17:20:00.000",
    "date_modified": "2025-02-14T17:20:02.000",
    "request_status": "Pending",
    "responsible_agency": "Department of Sanitation",
    "final_address": "2520 Valence St",
    "address_councildis": "B",
    "status": "Assigned to Contractor",
    "contractor": "IV Waste",
    "rowid": "1169113",
    "final_x": "3669352.78202",
    "final_y": "524108.61798",
    "longitude": "-90.10667750688297",
    "latitude": "29.935480022053902",
    "geocoded_column": {
      "latitude": "29.935480022053902",
      "longitude": "-90.10667750688297"
    }
  },
  {
    "service_request": "2025-1169112",
    "request_type": "Roads and Streets",
    "request_reason": "Sidewalk Damaged or Missing",
    "date_created": "2025-02-14T17:08:38.000",
    "date_modified": "2025-02-15T08:50:14.000",
    "request_status": "Pending",
    "responsible_agency": "Department of Public Works",
    "final_address": "2339 Dumaine St",
    "address_councildis": "D",
    "status": "Inspected",
    "rowid": "1169112",
    "final_x": "3678287.10011",
    "final_y": "536707.124295",
    "longitude": "-90.07803606820417",
    "latitude": "29.969855675373108",
    "geocoded_column": {
      "latitude": "29.969855675373108",
      "longitude": "-90.07803606820417"
    }
  },
  {
    "service_request": "2025-1169111",
    "request_type": "Utility Poles",
    "request_reason": "Wires Sagging/Hanging Low",
    "date_created": "2025-02-14T16:45:30.000",
    "date_modified": "2025-02-14T16:45:33.000",
    "request_status": "Pending",
    "responsible_agency": "Utility Company Collective",
    "final_address": "8221 Spruce St",
    "address_councildis": "A",
    "status": "Pending",
    "rowid": "1169111",
    "final_x": "3663484.14957",
    "final_y": "530842.04941",
    "longitude": "-90.12498073256633",
    "latitude": "29.95416624626847",
    "geocoded_column": {
      "latitude": "29.95416624626847",
      "longitude": "-90.12498073256633"
    }
  },
  {
    "service_request": "2025-1169110",
    "request_type": "Trash/Recycling",
    "request_reason": "Request a Large Item Pick Up",
    "date_created": "2025-02-14T16:41:09.000",
    "date_modified": "2025-02-14T16:41:12.000",
    "request_status": "Pending",
    "responsible_agency": "Department of Sanitation",
    "final_address": "432 S Bernadotte St",
    "address_councildis": "A",
    "status": "Assigned to Contractor",
    "contractor": "IV Waste",
    "rowid": "1169110",
    "final_x": "3667926.39719",
    "final_y": "538827.818697",
    "longitude": "-90.11068479272703",
    "latitude": "29.975994905119737",
    "geocoded_column": {
      "latitude": "29.975994905119737",
      "longitude": "-90.11068479272703"
    }
  },
  {
    "service_request": "2025-1169109",
    "request_type": "Trash/Recycling",
    "request_reason": "Request a Large Item Pick Up",
    "date_created": "2025-02-14T16:30:32.000",
    "date_modified": "2025-02-14T16:30:41.000",
    "request_status": "Pending",
    "responsible_agency": "Department of Sanitation",
    "final_address": "1616 Spain St",
    "address_councildis": "D",
    "status": "Assigned to Contractor",
    "contractor": "IV Waste",
    "rowid": "1169109",
    "final_x": "3685944.60162",
    "final_y": "538376.898057",
    "longitude": "-90.0537941197977",
    "latitude": "29.9742140798663",
    "geocoded_column": {
      "latitude": "29.9742140798663",
      "longitude": "-90.0537941197977"
    }
  },
  {
    "service_request": "2025-1169108",
    "request_type": "Roads and Streets",
    "request_reason": "Pothole",
    "date_created": "2025-02-14T16:29:16.000",
    "date_modified": "2025-02-15T09:47:19.000",
    "request_status": "Pending",
    "responsible_agency": "Department of Public Works",
    "final_address": "7358 Newcastle St",
    "address_councildis": "E",
    "status": "Inspected",
    "rowid": "1169108",
    "final_x": "3697348.65405",
    "final_y": "558656.393372",
    "longitude": "-90.01704193092431",
    "latitude": "30.029620073160416",
    "geocoded_column": {
      "latitude": "30.029620073160416",
      "longitude": "-90.01704193092431"
    }
  },
  {
    "service_request": "2025-1169107",
    "request_type": "Trash/Recycling",
    "request_reason": "MIssed Recycling Pick-Up",
    "date_created": "2025-02-14T16:24:51.000",
    "date_modified": "2025-02-14T17:00:40.000",
    "case_close_date": "2025-02-14T11:00:38.000",
    "request_status": "Closed",
    "responsible_agency": "Department of Sanitation",
    "final_address": "4300 St Claude Ave",
    "address_councildis": "C",
    "status": "Invalid Request",
    "contractor": "IV Waste",
    "contractor_action": "Invalid Request",
    "rowid": "1169107",
    "final_x": "3692811.37366",
    "final_y": "534997.198534",
    "longitude": "-90.03222855107038",
    "latitude": "29.96470847271701",
    "geocoded_column": {
      "latitude": "29.96470847271701",
      "longitude": "-90.03222855107038"
    }
  },
  {
    "service_request": "2025-1169106",
    "request_type": "Trash/Recycling",
    "request_reason": "Repair Trash Cart",
    "date_created": "2025-02-14T16:17:26.000",
    "date_modified": "2025-02-14T16:17:28.000",
    "request_status": "Pending",
    "responsible_agency": "Department of Sanitation",
    "final_address": "1012 Toledano St",
    "address_councildis": "B",
    "status": "Assigned to Contractor",
    "contractor": "IV Waste",
    "rowid": "1169106",
    "final_x": "3675473.17486",
    "final_y": "519543.143351",
    "longitude": "-90.08751207224745",
    "latitude": "29.92274486799866",
    "geocoded_column": {
      "latitude": "29.92274486799866",
      "longitude": "-90.08751207224745"
    }
  },
  {
    "service_request": "2025-1169105",
    "request_type": "Trash/Recycling",
    "request_reason": "Request a Large Item Pick Up",
    "date_created": "2025-02-14T16:13:33.000",
    "date_modified": "2025-02-14T16:14:10.000",
    "request_status": "Pending",
    "responsible_agency": "Department of Sanitation",
    "final_address": "1221 Desire St",
    "address_councildis": "C",
    "status": "Assigned to Contractor",
    "contractor": "IV Waste",
    "rowid": "1169105",
    "final_x": "3690352.39312",
    "final_y": "536245.861895",
    "longitude": "-90.03994930710036",
    "latitude": "29.968218405074",
    "geocoded_column": {
      "latitude": "29.968218405074",
      "longitude": "-90.03994930710036"
    }
  },
  {
    "service_request": "2025-1169104",
    "request_type": "Trash/Recycling",
    "request_reason": "Request a Large Item Pick Up",
    "date_created": "2025-02-14T16:10:43.000",
    "date_modified": "2025-02-14T16:10:45.000",
    "request_status": "Pending",
    "responsible_agency": "Department of Sanitation",
    "final_address": "3121 Orleans Ave",
    "address_councildis": "A",
    "status": "Assigned to Contractor",
    "contractor": "IV Waste",
    "rowid": "1169104",
    "final_x": "3675182.12865",
    "final_y": "538290.144969",
    "longitude": "-90.08778752934143",
    "latitude": "29.974301609846606",
    "geocoded_column": {
      "latitude": "29.974301609846606",
      "longitude": "-90.08778752934143"
    }
  },
  {
    "service_request": "2025-1169103",
    "request_type": "Property Maintenance",
    "request_reason": "Property Maintenance",
    "date_created": "2025-02-14T16:00:58.000",
    "date_modified": "2025-02-14T16:01:00.000",
    "request_status": "Pending",
    "responsible_agency": "Department of Code Enforcement",
    "final_address": "1209 St Roch Ave",
    "address_councildis": "C",
    "status": "Pending",
    "rowid": "1169103",
    "final_x": "3686543.74582",
    "final_y": "536895.69172",
    "longitude": "-90.05195420085717",
    "latitude": "29.97012287036046",
    "geocoded_column": {
      "latitude": "29.97012287036046",
      "longitude": "-90.05195420085717"
    }
  },
  {
    "service_request": "2025-1169102",
    "request_type": "Trash/Recycling",
    "request_reason": "Request a Large Item Pick Up",
    "date_created": "2025-02-14T15:58:40.000",
    "date_modified": "2025-02-14T16:19:32.000",
    "request_status": "Pending",
    "responsible_agency": "Department of Sanitation",
    "final_address": "5229 Marcia Ave",
    "address_councildis": "A",
    "status": "Assigned to Contractor",
    "contractor": "IV Waste",
    "rowid": "1169102",
    "final_x": "3664262.53178",
    "final_y": "543286.11899",
    "longitude": "-90.12210754744363",
    "latitude": "29.98836072326393",
    "geocoded_column": {
      "latitude": "29.98836072326393",
      "longitude": "-90.12210754744363"
    }
  },
  {
    "service_request": "2025-1169101",
    "request_type": "Trash/Recycling",
    "request_reason": "Request a Large Item Pick Up",
    "date_created": "2025-02-14T15:57:50.000",
    "date_modified": "2025-02-14T15:57:51.000",
    "request_status": "Pending",
    "responsible_agency": "Department of Sanitation",
    "final_address": "7582 Forum Blvd",
    "address_councildis": "E",
    "status": "Assigned to Contractor",
    "contractor": "Waste Pro",
    "rowid": "1169101",
    "final_x": "3720367.02425",
    "final_y": "572953.870505",
    "longitude": "-89.94375723316313",
    "latitude": "30.068185078422527",
    "geocoded_column": {
      "latitude": "30.068185078422527",
      "longitude": "-89.94375723316313"
    }
  },
  {
    "service_request": "2025-1169100",
    "request_type": "Mosquito, Termite & Rodent Control",
    "request_reason": "Rodent Complaint (Mice)",
    "date_created": "2025-02-14T15:57:21.000",
    "date_modified": "2025-02-14T15:57:24.000",
    "request_status": "Pending",
    "responsible_agency": "Mosquito, Termite & Rodent Control Board",
    "final_address": "2316 Ursulines Ave",
    "address_councildis": "D",
    "status": "Pending",
    "rowid": "1169100",
    "final_x": "3678822.07995",
    "final_y": "537131.592648",
    "longitude": "-90.07633184563245",
    "latitude": "29.971006691748293",
    "geocoded_column": {
      "latitude": "29.971006691748293",
      "longitude": "-90.07633184563245"
    }
  },
  {
    "service_request": "2025-1169099",
    "request_type": "Trash/Recycling",
    "request_reason": "Request a Large Item Pick Up",
    "date_created": "2025-02-14T15:56:17.000",
    "date_modified": "2025-02-14T15:56:19.000",
    "request_status": "Pending",
    "responsible_agency": "Department of Sanitation",
    "final_address": "2311 Tricou St",
    "address_councildis": "E",
    "status": "Assigned to Contractor",
    "contractor": "Waste Pro",
    "rowid": "1169099",
    "final_x": "3701964.90506",
    "final_y": "537454.758344",
    "longitude": "-90.00323244344227",
    "latitude": "29.971176904115605",
    "geocoded_column": {
      "latitude": "29.971176904115605",
      "longitude": "-90.00323244344227"
    }
  },
  {
    "service_request": "2025-1169098",
    "request_type": "Trash/Recycling",
    "request_reason": "Replace Trash Cart",
    "date_created": "2025-02-14T15:52:15.000",
    "date_modified": "2025-02-14T15:52:17.000",
    "request_status": "Pending",
    "responsible_agency": "Department of Sanitation",
    "final_address": "911 Elysian Fields Ave",
    "address_councildis": "C",
    "status": "Assigned to Contractor",
    "contractor": "IV Waste",
    "rowid": "1169098",
    "final_x": "3685139.33577",
    "final_y": "535680.239367",
    "longitude": "-90.05643223984076",
    "latitude": "29.966823907929854",
    "geocoded_column": {
      "latitude": "29.966823907929854",
      "longitude": "-90.05643223984076"
    }
  },
  {
    "service_request": "2025-1169097",
    "request_type": "Abandoned Vehicles",
    "request_reason": "Abandoned/Junk Vehicles",
    "date_created": "2025-02-14T15:51:45.000",
    "date_modified": "2025-02-14T15:51:49.000",
    "request_status": "Pending",
    "responsible_agency": "Department of Public Works",
    "final_address": "ALMONASTER AVE & LOUISA ST",
    "address_councildis": "D",
    "status": "Pending",
    "rowid": "1169097",
    "final_x": "3691620.4",
    "final_y": "548541.28",
    "longitude": "-90.03550510438399",
    "latitude": "30.00198696956321",
    "geocoded_column": {
      "latitude": "30.00198696956321",
      "longitude": "-90.03550510438399"
    }
  },
  {
    "service_request": "2025-1169096",
    "request_type": "Trash/Recycling",
    "request_reason": "Order Recycling Cart",
    "date_created": "2025-02-14T15:46:10.000",
    "date_modified": "2025-02-14T15:46:12.000",
    "request_status": "Pending",
    "responsible_agency": "Department of Sanitation",
    "final_address": "4501 Marque Dr",
    "address_councildis": "E",
    "status": "Pending",
    "rowid": "1169096",
    "final_x": "3710286.13758",
    "final_y": "554199.691736",
    "longitude": "-89.97632683350508",
    "latitude": "30.01695089448695",
    "geocoded_column": {
      "latitude": "30.01695089448695",
      "longitude": "-89.97632683350508"
    }
  },
  {
    "service_request": "2025-1169095",
    "request_type": "Trash/Recycling",
    "request_reason": "Replace Trash Cart",
    "date_created": "2025-02-14T15:41:58.000",
    "date_modified": "2025-02-14T15:42:00.000",
    "request_status": "Pending",
    "responsible_agency": "Department of Sanitation",
    "final_address": "4501 Marque Dr",
    "address_councildis": "E",
    "status": "Assigned to Contractor",
    "contractor": "Waste Pro",
    "rowid": "1169095",
    "final_x": "3710286.13758",
    "final_y": "554199.691736",
    "longitude": "-89.97632683350508",
    "latitude": "30.01695089448695",
    "geocoded_column": {
      "latitude": "30.01695089448695",
      "longitude": "-89.97632683350508"
    }
  },
  {
    "service_request": "2025-1169094",
    "request_type": "Roads and Streets",
    "request_reason": "Sidewalk Damaged or Missing",
    "date_created": "2025-02-14T15:41:52.000",
    "date_modified": "2025-02-15T12:22:52.000",
    "case_close_date": "2025-02-15T06:22:51.000",
    "request_status": "Closed",
    "responsible_agency": "Department of Public Works",
    "final_address": "3721 Pauger St",
    "address_councildis": "D",
    "status": "Duplicate Request",
    "rowid": "1169094",
    "final_x": "3683352.16591",
    "final_y": "543771.769294",
    "longitude": "-90.06179254978213",
    "latitude": "29.98912742805195",
    "geocoded_column": {
      "latitude": "29.98912742805195",
      "longitude": "-90.06179254978213"
    }
  },
  {
    "service_request": "2025-1169093",
    "request_type": "Abandoned Vehicles",
    "request_reason": "Abandoned/Junk Vehicles",
    "date_created": "2025-02-14T15:38:47.000",
    "date_modified": "2025-02-14T15:38:49.000",
    "request_status": "Pending",
    "responsible_agency": "Department of Public Works",
    "final_address": "1100 BLK Fourth St",
    "address_councildis": "B",
    "status": "Pending",
    "rowid": "1169093",
    "final_x": "3677214.7059",
    "final_y": "521154.853803",
    "longitude": "-90.0819591841558",
    "latitude": "29.927124369564293",
    "geocoded_column": {
      "latitude": "29.927124369564293",
      "longitude": "-90.0819591841558"
    }
  },
  {
    "service_request": "2025-1169092",
    "request_type": "Trash/Recycling",
    "request_reason": "Request a Large Item Pick Up",
    "date_created": "2025-02-14T15:38:02.000",
    "date_modified": "2025-02-14T15:38:04.000",
    "request_status": "Pending",
    "responsible_agency": "Department of Sanitation",
    "final_address": "7321 Symmes Ave",
    "address_councildis": "E",
    "status": "Assigned to Contractor",
    "contractor": "Waste Pro",
    "rowid": "1169092",
    "final_x": "3708417.84651",
    "final_y": "563672.012833",
    "longitude": "-89.9818768141266",
    "latitude": "30.04305675768881",
    "geocoded_column": {
      "latitude": "30.04305675768881",
      "longitude": "-89.9818768141266"
    }
  },
  {
    "service_request": "2025-1169091",
    "request_type": "Roads and Streets",
    "request_reason": "Pothole",
    "date_created": "2025-02-14T15:35:18.000",
    "date_modified": "2025-02-14T15:35:20.000",
    "request_status": "Pending",
    "responsible_agency": "Department of Public Works",
    "final_address": "2529 Bristol Pl",
    "address_councildis": "C",
    "status": "Pending",
    "rowid": "1169091",
    "final_x": "3702570.6113",
    "final_y": "521694.266297",
    "longitude": "-90.00189791086179",
    "latitude": "29.92782179829652",
    "geocoded_column": {
      "latitude": "29.92782179829652",
      "longitude": "-90.00189791086179"
    }
  },
  {
    "service_request": "2025-1169090",
    "request_type": "Trash/Recycling",
    "request_reason": "Request a Large Item Pick Up",
    "date_created": "2025-02-14T15:33:03.000",
    "date_modified": "2025-02-14T15:33:05.000",
    "request_status": "Pending",
    "responsible_agency": "Department of Sanitation",
    "final_address": "7843 Sand St",
    "address_councildis": "E",
    "status": "Assigned to Contractor",
    "contractor": "Waste Pro",
    "rowid": "1169090",
    "final_x": "3720201.6341",
    "final_y": "574325.145194",
    "longitude": "-89.94422750751573",
    "latitude": "30.071961018254406",
    "geocoded_column": {
      "latitude": "30.071961018254406",
      "longitude": "-89.94422750751573"
    }
  },
  {
    "service_request": "2025-1169089",
    "request_type": "Safety & Permits",
    "request_reason": "Zoning Enforcement",
    "date_created": "2025-02-14T15:18:50.000",
    "date_modified": "2025-02-14T15:19:56.000",
    "request_status": "Pending",
    "responsible_agency": "Safety and Permits",
    "final_address": "3309 Baronne St",
    "address_councildis": "B",
    "status": "Pending",
    "rowid": "1169089",
    "final_x": "3674181.05908",
    "final_y": "522388.500666",
    "longitude": "-90.09149343455051",
    "latitude": "29.930607249332553",
    "geocoded_column": {
      "latitude": "29.930607249332553",
      "longitude": "-90.09149343455051"
    }
  },
  {
    "service_request": "2025-1169088",
    "request_type": "Trash/Recycling",
    "request_reason": "Repair Trash Cart",
    "date_created": "2025-02-14T15:12:00.000",
    "date_modified": "2025-02-14T15:12:02.000",
    "request_status": "Pending",
    "responsible_agency": "Department of Sanitation",
    "final_address": "2414 Dauphine St",
    "address_councildis": "C",
    "status": "Assigned to Contractor",
    "contractor": "IV Waste",
    "rowid": "1169088",
    "final_x": "3686008.47215",
    "final_y": "535269.77031",
    "longitude": "-90.05370199039504",
    "latitude": "29.96566860011174",
    "geocoded_column": {
      "latitude": "29.96566860011174",
      "longitude": "-90.05370199039504"
    }
  },
  {
    "service_request": "2025-1169087",
    "request_type": "Trash/Recycling",
    "request_reason": "Request a Large Item Pick Up",
    "date_created": "2025-02-14T15:05:52.000",
    "date_modified": "2025-02-14T15:12:22.000",
    "request_status": "Pending",
    "responsible_agency": "Department of Sanitation",
    "final_address": "5507 Hawthorne Pl",
    "address_councildis": "A",
    "status": "Assigned to Contractor",
    "contractor": "IV Waste",
    "rowid": "1169087",
    "final_x": "3667850.43021",
    "final_y": "544282.595471",
    "longitude": "-90.11074090169176",
    "latitude": "29.99099592116448",
    "geocoded_column": {
      "latitude": "29.99099592116448",
      "longitude": "-90.11074090169176"
    }
  },
  {
    "service_request": "2025-1169086",
    "request_type": "Roads and Streets",
    "request_reason": "Sidewalk Damaged or Missing",
    "date_created": "2025-02-14T15:04:38.000",
    "date_modified": "2025-02-15T12:20:30.000",
    "request_status": "Pending",
    "responsible_agency": "Department of Public Works",
    "final_address": "3721 Pauger St",
    "address_councildis": "D",
    "status": "Inspected",
    "rowid": "1169086",
    "final_x": "3683352.16591",
    "final_y": "543771.769294",
    "longitude": "-90.06179254978213",
    "latitude": "29.98912742805195",
    "geocoded_column": {
      "latitude": "29.98912742805195",
      "longitude": "-90.06179254978213"
    }
  },
  {
    "service_request": "2025-1169085",
    "request_type": "Trash/Recycling",
    "request_reason": "Request a Large Item Pick Up",
    "date_created": "2025-02-14T15:03:16.000",
    "date_modified": "2025-02-14T15:03:25.000",
    "request_status": "Pending",
    "responsible_agency": "Department of Sanitation",
    "final_address": "7660 Arbor Dr",
    "address_councildis": "E",
    "status": "Assigned to Contractor",
    "contractor": "Waste Pro",
    "rowid": "1169085",
    "final_x": "3702355.9546",
    "final_y": "558332.316764",
    "longitude": "-90.00123094569753",
    "latitude": "30.028569874305187",
    "geocoded_column": {
      "latitude": "30.028569874305187",
      "longitude": "-90.00123094569753"
    }
  },
  {
    "service_request": "2025-1169084",
    "request_type": "Trash/Recycling",
    "request_reason": "Replace Trash Cart",
    "date_created": "2025-02-14T15:02:56.000",
    "date_modified": "2025-02-14T15:02:58.000",
    "request_status": "Pending",
    "responsible_agency": "Department of Sanitation",
    "final_address": "201 28Th St",
    "address_councildis": "A",
    "status": "Assigned to Contractor",
    "contractor": "IV Waste",
    "rowid": "1169084",
    "final_x": "3665749.52813",
    "final_y": "550253.999188",
    "longitude": "-90.11717698326416",
    "latitude": "30.007476698437006",
    "geocoded_column": {
      "latitude": "30.007476698437006",
      "longitude": "-90.11717698326416"
    }
  },
  {
    "service_request": "2025-1169083",
    "request_type": "Trash/Recycling",
    "request_reason": "Order Trash Cart",
    "date_created": "2025-02-14T14:59:43.000",
    "date_modified": "2025-02-14T14:59:44.000",
    "request_status": "Pending",
    "responsible_agency": "Department of Sanitation",
    "final_address": "1201 Coliseum St Apt 1A",
    "address_councildis": "B",
    "status": "Assigned to Contractor",
    "contractor": "IV Waste",
    "rowid": "1169083",
    "final_x": "3680139.67362",
    "final_y": "525628.334973",
    "longitude": "-90.07257043751302",
    "latitude": "29.93933680971088",
    "geocoded_column": {
      "latitude": "29.93933680971088",
      "longitude": "-90.07257043751302"
    }
  },
  {
    "service_request": "2025-1169082",
    "request_type": "Abandoned Vehicles",
    "request_reason": "Abandoned/Junk Vehicles",
    "date_created": "2025-02-14T14:59:15.000",
    "date_modified": "2025-02-14T15:00:42.000",
    "request_status": "Pending",
    "responsible_agency": "Department of Public Works",
    "final_address": "1800 BLK N Rampart St",
    "address_councildis": "C",
    "status": "Inspected",
    "rowid": "1169082",
    "final_x": "3683724.7503",
    "final_y": "535835.178773",
    "longitude": "-90.06089405873136",
    "latitude": "29.967293207132098",
    "geocoded_column": {
      "latitude": "29.967293207132098",
      "longitude": "-90.06089405873136"
    }
  },
  {
    "service_request": "2025-1169081",
    "request_type": "Roads and Streets",
    "request_reason": "Pothole",
    "date_created": "2025-02-14T14:59:08.000",
    "date_modified": "2025-02-15T11:45:57.000",
    "request_status": "Pending",
    "responsible_agency": "Department of Public Works",
    "final_address": "2303 Prentiss Ave, New Orleans, Louisiana, 70122",
    "address_councildis": "D",
    "status": "Inspected",
    "rowid": "1169081",
    "final_x": "3684417.23298",
    "final_y": "553965.034008",
    "longitude": "-90.05806998113111",
    "latitude": "30.017122687406996",
    "geocoded_column": {
      "latitude": "30.017122687406996",
      "longitude": "-90.05806998113111"
    }
  },
  {
    "service_request": "2025-1169080",
    "request_type": "Trash/Recycling",
    "request_reason": "Request a Large Item Pick Up",
    "date_created": "2025-02-14T14:59:03.000",
    "date_modified": "2025-02-14T14:59:05.000",
    "request_status": "Pending",
    "responsible_agency": "Department of Sanitation",
    "final_address": "12 Heritage Ln Unit 46",
    "address_councildis": "C",
    "status": "Assigned to Contractor",
    "contractor": "Richards Disposal",
    "rowid": "1169080",
    "final_x": "3695815.70314",
    "final_y": "520214.20492",
    "longitude": "-90.02327487412329",
    "latitude": "29.92396622689785",
    "geocoded_column": {
      "latitude": "29.92396622689785",
      "longitude": "-90.02327487412329"
    }
  },
  {
    "service_request": "2025-1169079",
    "request_type": "Property Maintenance",
    "request_reason": "Property Maintenance",
    "date_created": "2025-02-14T14:58:24.000",
    "date_modified": "2025-02-14T15:34:53.000",
    "case_close_date": "2025-02-14T09:34:52.000",
    "request_status": "Closed",
    "responsible_agency": "Department of Code Enforcement",
    "final_address": "1738 Spain St",
    "address_councildis": "D",
    "status": "Referred to Code Enforcement",
    "rowid": "1169079",
    "final_x": "3685895.53807",
    "final_y": "538924.589322",
    "longitude": "-90.0539297599791",
    "latitude": "29.97572154533145",
    "geocoded_column": {
      "latitude": "29.97572154533145",
      "longitude": "-90.0539297599791"
    }
  },
  {
    "service_request": "2025-1169078",
    "request_type": "Traffic Signals",
    "request_reason": "Traffic Signal Malfunctioning or Damaged",
    "date_created": "2025-02-14T14:57:13.000",
    "date_modified": "2025-02-14T14:57:15.000",
    "request_status": "Pending",
    "responsible_agency": "Department of Public Works",
    "final_address": "800 BLK Canal St",
    "address_councildis": "C",
    "status": "Pending",
    "rowid": "1169078",
    "final_x": "3680787.09049",
    "final_y": "531031.227751",
    "longitude": "-90.07033844363592",
    "latitude": "29.954173350818394",
    "geocoded_column": {
      "latitude": "29.954173350818394",
      "longitude": "-90.07033844363592"
    }
  },
  {
    "service_request": "2025-1169077",
    "request_type": "Trash/Recycling",
    "request_reason": "Request a Large Item Pick Up",
    "date_created": "2025-02-14T14:57:00.000",
    "date_modified": "2025-02-14T14:57:02.000",
    "request_status": "Pending",
    "responsible_agency": "Department of Sanitation",
    "final_address": "1946 E Homestead Dr",
    "address_councildis": "C",
    "status": "Assigned to Contractor",
    "contractor": "Richards Disposal",
    "rowid": "1169077",
    "final_x": "3697171.59491",
    "final_y": "524640.459516",
    "longitude": "-90.01883454573074",
    "latitude": "29.93609421364658",
    "geocoded_column": {
      "latitude": "29.93609421364658",
      "longitude": "-90.01883454573074"
    }
  },
  {
    "service_request": "2025-1169076",
    "request_type": "Trash/Recycling",
    "request_reason": "Repair Trash Cart",
    "date_created": "2025-02-14T14:51:33.000",
    "date_modified": "2025-02-14T14:51:35.000",
    "request_status": "Pending",
    "responsible_agency": "Department of Sanitation",
    "final_address": "3034 Second St",
    "address_councildis": "B",
    "status": "Assigned to Contractor",
    "contractor": "IV Waste",
    "rowid": "1169076",
    "final_x": "3673713.28417",
    "final_y": "527500.597119",
    "longitude": "-90.09279541467592",
    "latitude": "29.94467777998572",
    "geocoded_column": {
      "latitude": "29.94467777998572",
      "longitude": "-90.09279541467592"
    }
  },
  {
    "service_request": "2025-1169075",
    "request_type": "Trash/Recycling",
    "request_reason": "Missed Trash Pick-Up",
    "date_created": "2025-02-14T14:48:19.000",
    "date_modified": "2025-02-14T16:43:16.000",
    "case_close_date": "2025-02-14T10:43:15.000",
    "request_status": "Closed",
    "responsible_agency": "Department of Sanitation",
    "final_address": "7925 Hammond St",
    "address_councildis": "E",
    "status": "Invalid Request",
    "contractor": "Waste Pro",
    "contractor_action": "Invalid Request",
    "rowid": "1169075",
    "final_x": "3704553.18378",
    "final_y": "555642.557977",
    "longitude": "-89.99438717694655",
    "latitude": "30.021103660558946",
    "geocoded_column": {
      "latitude": "30.021103660558946",
      "longitude": "-89.99438717694655"
    }
  },
  {
    "service_request": "2025-1169074",
    "request_type": "Trash/Recycling",
    "request_reason": "Missed Trash Pick-Up",
    "date_created": "2025-02-14T14:45:34.000",
    "date_modified": "2025-02-14T15:06:01.000",
    "case_close_date": "2025-02-14T09:06:00.000",
    "request_status": "Closed",
    "responsible_agency": "Department of Sanitation",
    "final_address": "1427 Sixth St",
    "address_councildis": "B",
    "status": "Invalid Request",
    "contractor": "IV Waste",
    "contractor_action": "Invalid",
    "rowid": "1169074",
    "final_x": "3675966.16769",
    "final_y": "521641.041721",
    "longitude": "-90.08588379288793",
    "latitude": "29.928498662315256",
    "geocoded_column": {
      "latitude": "29.928498662315256",
      "longitude": "-90.08588379288793"
    }
  },