[
  {
    "service_request": "2024-1156469",
    "request_type": "Trash/Recycling",
    "request_reason": "Request a Large Item Pick Up",
    "date_created": "2024-12-19T23:45:38.000",
    "date_modified": "2024-12-19T23:45:39.000",
    "request_status": "Pending",
    "responsible_agency": "Department of Sanitation",
    "final_address": "833 Howard Ave",
    "address_councildis": "B",
    "status": "Assigned to Contractor",
    "contractor": "Empire Services",
    "rowid": "1156469",
    "final_x": "3679612.12091",
    "final_y": "527553.411775",
    "longitude": "-90.07416920108783",
    "latitude": "29.94464608128757",
    "geocoded_column": {
      "latitude": "29.94464608128757",
      "longitude": "-90.07416920108783"
    }
  },
  {
    "service_request": "2024-1156468",
    "request_type": "Trash/Recycling",
    "request_reason": "Request a Large Item Pick Up",
    "date_created": "2024-12-19T23:04:12.000",
    "date_modified": "2024-12-19T23:04:13.000",
    "request_status": "Pending",
    "responsible_agency": "Department of Sanitation",
    "final_address": "2125 Forstall St",
    "address_councildis": "E",
    "status": "Assigned to Contractor",
    "contractor": "Waste Pro",
    "rowid": "1156468",
    "final_x": "3697441.99376",
    "final_y": "538131.746121",
    "longitude": "-90.01749178028349",
    "latitude": "29.97318196520593",
    "geocoded_column": {
      "latitude": "29.97318196520593",
      "longitude": "-90.01749178028349"
    }
  },
  {
    "service_request": "2024-1156467",
    "request_type": "Trash/Recycling",
    "request_reason": "Request a Large Item Pick Up",
    "date_created": "2024-12-19T23:02:07.000",
    "date_modified": "2024-12-19T23:02:08.000",
    "request_status": "Pending",
    "responsible_agency": "Department of Sanitation",
    "final_address": "2125 Forstall St",
    "address_councildis": "E",
    "status": "Assigned to Contractor",
    "contractor": "Waste Pro",
    "rowid": "1156467",
    "final_x": "3697441.99376",
    "final_y": "538131.746121",
    "longitude": "-90.01749178028349",
    "latitude": "29.97318196520593",
    "geocoded_column": {
      "latitude": "29.97318196520593",
      "longitude": "-90.01749178028349"
    }
  },
  {
    "service_request": "2024-1156466",
    "request_type": "Property Maintenance",
    "request_reason": "Property Maintenance",
    "date_created": "2024-12-19T22:10:52.000",
    "date_modified": "2024-12-19T22:10:52.000",
    "request_status": "Pending",
    "responsible_agency": "Department of Code Enforcement",
    "final_address": "4100 BLK Encampment St",
    "address_councildis": "D",
    "status": "Pending",
    "rowid": "1156466",
    "final_x": "3676535.11212",
    "final_y": "547279.236594",
    "longitude": "-90.08320475075845",
    "latitude": "29.99897798090907",
    "geocoded_column": {
      "latitude": "29.99897798090907",
      "longitude": "-90.08320475075845"
    }
  },
  {
    "service_request": "2024-1156465",
    "request_type": "Street and Traffic Signs",
    "request_reason": "Street Name Sign Damaged or Missing",
    "date_created": "2024-12-19T20:36:45.000",
    "date_modified": "2024-12-19T20:36:45.000",
    "request_status": "Pending",
    "responsible_agency": "Department of Public Works",
    "final_address": "6700 BLK General Diaz St",
    "address_councildis": "A",
    "status": "Pending",
    "rowid": "1156465",
    "final_x": "3669966.76108",
    "final_y": "552250.717137",
    "longitude": "-90.10378581313434",
    "latitude": "30.012843221406477",
    "geocoded_column": {
      "latitude": "30.012843221406477",
      "longitude": "-90.10378581313434"
    }
  },
  {
    "service_request": "2024-1156464",
    "request_type": "Streetlights",
    "request_reason": "Streetlight Outage/Malfunction",
    "date_created": "2024-12-19T20:34:39.000",
    "date_modified": "2024-12-19T20:34:40.000",
    "request_status": "Pending",
    "responsible_agency": "Department of Public Works",
    "final_address": "6700 BLK General Diaz St",
    "address_councildis": "A",
    "status": "Pending",
    "contractor": "Legacy Professional Services",
    "rowid": "1156464",
    "final_x": "3669966.76108",
    "final_y": "552250.717137",
    "longitude": "-90.10378581313434",
    "latitude": "30.012843221406477",
    "geocoded_column": {
      "latitude": "30.012843221406477",
      "longitude": "-90.10378581313434"
    }
  },
  {
    "service_request": "2024-1156463",
    "request_type": "Roads and Streets",
    "request_reason": "Pothole",
    "date_created": "2024-12-19T20:30:54.000",
    "date_modified": "2024-12-19T20:30:54.000",
    "request_status": "Pending",
    "responsible_agency": "Department of Public Works",
    "final_address": "804 Webster St",
    "address_councildis": "A",
    "status": "Pending",
    "rowid": "1156463",
    "final_x": "3664124.39348",
    "final_y": "519522.014135",
    "longitude": "-90.1233365457699",
    "latitude": "29.923021174551675",
    "geocoded_column": {
      "latitude": "29.923021174551675",
      "longitude": "-90.1233365457699"
    }
  },
  {
    "service_request": "2024-1156462",
    "request_type": "Trash/Recycling",
    "request_reason": "Replace Trash Cart",
    "date_created": "2024-12-19T19:48:21.000",
    "date_modified": "2024-12-19T19:48:22.000",
    "request_status": "Pending",
    "responsible_agency": "Department of Sanitation",
    "final_address": "2214 Milan St",
    "address_councildis": "B",
    "status": "Assigned to Contractor",
    "contractor": "IV Waste",
    "rowid": "1156462",
    "final_x": "3671323.3058",
    "final_y": "523220.346043",
    "longitude": "-90.10048670755911",
    "latitude": "29.93297940935219",
    "geocoded_column": {
      "latitude": "29.93297940935219",
      "longitude": "-90.10048670755911"
    }
  },
  {
    "service_request": "2024-1156461",
    "request_type": "Abandoned Vehicles",
    "request_reason": "Abandoned/Junk Vehicles",
    "date_created": "2024-12-19T19:46:05.000",
    "date_modified": "2024-12-19T19:46:05.000",
    "request_status": "Pending",
    "responsible_agency": "Department of Public Works",
    "final_address": "2218 Joliet St",
    "address_councildis": "A",
    "status": "Pending",
    "rowid": "1156461",
    "final_x": "3663388.00717",
    "final_y": "532120.121411",
    "longitude": "-90.12524176410639",
    "latitude": "29.957683317091256",
    "geocoded_column": {
      "latitude": "29.957683317091256",
      "longitude": "-90.12524176410639"
    }
  },
  {
    "service_request": "2024-1156460",
    "request_type": "Street and Traffic Signs",
    "request_reason": "Stop Sign Missing or Damaged",
    "date_created": "2024-12-19T19:44:11.000",
    "date_modified": "2024-12-19T19:44:11.000",
    "request_status": "Pending",
    "responsible_agency": "Department of Public Works",
    "final_address": "MURL ST & WALL BLVD",
    "address_councildis": "C",
    "status": "Pending",
    "rowid": "1156460",
    "final_x": "3695401.6",
    "final_y": "523857.28",
    "longitude": "-90.02445068130409",
    "latitude": "29.93399645274263",
    "geocoded_column": {
      "latitude": "29.93399645274263",
      "longitude": "-90.02445068130409"
    }
  },
  {
    "service_request": "2024-1156459",
    "request_type": "Street and Traffic Signs",
    "request_reason": "Stop Sign Missing or Damaged",
    "date_created": "2024-12-19T19:42:41.000",
    "date_modified": "2024-12-19T19:42:41.000",
    "request_status": "Pending",
    "responsible_agency": "Department of Public Works",
    "final_address": "MURL ST & WALL BLVD",
    "address_councildis": "C",
    "status": "Pending",
    "rowid": "1156459",
    "final_x": "3695401.6",
    "final_y": "523857.28",
    "longitude": "-90.02445068130409",
    "latitude": "29.93399645274263",
    "geocoded_column": {
      "latitude": "29.93399645274263",
      "longitude": "-90.02445068130409"
    }
  },
  {
    "service_request": "2024-1156458",
    "request_type": "Streetlights",
    "request_reason": "Streetlight Outage/Malfunction",
    "date_created": "2024-12-19T19:14:40.000",
    "date_modified": "2024-12-19T19:14:40.000",
    "request_status": "Pending",
    "responsible_agency": "Department of Public Works",
    "final_address": "1021 State St",
    "address_councildis": "A",
    "status": "Pending",
    "contractor": "Legacy Professional Services",
    "rowid": "1156458",
    "final_x": "3665018.72327",
    "final_y": "519962.685688",
    "longitude": "-90.12049875748788",
    "latitude": "29.92420688467963",
    "geocoded_column": {
      "latitude": "29.92420688467963",
      "longitude": "-90.12049875748788"
    }
  },
  {
    "service_request": "2024-1156457",
    "request_type": "Streetlights",
    "request_reason": "Streetlight Outage/Malfunction",
    "date_created": "2024-12-19T19:13:29.000",
    "date_modified": "2024-12-19T19:13:30.000",
    "request_status": "Pending",
    "responsible_agency": "Department of Public Works",
    "final_address": "5916 N Claiborne Ave",
    "address_councildis": "E",
    "status": "Pending",
    "contractor": "Legacy Professional Services",
    "rowid": "1156457",
    "final_x": "3699629.0465",
    "final_y": "535175.55751",
    "longitude": "-90.01069244257198",
    "latitude": "29.964984270777215",
    "geocoded_column": {
      "latitude": "29.964984270777215",
      "longitude": "-90.01069244257198"
    }
  },
  {
    "service_request": "2024-1156456",
    "request_type": "Roads and Streets",
    "request_reason": "Street Subsidence (Sinking)",
    "date_created": "2024-12-19T18:54:25.000",
    "date_modified": "2024-12-19T18:54:25.000",
    "request_status": "Pending",
    "responsible_agency": "Department of Public Works",
    "final_address": "766 Harrison Ave",
    "address_councildis": "A",
    "status": "Pending",
    "rowid": "1156456",
    "final_x": "3669236.15246",
    "final_y": "549082.044115",
    "longitude": "-90.10620136087446",
    "latitude": "30.004152017571418",
    "geocoded_column": {
      "latitude": "30.004152017571418",
      "longitude": "-90.10620136087446"
    }
  },
  {
    "service_request": "2024-1156455",
    "request_type": "Trash/Recycling",
    "request_reason": "Request a Large Item Pick Up",
    "date_created": "2024-12-19T18:10:12.000",
    "date_modified": "2024-12-19T18:10:13.000",
    "request_status": "Pending",
    "responsible_agency": "Department of Sanitation",
    "final_address": "2615 S Carrollton Ave",
    "address_councildis": "A",
    "status": "Assigned to Contractor",
    "contractor": "IV Waste",
    "rowid": "1156455",
    "final_x": "3665563.87488",
    "final_y": "532090.110531",
    "longitude": "-90.11837198373338",
    "latitude": "29.957537538119293",
    "geocoded_column": {
      "latitude": "29.957537538119293",
      "longitude": "-90.11837198373338"
    }
  },
  {
    "service_request": "2024-1156454",
    "request_type": "Trash/Recycling",
    "request_reason": "Replace Trash Cart",
    "date_created": "2024-12-19T18:07:56.000",
    "date_modified": "2024-12-19T18:07:57.000",
    "request_status": "Pending",
    "responsible_agency": "Department of Sanitation",
    "final_address": "514 S Scott St",
    "address_councildis": "B",
    "status": "Assigned to Contractor",
    "contractor": "IV Waste",
    "rowid": "1156454",
    "final_x": "3670762.60199",
    "final_y": "536419.917255",
    "longitude": "-90.10180895187808",
    "latitude": "29.96929046905707",
    "geocoded_column": {
      "latitude": "29.96929046905707",
      "longitude": "-90.10180895187808"
    }
  },
  {
    "service_request": "2024-1156453",
    "request_type": "Trash/Recycling",
    "request_reason": "Order Recycling Cart",
    "date_created": "2024-12-19T17:41:59.000",
    "date_modified": "2024-12-19T17:41:59.000",
    "request_status": "Pending",
    "responsible_agency": "Department of Sanitation",
    "final_address": "2433 S Robertson St",
    "address_councildis": "B",
    "status": "Pending",
    "rowid": "1156453",
    "final_x": "3674713.9803",
    "final_y": "526111.435902",
    "longitude": "-90.0896835187316",
    "latitude": "29.940828215370026",
    "geocoded_column": {
      "latitude": "29.940828215370026",
      "longitude": "-90.0896835187316"
    }
  },
  {
    "service_request": "2024-1156452",
    "request_type": "Property Maintenance",
    "request_reason": "Property Maintenance",
    "date_created": "2024-12-19T17:32:06.000",
    "date_modified": "2024-12-19T17:32:06.000",
    "request_status": "Pending",
    "responsible_agency": "Department of Code Enforcement",
    "final_address": "23096 Chef Menteur Hwy",
    "address_councildis": "E",
    "status": "Pending",
    "rowid": "1156452",
    "final_x": "3776123.86852",
    "final_y": "583289.338675",
    "longitude": "-89.76705730817429",
    "latitude": "30.09462552556786",
    "geocoded_column": {
      "latitude": "30.09462552556786",
      "longitude": "-89.76705730817429"
    }
  },
  {
    "service_request": "2024-1156451",
    "request_type": "Trash/Recycling",
    "request_reason": "Order Recycling Cart",
    "date_created": "2024-12-19T17:21:12.000",
    "date_modified": "2024-12-19T17:21:12.000",
    "request_status": "Pending",
    "responsible_agency": "Department of Sanitation",
    "final_address": "1221 Governor Nicholls St",
    "address_councildis": "C",
    "status": "Pending",
    "rowid": "1156451",
    "final_x": "3682059.17672",
    "final_y": "535241.716422",
    "longitude": "-90.06617468351011",
    "latitude": "29.965712142134443",
    "geocoded_column": {
      "latitude": "29.965712142134443",
      "longitude": "-90.06617468351011"
    }
  },
  {
    "service_request": "2024-1156450",
    "request_type": "Trash/Recycling",
    "request_reason": "Illegal Dumping",
    "date_created": "2024-12-19T17:20:29.000",
    "date_modified": "2024-12-19T17:20:30.000",
    "request_status": "Pending",
    "responsible_agency": "Department of Sanitation",
    "final_address": "2800 BLK Lawrence St",
    "address_councildis": "C",
    "status": "Pending",
    "rowid": "1156450",
    "final_x": "3694553.43435",
    "final_y": "525380.074028",
    "longitude": "-90.02707348913357",
    "latitude": "29.938210227074702",
    "geocoded_column": {
      "latitude": "29.938210227074702",
      "longitude": "-90.02707348913357"
    }
  },
  {
    "service_request": "2024-1156449",
    "request_type": "Trash/Recycling",
    "request_reason": "Illegal Dumping",
    "date_created": "2024-12-19T17:18:24.000",
    "date_modified": "2024-12-19T17:22:15.000",
    "request_status": "Pending",
    "responsible_agency": "Department of Sanitation",
    "final_address": "1600 BLK Elizardi Blvd",
    "address_councildis": "C",
    "status": "Pending",
    "rowid": "1156449",
    "final_x": "3694678.6923",
    "final_y": "524984.32974",
    "longitude": "-90.0266922873444",
    "latitude": "29.937118139297024",
    "geocoded_column": {
      "latitude": "29.937118139297024",
      "longitude": "-90.0266922873444"
    }
  },
  {
    "service_request": "2024-1156448",
    "request_type": "Trash/Recycling",
    "request_reason": "Request a Large Item Pick Up",
    "date_created": "2024-12-19T17:09:54.000",
    "date_modified": "2024-12-19T17:09:55.000",
    "request_status": "Pending",
    "responsible_agency": "Department of Sanitation",
    "final_address": "5314 Florida Ave Apt 1B",
    "address_councildis": "E",
    "status": "Assigned to Contractor",
    "contractor": "Waste Pro",
    "rowid": "1156448",
    "final_x": "3698622.68375",
    "final_y": "539953.35969",
    "longitude": "-90.01369669209214",
    "latitude": "29.978153409517322",
    "geocoded_column": {
      "latitude": "29.978153409517322",
      "longitude": "-90.01369669209214"
    }
  },
  {
    "service_request": "2024-1156447",
    "request_type": "Trash/Recycling",
    "request_reason": "Request a Large Item Pick Up",
    "date_created": "2024-12-19T17:05:02.000",
    "date_modified": "2024-12-19T17:05:03.000",
    "request_status": "Pending",
    "responsible_agency": "Department of Sanitation",
    "final_address": "7731 Shelly St",
    "address_councildis": "E",
    "status": "Assigned to Contractor",
    "contractor": "Waste Pro",
    "rowid": "1156447",
    "final_x": "3695932.63082",
    "final_y": "559352.779357",
    "longitude": "-90.02149132910432",
    "latitude": "30.03157951942622",
    "geocoded_column": {
      "latitude": "30.03157951942622",
      "longitude": "-90.02149132910432"
    }
  },
  {
    "service_request": "2024-1156446",
    "request_type": "Streetlights",
    "request_reason": "Streetlight Outage/Malfunction",
    "date_created": "2024-12-19T17:00:22.000",
    "date_modified": "2024-12-19T17:00:22.000",
    "request_status": "Pending",
    "responsible_agency": "Department of Public Works",
    "final_address": "2600 BLK Comet St",
    "address_councildis": "C",
    "status": "Pending",
    "contractor": "Legacy Professional Services",
    "rowid": "1156446",
    "final_x": "3699830.88869",
    "final_y": "521104.516306",
    "longitude": "-90.01056800621191",
    "latitude": "29.92628743969915",
    "geocoded_column": {
      "latitude": "29.92628743969915",
      "longitude": "-90.01056800621191"
    }
  },
  {
    "service_request": "2024-1156445",
    "request_type": "Trash/Recycling",
    "request_reason": "Request a Large Item Pick Up",
    "date_created": "2024-12-19T17:00:02.000",
    "date_modified": "2024-12-19T17:00:03.000",
    "request_status": "Pending",
    "responsible_agency": "Department of Sanitation",
    "final_address": "7410 Devine Ave",
    "address_councildis": "E",
    "status": "Assigned to Contractor",
    "contractor": "Waste Pro",
    "rowid": "1156445",
    "final_x": "3705906.00286",
    "final_y": "562462.677215",
    "longitude": "-89.98986002280172",
    "latitude": "30.039812784382832",
    "geocoded_column": {
      "latitude": "30.039812784382832",
      "longitude": "-89.98986002280172"
    }
  },
  {
    "service_request": "2024-1156444",
    "request_type": "Abandoned Vehicles",
    "request_reason": "Abandoned/Junk Vehicles",
    "date_created": "2024-12-19T16:47:50.000",
    "date_modified": "2024-12-19T16:47:51.000",
    "request_status": "Pending",
    "responsible_agency": "Department of Public Works",
    "final_address": "2530 Jena St",
    "address_councildis": "B",
    "status": "Pending",
    "rowid": "1156444",
    "final_x": "3670072.84372",
    "final_y": "524248.510652",
    "longitude": "-90.10439952436481",
    "latitude": "29.93584346641003",
    "geocoded_column": {
      "latitude": "29.93584346641003",
      "longitude": "-90.10439952436481"
    }
  },
  {
    "service_request": "2024-1156443",
    "request_type": "Trash/Recycling",
    "request_reason": "Start Trash Service",
    "date_created": "2024-12-19T16:40:08.000",
    "date_modified": "2024-12-19T16:40:09.000",
    "request_status": "Pending",
    "responsible_agency": "Department of Sanitation",
    "final_address": "4923 Magnolia St",
    "address_councildis": "B",
    "status": "Assigned to Contractor",
    "contractor": "IV Waste",
    "rowid": "1156443",
    "final_x": "3669005.25562",
    "final_y": "524648.525884",
    "longitude": "-90.10775642233473",
    "latitude": "29.93697482040523",
    "geocoded_column": {
      "latitude": "29.93697482040523",
      "longitude": "-90.10775642233473"
    }
  },
  {
    "service_request": "2024-1156442",
    "request_type": "Streetlights",
    "request_reason": "Streetlight Outage/Malfunction",
    "date_created": "2024-12-19T16:39:29.000",
    "date_modified": "2024-12-19T16:39:30.000",
    "request_status": "Pending",
    "responsible_agency": "Department of Public Works",
    "final_address": "0 BLK Spanish Fort Blvd",
    "address_councildis": "D",
    "status": "Pending",
    "contractor": "Legacy Professional Services",
    "rowid": "1156442",
    "final_x": "3674225.78176",
    "final_y": "555235.571075",
    "longitude": "-90.09022729642957",
    "latitude": "30.02092415026559",
    "geocoded_column": {
      "latitude": "30.02092415026559",
      "longitude": "-90.09022729642957"
    }
  },
  {
    "service_request": "2024-1156441",
    "request_type": "Trash/Recycling",
    "request_reason": "Missed Trash Pick-Up",
    "date_created": "2024-12-19T16:33:56.000",
    "date_modified": "2024-12-19T17:05:24.000",
    "case_close_date": "2024-12-19T11:05:24.000",
    "request_status": "Closed",
    "responsible_agency": "Department of Sanitation",
    "final_address": "3101 St Anthony Ave",
    "address_councildis": "D",
    "status": "Invalid Request",
    "contractor": "IV Waste",
    "contractor_action": "Invalid Request",
    "rowid": "1156441",
    "final_x": "3682993.02991",
    "final_y": "543996.219726",
    "longitude": "-90.06291909243507",
    "latitude": "29.989755540710686",
    "geocoded_column": {
      "latitude": "29.989755540710686",
      "longitude": "-90.06291909243507"
    }
  },
  {
    "service_request": "2024-1156440",
    "request_type": "Abandoned Vehicles",
    "request_reason": "Abandoned/Junk Vehicles",
    "date_created": "2024-12-19T16:33:39.000",
    "date_modified": "2024-12-19T16:33:40.000",
    "request_status": "Pending",
    "responsible_agency": "Department of Public Works",
    "final_address": "4319 N Robertson St",
    "address_councildis": "D",
    "status": "Pending",
    "rowid": "1156440",
    "final_x": "3693250.38761",
    "final_y": "536613.889479",
    "longitude": "-90.0307841449122",
    "latitude": "29.969140086951686",
    "geocoded_column": {
      "latitude": "29.969140086951686",
      "longitude": "-90.0307841449122"
    }
  },
  {
    "service_request": "2024-1156439",
    "request_type": "Trash/Recycling",
    "request_reason": "Request a Large Item Pick Up",
    "date_created": "2024-12-19T16:28:21.000",
    "date_modified": "2024-12-19T16:28:22.000",
    "request_status": "Pending",
    "responsible_agency": "Department of Sanitation",
    "final_address": "842 Camp St Unit 1",
    "address_councildis": "B",
    "status": "Assigned to Contractor",
    "contractor": "Empire Services",
    "rowid": "1156439",
    "final_x": "3680746.30037",
    "final_y": "527570.683007",
    "longitude": "-90.07058766081667",
    "latitude": "29.94465925220409",
    "geocoded_column": {
      "latitude": "29.94465925220409",
      "longitude": "-90.07058766081667"
    }
  },
  {
    "service_request": "2024-1156436",
    "request_type": "Trash/Recycling",
    "request_reason": "Replace Trash Cart",
    "date_created": "2024-12-19T16:19:01.000",
    "date_modified": "2024-12-19T16:19:02.000",
    "request_status": "Pending",
    "responsible_agency": "Department of Sanitation",
    "final_address": "28 Castle Pines Dr",
    "address_councildis": "C",
    "status": "Assigned to Contractor",
    "contractor": "Richards Disposal",
    "rowid": "1156436",
    "final_x": "3719077.61695",
    "final_y": "511654.869936",
    "longitude": "-89.95017239438658",
    "latitude": "29.899679313727496",
    "geocoded_column": {
      "latitude": "29.899679313727496",
      "longitude": "-89.95017239438658"
    }
  },
  {
    "service_request": "2024-1156435",
    "request_type": "Trash/Recycling",
    "request_reason": "Return Trash Cart",
    "date_created": "2024-12-19T16:14:01.000",
    "date_modified": "2024-12-19T16:14:02.000",
    "request_status": "Pending",
    "responsible_agency": "Department of Sanitation",
    "final_address": "28 Castle Pines Dr",
    "address_councildis": "C",
    "status": "Assigned to Contractor",
    "contractor": "Richards Disposal",
    "rowid": "1156435",
    "final_x": "3719077.61695",
    "final_y": "511654.869936",
    "longitude": "-89.95017239438658",
    "latitude": "29.899679313727496",
    "geocoded_column": {
      "latitude": "29.899679313727496",
      "longitude": "-89.95017239438658"
    }
  },
  {
    "service_request": "2024-1156434",
    "request_type": "Trash/Recycling",
    "request_reason": "Replace Trash Cart",
    "date_created": "2024-12-19T16:09:28.000",
    "date_modified": "2024-12-19T16:09:29.000",
    "request_status": "Pending",
    "responsible_agency": "Department of Sanitation",
    "final_address": "1615 Casa Calvo St",
    "address_councildis": "C",
    "status": "Assigned to Contractor",
    "contractor": "Richards Disposal",
    "rowid": "1156434",
    "final_x": "3691965.22205",
    "final_y": "525291.471165",
    "longitude": "-90.03524785314205",
    "latitude": "29.93804747638723",
    "geocoded_column": {
      "latitude": "29.93804747638723",
      "longitude": "-90.03524785314205"
    }
  },
  {
    "service_request": "2024-1156433",
    "request_type": "Abandoned Vehicles",
    "request_reason": "Abandoned/Junk Vehicles",
    "date_created": "2024-12-19T16:04:18.000",
    "date_modified": "2024-12-19T16:04:18.000",
    "request_status": "Pending",
    "responsible_agency": "Department of Public Works",
    "final_address": "7506 Kingsport Blvd",
    "address_councildis": "E",
    "status": "Pending",
    "rowid": "1156433",
    "final_x": "3720536.7397",
    "final_y": "572517.922025",
    "longitude": "-89.94323745300953",
    "latitude": "30.06698074370365",
    "geocoded_column": {
      "latitude": "30.06698074370365",
      "longitude": "-89.94323745300953"
    }
  },
  {
    "service_request": "2024-1156432",
    "request_type": "Abandoned Vehicles",
    "request_reason": "Abandoned/Junk Vehicles",
    "date_created": "2024-12-19T16:00:21.000",
    "date_modified": "2024-12-19T16:00:21.000",
    "request_status": "Pending",
    "responsible_agency": "Department of Public Works",
    "final_address": "7506 Kingsport Blvd",
    "address_councildis": "E",
    "status": "Pending",
    "rowid": "1156432",
    "final_x": "3720536.7397",
    "final_y": "572517.922025",
    "longitude": "-89.94323745300953",
    "latitude": "30.06698074370365",
    "geocoded_column": {
      "latitude": "30.06698074370365",
      "longitude": "-89.94323745300953"
    }
  },
  {
    "service_request": "2024-1156431",
    "request_type": "Roads and Streets",
    "request_reason": "Pothole",
    "date_created": "2024-12-19T15:56:39.000",
    "date_modified": "2024-12-19T15:56:40.000",
    "request_status": "Pending",
    "responsible_agency": "Department of Public Works",
    "final_address": "CHICKASAW ST & ALVAR ST",
    "address_councildis": "D",
    "status": "Pending",
    "rowid": "1156431",
    "final_x": "3693393.7",
    "final_y": "547391.88",
    "longitude": "-90.02994437957409",
    "latitude": "29.99877119549668",
    "geocoded_column": {
      "latitude": "29.99877119549668",
      "longitude": "-90.02994437957409"
    }
  },
  {
    "service_request": "2024-1156430",
    "request_type": "Trash/Recycling",
    "request_reason": "Request a Large Item Pick Up",
    "date_created": "2024-12-19T15:48:48.000",
    "date_modified": "2024-12-19T15:48:59.000",
    "request_status": "Pending",
    "responsible_agency": "Department of Sanitation",
    "final_address": "6419 Caldwell Dr",
    "address_councildis": "D",
    "status": "Assigned to Contractor",
    "contractor": "IV Waste",
    "rowid": "1156430",
    "final_x": "3678345.25371",
    "final_y": "557368.027163",
    "longitude": "-90.07713708143383",
    "latitude": "30.02666409816256",
    "geocoded_column": {
      "latitude": "30.02666409816256",
      "longitude": "-90.07713708143383"
    }
  },
  {
    "service_request": "2024-1156429",
    "request_type": "Trash/Recycling",
    "request_reason": "Request a Large Item Pick Up",
    "date_created": "2024-12-19T15:48:19.000",
    "date_modified": "2024-12-19T15:48:20.000",
    "request_status": "Pending",
    "responsible_agency": "Department of Sanitation",
    "final_address": "3617 Cecil St",
    "address_councildis": "A",
    "status": "Assigned to Contractor",
    "contractor": "IV Waste",
    "rowid": "1156429",
    "final_x": "3663702.28589",
    "final_y": "538542.084041",
    "longitude": "-90.12403534105968",
    "latitude": "29.975332487964575",
    "geocoded_column": {
      "latitude": "29.975332487964575",
      "longitude": "-90.12403534105968"
    }
  },
  {
    "service_request": "2024-1156428",
    "request_type": "Trash/Recycling",
    "request_reason": "Missed Trash Pick-Up",
    "date_created": "2024-12-19T15:46:26.000",
    "date_modified": "2024-12-19T15:46:27.000",
    "request_status": "Pending",
    "responsible_agency": "Department of Sanitation",
    "final_address": "4700 Coronado Dr",
    "address_councildis": "E",
    "status": "Assigned to Contractor",
    "contractor": "Waste Pro",
    "rowid": "1156428",
    "final_x": "3714081.08824",
    "final_y": "556208.961818",
    "longitude": "-89.96426064189482",
    "latitude": "30.022351472970552",
    "geocoded_column": {
      "latitude": "30.022351472970552",
      "longitude": "-89.96426064189482"
    }
  },
  {
    "service_request": "2024-1156427",
    "request_type": "Abandoned Vehicles",
    "request_reason": "Abandoned/Junk Vehicles",
    "date_created": "2024-12-19T15:45:59.000",
    "date_modified": "2024-12-19T15:46:00.000",
    "request_status": "Pending",
    "responsible_agency": "Department of Public Works",
    "final_address": "3304 St Claude Ave",
    "address_councildis": "C",
    "status": "Pending",
    "rowid": "1156427",
    "final_x": "3689896.60412",
    "final_y": "535738.828871",
    "longitude": "-90.04140675717225",
    "latitude": "29.966838380664072",
    "geocoded_column": {
      "latitude": "29.966838380664072",
      "longitude": "-90.04140675717225"
    }
  },
  {
    "service_request": "2024-1156426",
    "request_type": "Abandoned Vehicles",
    "request_reason": "Abandoned/Junk Vehicles",
    "date_created": "2024-12-19T15:45:41.000",
    "date_modified": "2024-12-19T15:45:41.000",
    "request_status": "Pending",
    "responsible_agency": "Department of Public Works",
    "final_address": "7506 Kingsport Blvd",
    "address_councildis": "E",
    "status": "Pending",
    "rowid": "1156426",
    "final_x": "3720536.7397",
    "final_y": "572517.922025",
    "longitude": "-89.94323745300953",
    "latitude": "30.06698074370365",
    "geocoded_column": {
      "latitude": "30.06698074370365",
      "longitude": "-89.94323745300953"
    }
  },
  {
    "service_request": "2024-1156425",
    "request_type": "Trash/Recycling",
    "request_reason": "MIssed Recycling Pick-Up",
    "date_created": "2024-12-19T15:42:24.000",
    "date_modified": "2024-12-19T17:06:27.000",
    "case_close_date": "2024-12-19T11:06:27.000",
    "request_status": "Closed",
    "responsible_agency": "Department of Sanitation",
    "final_address": "822 Cadiz St",
    "address_councildis": "B",
    "status": "Invalid Request",
    "contractor": "IV Waste",
    "contractor_action": "Invalid Request",
    "rowid": "1156425",
    "final_x": "3670287.05601",
    "final_y": "518536.842103",
    "longitude": "-90.1039167212304",
    "latitude": "29.920131884443844",
    "geocoded_column": {
      "latitude": "29.920131884443844",
      "longitude": "-90.1039167212304"
    }
  },
  {
    "service_request": "2024-1156424",
    "request_type": "Streetlights",
    "request_reason": "Streetlight Outage/Malfunction",
    "date_created": "2024-12-19T15:35:21.000",
    "date_modified": "2024-12-19T15:35:22.000",
    "request_status": "Pending",
    "responsible_agency": "Department of Public Works",
    "final_address": "447 Fairway Dr",
    "address_councildis": "A",
    "status": "Pending",
    "contractor": "Legacy Professional Services",
    "rowid": "1156424",
    "final_x": "3664365.92269",
    "final_y": "542770.714445",
    "longitude": "-90.12179818057967",
    "latitude": "29.986940529346576",
    "geocoded_column": {
      "latitude": "29.986940529346576",
      "longitude": "-90.12179818057967"
    }
  },
  {
    "service_request": "2024-1156423",
    "request_type": "Trash/Recycling",
    "request_reason": "Request a Large Item Pick Up",
    "date_created": "2024-12-19T15:35:09.000",
    "date_modified": "2024-12-19T15:35:10.000",
    "request_status": "Pending",
    "responsible_agency": "Department of Sanitation",
    "final_address": "7508 Ebbtide Dr",
    "address_councildis": "E",
    "status": "Assigned to Contractor",
    "contractor": "Waste Pro",
    "rowid": "1156423",
    "final_x": "3702274.61738",
    "final_y": "561076.479582",
    "longitude": "-90.00138716765711",
    "latitude": "30.036117854665378",
    "geocoded_column": {
      "latitude": "30.036117854665378",
      "longitude": "-90.00138716765711"
    }
  },
  {
    "service_request": "2024-1156422",
    "request_type": "Streetlights",
    "request_reason": "Streetlight Outage/Malfunction",
    "date_created": "2024-12-19T15:33:44.000",
    "date_modified": "2024-12-19T15:33:46.000",
    "request_status": "Pending",
    "responsible_agency": "Department of Public Works",
    "final_address": "447 Fairway Dr",
    "address_councildis": "A",
    "status": "Pending",
    "contractor": "Legacy Professional Services",
    "rowid": "1156422",
    "final_x": "3664365.92269",
    "final_y": "542770.714445",
    "longitude": "-90.12179818057967",
    "latitude": "29.986940529346576",
    "geocoded_column": {
      "latitude": "29.986940529346576",
      "longitude": "-90.12179818057967"
    }
  },
  {
    "service_request": "2024-1156421",
    "request_type": "Trash/Recycling",
    "request_reason": "Request a Large Item Pick Up",
    "date_created": "2024-12-19T15:32:21.000",
    "date_modified": "2024-12-19T15:32:22.000",
    "request_status": "Pending",
    "responsible_agency": "Department of Sanitation",
    "final_address": "1035 St Ann St",
    "address_councildis": "C",
    "status": "Assigned to Contractor",
    "contractor": "Empire Services",
    "rowid": "1156421",
    "final_x": "3681702.75855",
    "final_y": "533620.955013",
    "longitude": "-90.0673567874667",
    "latitude": "29.96126643621049",
    "geocoded_column": {
      "latitude": "29.96126643621049",
      "longitude": "-90.0673567874667"
    }
  },
  {
    "service_request": "2024-1156420",
    "request_type": "Trash/Recycling",
    "request_reason": "Request a Large Item Pick Up",
    "date_created": "2024-12-19T15:21:47.000",
    "date_modified": "2024-12-19T15:21:48.000",
    "request_status": "Pending",
    "responsible_agency": "Department of Sanitation",
    "final_address": "429 French St",
    "address_councildis": "A",
    "status": "Assigned to Contractor",
    "contractor": "IV Waste",
    "rowid": "1156420",
    "final_x": "3667779.29229",
    "final_y": "548749.293779",
    "longitude": "-90.11081507603416",
    "latitude": "30.003279889690283",
    "geocoded_column": {
      "latitude": "30.003279889690283",
      "longitude": "-90.11081507603416"
    }
  },
  {
    "service_request": "2024-1156419",
    "request_type": "Abandoned Vehicles",
    "request_reason": "Abandoned/Junk Vehicles",
    "date_created": "2024-12-19T15:20:11.000",
    "date_modified": "2024-12-19T15:20:11.000",
    "request_status": "Pending",
    "responsible_agency": "Department of Public Works",
    "final_address": "4919 Coliseum St",
    "address_councildis": "B",
    "status": "Pending",
    "rowid": "1156419",
    "final_x": "3668870.57575",
    "final_y": "519710.946744",
    "longitude": "-90.10834826444562",
    "latitude": "29.923402014425903",
    "geocoded_column": {
      "latitude": "29.923402014425903",
      "longitude": "-90.10834826444562"
    }
  },
  {
    "service_request": "2024-1156418",
    "request_type": "Trash/Recycling",
    "request_reason": "Order Recycling Cart",
    "date_created": "2024-12-19T15:13:38.000",
    "date_modified": "2024-12-19T15:13:38.000",
    "request_status": "Pending",
    "responsible_agency": "Department of Sanitation",
    "final_address": "77 Marywood Ct",
    "address_councildis": "E",
    "status": "Pending",
    "rowid": "1156418",
    "final_x": "3712377.16382",
    "final_y": "566478.057443",
    "longitude": "-89.96925829530883",
    "latitude": "30.050643249398526",
    "geocoded_column": {
      "latitude": "30.050643249398526",
      "longitude": "-89.96925829530883"
    }
  },
  {
    "service_request": "2024-1156417",
    "request_type": "Trash/Recycling",
    "request_reason": "Return Recycling Cart",
    "date_created": "2024-12-19T15:13:04.000",
    "date_modified": "2024-12-19T15:14:27.000",
    "request_status": "Pending",
    "responsible_agency": "Department of Sanitation",
    "final_address": "77 Marywood Ct",
    "address_councildis": "E",
    "rowid": "1156417",
    "final_x": "3712377.16382",
    "final_y": "566478.057443",
    "longitude": "-89.96925829530883",
    "latitude": "30.050643249398526",
    "geocoded_column": {
      "latitude": "30.050643249398526",
      "longitude": "-89.96925829530883"
    }
  },
  {
    "service_request": "2024-1156416",
    "request_type": "Trash/Recycling",
    "request_reason": "Request a Large Item Pick Up",
    "date_created": "2024-12-19T15:07:21.000",
    "date_modified": "2024-12-19T15:07:23.000",
    "request_status": "Pending",
    "responsible_agency": "Department of Sanitation",
    "final_address": "7508 Dogwood Dr",
    "address_councildis": "E",
    "status": "Assigned to Contractor",
    "contractor": "Waste Pro",
    "rowid": "1156416",
    "final_x": "3701352.52567",
    "final_y": "560651.553822",
    "longitude": "-90.0043167104239",
    "latitude": "30.03497891411283",
    "geocoded_column": {
      "latitude": "30.03497891411283",
      "longitude": "-90.0043167104239"
    }
  },
  {
    "service_request": "2024-1156415",
    "request_type": "Abandoned Vehicles",
    "request_reason": "Abandoned/Junk Vehicles",
    "date_created": "2024-12-19T15:03:24.000",
    "date_modified": "2024-12-19T15:05:34.000",
    "request_status": "Pending",
    "responsible_agency": "Department of Public Works",
    "final_address": "MILAN ST & DANNEEL ST",
    "address_councildis": "B",
    "status": "Pending",
    "rowid": "1156415",
    "final_x": "3671457.3",
    "final_y": "522367.58",
    "longitude": "-90.10009267125722",
    "latitude": "29.930630612428747",
    "geocoded_column": {
      "latitude": "29.930630612428747",
      "longitude": "-90.10009267125722"
    }
  },
  {
    "service_request": "2024-1156414",
    "request_type": "Abandoned Vehicles",
    "request_reason": "Abandoned/Junk Vehicles",
    "date_created": "2024-12-19T15:02:41.000",
    "date_modified": "2024-12-19T15:03:56.000",
    "request_status": "Pending",
    "responsible_agency": "Department of Public Works",
    "final_address": "2461 Dreux Ave",
    "address_councildis": "D",
    "status": "Pending",
    "rowid": "1156414",
    "final_x": "3685740.55311",
    "final_y": "552223.286998",
    "longitude": "-90.05395028478416",
    "latitude": "30.012292959289308",
    "geocoded_column": {
      "latitude": "30.012292959289308",
      "longitude": "-90.05395028478416"
    }
  },
  {
    "service_request": "2024-1156413",
    "request_type": "Trash/Recycling",
    "request_reason": "Request a Large Item Pick Up",
    "date_created": "2024-12-19T15:01:18.000",
    "date_modified": "2024-12-19T15:01:19.000",
    "request_status": "Pending",
    "responsible_agency": "Department of Sanitation",
    "final_address": "5430 Edenboro Rd",
    "address_councildis": "E",
    "status": "Assigned to Contractor",
    "contractor": "Waste Pro",
    "rowid": "1156413",
    "final_x": "3708178.23172",
    "final_y": "557807.960027",
    "longitude": "-89.9828525150925",
    "latitude": "30.026940699267453",
    "geocoded_column": {
      "latitude": "30.026940699267453",
      "longitude": "-89.9828525150925"
    }
  },
  {
    "service_request": "2024-1156412",
    "request_type": "Trash/Recycling",
    "request_reason": "Order Recycling Cart",
    "date_created": "2024-12-19T14:59:58.000",
    "date_modified": "2024-12-19T14:59:59.000",
    "request_status": "Pending",
    "responsible_agency": "Department of Sanitation",
    "final_address": "1021 Kerlerec St",
    "address_councildis": "C",
    "status": "Pending",
    "rowid": "1156412",
    "final_x": "3683275.94882",
    "final_y": "535511.576966",
    "longitude": "-90.0623227137267",
    "latitude": "29.96641711011599",
    "geocoded_column": {
      "latitude": "29.96641711011599",
      "longitude": "-90.0623227137267"
    }
  },
  {
    "service_request": "2024-1156411",
    "request_type": "Drainage",
    "request_reason": "Street Flooding",
    "date_created": "2024-12-19T14:55:40.000",
    "date_modified": "2024-12-19T14:55:40.000",
    "request_status": "Pending",
    "responsible_agency": "Department of Public Works",
    "final_address": "2600 BLK General Pershing St",
    "address_councildis": "B",
    "status": "Pending",
    "rowid": "1156411",
    "final_x": "3670878.63819",
    "final_y": "524605.388569",
    "longitude": "-90.10184350134043",
    "latitude": "29.936800977317382",
    "geocoded_column": {
      "latitude": "29.936800977317382",
      "longitude": "-90.10184350134043"
    }
  },
  {
    "service_request": "2024-1156410",
    "request_type": "Trash/Recycling",
    "request_reason": "Request a Large Item Pick Up",
    "date_created": "2024-12-19T14:52:50.000",
    "date_modified": "2024-12-19T14:52:51.000",
    "request_status": "Pending",
    "responsible_agency": "Department of Sanitation",
    "final_address": "8 Curtis Dr",
    "address_councildis": "E",
    "status": "Assigned to Contractor",
    "contractor": "Waste Pro",
    "rowid": "1156410",
    "final_x": "3697689.92637",
    "final_y": "560638.780766",
    "longitude": "-90.01589149649521",
    "latitude": "30.035060091539236",
    "geocoded_column": {
      "latitude": "30.035060091539236",
      "longitude": "-90.01589149649521"
    }
  },
  {
    "service_request": "2024-1156409",
    "request_type": "Trash/Recycling",
    "request_reason": "Request a Large Item Pick Up",
    "date_created": "2024-12-19T14:49:58.000",
    "date_modified": "2024-12-19T14:49:59.000",
    "request_status": "Pending",
    "responsible_agency": "Department of Sanitation",
    "final_address": "1838 Spain St",
    "address_councildis": "D",
    "status": "Assigned to Contractor",
    "contractor": "IV Waste",
    "rowid": "1156409",
    "final_x": "3685867.63881",
    "final_y": "539304.963658",
    "longitude": "-90.0540044606702",
    "latitude": "29.976768297808604",
    "geocoded_column": {
      "latitude": "29.976768297808604",
      "longitude": "-90.0540044606702"
    }
  },
  {
    "service_request": "2024-1156408",
    "request_type": "Trash/Recycling",
    "request_reason": "Replace Recycling Cart",
    "date_created": "2024-12-19T14:46:42.000",
    "date_modified": "2024-12-19T14:46:42.000",
    "request_status": "Pending",
    "responsible_agency": "Department of Sanitation",
    "final_address": "7000 Vicksburg St",
    "address_councildis": "A",
    "status": "Pending",
    "rowid": "1156408",
    "final_x": "3669411.50196",
    "final_y": "554012.920088",
    "longitude": "-90.10548047370723",
    "latitude": "30.017705027837714",
    "geocoded_column": {
      "latitude": "30.017705027837714",
      "longitude": "-90.10548047370723"
    }
  },
  {
    "service_request": "2024-1156407",
    "request_type": "Trash/Recycling",
    "request_reason": "Replace Recycling Cart",
    "date_created": "2024-12-19T14:45:23.000",
    "date_modified": "2024-12-19T14:45:23.000",
    "request_status": "Pending",
    "responsible_agency": "Department of Sanitation",
    "final_address": "7000 Vicksburg St",
    "address_councildis": "A",
    "status": "Pending",
    "rowid": "1156407",
    "final_x": "3669411.50196",
    "final_y": "554012.920088",
    "longitude": "-90.10548047370723",
    "latitude": "30.017705027837714",
    "geocoded_column": {
      "latitude": "30.017705027837714",
      "longitude": "-90.10548047370723"
    }
  },
  {
    "service_request": "2024-1156406",
    "request_type": "Trash/Recycling",
    "request_reason": "Request a Large Item Pick Up",
    "date_created": "2024-12-19T14:45:19.000",
    "date_modified": "2024-12-19T14:45:20.000",
    "request_status": "Pending",
    "responsible_agency": "Department of Sanitation",
    "final_address": "4821 St Anthony Ave",
    "address_councildis": "D",
    "status": "Assigned to Contractor",
    "contractor": "IV Waste",
    "rowid": "1156406",
    "final_x": "3682447.36367",
    "final_y": "550370.781076",
    "longitude": "-90.0644197179163",
    "latitude": "30.007299931495396",
    "geocoded_column": {
      "latitude": "30.007299931495396",
      "longitude": "-90.0644197179163"
    }
  },
  {
    "service_request": "2024-1156405",
    "request_type": "Trash/Recycling",
    "request_reason": "Return Trash Cart",
    "date_created": "2024-12-19T14:44:58.000",
    "date_modified": "2024-12-19T14:44:59.000",
    "request_status": "Pending",
    "responsible_agency": "Department of Sanitation",
    "final_address": "611 Robert St",
    "address_councildis": "B",
    "status": "Assigned to Contractor",
    "contractor": "IV Waste",
    "rowid": "1156405",
    "final_x": "3668645.46689",
    "final_y": "517645.81343",
    "longitude": "-90.10912849773015",
    "latitude": "29.9177301650219",
    "geocoded_column": {
      "latitude": "29.9177301650219",
      "longitude": "-90.10912849773015"
    }
  },
  {
    "service_request": "2024-1156404",
    "request_type": "Trash/Recycling",
    "request_reason": "Missed Trash Pick-Up",
    "date_created": "2024-12-19T14:44:32.000",
    "date_modified": "2024-12-19T15:59:27.000",
    "case_close_date": "2024-12-19T09:59:27.000",
    "request_status": "Closed",
    "responsible_agency": "Department of Sanitation",
    "final_address": "1840 Charbonnet St",
    "address_councildis": "E",
    "status": "Duplicate Request",
    "contractor": "Waste Pro",
    "contractor_action": "Duplicate",
    "rowid": "1156404",
    "final_x": "3699334.35997",
    "final_y": "536576.064775",
    "longitude": "-90.01157202190971",
    "latitude": "29.96884451311015",
    "geocoded_column": {
      "latitude": "29.96884451311015",
      "longitude": "-90.01157202190971"
    }
  },
  {
    "service_request": "2024-1156403",
    "request_type": "Streetlights",
    "request_reason": "Streetlight Outage/Malfunction",
    "date_created": "2024-12-19T14:44:27.000",
    "date_modified": "2024-12-19T14:44:27.000",
    "request_status": "Pending",
    "responsible_agency": "Department of Public Works",
    "final_address": "4317 Rayne Dr",
    "address_councildis": "D",
    "status": "Pending",
    "contractor": "Legacy Professional Services",
    "rowid": "1156403",
    "final_x": "3679933.06267",
    "final_y": "548370.66549",
    "longitude": "-90.07243263127421",
    "latitude": "30.001876649154738",
    "geocoded_column": {
      "latitude": "30.001876649154738",
      "longitude": "-90.07243263127421"
    }
  },
  {
    "service_request": "2024-1156402",
    "request_type": "Streetlights",
    "request_reason": "Streetlight Outage/Malfunction",
    "date_created": "2024-12-19T14:43:08.000",
    "date_modified": "2024-12-19T14:43:09.000",
    "request_status": "Pending",
    "responsible_agency": "Department of Public Works",
    "final_address": "901 Harrison Ave",
    "address_councildis": "A",
    "status": "Pending",
    "contractor": "Legacy Professional Services",
    "rowid": "1156402",
    "final_x": "3670072.94868",
    "final_y": "549287.689171",
    "longitude": "-90.10355079095936",
    "latitude": "30.004692801781992",
    "geocoded_column": {
      "latitude": "30.004692801781992",
      "longitude": "-90.10355079095936"
    }
  },
  {
    "service_request": "2024-1156401",
    "request_type": "Trash/Recycling",
    "request_reason": "Order Second Trash Cart",
    "date_created": "2024-12-19T14:43:00.000",
    "date_modified": "2024-12-19T14:43:01.000",
    "request_status": "Pending",
    "responsible_agency": "Department of Sanitation",
    "final_address": "7000 Vicksburg St",
    "address_councildis": "A",
    "status": "Assigned to Contractor",
    "contractor": "IV Waste",
    "rowid": "1156401",
    "final_x": "3669411.50196",
    "final_y": "554012.920088",
    "longitude": "-90.10548047370723",
    "latitude": "30.017705027837714",
    "geocoded_column": {
      "latitude": "30.017705027837714",
      "longitude": "-90.10548047370723"
    }
  },
  {
    "service_request": "2024-1156400",
    "request_type": "Abandoned Vehicles",
    "request_reason": "Abandoned/Junk Vehicles",
    "date_created": "2024-12-19T14:40:19.000",
    "date_modified": "2024-12-19T14:40:20.000",
    "request_status": "Pending",
    "responsible_agency": "Department of Public Works",
    "final_address": "2900 BLK N Rampart St",
    "address_councildis": "C",
    "status": "Pending",
    "rowid": "1156400",
    "final_x": "3688146.66599",
    "final_y": "535749.310179",
    "longitude": "-90.04693267302947",
    "latitude": "29.966921336435686",
    "geocoded_column": {
      "latitude": "29.966921336435686",
      "longitude": "-90.04693267302947"
    }
  },
  {
    "service_request": "2024-1156399",
    "request_type": "Trash/Recycling",
    "request_reason": "Request a Large Item Pick Up",
    "date_created": "2024-12-19T14:40:11.000",
    "date_modified": "2024-12-19T14:40:12.000",
    "request_status": "Pending",
    "responsible_agency": "Department of Sanitation",
    "final_address": "11950 Lakeland Ct",
    "address_councildis": "E",
    "status": "Assigned to Contractor",
    "contractor": "Waste Pro",
    "rowid": "1156399",
    "final_x": "3712531.13189",
    "final_y": "568580.983589",
    "longitude": "-89.96869250295619",
    "latitude": "30.056420398155236",
    "geocoded_column": {
      "latitude": "30.056420398155236",
      "longitude": "-89.96869250295619"
    }
  },
  {
    "service_request": "2024-1156398",
    "request_type": "Streetlights",
    "request_reason": "Streetlight Outage/Malfunction",
    "date_created": "2024-12-19T14:39:46.000",
    "date_modified": "2024-12-19T14:39:47.000",
    "request_status": "Pending",
    "responsible_agency": "Department of Public Works",
    "final_address": "900 BLK Harrison Ave",
    "address_councildis": "A",
    "status": "Pending",
    "contractor": "Legacy Professional Services",
    "rowid": "1156398",
    "final_x": "3670803.55796",
    "final_y": "549125.994055",
    "longitude": "-90.10124813902247",
    "latitude": "30.00422661571588",
    "geocoded_column": {
      "latitude": "30.00422661571588",
      "longitude": "-90.10124813902247"
    }
  },
  {
    "service_request": "2024-1156397",
    "request_type": "Trash/Recycling",
    "request_reason": "Replace Recycling Cart",
    "date_created": "2024-12-19T14:36:45.000",
    "date_modified": "2024-12-19T14:36:45.000",
    "request_status": "Pending",
    "responsible_agency": "Department of Sanitation",
    "final_address": "819 Mazant St",
    "address_councildis": "C",
    "status": "Pending",
    "rowid": "1156397",
    "final_x": "3691892.02224",
    "final_y": "534232.560901",
    "longitude": "-90.03515914538293",
    "latitude": "29.962634660000237",
    "geocoded_column": {
      "latitude": "29.962634660000237",
      "longitude": "-90.03515914538293"
    }
  },
  {
    "service_request": "2024-1156396",
    "request_type": "Trash/Recycling",
    "request_reason": "Request a Large Item Pick Up",
    "date_created": "2024-12-19T14:26:14.000",
    "date_modified": "2024-12-19T14:26:15.000",
    "request_status": "Pending",
    "responsible_agency": "Department of Sanitation",
    "final_address": "3005 Constance St",
    "address_councildis": "B",
    "status": "Assigned to Contractor",
    "contractor": "IV Waste",
    "rowid": "1156396",
    "final_x": "3676478.81313",
    "final_y": "520060.79884",
    "longitude": "-90.08431985624402",
    "latitude": "29.92413815050092",
    "geocoded_column": {
      "latitude": "29.92413815050092",
      "longitude": "-90.08431985624402"
    }
  },
  {
    "service_request": "2024-1156395",
    "request_type": "Trash/Recycling",
    "request_reason": "Order Trash Cart",
    "date_created": "2024-12-19T14:25:59.000",
    "date_modified": "2024-12-19T14:26:00.000",
    "request_status": "Pending",
    "responsible_agency": "Department of Sanitation",
    "final_address": "4123 Loyola Ave",
    "address_councildis": "B",
    "status": "Assigned to Contractor",
    "contractor": "IV Waste",
    "rowid": "1156395",
    "final_x": "3671539.30529",
    "final_y": "523129.825659",
    "longitude": "-90.09980788758342",
    "latitude": "29.932724115449",
    "geocoded_column": {
      "latitude": "29.932724115449",
      "longitude": "-90.09980788758342"
    }
  },
  {
    "service_request": "2024-1156394",
    "request_type": "Abandoned Vehicles",
    "request_reason": "Abandoned/Junk Vehicles",
    "date_created": "2024-12-19T14:16:04.000",
    "date_modified": "2024-12-19T14:16:05.000",
    "request_status": "Pending",
    "responsible_agency": "Department of Public Works",
    "final_address": "6315 Canal Blvd",
    "address_councildis": "A",
    "status": "Pending",
    "rowid": "1156394",
    "final_x": "3668816.37518",
    "final_y": "549460.253651",
    "longitude": "-90.10751473475064",
    "latitude": "30.005204316574737",
    "geocoded_column": {
      "latitude": "30.005204316574737",
      "longitude": "-90.10751473475064"
    }
  },
  {
    "service_request": "2024-1156393",
    "request_type": "Trash/Recycling",
    "request_reason": "Request a Large Item Pick Up",
    "date_created": "2024-12-19T14:05:12.000",
    "date_modified": "2024-12-19T14:05:13.000",
    "request_status": "Pending",
    "responsible_agency": "Department of Sanitation",
    "final_address": "7913 Lacombe St",
    "address_councildis": "E",
    "status": "Assigned to Contractor",
    "contractor": "Waste Pro",
    "rowid": "1156393",
    "final_x": "3709161.64779",
    "final_y": "566192.282595",
    "longitude": "-89.97943200355171",
    "latitude": "30.049962345177587",
    "geocoded_column": {
      "latitude": "30.049962345177587",
      "longitude": "-89.97943200355171"
    }
  },
  {
    "service_request": "2024-1156392",
    "request_type": "Streetlights",
    "request_reason": "Streetlight Outage/Malfunction",
    "date_created": "2024-12-19T14:02:42.000",
    "date_modified": "2024-12-19T14:02:43.000",
    "request_status": "Pending",
    "responsible_agency": "Department of Public Works",
    "final_address": "2025 S Chippewa St",
    "address_councildis": "B",
    "status": "Pending",
    "contractor": "Legacy Professional Services",
    "rowid": "1156392",
    "final_x": "3680374.50863",
    "final_y": "521126.701369",
    "longitude": "-90.07198548252208",
    "latitude": "29.926951694992788",
    "geocoded_column": {
      "latitude": "29.926951694992788",
      "longitude": "-90.07198548252208"
    }
  },
  {
    "service_request": "2024-1156391",
    "request_type": "Trash/Recycling",
    "request_reason": "Request a Large Item Pick Up",
    "date_created": "2024-12-19T14:00:45.000",
    "date_modified": "2024-12-19T14:00:46.000",
    "request_status": "Pending",
    "responsible_agency": "Department of Sanitation",
    "final_address": "3300 Chestnut St",
    "address_councildis": "B",
    "status": "Assigned to Contractor",
    "contractor": "IV Waste",
    "rowid": "1156391",
    "final_x": "3675090.84219",
    "final_y": "520428.677432",
    "longitude": "-90.08868858341386",
    "latitude": "29.925191226170174",
    "geocoded_column": {
      "latitude": "29.925191226170174",
      "longitude": "-90.08868858341386"
    }
  },
  {
    "service_request": "2024-1156390",
    "request_type": "Trash/Recycling",
    "request_reason": "Repair Trash Cart",
    "date_created": "2024-12-19T14:00:43.000",
    "date_modified": "2024-12-19T14:00:44.000",
    "request_status": "Pending",
    "responsible_agency": "Department of Sanitation",
    "final_address": "2750 Sage St",
    "address_councildis": "D",
    "status": "Assigned to Contractor",
    "contractor": "IV Waste",
    "rowid": "1156390",
    "final_x": "3688345.66927",
    "final_y": "545540.435152",
    "longitude": "-90.04595682526092",
    "latitude": "29.99383731272557",
    "geocoded_column": {
      "latitude": "29.99383731272557",
      "longitude": "-90.04595682526092"
    }
  },
  {
    "service_request": "2024-1156389",
    "request_type": "Trash/Recycling",
    "request_reason": "Order Trash Cart",
    "date_created": "2024-12-19T13:55:58.000",
    "date_modified": "2024-12-19T13:56:45.000",
    "request_status": "Pending",
    "responsible_agency": "Department of Sanitation",
    "final_address": "815 Josephine St",
    "address_councildis": "B",
    "status": "Assigned to Contractor",
    "contractor": "IV Waste",
    "rowid": "1156389",
    "final_x": "3679798.91599",
    "final_y": "521562.690105",
    "longitude": "-90.07378734800935",
    "latitude": "29.92816793113593",
    "geocoded_column": {
      "latitude": "29.92816793113593",
      "longitude": "-90.07378734800935"
    }
  },
  {
    "service_request": "2024-1156388",
    "request_type": "Trash/Recycling",
    "request_reason": "Repair Trash Cart",
    "date_created": "2024-12-19T13:53:42.000",
    "date_modified": "2024-12-19T13:53:43.000",
    "request_status": "Pending",
    "responsible_agency": "Department of Sanitation",
    "final_address": "5744 Sutton Pl",
    "address_councildis": "C",
    "status": "Assigned to Contractor",
    "contractor": "Richards Disposal",
    "rowid": "1156388",
    "final_x": "3705234.2051",
    "final_y": "518599.223223",
    "longitude": "-89.99360387610282",
    "latitude": "29.919226134403285",
    "geocoded_column": {
      "latitude": "29.919226134403285",
      "longitude": "-89.99360387610282"
    }
  },
  {
    "service_request": "2024-1156387",
    "request_type": "Trash/Recycling",
    "request_reason": "Missed Trash Pick-Up",
    "date_created": "2024-12-19T13:51:29.000",
    "date_modified": "2024-12-19T13:55:15.000",
    "case_close_date": "2024-12-19T07:55:15.000",
    "request_status": "Closed",
    "responsible_agency": "Department of Sanitation",
    "final_address": "1234 Henry Clay Ave",
    "address_councildis": "A",
    "status": "Invalid Request",
    "contractor": "IV Waste",
    "contractor_action": "Invalid",
    "rowid": "1156387",
    "final_x": "3664327.06445",
    "final_y": "521120.367609",
    "longitude": "-90.12264347982506",
    "latitude": "29.92741025864685",
    "geocoded_column": {
      "latitude": "29.92741025864685",
      "longitude": "-90.12264347982506"
    }
  },
  {
    "service_request": "2024-1156386",
    "request_type": "Roads and Streets",
    "request_reason": "Street Subsidence (Sinking)",
    "date_created": "2024-12-19T13:44:57.000",
    "date_modified": "2024-12-19T13:44:57.000",
    "request_status": "Pending",
    "responsible_agency": "Department of Public Works",
    "final_address": "NASHVILLE AVE & CUCULLU ST",
    "address_councildis": "A",
    "status": "Pending",
    "rowid": "1156386",
    "final_x": "3667363.6",
    "final_y": "525858.18",
    "longitude": "-90.11289856041329",
    "latitude": "29.94034916002391",
    "geocoded_column": {
      "latitude": "29.94034916002391",
      "longitude": "-90.11289856041329"
    }
  },
  {
    "service_request": "2024-1156385",
    "request_type": "Trash/Recycling",
    "request_reason": "Return Trash Cart",
    "date_created": "2024-12-19T13:41:37.000",
    "date_modified": "2024-12-19T13:41:38.000",
    "request_status": "Pending",
    "responsible_agency": "Department of Sanitation",
    "final_address": "8 Muirfield Pl",
    "address_councildis": "C",
    "status": "Assigned to Contractor",
    "contractor": "Richards Disposal",
    "rowid": "1156385",
    "final_x": "3720013.01983",
    "final_y": "514165.156914",
    "longitude": "-89.94712457854999",
    "latitude": "29.90655063380191",
    "geocoded_column": {
      "latitude": "29.90655063380191",
      "longitude": "-89.94712457854999"
    }
  },
  {
    "service_request": "2024-1156384",
    "request_type": "Trash/Recycling",
    "request_reason": "Order Trash Cart",
    "date_created": "2024-12-19T13:40:41.000",
    "date_modified": "2024-12-19T13:40:42.000",
    "request_status": "Pending",
    "responsible_agency": "Department of Sanitation",
    "final_address": "5445 Burgundy St",
    "address_councildis": "E",
    "status": "Assigned to Contractor",
    "contractor": "Waste Pro",
    "rowid": "1156384",
    "final_x": "3697301.24522",
    "final_y": "533150.545476",
    "longitude": "-90.01811685990864",
    "latitude": "29.959489884140954",
    "geocoded_column": {
      "latitude": "29.959489884140954",
      "longitude": "-90.01811685990864"
    }
  },
  {
    "service_request": "2024-1156383",
    "request_type": "Trash/Recycling",
    "request_reason": "Order Trash Cart",
    "date_created": "2024-12-19T13:40:10.000",
    "date_modified": "2024-12-19T13:40:11.000",
    "request_status": "Pending",
    "responsible_agency": "Department of Sanitation",
    "final_address": "5447 Burgundy St",
    "address_councildis": "E",
    "status": "Assigned to Contractor",
    "contractor": "Waste Pro",
    "rowid": "1156383",
    "final_x": "3697311.57981",
    "final_y": "533148.479364",
    "longitude": "-90.01808430076042",
    "latitude": "29.95948387688999",
    "geocoded_column": {
      "latitude": "29.95948387688999",
      "longitude": "-90.01808430076042"
    }
  },
  {
    "service_request": "2024-1156382",
    "request_type": "Trash/Recycling",
    "request_reason": "MIssed Recycling Pick-Up",
    "date_created": "2024-12-19T13:37:40.000",
    "date_modified": "2024-12-19T13:58:38.000",
    "case_close_date": "2024-12-19T07:58:38.000",
    "request_status": "Closed",
    "responsible_agency": "Department of Sanitation",
    "final_address": "931 Nashville Ave",
    "address_councildis": "A",
    "status": "Invalid Request",
    "contractor": "IV Waste",
    "contractor_action": "Invalid",
    "rowid": "1156382",
    "final_x": "3665719.66874",
    "final_y": "519554.494583",
    "longitude": "-90.11829977222692",
    "latitude": "29.923064068223713",
    "geocoded_column": {
      "latitude": "29.923064068223713",
      "longitude": "-90.11829977222692"
    }
  },
  {
    "service_request": "2024-1156381",
    "request_type": "Trash/Recycling",
    "request_reason": "Order Recycling Cart",
    "date_created": "2024-12-19T13:30:57.000",
    "date_modified": "2024-12-19T13:30:57.000",
    "request_status": "Pending",
    "responsible_agency": "Department of Sanitation",
    "final_address": "6912 Bellaire Dr",
    "address_councildis": "A",
    "status": "Pending",
    "rowid": "1156381",
    "final_x": "3664588.80224",
    "final_y": "553816.301527",
    "longitude": "-90.1207249622826",
    "latitude": "30.01730561212848",
    "geocoded_column": {
      "latitude": "30.01730561212848",
      "longitude": "-90.1207249622826"
    }
  },
  {
    "service_request": "2024-1156380",
    "request_type": "Trash/Recycling",
    "request_reason": "Order Trash Cart",
    "date_created": "2024-12-19T13:29:47.000",
    "date_modified": "2024-12-19T13:29:48.000",
    "request_status": "Pending",
    "responsible_agency": "Department of Sanitation",
    "final_address": "6912 Bellaire Dr",
    "address_councildis": "A",
    "status": "Assigned to Contractor",
    "contractor": "IV Waste",
    "rowid": "1156380",
    "final_x": "3664588.80224",
    "final_y": "553816.301527",
    "longitude": "-90.1207249622826",
    "latitude": "30.01730561212848",
    "geocoded_column": {
      "latitude": "30.01730561212848",
      "longitude": "-90.1207249622826"
    }
  },
  {
    "service_request": "2024-1156379",
    "request_type": "Trash/Recycling",
    "request_reason": "Start Trash Service",
    "date_created": "2024-12-19T13:28:19.000",
    "date_modified": "2024-12-19T13:28:20.000",
    "request_status": "Pending",
    "responsible_agency": "Department of Sanitation",
    "final_address": "6912 Bellaire Dr",
    "address_councildis": "A",
    "status": "Assigned to Contractor",
    "contractor": "IV Waste",
    "rowid": "1156379",
    "final_x": "3664588.80224",
    "final_y": "553816.301527",
    "longitude": "-90.1207249622826",
    "latitude": "30.01730561212848",
    "geocoded_column": {
      "latitude": "30.01730561212848",
      "longitude": "-90.1207249622826"
    }
  },
  {
    "service_request": "2024-1156378",
    "request_type": "Abandoned Vehicles",
    "request_reason": "Vehicle Blocking Your Driveway",
    "date_created": "2024-12-19T13:23:40.000",
    "date_modified": "2024-12-19T13:23:40.000",
    "request_status": "Pending",
    "responsible_agency": "Department of Public Works",
    "final_address": "2100 BLK Camp St",
    "address_councildis": "B",
    "status": "Pending",
    "rowid": "1156378",
    "final_x": "3678787.28707",
    "final_y": "522496.542065",
    "longitude": "-90.07694851011162",
    "latitude": "29.93076625657449",
    "geocoded_column": {
      "latitude": "29.93076625657449",
      "longitude": "-90.07694851011162"
    }
  },
  {
    "service_request": "2024-1156377",
    "request_type": "Trash/Recycling",
    "request_reason": "Request a Large Item Pick Up",
    "date_created": "2024-12-19T13:23:15.000",
    "date_modified": "2024-12-19T13:23:16.000",
    "request_status": "Pending",
    "responsible_agency": "Department of Sanitation",
    "final_address": "7940 Wave Dr",
    "address_councildis": "E",
    "status": "Assigned to Contractor",
    "contractor": "Waste Pro",
    "rowid": "1156377",
    "final_x": "3714130.51026",
    "final_y": "569777.500966",
    "longitude": "-89.96359197534527",
    "latitude": "30.059657857744153",
    "geocoded_column": {
      "latitude": "30.059657857744153",
      "longitude": "-89.96359197534527"
    }
  },
  {
    "service_request": "2024-1156376",
    "request_type": "Trash/Recycling",
    "request_reason": "Illegal Dumping",
    "date_created": "2024-12-19T13:18:56.000",
    "date_modified": "2024-12-19T13:18:57.000",
    "request_status": "Pending",
    "responsible_agency": "Department of Sanitation",
    "final_address": "LAW ST & SPAIN ST",
    "address_councildis": "D",
    "status": "Pending",
    "rowid": "1156376",
    "final_x": "3685695.1",
    "final_y": "541915.68",
    "longitude": "-90.05445736341345",
    "latitude": "29.983952143505352",
    "geocoded_column": {
      "latitude": "29.983952143505352",
      "longitude": "-90.05445736341345"
    }
  },
  {
    "service_request": "2024-1156375",
    "request_type": "Trash/Recycling",
    "request_reason": "Repair Trash Cart",
    "date_created": "2024-12-19T13:18:35.000",
    "date_modified": "2024-12-19T13:18:36.000",
    "request_status": "Pending",
    "responsible_agency": "Department of Sanitation",
    "final_address": "4417 Danneel St",
    "address_councildis": "B",
    "status": "Assigned to Contractor",
    "contractor": "IV Waste",
    "rowid": "1156375",
    "final_x": "3670489.44315",
    "final_y": "522372.218106",
    "longitude": "-90.10314790415634",
    "latitude": "29.93067197308983",
    "geocoded_column": {
      "latitude": "29.93067197308983",
      "longitude": "-90.10314790415634"
    }
  },
  {
    "service_request": "2024-1156374",
    "request_type": "Trash/Recycling",
    "request_reason": "Request a Large Item Pick Up",
    "date_created": "2024-12-19T13:17:43.000",
    "date_modified": "2024-12-19T13:17:44.000",
    "request_status": "Pending",
    "responsible_agency": "Department of Sanitation",
    "final_address": "1100 Numa St B",
    "address_councildis": "C",
    "status": "Assigned to Contractor",
    "contractor": "Richards Disposal",
    "rowid": "1156374",
    "final_x": "3691952.81321",
    "final_y": "527333.229887",
    "longitude": "-90.0352140022039",
    "latitude": "29.94366200026438",
    "geocoded_column": {
      "latitude": "29.94366200026438",
      "longitude": "-90.0352140022039"
    }
  },
  {
    "service_request": "2024-1156373",
    "request_type": "Abandoned Vehicles",
    "request_reason": "Abandoned/Junk Vehicles",
    "date_created": "2024-12-19T13:14:12.000",
    "date_modified": "2024-12-19T13:14:12.000",
    "request_status": "Pending",
    "responsible_agency": "Department of Public Works",
    "final_address": "COHN ST & EAGLE ST",
    "address_councildis": "A",
    "status": "Pending",
    "rowid": "1156373",
    "final_x": "3661786.3",
    "final_y": "531862.28",
    "longitude": "-90.13030806375723",
    "latitude": "29.95702067377058",
    "geocoded_column": {
      "latitude": "29.95702067377058",
      "longitude": "-90.13030806375723"
    }
  },
  {
    "service_request": "2024-1156372",
    "request_type": "Trash/Recycling",
    "request_reason": "Replace Recycling Cart",
    "date_created": "2024-12-19T13:08:35.000",
    "date_modified": "2024-12-19T13:08:35.000",
    "request_status": "Pending",
    "responsible_agency": "Department of Sanitation",
    "final_address": "3053 Dumaine St",
    "address_councildis": "A",
    "status": "Pending",
    "rowid": "1156372",
    "final_x": "3675807.93051",
    "final_y": "538601.360521",
    "longitude": "-90.08580039671648",
    "latitude": "29.975138626674884",
    "geocoded_column": {
      "latitude": "29.975138626674884",
      "longitude": "-90.08580039671648"
    }
  },
  {
    "service_request": "2024-1156371",
    "request_type": "Safety & Permits",
    "request_reason": "Zoning Enforcement",
    "date_created": "2024-12-19T13:08:15.000",
    "date_modified": "2024-12-19T13:27:29.000",
    "request_status": "Pending",
    "responsible_agency": "Department of Code Enforcement",
    "final_address": "4343 Sybil St",
    "address_councildis": "D",
    "status": "Pending",
    "rowid": "1156371",
    "final_x": "3679172.35637",
    "final_y": "548453.046802",
    "longitude": "-90.0748329263614",
    "latitude": "30.002126163591562",
    "geocoded_column": {
      "latitude": "30.002126163591562",
      "longitude": "-90.0748329263614"
    }
  },
  {
    "service_request": "2024-1156370",
    "request_type": "Trash/Recycling",
    "request_reason": "Order Recycling Cart",
    "date_created": "2024-12-19T13:07:35.000",
    "date_modified": "2024-12-19T13:07:35.000",
    "request_status": "Pending",
    "responsible_agency": "Department of Sanitation",
    "final_address": "2604 S Carrollton Ave",
    "address_councildis": "A",
    "status": "Pending",
    "rowid": "1156370",
    "final_x": "3665388.1504",
    "final_y": "532153.551427",
    "longitude": "-90.11892474883905",
    "latitude": "29.957717101996074",
    "geocoded_column": {
      "latitude": "29.957717101996074",
      "longitude": "-90.11892474883905"
    }
  },
  {
    "service_request": "2024-1156369",
    "request_type": "Roads and Streets",
    "request_reason": "Street Subsidence (Sinking)",
    "date_created": "2024-12-19T13:05:58.000",
    "date_modified": "2024-12-19T13:05:58.000",
    "request_status": "Pending",
    "responsible_agency": "Department of Public Works",
    "final_address": "5740 Abbey Dr",
    "address_councildis": "C",
    "status": "Pending",
    "rowid": "1156369",
    "final_x": "3704897.2163",
    "final_y": "521118.667833",
    "longitude": "-89.99457465509587",
    "latitude": "29.92616456226961",
    "geocoded_column": {
      "latitude": "29.92616456226961",
      "longitude": "-89.99457465509587"
    }
  },
  {
    "service_request": "2024-1156368",
    "request_type": "Trash/Recycling",
    "request_reason": "Replace Trash Cart",
    "date_created": "2024-12-19T12:52:08.000",
    "date_modified": "2024-12-19T12:52:09.000",
    "request_status": "Pending",
    "responsible_agency": "Department of Sanitation",
    "final_address": "2372 Rousseau St",
    "address_councildis": "B",
    "status": "Assigned to Contractor",
    "contractor": "IV Waste",
    "rowid": "1156368",
    "final_x": "3679373.19336",
    "final_y": "519607.739128",
    "longitude": "-90.07519902010468",
    "latitude": "29.922805314370052",
    "geocoded_column": {
      "latitude": "29.922805314370052",
      "longitude": "-90.07519902010468"
    }
  },
  {
    "service_request": "2024-1156367",
    "request_type": "Streetlights",
    "request_reason": "Streetlight Outage/Malfunction",
    "date_created": "2024-12-19T12:47:13.000",
    "date_modified": "2024-12-19T12:47:14.000",
    "request_status": "Pending",
    "responsible_agency": "Department of Public Works",
    "final_address": "N ROBERTSON ST & GORDON ST",
    "address_councildis": "E",
    "status": "Pending",
    "contractor": "Legacy Professional Services",
    "rowid": "1156367",
    "final_x": "3699728.1",
    "final_y": "534850.28",
    "longitude": "-90.01039149923623",
    "latitude": "29.964086729884496",
    "geocoded_column": {
      "latitude": "29.964086729884496",
      "longitude": "-90.01039149923623"
    }
  },
  {
    "service_request": "2024-1156366",
    "request_type": "Trash/Recycling",
    "request_reason": "MIssed Recycling Pick-Up",
    "date_created": "2024-12-19T12:46:01.000",
    "date_modified": "2024-12-19T13:04:47.000",
    "case_close_date": "2024-12-19T07:04:47.000",
    "request_status": "Closed",
    "responsible_agency": "Department of Sanitation",
    "final_address": "1102 Milan St",
    "address_councildis": "B",
    "status": "Invalid Request",
    "contractor": "IV Waste",
    "contractor_action": "Invalid",
    "rowid": "1156366",
    "final_x": "3671688.12961",
    "final_y": "519630.328504",
    "longitude": "-90.09945702449536",
    "latitude": "29.923097214481167",
    "geocoded_column": {
      "latitude": "29.923097214481167",
      "longitude": "-90.09945702449536"
    }
  },
  {
    "service_request": "2024-1156365",
    "request_type": "Abandoned Vehicles",
    "request_reason": "Abandoned/Junk Vehicles",
    "date_created": "2024-12-19T12:45:10.000",
    "date_modified": "2024-12-19T12:45:10.000",
    "request_status": "Pending",
    "responsible_agency": "Department of Public Works",
    "final_address": "7807 Means Ave",
    "address_councildis": "E",
    "status": "Pending",
    "rowid": "1156365",
    "final_x": "3707815.53156",
    "final_y": "565285.324258",
    "longitude": "-89.98372030639842",
    "latitude": "30.04751223877482",
    "geocoded_column": {
      "latitude": "30.04751223877482",
      "longitude": "-89.98372030639842"
    }
  },
  {
    "service_request": "2024-1156364",
    "request_type": "Trash/Recycling",
    "request_reason": "Request a Large Item Pick Up",
    "date_created": "2024-12-19T12:43:34.000",
    "date_modified": "2024-12-19T12:43:35.000",
    "request_status": "Pending",
    "responsible_agency": "Department of Sanitation",
    "final_address": "4600 Virgilian St",
    "address_councildis": "D",
    "status": "Assigned to Contractor",
    "contractor": "Waste Pro",
    "rowid": "1156364",
    "final_x": "3697475.0769",
    "final_y": "552947.788887",
    "longitude": "-90.0168496939725",
    "latitude": "30.01391958616851",
    "geocoded_column": {
      "latitude": "30.01391958616851",
      "longitude": "-90.0168496939725"
    }
  },
  {
    "service_request": "2024-1156363",
    "request_type": "Trash/Recycling",
    "request_reason": "Request a Large Item Pick Up",
    "date_created": "2024-12-19T12:40:27.000",
    "date_modified": "2024-12-19T12:40:27.000",
    "request_status": "Pending",
    "responsible_agency": "Department of Sanitation",
    "final_address": "14101 Knightway Dr",
    "address_councildis": "E",
    "status": "Assigned to Contractor",
    "contractor": "Waste Pro",
    "rowid": "1156363",
    "final_x": "3718517.71852",
    "final_y": "570444.554279",
    "longitude": "-89.949698989532",
    "latitude": "30.061347043913674",
    "geocoded_column": {
      "latitude": "30.061347043913674",
      "longitude": "-89.949698989532"
    }
  },
  {
    "service_request": "2024-1156362",
    "request_type": "Trash/Recycling",
    "request_reason": "Repair Trash Cart",
    "date_created": "2024-12-19T12:35:46.000",
    "date_modified": "2024-12-19T12:35:47.000",
    "request_status": "Pending",
    "responsible_agency": "Department of Sanitation",
    "final_address": "928 Dante St",
    "address_councildis": "A",
    "status": "Assigned to Contractor",
    "contractor": "IV Waste",
    "rowid": "1156362",
    "final_x": "3660851.25824",
    "final_y": "528290.637568",
    "longitude": "-90.1333787579171",
    "latitude": "29.947226764005066",
    "geocoded_column": {
      "latitude": "29.947226764005066",
      "longitude": "-90.1333787579171"
    }
  },
  {
    "service_request": "2024-1156361",
    "request_type": "Trash/Recycling",
    "request_reason": "Missed Trash Pick-Up",
    "date_created": "2024-12-19T12:34:13.000",
    "date_modified": "2024-12-19T12:34:14.000",
    "request_status": "Pending",
    "responsible_agency": "Department of Sanitation",
    "final_address": "1840 Charbonnet St",
    "address_councildis": "E",
    "status": "Assigned to Contractor",
    "contractor": "Waste Pro",
    "rowid": "1156361",
    "final_x": "3699334.35997",
    "final_y": "536576.064775",
    "longitude": "-90.01157202190971",
    "latitude": "29.96884451311015",
    "geocoded_column": {
      "latitude": "29.96884451311015",
      "longitude": "-90.01157202190971"
    }
  },
  {
    "service_request": "2024-1156360",
    "request_type": "Trash/Recycling",
    "request_reason": "Repair Trash Cart",
    "date_created": "2024-12-19T12:33:53.000",
    "date_modified": "2024-12-19T12:33:54.000",
    "request_status": "Pending",
    "responsible_agency": "Department of Sanitation",
    "final_address": "3852 Peach Tree Ct",
    "address_councildis": "C",
    "status": "Assigned to Contractor",
    "contractor": "Richards Disposal",
    "rowid": "1156360",
    "final_x": "3704273.25598",
    "final_y": "512442.513137",
    "longitude": "-89.99686374782044",
    "latitude": "29.902328148601104",
    "geocoded_column": {
      "latitude": "29.902328148601104",
      "longitude": "-89.99686374782044"
    }
  },
  {
    "service_request": "2024-1156359",
    "request_type": "Drainage",
    "request_reason": "Catch Basin Clogged",
    "date_created": "2024-12-19T12:25:46.000",
    "date_modified": "2024-12-19T12:25:47.000",
    "request_status": "Pending",
    "responsible_agency": "Department of Public Works",
    "final_address": "FRENCH ST & CATINA ST",
    "address_councildis": "A",
    "status": "Pending",
    "rowid": "1156359",
    "final_x": "3666862.0",
    "final_y": "548952.38",
    "longitude": "-90.11370612403938",
    "latitude": "30.003865184679537",
    "geocoded_column": {
      "latitude": "30.003865184679537",
      "longitude": "-90.11370612403938"
    }
  },
  {
    "service_request": "2024-1156358",
    "request_type": "Trash/Recycling",
    "request_reason": "Replace Trash Cart",
    "date_created": "2024-12-19T12:24:42.000",
    "date_modified": "2024-12-19T12:24:43.000",
    "request_status": "Pending",
    "responsible_agency": "Department of Sanitation",
    "final_address": "2138 Franklin Ave",
    "address_councildis": "D",
    "status": "Assigned to Contractor",
    "contractor": "IV Waste",
    "rowid": "1156358",
    "final_x": "3687506.18204",
    "final_y": "540552.637259",
    "longitude": "-90.04878526566874",
    "latitude": "29.980148554858673",
    "geocoded_column": {
      "latitude": "29.980148554858673",
      "longitude": "-90.04878526566874"
    }
  },
  {
    "service_request": "2024-1156357",
    "request_type": "Trash/Recycling",
    "request_reason": "Missed Trash Pick-Up",
    "date_created": "2024-12-19T12:23:37.000",
    "date_modified": "2024-12-19T16:13:46.000",
    "case_close_date": "2024-12-19T10:13:46.000",
    "request_status": "Closed",
    "responsible_agency": "Department of Sanitation",
    "final_address": "8502 Hayne Blvd",
    "address_councildis": "E",
    "status": "Invalid Request",
    "contractor": "Waste Pro",
    "contractor_action": "Trash Cart Not Curbside",
    "rowid": "1156357",
    "final_x": "3703262.60836",
    "final_y": "563464.379168",
    "longitude": "-89.99817701910673",
    "latitude": "30.042652024964585",
    "geocoded_column": {
      "latitude": "30.042652024964585",
      "longitude": "-89.99817701910673"
    }
  },
  {
    "service_request": "2024-1156356",
    "request_type": "Street and Traffic Signs",
    "request_reason": "Street Name Sign Damaged or Missing",
    "date_created": "2024-12-19T12:21:48.000",
    "date_modified": "2024-12-19T12:21:48.000",
    "request_status": "Pending",
    "responsible_agency": "Department of Public Works",
    "final_address": "4001 State Street Dr",
    "address_councildis": "B",
    "status": "Pending",
    "rowid": "1156356",
    "final_x": "3668236.65498",
    "final_y": "530244.725121",
    "longitude": "-90.10999431935808",
    "latitude": "29.952385136950358",
    "geocoded_column": {
      "latitude": "29.952385136950358",
      "longitude": "-90.10999431935808"
    }
  },
  {
    "service_request": "2024-1156355",
    "request_type": "Abandoned Vehicles",
    "request_reason": "Abandoned/Junk Vehicles",
    "date_created": "2024-12-19T12:19:58.000",
    "date_modified": "2024-12-19T12:19:59.000",
    "request_status": "Pending",
    "responsible_agency": "Department of Public Works",
    "final_address": "2500 BLK Deers St",
    "address_councildis": "D",
    "status": "Pending",
    "rowid": "1156355",
    "final_x": "3688207.0704",
    "final_y": "541934.543871",
    "longitude": "-90.04652255576983",
    "latitude": "29.983926683644793",
    "geocoded_column": {
      "latitude": "29.983926683644793",
      "longitude": "-90.04652255576983"
    }
  },
  {
    "service_request": "2024-1156354",
    "request_type": "Abandoned Vehicles",
    "request_reason": "Abandoned/Junk Vehicles",
    "date_created": "2024-12-19T12:07:30.000",
    "date_modified": "2024-12-19T12:07:30.000",
    "request_status": "Pending",
    "responsible_agency": "Department of Public Works",
    "final_address": "4819 Cleveland Ave",
    "address_councildis": "A",
    "status": "Pending",
    "rowid": "1156354",
    "final_x": "3668410.81703",
    "final_y": "539917.978186",
    "longitude": "-90.10911806467556",
    "latitude": "29.978978254764844",
    "geocoded_column": {
      "latitude": "29.978978254764844",
      "longitude": "-90.10911806467556"
    }
  },
  {
    "service_request": "2024-1156353",
    "request_type": "Trash/Recycling",
    "request_reason": "Missed Trash Pick-Up",
    "date_created": "2024-12-19T12:06:33.000",
    "date_modified": "2024-12-19T13:10:38.000",
    "case_close_date": "2024-12-19T07:10:38.000",
    "request_status": "Closed",
    "responsible_agency": "Department of Sanitation",
    "final_address": "3512 Nashville Ave",
    "address_councildis": "A",
    "status": "Invalid Request",
    "contractor": "IV Waste",
    "contractor_action": "Invalid",
    "rowid": "1156353",
    "final_x": "3668105.81396",
    "final_y": "528569.547392",
    "longitude": "-90.11046390699097",
    "latitude": "29.94778278467895",
    "geocoded_column": {
      "latitude": "29.94778278467895",
      "longitude": "-90.11046390699097"
    }
  },
  {
    "service_request": "2024-1156352",
    "request_type": "Roads and Streets",
    "request_reason": "Street Subsidence (Sinking)",
    "date_created": "2024-12-19T12:01:21.000",
    "date_modified": "2024-12-19T14:58:50.000",
    "case_close_date": "2024-12-19T08:58:50.000",
    "request_status": "Closed",
    "responsible_agency": "Department of Public Works",
    "final_address": "4300 BLK Werner Dr",
    "address_councildis": "E",
    "status": "Duplicate Request",
    "rowid": "1156352",
    "final_x": "3704971.63005",
    "final_y": "553271.488061",
    "longitude": "-89.99315264124357",
    "latitude": "30.014570679404642",
    "geocoded_column": {
      "latitude": "30.014570679404642",
      "longitude": "-89.99315264124357"
    }
  },
  {
    "service_request": "2024-1156351",
    "request_type": "Trash/Recycling",
    "request_reason": "Request a Large Item Pick Up",
    "date_created": "2024-12-19T12:00:27.000",
    "date_modified": "2024-12-19T12:00:28.000",
    "request_status": "Pending",
    "responsible_agency": "Department of Sanitation",
    "final_address": "3127 State Street Dr",
    "address_councildis": "A",
    "status": "Assigned to Contractor",
    "contractor": "IV Waste",
    "rowid": "1156351",
    "final_x": "3667487.13716",
    "final_y": "527627.061759",
    "longitude": "-90.11244902835857",
    "latitude": "29.945209395358944",
    "geocoded_column": {
      "latitude": "29.945209395358944",
      "longitude": "-90.11244902835857"
    }
  },
  {
    "service_request": "2024-1156350",
    "request_type": "Property Maintenance",
    "request_reason": "Property Maintenance",
    "date_created": "2024-12-19T11:58:54.000",
    "date_modified": "2024-12-19T11:59:13.000",
    "request_status": "Pending",
    "responsible_agency": "Department of Code Enforcement",
    "final_address": "7721 Marquis St",
    "address_councildis": "E",
    "rowid": "1156350",
    "final_x": "3711015.09733",
    "final_y": "566689.095459",
    "longitude": "-89.97355535664657",
    "latitude": "30.05126803259784",
    "geocoded_column": {
      "latitude": "30.05126803259784",
      "longitude": "-89.97355535664657"
    }
  },
  {
    "service_request": "2024-1156349",
    "request_type": "Trash/Recycling",
    "request_reason": "Request a Large Item Pick Up",
    "date_created": "2024-12-19T11:57:28.000",
    "date_modified": "2024-12-19T11:57:29.000",
    "request_status": "Pending",
    "responsible_agency": "Department of Sanitation",
    "final_address": "3925 Annunciation St",
    "address_councildis": "B",
    "status": "Assigned to Contractor",
    "contractor": "IV Waste",
    "rowid": "1156349",
    "final_x": "3673131.92936",
    "final_y": "517987.59583",
    "longitude": "-90.09495553858972",
    "latitude": "29.918537395315187",
    "geocoded_column": {
      "latitude": "29.918537395315187",
      "longitude": "-90.09495553858972"
    }
  },
  {
    "service_request": "2024-1156348",
    "request_type": "Trash/Recycling",
    "request_reason": "Request a Large Item Pick Up",
    "date_created": "2024-12-19T11:55:13.000",
    "date_modified": "2024-12-19T11:55:14.000",
    "request_status": "Pending",
    "responsible_agency": "Department of Sanitation",
    "final_address": "1939 Mazant St",
    "address_councildis": "D",
    "status": "Assigned to Contractor",
    "contractor": "IV Waste",
    "rowid": "1156348",
    "final_x": "3692970.12176",
    "final_y": "538516.140041",
    "longitude": "-90.03160099331829",
    "latitude": "29.974379357687717",
    "geocoded_column": {
      "latitude": "29.974379357687717",
      "longitude": "-90.03160099331829"
    }
  },
  {
    "service_request": "2024-1156347",
    "request_type": "Trash/Recycling",
    "request_reason": "Request a Large Item Pick Up",
    "date_created": "2024-12-19T11:50:39.000",
    "date_modified": "2024-12-19T11:50:41.000",
    "request_status": "Pending",
    "responsible_agency": "Department of Sanitation",
    "final_address": "5657 Hempstead Rd",
    "address_councildis": "E",
    "status": "Assigned to Contractor",
    "contractor": "Waste Pro",
    "rowid": "1156347",
    "final_x": "3708038.02532",
    "final_y": "558025.373083",
    "longitude": "-89.98328745522707",
    "latitude": "30.02754304291878",
    "geocoded_column": {
      "latitude": "30.02754304291878",
      "longitude": "-89.98328745522707"
    }
  },
  {
    "service_request": "2024-1156346",
    "request_type": "Trash/Recycling",
    "request_reason": "Request a Large Item Pick Up",
    "date_created": "2024-12-19T11:48:16.000",
    "date_modified": "2024-12-19T11:48:17.000",
    "request_status": "Pending",
    "responsible_agency": "Department of Sanitation",
    "final_address": "7731 Swift St",
    "address_councildis": "E",
    "status": "Assigned to Contractor",
    "contractor": "Waste Pro",
    "rowid": "1156346",
    "final_x": "3695368.60797",
    "final_y": "559170.271836",
    "longitude": "-90.02328025395764",
    "latitude": "30.031095436763838",
    "geocoded_column": {
      "latitude": "30.031095436763838",
      "longitude": "-90.02328025395764"
    }
  },
  {
    "service_request": "2024-1156345",
    "request_type": "Safety & Permits",
    "request_reason": "Zoning Enforcement",
    "date_created": "2024-12-19T11:47:52.000",
    "date_modified": "2024-12-19T13:27:08.000",
    "case_close_date": "2024-12-19T07:27:08.000",
    "request_status": "Closed",
    "responsible_agency": "Safety and Permits",
    "final_address": "4000 BLK Baudin St",
    "address_councildis": "A",
    "contractor_action": "Invalid Request",
    "rowid": "1156345",
    "final_x": "3670284.02619",
    "final_y": "536939.536145",
    "longitude": "-90.10330271917904",
    "latitude": "29.970733381233284",
    "geocoded_column": {
      "latitude": "29.970733381233284",
      "longitude": "-90.10330271917904"
    }
  },
  {
    "service_request": "2024-1156344",
    "request_type": "Trash/Recycling",
    "request_reason": "Request a Large Item Pick Up",
    "date_created": "2024-12-19T11:44:16.000",
    "date_modified": "2024-12-19T11:44:17.000",
    "request_status": "Pending",
    "responsible_agency": "Department of Sanitation",
    "final_address": "2336 Esplanade Ave",
    "address_councildis": "D",
    "status": "Assigned to Contractor",
    "contractor": "IV Waste",
    "rowid": "1156344",
    "final_x": "3679018.56155",
    "final_y": "538228.078793",
    "longitude": "-90.07567332324639",
    "latitude": "29.974015723686342",
    "geocoded_column": {
      "latitude": "29.974015723686342",
      "longitude": "-90.07567332324639"
    }
  },
  {
    "service_request": "2024-1156343",
    "request_type": "Safety & Permits",
    "request_reason": "Licenses & Permits",
    "date_created": "2024-12-19T11:42:08.000",
    "date_modified": "2024-12-19T11:42:48.000",
    "request_status": "Pending",
    "responsible_agency": "Safety and Permits",
    "final_address": "5700 W Louis Prima Dr",
    "address_councildis": "E",
    "status": "Pending",
    "rowid": "1156343",
    "final_x": "3715893.42629",
    "final_y": "561568.341727",
    "longitude": "-89.9583309509173",
    "latitude": "30.037027959205663",
    "geocoded_column": {
      "latitude": "30.037027959205663",
      "longitude": "-89.9583309509173"
    }
  },
  {
    "service_request": "2024-1156342",
    "request_type": "Trash/Recycling",
    "request_reason": "Request a Large Item Pick Up",
    "date_created": "2024-12-19T11:41:26.000",
    "date_modified": "2024-12-19T11:41:28.000",
    "request_status": "Pending",
    "responsible_agency": "Department of Sanitation",
    "final_address": "7821 Allison Rd",
    "address_councildis": "E",
    "status": "Assigned to Contractor",
    "contractor": "Waste Pro",
    "rowid": "1156342",
    "final_x": "3699884.65335",
    "final_y": "561122.84963",
    "longitude": "-90.0089381728576",
    "latitude": "30.036321526039824",
    "geocoded_column": {
      "latitude": "30.036321526039824",
      "longitude": "-90.0089381728576"
    }
  },
  {
    "service_request": "2024-1156341",
    "request_type": "Trash/Recycling",
    "request_reason": "Illegal Dumping",
    "date_created": "2024-12-19T11:37:48.000",
    "date_modified": "2024-12-19T11:37:48.000",
    "request_status": "Pending",
    "responsible_agency": "Department of Sanitation",
    "final_address": "3700 Abundance St",
    "address_councildis": "D",
    "status": "Pending",
    "rowid": "1156341",
    "final_x": "3692974.14262",
    "final_y": "542981.472333",
    "longitude": "-90.03142806108914",
    "latitude": "29.986657294248232",
    "geocoded_column": {
      "latitude": "29.986657294248232",
      "longitude": "-90.03142806108914"
    }
  },
  {
    "service_request": "2024-1156340",
    "request_type": "Trash/Recycling",
    "request_reason": "Illegal Dumping",
    "date_created": "2024-12-19T11:34:43.000",
    "date_modified": "2024-12-19T11:34:43.000",
    "request_status": "Pending",
    "responsible_agency": "Department of Sanitation",
    "final_address": "1921 N Prieur St",
    "address_councildis": "D",
    "status": "Pending",
    "rowid": "1156340",
    "final_x": "3683096.80879",
    "final_y": "539222.807306",
    "longitude": "-90.06275847638294",
    "latitude": "29.97662716956135",
    "geocoded_column": {
      "latitude": "29.97662716956135",
      "longitude": "-90.06275847638294"
    }
  },
  {
    "service_request": "2024-1156339",
    "request_type": "Trash/Recycling",
    "request_reason": "Illegal Dumping",
    "date_created": "2024-12-19T11:32:22.000",
    "date_modified": "2024-12-19T11:32:22.000",
    "request_status": "Pending",
    "responsible_agency": "Department of Sanitation",
    "final_address": "2451 Law St",
    "address_councildis": "D",
    "status": "Pending",
    "rowid": "1156339",
    "final_x": "3685730.17545",
    "final_y": "541981.861836",
    "longitude": "-90.05434424311846",
    "latitude": "29.98413304365652",
    "geocoded_column": {
      "latitude": "29.98413304365652",
      "longitude": "-90.05434424311846"
    }
  },
  {
    "service_request": "2024-1156338",
    "request_type": "Property Maintenance",
    "request_reason": "Property Maintenance",
    "date_created": "2024-12-19T11:23:31.000",
    "date_modified": "2024-12-19T11:38:59.000",
    "case_close_date": "2024-12-19T05:38:59.000",
    "request_status": "Closed",
    "responsible_agency": "Department of Code Enforcement",
    "final_address": "3020 St Peter St",
    "address_councildis": "A",
    "status": "Referred to Code Enforcement",
    "rowid": "1156338",
    "final_x": "3675486.1739",
    "final_y": "537698.27572",
    "longitude": "-90.08684761639901",
    "latitude": "29.972665080139937",
    "geocoded_column": {
      "latitude": "29.972665080139937",
      "longitude": "-90.08684761639901"
    }
  },
  {
    "service_request": "2024-1156337",
    "request_type": "Roads and Streets",
    "request_reason": "Pothole",
    "date_created": "2024-12-19T11:23:05.000",
    "date_modified": "2024-12-19T15:11:21.000",
    "case_close_date": "2024-12-19T09:11:21.000",
    "request_status": "Closed",
    "responsible_agency": "Department of Public Works",
    "final_address": "5800 BLK Peoples Ave",
    "address_councildis": "D",
    "status": "Resolved",
    "rowid": "1156337",
    "final_x": "3687852.11507",
    "final_y": "554749.685236",
    "longitude": "-90.04718935973237",
    "latitude": "30.019174626095097",
    "geocoded_column": {
      "latitude": "30.019174626095097",
      "longitude": "-90.04718935973237"
    }
  },
  {
    "service_request": "2024-1156336",
    "request_type": "Trash/Recycling",
    "request_reason": "Request a Large Item Pick Up",
    "date_created": "2024-12-19T11:20:51.000",
    "date_modified": "2024-12-19T11:20:52.000",
    "request_status": "Pending",
    "responsible_agency": "Department of Sanitation",
    "final_address": "6911 Manchester St",
    "address_councildis": "E",
    "status": "Assigned to Contractor",
    "contractor": "Waste Pro",
    "rowid": "1156336",
    "final_x": "3698700.83069",
    "final_y": "560109.602013",
    "longitude": "-90.01271617062565",
    "latitude": "30.03357305699327",
    "geocoded_column": {
      "latitude": "30.03357305699327",
      "longitude": "-90.01271617062565"
    }
  },
  {
    "service_request": "2024-1156335",
    "request_type": "Utility Poles",
    "request_reason": "Wires Sagging/Hanging Low",
    "date_created": "2024-12-19T11:19:57.000",
    "date_modified": "2024-12-19T11:20:00.000",
    "request_status": "Pending",
    "responsible_agency": "Utility Company Collective",
    "final_address": "1734 Spain St",
    "address_councildis": "D",
    "status": "Pending",
    "rowid": "1156335",
    "final_x": "3685895.11279",
    "final_y": "538898.676234",
    "longitude": "-90.05393201693175",
    "latitude": "29.9756503064837",
    "geocoded_column": {
      "latitude": "29.9756503064837",
      "longitude": "-90.05393201693175"
    }
  },
  {
    "service_request": "2024-1156334",
    "request_type": "Trash/Recycling",
    "request_reason": "Missed Trash Pick-Up",
    "date_created": "2024-12-19T11:19:45.000",
    "date_modified": "2024-12-19T11:19:46.000",
    "request_status": "Pending",
    "responsible_agency": "Department of Sanitation",
    "final_address": "3735 Inwood Ave",
    "address_councildis": "C",
    "status": "Assigned to Contractor",
    "contractor": "Richards Disposal",
    "rowid": "1156334",
    "final_x": "3704647.3091",
    "final_y": "514650.360563",
    "longitude": "-89.9956019136155",
    "latitude": "29.908386974858715",
    "geocoded_column": {
      "latitude": "29.908386974858715",
      "longitude": "-89.9956019136155"
    }
  },
  {
    "service_request": "2024-1156333",
    "request_type": "Trash/Recycling",
    "request_reason": "Dead Animal Pick Up",
    "date_created": "2024-12-19T11:19:44.000",
    "date_modified": "2024-12-19T11:19:45.000",
    "request_status": "Pending",
    "responsible_agency": "Department of Sanitation",
    "final_address": "MACARTHUR BLVD & HUDSON PL",
    "address_councildis": "C",
    "status": "Assigned to Contractor",
    "contractor": "Richards Disposal",
    "rowid": "1156333",
    "final_x": "3703180.9",
    "final_y": "519889.78",
    "longitude": "-90.00003766973849",
    "latitude": "29.922840573216806",
    "geocoded_column": {
      "latitude": "29.922840573216806",
      "longitude": "-90.00003766973849"
    }
  },
  {
    "service_request": "2024-1156332",
    "request_type": "Roads and Streets",
    "request_reason": "Pothole",
    "date_created": "2024-12-19T11:19:30.000",
    "date_modified": "2024-12-19T11:20:07.000",
    "case_close_date": "2024-12-19T05:20:07.000",
    "request_status": "Closed",
    "responsible_agency": "Department of Public Works",
    "final_address": "3900 BLK Erato St",
    "address_councildis": "B",
    "status": "Resolved",
    "rowid": "1156332",
    "final_x": "3672470.36729",
    "final_y": "530495.669111",
    "longitude": "-90.09661761799748",
    "latitude": "29.952950184387383",
    "geocoded_column": {
      "latitude": "29.952950184387383",
      "longitude": "-90.09661761799748"
    }
  },
  {
    "service_request": "2024-1156331",
    "request_type": "Trash/Recycling",
    "request_reason": "Request a Large Item Pick Up",
    "date_created": "2024-12-19T11:18:55.000",
    "date_modified": "2024-12-19T11:18:57.000",
    "request_status": "Pending",
    "responsible_agency": "Department of Sanitation",
    "final_address": "1031 Burdette St",
    "address_councildis": "A",
    "status": "Assigned to Contractor",
    "contractor": "IV Waste",
    "rowid": "1156331",
    "final_x": "3662548.25613",
    "final_y": "527288.862207",
    "longitude": "-90.12805393782207",
    "latitude": "29.94442322762445",
    "geocoded_column": {
      "latitude": "29.94442322762445",
      "longitude": "-90.12805393782207"
    }
  },