[
  {
    "service_request": "2025-1230549",
    "request_type": "Trash/Recycling",
    "request_reason": "Request a Large Item Pick Up",
    "date_created": "2025-10-01T22:07:06.000",
    "date_modified": "2025-10-01T22:07:08.000",
    "request_status": "Pending",
    "responsible_agency": "Department of Sanitation",
    "final_address": "6546 Harbourview Dr",
    "address_councildis": "E",
    "status": "Assigned to Contractor",
    "contractor": "Waste Pro",
    "rowid": "1230549",
    "final_x": "3698761.60317",
    "final_y": "555895.649241",
    "longitude": "-90.01267760569498",
    "latitude": "30.021984377991238",
    "geocoded_column": {
      "latitude": "30.021984377991238",
      "longitude": "-90.01267760569498"
    }
  },
  {
    "service_request": "2025-1230548",
    "request_type": "Safety & Permits",
    "request_reason": "Licenses & Permits",
    "date_created": "2025-10-01T21:49:41.000",
    "date_modified": "2025-10-01T21:49:43.000",
    "request_status": "Pending",
    "responsible_agency": "Safety and Permits",
    "final_address": "3918 Royal St Apt A",
    "address_councildis": "C",
    "status": "Pending",
    "rowid": "1230548",
    "final_x": "3691284.84476",
    "final_y": "533805.936005",
    "longitude": "-90.03709176383764",
    "latitude": "29.96148049169783",
    "geocoded_column": {
      "latitude": "29.96148049169783",
      "longitude": "-90.03709176383764"
    }
  },
  {
    "service_request": "2025-1230547",
    "request_type": "Abandoned Vehicles",
    "request_reason": "Abandoned/Junk Vehicles",
    "date_created": "2025-10-01T21:40:59.000",
    "date_modified": "2025-10-01T21:41:01.000",
    "request_status": "Pending",
    "responsible_agency": "Department of Public Works",
    "final_address": "3014 Allen St",
    "address_councildis": "D",
    "status": "Pending",
    "rowid": "1230547",
    "final_x": "543712.320846",
    "final_y": "543712.320846",
    "longitude": "-99.96377298737396",
    "latitude": "29.711527959666707",
    "geocoded_column": {
      "latitude": "29.711527959666707",
      "longitude": "-99.96377298737396"
    }
  },
  {
    "service_request": "2025-1230546",
    "request_type": "Trash/Recycling",
    "request_reason": "Replace Trash Cart",
    "date_created": "2025-10-01T21:31:21.000",
    "date_modified": "2025-10-01T21:31:24.000",
    "request_status": "Pending",
    "responsible_agency": "Department of Sanitation",
    "final_address": "9623 Irby St",
    "address_councildis": "E",
    "status": "Assigned to Contractor",
    "contractor": "Waste Pro",
    "rowid": "1230546",
    "final_x": "3706701.7907",
    "final_y": "564606.672161",
    "longitude": "-89.98726551149595",
    "latitude": "30.045682239047817",
    "geocoded_column": {
      "latitude": "30.045682239047817",
      "longitude": "-89.98726551149595"
    }
  },
  {
    "service_request": "2025-1230545",
    "request_type": "Abandoned Vehicles",
    "request_reason": "Abandoned/Junk Vehicles",
    "date_created": "2025-10-01T21:12:30.000",
    "date_modified": "2025-10-01T21:12:32.000",
    "request_status": "Pending",
    "responsible_agency": "Department of Public Works",
    "final_address": "3109 Allen St",
    "address_councildis": "D",
    "status": "Pending",
    "rowid": "1230545",
    "final_x": "3682247.55279",
    "final_y": "543966.333774",
    "longitude": "-90.06527489165462",
    "latitude": "29.989696070345712",
    "geocoded_column": {
      "latitude": "29.989696070345712",
      "longitude": "-90.06527489165462"
    }
  },
  {
    "service_request": "2025-1230544",
    "request_type": "Abandoned Vehicles",
    "request_reason": "Abandoned/Junk Vehicles",
    "date_created": "2025-10-01T21:06:30.000",
    "date_modified": "2025-10-01T21:06:31.000",
    "request_status": "Pending",
    "responsible_agency": "Department of Public Works",
    "final_address": "1955 Abundance St",
    "address_councildis": "D",
    "status": "Pending",
    "rowid": "1230544",
    "final_x": "3682736.01589",
    "final_y": "543575.022926",
    "longitude": "-90.06374566927333",
    "latitude": "29.988605231194352",
    "geocoded_column": {
      "latitude": "29.988605231194352",
      "longitude": "-90.06374566927333"
    }
  },
  {
    "service_request": "2025-1230543",
    "request_type": "Abandoned Vehicles",
    "request_reason": "Abandoned/Junk Vehicles",
    "date_created": "2025-10-01T20:57:05.000",
    "date_modified": "2025-10-01T20:57:07.000",
    "request_status": "Pending",
    "responsible_agency": "Department of Public Works",
    "final_address": "324 N Prieur St",
    "address_councildis": "B",
    "status": "Pending",
    "rowid": "1230543",
    "final_x": "3678183.54638",
    "final_y": "534238.439557",
    "longitude": "-90.07844848357686",
    "latitude": "29.963070752074135",
    "geocoded_column": {
      "latitude": "29.963070752074135",
      "longitude": "-90.07844848357686"
    }
  },
  {
    "service_request": "2025-1230542",
    "request_type": "Streetlights",
    "request_reason": "Streetlight Outage/Malfunction",
    "date_created": "2025-10-01T20:48:11.000",
    "date_modified": "2025-10-01T20:48:13.000",
    "request_status": "Pending",
    "responsible_agency": "Department of Public Works",
    "final_address": "1800 Monroe St",
    "address_councildis": "A",
    "status": "Pending",
    "rowid": "1230542",
    "final_x": "3661793.51027",
    "final_y": "531612.523587",
    "longitude": "-90.13029357608676",
    "latitude": "29.956333716263774",
    "geocoded_column": {
      "latitude": "29.956333716263774",
      "longitude": "-90.13029357608676"
    }
  },
  {
    "service_request": "2025-1230541",
    "request_type": "Graffiti Removal",
    "request_reason": "Graffiti Removal",
    "date_created": "2025-10-01T20:25:32.000",
    "date_modified": "2025-10-01T20:25:34.000",
    "request_status": "Pending",
    "responsible_agency": "Department of Code Enforcement",
    "final_address": "3040 Paris Ave",
    "address_councildis": "D",
    "status": "Pending",
    "rowid": "1230541",
    "final_x": "3679754.91752",
    "final_y": "543699.040398",
    "longitude": "-90.07315771877842",
    "latitude": "29.989036721142426",
    "geocoded_column": {
      "latitude": "29.989036721142426",
      "longitude": "-90.07315771877842"
    }
  },
  {
    "service_request": "2025-1230540",
    "request_type": "Streetlights",
    "request_reason": "Streetlight Outage/Malfunction",
    "date_created": "2025-10-01T20:17:33.000",
    "date_modified": "2025-10-01T20:17:35.000",
    "request_status": "Pending",
    "responsible_agency": "Department of Public Works",
    "final_address": "6634 Avenue A",
    "address_councildis": "A",
    "status": "Pending",
    "rowid": "1230540",
    "final_x": "3665986.62106",
    "final_y": "552292.96175",
    "longitude": "-90.11635952036103",
    "latitude": "30.01307621330631",
    "geocoded_column": {
      "latitude": "30.01307621330631",
      "longitude": "-90.11635952036103"
    }
  },
  {
    "service_request": "2025-1230539",
    "request_type": "Trash/Recycling",
    "request_reason": "Illegal Dumping",
    "date_created": "2025-10-01T20:13:59.000",
    "date_modified": "2025-10-01T20:14:01.000",
    "request_status": "Pending",
    "responsible_agency": "Department of Sanitation",
    "final_address": "1107 S Dupre St",
    "address_councildis": "B",
    "status": "Pending",
    "rowid": "1230539",
    "final_x": "3671707.23867",
    "final_y": "531692.104515",
    "longitude": "-90.09898655109517",
    "latitude": "29.956262611743433",
    "geocoded_column": {
      "latitude": "29.956262611743433",
      "longitude": "-90.09898655109517"
    }
  },
  {
    "service_request": "2025-1230538",
    "request_type": "Trash/Recycling",
    "request_reason": "Request a Large Item Pick Up",
    "date_created": "2025-10-01T20:06:13.000",
    "date_modified": "2025-10-01T20:06:16.000",
    "request_status": "Pending",
    "responsible_agency": "Department of Sanitation",
    "final_address": "3661 Annunciation St",
    "address_councildis": "B",
    "status": "Assigned to Contractor",
    "contractor": "IV Waste",
    "rowid": "1230538",
    "final_x": "3673976.73812",
    "final_y": "518170.543734",
    "longitude": "-90.09228266557429",
    "latitude": "29.919015311078013",
    "geocoded_column": {
      "latitude": "29.919015311078013",
      "longitude": "-90.09228266557429"
    }
  },
  {
    "service_request": "2025-1230537",
    "request_type": "Roads and Streets",
    "request_reason": "Street Subsidence (Sinking)",
    "date_created": "2025-10-01T20:01:56.000",
    "date_modified": "2025-10-01T20:01:58.000",
    "request_status": "Pending",
    "responsible_agency": "Sewerage & Water Board",
    "final_address": "3234 Ponce De Leon St",
    "address_councildis": "A",
    "status": "Pending",
    "rowid": "1230537",
    "final_x": "3675757.45217",
    "final_y": "540525.400715",
    "longitude": "-90.08589366642653",
    "latitude": "29.9804305882121",
    "geocoded_column": {
      "latitude": "29.9804305882121",
      "longitude": "-90.08589366642653"
    }
  },
  {
    "service_request": "2025-1230536",
    "request_type": "Trash/Recycling",
    "request_reason": "Request a Large Item Pick Up",
    "date_created": "2025-10-01T19:40:39.000",
    "date_modified": "2025-10-01T19:40:41.000",
    "request_status": "Pending",
    "responsible_agency": "Department of Sanitation",
    "final_address": "1700 Spain St",
    "address_councildis": "D",
    "status": "Assigned to Contractor",
    "contractor": "IV Waste",
    "rowid": "1230536",
    "final_x": "3685923.0333",
    "final_y": "538642.052873",
    "longitude": "-90.05385288653582",
    "latitude": "29.97494382496932",
    "geocoded_column": {
      "latitude": "29.97494382496932",
      "longitude": "-90.05385288653582"
    }
  },
  {
    "service_request": "2025-1230535",
    "request_type": "Trash/Recycling",
    "request_reason": "Request a Large Item Pick Up",
    "date_created": "2025-10-01T19:40:03.000",
    "date_modified": "2025-10-01T19:40:05.000",
    "request_status": "Pending",
    "responsible_agency": "Department of Sanitation",
    "final_address": "1702 Spain St",
    "address_councildis": "D",
    "status": "Assigned to Contractor",
    "contractor": "IV Waste",
    "rowid": "1230535",
    "final_x": "3685920.53327",
    "final_y": "538673.719561",
    "longitude": "-90.0538596655007",
    "latitude": "29.97503097402366",
    "geocoded_column": {
      "latitude": "29.97503097402366",
      "longitude": "-90.0538596655007"
    }
  },
  {
    "service_request": "2025-1230534",
    "request_type": "Trash/Recycling",
    "request_reason": "Request a Large Item Pick Up",
    "date_created": "2025-10-01T19:39:12.000",
    "date_modified": "2025-10-01T19:39:14.000",
    "request_status": "Pending",
    "responsible_agency": "Department of Sanitation",
    "final_address": "1704 Spain St",
    "address_councildis": "D",
    "status": "Assigned to Contractor",
    "contractor": "IV Waste",
    "rowid": "1230534",
    "final_x": "3685917.19996",
    "final_y": "538715.802953",
    "longitude": "-90.05386870883589",
    "latitude": "29.97514679094592",
    "geocoded_column": {
      "latitude": "29.97514679094592",
      "longitude": "-90.05386870883589"
    }
  },
  {
    "service_request": "2025-1230533",
    "request_type": "Trash/Recycling",
    "request_reason": "Illegal Dumping",
    "date_created": "2025-10-01T19:23:12.000",
    "date_modified": "2025-10-01T19:23:13.000",
    "request_status": "Pending",
    "responsible_agency": "Department of Sanitation",
    "final_address": "2112 Marais St",
    "address_councildis": "C",
    "status": "Pending",
    "rowid": "1230533",
    "final_x": "3684693.59977",
    "final_y": "536609.637639",
    "longitude": "-90.05780719882162",
    "latitude": "29.96939308152586",
    "geocoded_column": {
      "latitude": "29.96939308152586",
      "longitude": "-90.05780719882162"
    }
  },
  {
    "service_request": "2025-1230532",
    "request_type": "General Services",
    "request_reason": "General Service Request",
    "date_created": "2025-10-01T19:12:23.000",
    "date_modified": "2025-10-01T19:12:25.000",
    "request_status": "Pending",
    "responsible_agency": "Orleans Parish Communication District",
    "final_address": "7859 S Coronet Ct",
    "address_councildis": "E",
    "status": "Pending",
    "rowid": "1230532",
    "final_x": "3703481.20682",
    "final_y": "557475.363931",
    "longitude": "-89.99770679205314",
    "latitude": "30.02617756855458",
    "geocoded_column": {
      "latitude": "30.02617756855458",
      "longitude": "-89.99770679205314"
    }
  },
  {
    "service_request": "2025-1230531",
    "request_type": "Streetlights",
    "request_reason": "Streetlight Outage/Malfunction",
    "date_created": "2025-10-01T19:09:37.000",
    "date_modified": "2025-10-01T19:09:39.000",
    "request_status": "Pending",
    "responsible_agency": "Department of Public Works",
    "final_address": "6612 Colbert St",
    "address_councildis": "A",
    "status": "Pending",
    "rowid": "1230531",
    "final_x": "3667697.53313",
    "final_y": "551576.400597",
    "longitude": "-90.11097808990024",
    "latitude": "30.01105584604733",
    "geocoded_column": {
      "latitude": "30.01105584604733",
      "longitude": "-90.11097808990024"
    }
  },
  {
    "service_request": "2025-1230530",
    "request_type": "Trash/Recycling",
    "request_reason": "Request a Large Item Pick Up",
    "date_created": "2025-10-01T18:52:21.000",
    "date_modified": "2025-10-01T18:52:23.000",
    "request_status": "Pending",
    "responsible_agency": "Department of Sanitation",
    "final_address": "5335 Royal St",
    "address_councildis": "E",
    "status": "Assigned to Contractor",
    "contractor": "Waste Pro",
    "rowid": "1230530",
    "final_x": "3696664.10883",
    "final_y": "532554.880452",
    "longitude": "-90.02015033356973",
    "latitude": "29.95787210905299",
    "geocoded_column": {
      "latitude": "29.95787210905299",
      "longitude": "-90.02015033356973"
    }
  },
  {
    "service_request": "2025-1230529",
    "request_type": "Trash/Recycling",
    "request_reason": "Request a Large Item Pick Up",
    "date_created": "2025-10-01T18:51:01.000",
    "date_modified": "2025-10-01T18:51:03.000",
    "request_status": "Pending",
    "responsible_agency": "Department of Sanitation",
    "final_address": "7731 Shelly St",
    "address_councildis": "E",
    "status": "Assigned to Contractor",
    "contractor": "Waste Pro",
    "rowid": "1230529",
    "final_x": "3695932.63082",
    "final_y": "559352.779357",
    "longitude": "-90.02149132910432",
    "latitude": "30.03157951942622",
    "geocoded_column": {
      "latitude": "30.03157951942622",
      "longitude": "-90.02149132910432"
    }
  },
  {
    "service_request": "2025-1230528",
    "request_type": "Property Maintenance",
    "request_reason": "Property Maintenance",
    "date_created": "2025-10-01T18:41:49.000",
    "date_modified": "2025-10-01T18:41:51.000",
    "request_status": "Pending",
    "responsible_agency": "Department of Code Enforcement",
    "final_address": "5700 E Louis Prima Dr",
    "address_councildis": "E",
    "status": "Pending",
    "rowid": "1230528",
    "final_x": "3716335.15768",
    "final_y": "561893.531743",
    "longitude": "-89.95692265359399",
    "latitude": "30.03790751799672",
    "geocoded_column": {
      "latitude": "30.03790751799672",
      "longitude": "-89.95692265359399"
    }
  },
  {
    "service_request": "2025-1230527",
    "request_type": "Traffic Signals",
    "request_reason": "Traffic Signal Malfunctioning or Damaged",
    "date_created": "2025-10-01T18:38:27.000",
    "date_modified": "2025-10-01T18:38:29.000",
    "request_status": "Pending",
    "responsible_agency": "Department of Public Works",
    "final_address": "1565 Tulane Ave",
    "address_councildis": "B",
    "status": "Pending",
    "rowid": "1230527",
    "final_x": "3678195.77326",
    "final_y": "531831.894019",
    "longitude": "-90.07849309758328",
    "latitude": "29.95645319699127",
    "geocoded_column": {
      "latitude": "29.95645319699127",
      "longitude": "-90.07849309758328"
    }
  },
  {
    "service_request": "2025-1230526",
    "request_type": "Trash/Recycling",
    "request_reason": "Replace Trash Cart",
    "date_created": "2025-10-01T18:30:20.000",
    "date_modified": "2025-10-01T18:30:23.000",
    "request_status": "Pending",
    "responsible_agency": "Department of Sanitation",
    "final_address": "5014 S Prieur St",
    "address_councildis": "B",
    "status": "Assigned to Contractor",
    "contractor": "IV Waste",
    "rowid": "1230526",
    "final_x": "3668768.77863",
    "final_y": "526573.862846",
    "longitude": "-90.1084380176283",
    "latitude": "29.942275828593395",
    "geocoded_column": {
      "latitude": "29.942275828593395",
      "longitude": "-90.1084380176283"
    }
  },
  {
    "service_request": "2025-1230525",
    "request_type": "Property Maintenance",
    "request_reason": "Property Maintenance",
    "date_created": "2025-10-01T18:19:35.000",
    "date_modified": "2025-10-01T18:19:37.000",
    "request_status": "Pending",
    "responsible_agency": "Department of Code Enforcement",
    "final_address": "4558 St Claude Ave",
    "address_councildis": "C",
    "status": "Pending",
    "rowid": "1230525",
    "final_x": "3693716.26365",
    "final_y": "534766.926726",
    "longitude": "-90.0293792585509",
    "latitude": "29.964047022637896",
    "geocoded_column": {
      "latitude": "29.964047022637896",
      "longitude": "-90.0293792585509"
    }
  },
  {
    "service_request": "2025-1230524",
    "request_type": "Trash/Recycling",
    "request_reason": "Request a Large Item Pick Up",
    "date_created": "2025-10-01T18:18:17.000",
    "date_modified": "2025-10-01T18:18:20.000",
    "request_status": "Pending",
    "responsible_agency": "Department of Sanitation",
    "final_address": "423 S St Patrick St",
    "address_councildis": "A",
    "status": "Assigned to Contractor",
    "contractor": "IV Waste",
    "rowid": "1230524",
    "final_x": "3668173.25306",
    "final_y": "538789.079113",
    "longitude": "-90.10990645442082",
    "latitude": "29.975881139290614",
    "geocoded_column": {
      "latitude": "29.975881139290614",
      "longitude": "-90.10990645442082"
    }
  },
  {
    "service_request": "2025-1230523",
    "request_type": "Roads and Streets",
    "request_reason": "Push-up/Pavement Expansion",
    "date_created": "2025-10-01T18:11:58.000",
    "date_modified": "2025-10-01T18:12:00.000",
    "request_status": "Pending",
    "responsible_agency": "Department of Public Works",
    "final_address": "5700 BLK Foxcroft Dr",
    "address_councildis": "E",
    "status": "Pending",
    "rowid": "1230523",
    "final_x": "3715446.35647",
    "final_y": "561465.285978",
    "longitude": "-89.95974767857358",
    "latitude": "30.03675934101098",
    "geocoded_column": {
      "latitude": "30.03675934101098",
      "longitude": "-89.95974767857358"
    }
  },
  {
    "service_request": "2025-1230521",
    "request_type": "Trash/Recycling",
    "request_reason": "Illegal Dumping",
    "date_created": "2025-10-01T17:51:32.000",
    "date_modified": "2025-10-01T17:51:34.000",
    "request_status": "Pending",
    "responsible_agency": "Department of Sanitation",
    "final_address": "4558 St Claude Ave",
    "address_councildis": "C",
    "status": "Pending",
    "rowid": "1230521",
    "final_x": "3693716.26365",
    "final_y": "534766.926726",
    "longitude": "-90.0293792585509",
    "latitude": "29.964047022637896",
    "geocoded_column": {
      "latitude": "29.964047022637896",
      "longitude": "-90.0293792585509"
    }
  },
  {
    "service_request": "2025-1230520",
    "request_type": "General Services",
    "request_reason": "General Service Request",
    "date_created": "2025-10-01T17:50:19.000",
    "date_modified": "2025-10-01T17:50:22.000",
    "request_status": "Pending",
    "responsible_agency": "Orleans Parish Communication District",
    "final_address": "4558 St Claude Ave",
    "address_councildis": "C",
    "status": "Pending",
    "rowid": "1230520",
    "final_x": "3693716.26365",
    "final_y": "534766.926726",
    "longitude": "-90.0293792585509",
    "latitude": "29.964047022637896",
    "geocoded_column": {
      "latitude": "29.964047022637896",
      "longitude": "-90.0293792585509"
    }
  },
  {
    "service_request": "2025-1230519",
    "request_type": "Trash/Recycling",
    "request_reason": "Illegal Dumping",
    "date_created": "2025-10-01T17:38:30.000",
    "date_modified": "2025-10-01T17:38:32.000",
    "request_status": "Pending",
    "responsible_agency": "Department of Sanitation",
    "final_address": "4558 St Claude Ave",
    "address_councildis": "C",
    "status": "Pending",
    "rowid": "1230519",
    "final_x": "3693716.26365",
    "final_y": "534766.926726",
    "longitude": "-90.0293792585509",
    "latitude": "29.964047022637896",
    "geocoded_column": {
      "latitude": "29.964047022637896",
      "longitude": "-90.0293792585509"
    }
  },
  {
    "service_request": "2025-1230518",
    "request_type": "Trash/Recycling",
    "request_reason": "Illegal Dumping",
    "date_created": "2025-10-01T17:24:30.000",
    "date_modified": "2025-10-01T17:24:32.000",
    "request_status": "Pending",
    "responsible_agency": "Department of Sanitation",
    "final_address": "4558 St Claude Ave",
    "address_councildis": "C",
    "status": "Pending",
    "rowid": "1230518",
    "final_x": "3693716.26365",
    "final_y": "534766.926726",
    "longitude": "-90.0293792585509",
    "latitude": "29.964047022637896",
    "geocoded_column": {
      "latitude": "29.964047022637896",
      "longitude": "-90.0293792585509"
    }
  },
  {
    "service_request": "2025-1230517",
    "request_type": "Trash/Recycling",
    "request_reason": "Replace Trash Cart",
    "date_created": "2025-10-01T17:15:50.000",
    "date_modified": "2025-10-01T17:15:52.000",
    "request_status": "Pending",
    "responsible_agency": "Department of Sanitation",
    "final_address": "2819 Mistletoe St",
    "address_councildis": "A",
    "status": "Assigned to Contractor",
    "contractor": "IV Waste",
    "rowid": "1230517",
    "final_x": "3663111.81927",
    "final_y": "535350.044422",
    "longitude": "-90.12600642464123",
    "latitude": "29.96657255438063",
    "geocoded_column": {
      "latitude": "29.96657255438063",
      "longitude": "-90.12600642464123"
    }
  },
  {
    "service_request": "2025-1230516",
    "request_type": "Trash/Recycling",
    "request_reason": "Request a Large Item Pick Up",
    "date_created": "2025-10-01T17:06:56.000",
    "date_modified": "2025-10-01T17:06:58.000",
    "request_status": "Pending",
    "responsible_agency": "Department of Sanitation",
    "final_address": "1000 Girod St",
    "address_councildis": "B",
    "status": "Assigned to Contractor",
    "contractor": "IV Waste",
    "rowid": "1230516",
    "final_x": "3679255.69909",
    "final_y": "528782.515456",
    "longitude": "-90.07525192274366",
    "latitude": "29.948036471072694",
    "geocoded_column": {
      "latitude": "29.948036471072694",
      "longitude": "-90.07525192274366"
    }
  },
  {
    "service_request": "2025-1230515",
    "request_type": "Trash/Recycling",
    "request_reason": "Repair Recycling Cart",
    "date_created": "2025-10-01T17:02:51.000",
    "date_modified": "2025-10-01T17:02:53.000",
    "request_status": "Pending",
    "responsible_agency": "Department of Sanitation",
    "final_address": "1526 Lowerline St",
    "address_councildis": "A",
    "status": "Pending",
    "rowid": "1230515",
    "final_x": "3664351.50183",
    "final_y": "527939.152511",
    "longitude": "-90.12233884480733",
    "latitude": "29.94615903852879",
    "geocoded_column": {
      "latitude": "29.94615903852879",
      "longitude": "-90.12233884480733"
    }
  },
  {
    "service_request": "2025-1230514",
    "request_type": "Trash/Recycling",
    "request_reason": "Repair Trash Cart",
    "date_created": "2025-10-01T16:59:31.000",
    "date_modified": "2025-10-01T16:59:34.000",
    "request_status": "Pending",
    "responsible_agency": "Department of Sanitation",
    "final_address": "2707 Hamilton St",
    "address_councildis": "A",
    "status": "Assigned to Contractor",
    "contractor": "IV Waste",
    "rowid": "1230514",
    "final_x": "3663053.96301",
    "final_y": "534763.74599",
    "longitude": "-90.12620864058232",
    "latitude": "29.9649621020779",
    "geocoded_column": {
      "latitude": "29.9649621020779",
      "longitude": "-90.12620864058232"
    }
  },
  {
    "service_request": "2025-1230513",
    "request_type": "Drainage",
    "request_reason": "Drainage Manhole Cover Missing or Damaged",
    "date_created": "2025-10-01T16:58:11.000",
    "date_modified": "2025-10-01T16:58:12.000",
    "request_status": "Pending",
    "responsible_agency": "Sewerage & Water Board",
    "final_address": "2700 Gallinghouse St",
    "address_councildis": "C",
    "status": "Pending",
    "rowid": "1230513",
    "final_x": "3700130.27338",
    "final_y": "521027.802297",
    "longitude": "-90.00962573745555",
    "latitude": "29.926066996011727",
    "geocoded_column": {
      "latitude": "29.926066996011727",
      "longitude": "-90.00962573745555"
    }
  },
  {
    "service_request": "2025-1230512",
    "request_type": "Trash/Recycling",
    "request_reason": "Request a Large Item Pick Up",
    "date_created": "2025-10-01T16:55:26.000",
    "date_modified": "2025-10-01T16:55:28.000",
    "request_status": "Pending",
    "responsible_agency": "Department of Sanitation",
    "final_address": "417 Eliza St",
    "address_councildis": "C",
    "status": "Assigned to Contractor",
    "contractor": "Richards Disposal",
    "rowid": "1230512",
    "final_x": "3686796.89084",
    "final_y": "529734.832513",
    "longitude": "-90.05140775006059",
    "latitude": "29.95042519447833",
    "geocoded_column": {
      "latitude": "29.95042519447833",
      "longitude": "-90.05140775006059"
    }
  },
  {
    "service_request": "2025-1230511",
    "request_type": "Property Maintenance",
    "request_reason": "Property Maintenance",
    "date_created": "2025-10-01T16:52:07.000",
    "date_modified": "2025-10-01T16:52:08.000",
    "request_status": "Pending",
    "responsible_agency": "Department of Code Enforcement",
    "final_address": "9024 Oleander St",
    "address_councildis": "A",
    "status": "Pending",
    "rowid": "1230511",
    "final_x": "3664236.38516",
    "final_y": "535915.811399",
    "longitude": "-90.12243615923596",
    "latitude": "29.968095598160193",
    "geocoded_column": {
      "latitude": "29.968095598160193",
      "longitude": "-90.12243615923596"
    }
  },
  {
    "service_request": "2025-1230510",
    "request_type": "Property Maintenance",
    "request_reason": "Property Maintenance",
    "date_created": "2025-10-01T16:51:10.000",
    "date_modified": "2025-10-01T16:51:12.000",
    "request_status": "Pending",
    "responsible_agency": "Department of Code Enforcement",
    "final_address": "4100 Encampment St",
    "address_councildis": "D",
    "status": "Pending",
    "rowid": "1230510",
    "final_x": "3676430.78459",
    "final_y": "547293.912401",
    "longitude": "-90.0835338177322",
    "latitude": "29.99902146352071",
    "geocoded_column": {
      "latitude": "29.99902146352071",
      "longitude": "-90.0835338177322"
    }
  },
  {
    "service_request": "2025-1230509",
    "request_type": "Property Maintenance",
    "request_reason": "Property Maintenance",
    "date_created": "2025-10-01T16:48:46.000",
    "date_modified": "2025-10-01T16:48:48.000",
    "request_status": "Pending",
    "responsible_agency": "Department of Code Enforcement",
    "final_address": "9019 Oleander St",
    "address_councildis": "A",
    "status": "Pending",
    "rowid": "1230509",
    "final_x": "3664328.47079",
    "final_y": "535934.004423",
    "longitude": "-90.12214474066428",
    "latitude": "29.968142946848687",
    "geocoded_column": {
      "latitude": "29.968142946848687",
      "longitude": "-90.12214474066428"
    }
  },
  {
    "service_request": "2025-1230508",
    "request_type": "Traffic Signals",
    "request_reason": "Traffic Signal Malfunctioning or Damaged",
    "date_created": "2025-10-01T16:46:12.000",
    "date_modified": "2025-10-01T16:46:14.000",
    "request_status": "Pending",
    "responsible_agency": "Department of Public Works",
    "final_address": "ST BERNARD AVE & I 610 E & FRANKLIN EXIT",
    "address_councildis": "D",
    "status": "Pending",
    "rowid": "1230508",
    "final_x": "3678485.6",
    "final_y": "545057.38",
    "longitude": "-90.07712007603695",
    "latitude": "29.9928100020234",
    "geocoded_column": {
      "latitude": "29.9928100020234",
      "longitude": "-90.07712007603695"
    }
  },
  {
    "service_request": "2025-1230507",
    "request_type": "Property Maintenance",
    "request_reason": "Property Maintenance",
    "date_created": "2025-10-01T16:44:16.000",
    "date_modified": "2025-10-01T16:44:19.000",
    "request_status": "Pending",
    "responsible_agency": "Department of Code Enforcement",
    "final_address": "9023 Oleander St",
    "address_councildis": "A",
    "status": "Pending",
    "rowid": "1230507",
    "final_x": "3664284.78893",
    "final_y": "535973.102151",
    "longitude": "-90.12228138534846",
    "latitude": "29.968251722232647",
    "geocoded_column": {
      "latitude": "29.968251722232647",
      "longitude": "-90.12228138534846"
    }
  },
  {
    "service_request": "2025-1230506",
    "request_type": "Street and Traffic Signs",
    "request_reason": "Stop Sign Missing or Damaged",
    "date_created": "2025-10-01T16:39:57.000",
    "date_modified": "2025-10-01T16:39:59.000",
    "request_status": "Pending",
    "responsible_agency": "Department of Public Works",
    "final_address": "W LAVERNE ST & WALES ST",
    "address_councildis": "E",
    "status": "Pending",
    "rowid": "1230506",
    "final_x": "3694915.9",
    "final_y": "559376.58",
    "longitude": "-90.02470337388502",
    "latitude": "30.031676929326274",
    "geocoded_column": {
      "latitude": "30.031676929326274",
      "longitude": "-90.02470337388502"
    }
  },
  {
    "service_request": "2025-1230505",
    "request_type": "Property Maintenance",
    "request_reason": "Property Maintenance",
    "date_created": "2025-10-01T16:39:38.000",
    "date_modified": "2025-10-01T16:39:39.000",
    "request_status": "Pending",
    "responsible_agency": "Department of Code Enforcement",
    "final_address": "9023 Oleander St",
    "address_councildis": "A",
    "status": "Pending",
    "rowid": "1230505",
    "final_x": "3664284.78893",
    "final_y": "535973.102151",
    "longitude": "-90.12228138534846",
    "latitude": "29.968251722232647",
    "geocoded_column": {
      "latitude": "29.968251722232647",
      "longitude": "-90.12228138534846"
    }
  },
  {
    "service_request": "2025-1230504",
    "request_type": "Trash/Recycling",
    "request_reason": "Request a Large Item Pick Up",
    "date_created": "2025-10-01T16:39:11.000",
    "date_modified": "2025-10-01T16:39:14.000",
    "request_status": "Pending",
    "responsible_agency": "Department of Sanitation",
    "final_address": "2542 Pauger St",
    "address_councildis": "D",
    "status": "Assigned to Contractor",
    "contractor": "IV Waste",
    "rowid": "1230504",
    "final_x": "3683596.0109",
    "final_y": "539125.393418",
    "longitude": "-90.06118525990964",
    "latitude": "29.97634408537548",
    "geocoded_column": {
      "latitude": "29.97634408537548",
      "longitude": "-90.06118525990964"
    }
  },
  {
    "service_request": "2025-1230503",
    "request_type": "Safety & Permits",
    "request_reason": "Zoning Enforcement",
    "date_created": "2025-10-01T16:37:05.000",
    "date_modified": "2025-10-01T16:37:06.000",
    "request_status": "Pending",
    "responsible_agency": "Safety and Permits",
    "final_address": "6201 Dorothea St",
    "address_councildis": "D",
    "status": "Pending",
    "rowid": "1230503",
    "final_x": "3696323.69098",
    "final_y": "557561.837275",
    "longitude": "-90.02032041774478",
    "latitude": "30.026642796973817",
    "geocoded_column": {
      "latitude": "30.026642796973817",
      "longitude": "-90.02032041774478"
    }
  },
  {
    "service_request": "2025-1230502",
    "request_type": "General Services",
    "request_reason": "General Service Request",
    "date_created": "2025-10-01T16:36:37.000",
    "date_modified": "2025-10-01T16:45:45.000",
    "case_close_date": "2025-10-01T11:45:44.000",
    "request_status": "Closed",
    "responsible_agency": "Orleans Parish Communication District",
    "final_address": "4000 Chef Menteur Hwy",
    "address_councildis": "D",
    "status": "Question Answered.",
    "rowid": "1230502",
    "final_x": "3689149.21225",
    "final_y": "548752.290835",
    "longitude": "-90.04330433364",
    "latitude": "30.00264390271626",
    "geocoded_column": {
      "latitude": "30.00264390271626",
      "longitude": "-90.04330433364"
    }
  },
  {
    "service_request": "2025-1230501",
    "request_type": "Abandoned Vehicles",
    "request_reason": "Abandoned/Junk Vehicles",
    "date_created": "2025-10-01T16:32:00.000",
    "date_modified": "2025-10-01T16:32:02.000",
    "request_status": "Pending",
    "responsible_agency": "Department of Public Works",
    "final_address": "4143 Toulouse St",
    "address_councildis": "A",
    "status": "Pending",
    "rowid": "1230501",
    "final_x": "3671941.16923",
    "final_y": "539997.908299",
    "longitude": "-90.0979651139187",
    "latitude": "29.979093850807608",
    "geocoded_column": {
      "latitude": "29.979093850807608",
      "longitude": "-90.0979651139187"
    }
  },
  {
    "service_request": "2025-1230500",
    "request_type": "General Services",
    "request_reason": "General Service Request",
    "date_created": "2025-10-01T16:30:22.000",
    "date_modified": "2025-10-01T16:43:29.000",
    "case_close_date": "2025-10-01T11:43:27.000",
    "request_status": "Closed",
    "responsible_agency": "Orleans Parish Communication District",
    "final_address": "2628 Republic St",
    "address_councildis": "D",
    "status": "Question Answered.",
    "rowid": "1230500",
    "final_x": "3680731.4429",
    "final_y": "541757.354316",
    "longitude": "-90.07014078139557",
    "latitude": "29.983668198854023",
    "geocoded_column": {
      "latitude": "29.983668198854023",
      "longitude": "-90.07014078139557"
    }
  },
  {
    "service_request": "2025-1230499",
    "request_type": "Trash/Recycling",
    "request_reason": "Request a Large Item Pick Up",
    "date_created": "2025-10-01T16:29:53.000",
    "date_modified": "2025-10-01T16:29:55.000",
    "request_status": "Pending",
    "responsible_agency": "Department of Sanitation",
    "final_address": "217 N Bernadotte St",
    "address_councildis": "A",
    "status": "Assigned to Contractor",
    "contractor": "IV Waste",
    "rowid": "1230499",
    "final_x": "3669103.52519",
    "final_y": "540608.608395",
    "longitude": "-90.10690687349053",
    "latitude": "29.98085688599285",
    "geocoded_column": {
      "latitude": "29.98085688599285",
      "longitude": "-90.10690687349053"
    }
  },
  {
    "service_request": "2025-1230498",
    "request_type": "Trash/Recycling",
    "request_reason": "Replace Trash Cart",
    "date_created": "2025-10-01T16:27:42.000",
    "date_modified": "2025-10-01T16:27:43.000",
    "request_status": "Pending",
    "responsible_agency": "Department of Sanitation",
    "final_address": "5135 Timber Haven Ln",
    "address_councildis": "C",
    "status": "Assigned to Contractor",
    "contractor": "Richards Disposal",
    "rowid": "1230498",
    "final_x": "3703204.20215",
    "final_y": "511383.679088",
    "longitude": "-90.00027648826112",
    "latitude": "29.899450955549014",
    "geocoded_column": {
      "latitude": "29.899450955549014",
      "longitude": "-90.00027648826112"
    }
  },
  {
    "service_request": "2025-1230497",
    "request_type": "Trash/Recycling",
    "request_reason": "Order Trash Cart",
    "date_created": "2025-10-01T16:25:41.000",
    "date_modified": "2025-10-01T16:25:43.000",
    "request_status": "Pending",
    "responsible_agency": "Department of Sanitation",
    "final_address": "7801 Earhart Blvd",
    "address_councildis": "B",
    "status": "Assigned to Contractor",
    "contractor": "IV Waste",
    "rowid": "1230497",
    "final_x": "3667426.21389",
    "final_y": "532982.604484",
    "longitude": "-90.11246121902231",
    "latitude": "29.959937174543686",
    "geocoded_column": {
      "latitude": "29.959937174543686",
      "longitude": "-90.11246121902231"
    }
  },
  {
    "service_request": "2025-1230496",
    "request_type": "Street and Traffic Signs",
    "request_reason": "Additional Signage Request",
    "date_created": "2025-10-01T16:25:15.000",
    "date_modified": "2025-10-01T16:25:17.000",
    "request_status": "Pending",
    "responsible_agency": "Department of Public Works",
    "final_address": "7530 Farwood Dr",
    "address_councildis": "E",
    "status": "Pending",
    "rowid": "1230496",
    "final_x": "3702039.60189",
    "final_y": "556954.479578",
    "longitude": "-90.00228117499506",
    "latitude": "30.02479146280455",
    "geocoded_column": {
      "latitude": "30.02479146280455",
      "longitude": "-90.00228117499506"
    }
  },
  {
    "service_request": "2025-1230495",
    "request_type": "Trash/Recycling",
    "request_reason": "Request a Large Item Pick Up",
    "date_created": "2025-10-01T16:24:41.000",
    "date_modified": "2025-10-01T16:24:44.000",
    "request_status": "Pending",
    "responsible_agency": "Department of Sanitation",
    "final_address": "1830 Independence St",
    "address_councildis": "D",
    "status": "Assigned to Contractor",
    "contractor": "IV Waste",
    "rowid": "1230495",
    "final_x": "3691630.16976",
    "final_y": "538400.215497",
    "longitude": "-90.03583700956817",
    "latitude": "29.974102394959974",
    "geocoded_column": {
      "latitude": "29.974102394959974",
      "longitude": "-90.03583700956817"
    }
  },
  {
    "service_request": "2025-1230494",
    "request_type": "Trash/Recycling",
    "request_reason": "Repair Trash Cart",
    "date_created": "2025-10-01T16:23:11.000",
    "date_modified": "2025-10-01T16:23:13.000",
    "request_status": "Pending",
    "responsible_agency": "Department of Sanitation",
    "final_address": "46 Fairway Oaks Dr",
    "address_councildis": "C",
    "status": "Assigned to Contractor",
    "contractor": "Richards Disposal",
    "rowid": "1230494",
    "final_x": "3717253.69548",
    "final_y": "515701.292724",
    "longitude": "-89.95577486915248",
    "latitude": "29.910865964592272",
    "geocoded_column": {
      "latitude": "29.910865964592272",
      "longitude": "-89.95577486915248"
    }
  },
  {
    "service_request": "2025-1230493",
    "request_type": "Trash/Recycling",
    "request_reason": "Return Trash Cart",
    "date_created": "2025-10-01T16:19:19.000",
    "date_modified": "2025-10-01T16:19:20.000",
    "request_status": "Pending",
    "responsible_agency": "Department of Sanitation",
    "final_address": "5701 Norland Ave",
    "address_councildis": "C",
    "status": "Assigned to Contractor",
    "contractor": "Richards Disposal",
    "rowid": "1230493",
    "final_x": "3704570.05162",
    "final_y": "520561.227192",
    "longitude": "-89.99562795486206",
    "latitude": "29.92464230084801",
    "geocoded_column": {
      "latitude": "29.92464230084801",
      "longitude": "-89.99562795486206"
    }
  },
  {
    "service_request": "2025-1230492",
    "request_type": "Trash/Recycling",
    "request_reason": "Request a Large Item Pick Up",
    "date_created": "2025-10-01T16:18:46.000",
    "date_modified": "2025-10-01T16:18:48.000",
    "request_status": "Pending",
    "responsible_agency": "Department of Sanitation",
    "final_address": "7530 Farwood Dr",
    "address_councildis": "E",
    "status": "Assigned to Contractor",
    "contractor": "Waste Pro",
    "rowid": "1230492",
    "final_x": "3702039.60189",
    "final_y": "556954.479578",
    "longitude": "-90.00228117499506",
    "latitude": "30.02479146280455",
    "geocoded_column": {
      "latitude": "30.02479146280455",
      "longitude": "-90.00228117499506"
    }
  },
  {
    "service_request": "2025-1230491",
    "request_type": "Trash/Recycling",
    "request_reason": "Replace Trash Cart",
    "date_created": "2025-10-01T16:16:58.000",
    "date_modified": "2025-10-01T16:17:00.000",
    "request_status": "Pending",
    "responsible_agency": "Department of Sanitation",
    "final_address": "3612 Elaine Pl",
    "address_councildis": "A",
    "status": "Assigned to Contractor",
    "contractor": "IV Waste",
    "rowid": "1230491",
    "final_x": "3674134.7684",
    "final_y": "539380.282442",
    "longitude": "-90.09105801752698",
    "latitude": "29.977330379398527",
    "geocoded_column": {
      "latitude": "29.977330379398527",
      "longitude": "-90.09105801752698"
    }
  },
  {
    "service_request": "2025-1230490",
    "request_type": "Trash/Recycling",
    "request_reason": "Replace Trash Cart",
    "date_created": "2025-10-01T16:09:43.000",
    "date_modified": "2025-10-01T16:09:44.000",
    "request_status": "Pending",
    "responsible_agency": "Department of Sanitation",
    "final_address": "1310 Spain St",
    "address_councildis": "C",
    "status": "Assigned to Contractor",
    "contractor": "IV Waste",
    "rowid": "1230490",
    "final_x": "3686039.13807",
    "final_y": "537228.571656",
    "longitude": "-90.05353605898418",
    "latitude": "29.97105368064212",
    "geocoded_column": {
      "latitude": "29.97105368064212",
      "longitude": "-90.05353605898418"
    }
  },
  {
    "service_request": "2025-1230489",
    "request_type": "Graffiti Removal",
    "request_reason": "Graffiti Removal",
    "date_created": "2025-10-01T16:08:41.000",
    "date_modified": "2025-10-01T16:08:43.000",
    "request_status": "Pending",
    "responsible_agency": "Department of Code Enforcement",
    "final_address": "3036 Ridgeway Blvd",
    "address_councildis": "E",
    "status": "Pending",
    "rowid": "1230489",
    "final_x": "596695.951231",
    "final_y": "596695.951231",
    "longitude": "-99.80965915546216",
    "latitude": "29.867686327827656",
    "geocoded_column": {
      "latitude": "29.867686327827656",
      "longitude": "-99.80965915546216"
    }
  },
  {
    "service_request": "2025-1230488",
    "request_type": "Trash/Recycling",
    "request_reason": "Order Trash Cart",
    "date_created": "2025-10-01T16:05:37.000",
    "date_modified": "2025-10-01T16:05:39.000",
    "request_status": "Pending",
    "responsible_agency": "Department of Sanitation",
    "final_address": "7016 Pritchard Pl",
    "address_councildis": "B",
    "status": "Assigned to Contractor",
    "contractor": "IV Waste",
    "rowid": "1230488",
    "final_x": "3667843.90996",
    "final_y": "531130.25133",
    "longitude": "-90.11120460976886",
    "latitude": "29.954831568078568",
    "geocoded_column": {
      "latitude": "29.954831568078568",
      "longitude": "-90.11120460976886"
    }
  },
  {
    "service_request": "2025-1230487",
    "request_type": "Streetlights",
    "request_reason": "Streetlight Outage/Malfunction",
    "date_created": "2025-10-01T16:02:37.000",
    "date_modified": "2025-10-01T16:02:40.000",
    "request_status": "Pending",
    "responsible_agency": "Department of Public Works",
    "final_address": "3470 Desaix Blvd",
    "address_councildis": "A",
    "status": "Pending",
    "rowid": "1230487",
    "final_x": "3676303.7339",
    "final_y": "543563.960078",
    "longitude": "-90.08406363927031",
    "latitude": "29.988769210270107",
    "geocoded_column": {
      "latitude": "29.988769210270107",
      "longitude": "-90.08406363927031"
    }
  },
  {
    "service_request": "2025-1230486",
    "request_type": "Trash/Recycling",
    "request_reason": "Request a Large Item Pick Up",
    "date_created": "2025-10-01T16:02:14.000",
    "date_modified": "2025-10-01T16:02:16.000",
    "request_status": "Pending",
    "responsible_agency": "Department of Sanitation",
    "final_address": "4767 Eunice Dr",
    "address_councildis": "E",
    "status": "Assigned to Contractor",
    "contractor": "Waste Pro",
    "rowid": "1230486",
    "final_x": "3710598.88433",
    "final_y": "555960.090969",
    "longitude": "-89.9752727704641",
    "latitude": "30.021781117016495",
    "geocoded_column": {
      "latitude": "30.021781117016495",
      "longitude": "-89.9752727704641"
    }
  },
  {
    "service_request": "2025-1230485",
    "request_type": "Drainage",
    "request_reason": "Drainage Manhole Cover Missing or Damaged",
    "date_created": "2025-10-01T15:59:24.000",
    "date_modified": "2025-10-01T15:59:26.000",
    "request_status": "Pending",
    "responsible_agency": "Sewerage & Water Board",
    "final_address": "GLADIOLUS ST & FRANKLIN AVE",
    "address_councildis": "D",
    "status": "Pending",
    "rowid": "1230485",
    "final_x": "3687020.2",
    "final_y": "547504.68",
    "longitude": "-90.05007428970411",
    "latitude": "29.99927915949856",
    "geocoded_column": {
      "latitude": "29.99927915949856",
      "longitude": "-90.05007428970411"
    }
  },
  {
    "service_request": "2025-1230484",
    "request_type": "Trash/Recycling",
    "request_reason": "Request a Large Item Pick Up",
    "date_created": "2025-10-01T15:57:23.000",
    "date_modified": "2025-10-01T15:57:24.000",
    "request_status": "Pending",
    "responsible_agency": "Department of Sanitation",
    "final_address": "7800 Unity Dr",
    "address_councildis": "E",
    "status": "Assigned to Contractor",
    "contractor": "Waste Pro",
    "rowid": "1230484",
    "final_x": "3711744.74405",
    "final_y": "567418.574052",
    "longitude": "-89.97122179739736",
    "latitude": "30.053249973785427",
    "geocoded_column": {
      "latitude": "30.053249973785427",
      "longitude": "-89.97122179739736"
    }
  },
  {
    "service_request": "2025-1230483",
    "request_type": "Trash/Recycling",
    "request_reason": "Order Trash Cart",
    "date_created": "2025-10-01T15:57:22.000",
    "date_modified": "2025-10-01T15:57:24.000",
    "request_status": "Pending",
    "responsible_agency": "Department of Sanitation",
    "final_address": "1032 Seventh St",
    "address_councildis": "B",
    "status": "Assigned to Contractor",
    "contractor": "IV Waste",
    "rowid": "1230483",
    "final_x": "3676394.83118",
    "final_y": "520205.89452",
    "longitude": "-90.08457996640001",
    "latitude": "29.92453963360026",
    "geocoded_column": {
      "latitude": "29.92453963360026",
      "longitude": "-90.08457996640001"
    }
  },
  {
    "service_request": "2025-1230482",
    "request_type": "Trash/Recycling",
    "request_reason": "Request a Large Item Pick Up",
    "date_created": "2025-10-01T15:56:31.000",
    "date_modified": "2025-10-01T15:56:32.000",
    "request_status": "Pending",
    "responsible_agency": "Department of Sanitation",
    "final_address": "1225 St Ferdinand St",
    "address_councildis": "C",
    "status": "Assigned to Contractor",
    "contractor": "IV Waste",
    "rowid": "1230482",
    "final_x": "3687893.47849",
    "final_y": "536861.439048",
    "longitude": "-90.04769283138789",
    "latitude": "29.969987115478734",
    "geocoded_column": {
      "latitude": "29.969987115478734",
      "longitude": "-90.04769283138789"
    }
  },
  {
    "service_request": "2025-1230481",
    "request_type": "Trash/Recycling",
    "request_reason": "Order Second Trash Cart",
    "date_created": "2025-10-01T15:54:00.000",
    "date_modified": "2025-10-01T15:54:02.000",
    "request_status": "Pending",
    "responsible_agency": "Department of Sanitation",
    "final_address": "2330 Pauger St",
    "address_councildis": "D",
    "status": "Assigned to Contractor",
    "contractor": "IV Waste",
    "rowid": "1230481",
    "final_x": "3683620.68738",
    "final_y": "538290.275593",
    "longitude": "-90.06113660833671",
    "latitude": "29.974047049122692",
    "geocoded_column": {
      "latitude": "29.974047049122692",
      "longitude": "-90.06113660833671"
    }
  },
  {
    "service_request": "2025-1230480",
    "request_type": "Trash/Recycling",
    "request_reason": "Request a Large Item Pick Up",
    "date_created": "2025-10-01T15:53:29.000",
    "date_modified": "2025-10-01T15:53:31.000",
    "request_status": "Pending",
    "responsible_agency": "Department of Sanitation",
    "final_address": "7604 Bullard Ave",
    "address_councildis": "E",
    "status": "Assigned to Contractor",
    "contractor": "Waste Pro",
    "rowid": "1230480",
    "final_x": "3713121.13835",
    "final_y": "567254.702436",
    "longitude": "-89.96687760177635",
    "latitude": "30.05275433322543",
    "geocoded_column": {
      "latitude": "30.05275433322543",
      "longitude": "-89.96687760177635"
    }
  },
  {
    "service_request": "2025-1230479",
    "request_type": "Property Maintenance",
    "request_reason": "Property Maintenance",
    "date_created": "2025-10-01T15:52:26.000",
    "date_modified": "2025-10-01T15:52:28.000",
    "request_status": "Pending",
    "responsible_agency": "Department of Code Enforcement",
    "final_address": "2759 Palmyra St",
    "address_councildis": "B",
    "status": "Pending",
    "rowid": "1230479",
    "final_x": "3674470.0708",
    "final_y": "534815.698886",
    "longitude": "-90.09015543136563",
    "latitude": "29.964769323595178",
    "geocoded_column": {
      "latitude": "29.964769323595178",
      "longitude": "-90.09015543136563"
    }
  },
  {
    "service_request": "2025-1230478",
    "request_type": "Trash/Recycling",
    "request_reason": "Repair Recycling Cart",
    "date_created": "2025-10-01T15:48:14.000",
    "date_modified": "2025-10-01T15:48:16.000",
    "request_status": "Pending",
    "responsible_agency": "Department of Sanitation",
    "final_address": "2214 Milan St",
    "address_councildis": "B",
    "status": "Pending",
    "rowid": "1230478",
    "final_x": "3671323.3058",
    "final_y": "523220.346043",
    "longitude": "-90.10048670755911",
    "latitude": "29.93297940935219",
    "geocoded_column": {
      "latitude": "29.93297940935219",
      "longitude": "-90.10048670755911"
    }
  },
  {
    "service_request": "2025-1230477",
    "request_type": "Trash/Recycling",
    "request_reason": "Order Recycling Cart",
    "date_created": "2025-10-01T15:45:11.000",
    "date_modified": "2025-10-01T15:45:12.000",
    "request_status": "Pending",
    "responsible_agency": "Department of Sanitation",
    "final_address": "210 Tacoma St",
    "address_councildis": "A",
    "status": "Pending",
    "rowid": "1230477",
    "final_x": "3665539.54957",
    "final_y": "550978.334037",
    "longitude": "-90.11781609281348",
    "latitude": "30.009474493893638",
    "geocoded_column": {
      "latitude": "30.009474493893638",
      "longitude": "-90.11781609281348"
    }
  },
  {
    "service_request": "2025-1230476",
    "request_type": "Abandoned Vehicles",
    "request_reason": "Abandoned/Junk Vehicles",
    "date_created": "2025-10-01T15:43:31.000",
    "date_modified": "2025-10-01T15:43:33.000",
    "request_status": "Pending",
    "responsible_agency": "Department of Public Works",
    "final_address": "2757 Palmyra St",
    "address_councildis": "B",
    "status": "Pending",
    "rowid": "1230476",
    "final_x": "3674482.8859",
    "final_y": "534806.167238",
    "longitude": "-90.09011528865992",
    "latitude": "29.964742732462422",
    "geocoded_column": {
      "latitude": "29.964742732462422",
      "longitude": "-90.09011528865992"
    }
  },
  {
    "service_request": "2025-1230475",
    "request_type": "Trash/Recycling",
    "request_reason": "Repair Trash Cart",
    "date_created": "2025-10-01T15:41:50.000",
    "date_modified": "2025-10-01T15:41:52.000",
    "request_status": "Pending",
    "responsible_agency": "Department of Sanitation",
    "final_address": "3920 S Inwood Ave",
    "address_councildis": "C",
    "status": "Assigned to Contractor",
    "contractor": "Richards Disposal",
    "rowid": "1230475",
    "final_x": "3705198.60843",
    "final_y": "513710.882866",
    "longitude": "-89.99389660531715",
    "latitude": "29.90578602334639",
    "geocoded_column": {
      "latitude": "29.90578602334639",
      "longitude": "-89.99389660531715"
    }
  },
  {
    "service_request": "2025-1230474",
    "request_type": "Trash/Recycling",
    "request_reason": "Order Trash Cart",
    "date_created": "2025-10-01T15:40:28.000",
    "date_modified": "2025-10-01T15:40:29.000",
    "request_status": "Pending",
    "responsible_agency": "Department of Sanitation",
    "final_address": "1923 Eagle St",
    "address_councildis": "A",
    "status": "Assigned to Contractor",
    "contractor": "IV Waste",
    "rowid": "1230474",
    "final_x": "3661955.56378",
    "final_y": "531995.010115",
    "longitude": "-90.12976917644534",
    "latitude": "29.957380751061898",
    "geocoded_column": {
      "latitude": "29.957380751061898",
      "longitude": "-90.12976917644534"
    }
  },
  {
    "service_request": "2025-1230473",
    "request_type": "Trash/Recycling",
    "request_reason": "Request a Large Item Pick Up",
    "date_created": "2025-10-01T15:36:04.000",
    "date_modified": "2025-10-01T15:36:06.000",
    "request_status": "Pending",
    "responsible_agency": "Department of Sanitation",
    "final_address": "5007 Coliseum St",
    "address_councildis": "B",
    "status": "Assigned to Contractor",
    "contractor": "IV Waste",
    "rowid": "1230473",
    "final_x": "3668604.51617",
    "final_y": "519682.805496",
    "longitude": "-90.10918906637694",
    "latitude": "29.923332453312415",
    "geocoded_column": {
      "latitude": "29.923332453312415",
      "longitude": "-90.10918906637694"
    }
  },
  {
    "service_request": "2025-1230472",
    "request_type": "Trash/Recycling",
    "request_reason": "Request a Large Item Pick Up",
    "date_created": "2025-10-01T15:28:10.000",
    "date_modified": "2025-10-01T15:29:08.000",
    "request_status": "Pending",
    "responsible_agency": "Department of Sanitation",
    "final_address": "1224 Kerlerec St",
    "address_councildis": "C",
    "status": "Assigned to Contractor",
    "contractor": "IV Waste",
    "rowid": "1230472",
    "final_x": "3682622.28597",
    "final_y": "535947.950471",
    "longitude": "-90.0643717080448",
    "latitude": "29.967636907624925",
    "geocoded_column": {
      "latitude": "29.967636907624925",
      "longitude": "-90.0643717080448"
    }
  },
  {
    "service_request": "2025-1230471",
    "request_type": "Trash/Recycling",
    "request_reason": "Order Trash Cart",
    "date_created": "2025-10-01T15:24:11.000",
    "date_modified": "2025-10-01T15:24:12.000",
    "request_status": "Pending",
    "responsible_agency": "Department of Sanitation",
    "final_address": "2720 Fourth St",
    "address_councildis": "B",
    "status": "Assigned to Contractor",
    "contractor": "IV Waste",
    "rowid": "1230471",
    "final_x": "3673862.92923",
    "final_y": "526133.070974",
    "longitude": "-90.09236970118859",
    "latitude": "29.94091307591982",
    "geocoded_column": {
      "latitude": "29.94091307591982",
      "longitude": "-90.09236970118859"
    }
  },
  {
    "service_request": "2025-1230470",
    "request_type": "Trash/Recycling",
    "request_reason": "Replace Trash Cart",
    "date_created": "2025-10-01T15:18:09.000",
    "date_modified": "2025-10-01T15:18:11.000",
    "request_status": "Pending",
    "responsible_agency": "Department of Sanitation",
    "final_address": "3812 Gentilly Blvd",
    "address_councildis": "D",
    "status": "Assigned to Contractor",
    "contractor": "IV Waste",
    "rowid": "1230470",
    "final_x": "3687906.91689",
    "final_y": "548768.080467",
    "longitude": "-90.04722833887269",
    "latitude": "30.002725717039453",
    "geocoded_column": {
      "latitude": "30.002725717039453",
      "longitude": "-90.04722833887269"
    }
  },
  {
    "service_request": "2025-1230469",
    "request_type": "Safety & Permits",
    "request_reason": "Zoning Enforcement",
    "date_created": "2025-10-01T15:16:18.000",
    "date_modified": "2025-10-01T15:16:19.000",
    "request_status": "Pending",
    "responsible_agency": "Safety and Permits",
    "final_address": "923 Seventh St",
    "address_councildis": "B",
    "status": "Pending",
    "rowid": "1230469",
    "final_x": "3676706.34792",
    "final_y": "519939.06348",
    "longitude": "-90.08360579961605",
    "latitude": "29.923796595864864",
    "geocoded_column": {
      "latitude": "29.923796595864864",
      "longitude": "-90.08360579961605"
    }
  },
  {
    "service_request": "2025-1230468",
    "request_type": "Trash/Recycling",
    "request_reason": "Order Trash Cart",
    "date_created": "2025-10-01T15:07:35.000",
    "date_modified": "2025-10-01T15:07:37.000",
    "request_status": "Pending",
    "responsible_agency": "Department of Sanitation",
    "final_address": "5025 St Claude Ave",
    "address_councildis": "E",
    "status": "Assigned to Contractor",
    "contractor": "Waste Pro",
    "rowid": "1230468",
    "final_x": "3696207.96413",
    "final_y": "534367.134597",
    "longitude": "-90.0215251864937",
    "latitude": "29.962869533593558",
    "geocoded_column": {
      "latitude": "29.962869533593558",
      "longitude": "-90.0215251864937"
    }
  },
  {
    "service_request": "2025-1230467",
    "request_type": "Trash/Recycling",
    "request_reason": "Order Trash Cart",
    "date_created": "2025-10-01T15:06:55.000",
    "date_modified": "2025-10-01T15:07:22.000",
    "request_status": "Pending",
    "responsible_agency": "Department of Sanitation",
    "final_address": "2450 Wisteria St",
    "address_councildis": "D",
    "status": "Assigned to Contractor",
    "contractor": "IV Waste",
    "rowid": "1230467",
    "final_x": "3686062.99177",
    "final_y": "548267.619154",
    "longitude": "-90.05307120009208",
    "latitude": "30.001406408348544",
    "geocoded_column": {
      "latitude": "30.001406408348544",
      "longitude": "-90.05307120009208"
    }
  },
  {
    "service_request": "2025-1230466",
    "request_type": "Trash/Recycling",
    "request_reason": "Repair Trash Cart",
    "date_created": "2025-10-01T15:06:46.000",
    "date_modified": "2025-10-01T15:06:48.000",
    "request_status": "Pending",
    "responsible_agency": "Department of Sanitation",
    "final_address": "4160 Orleans Ave",
    "address_councildis": "A",
    "status": "Assigned to Contractor",
    "contractor": "IV Waste",
    "rowid": "1230466",
    "final_x": "3672234.37767",
    "final_y": "540343.425995",
    "longitude": "-90.09702727195818",
    "latitude": "29.980035211287138",
    "geocoded_column": {
      "latitude": "29.980035211287138",
      "longitude": "-90.09702727195818"
    }
  },
  {
    "service_request": "2025-1230465",
    "request_type": "Trash/Recycling",
    "request_reason": "Repair Recycling Cart",
    "date_created": "2025-10-01T15:04:59.000",
    "date_modified": "2025-10-01T15:05:01.000",
    "request_status": "Pending",
    "responsible_agency": "Department of Sanitation",
    "final_address": "5749 Alfred St",
    "address_councildis": "D",
    "status": "Pending",
    "rowid": "1230465",
    "final_x": "3677292.28507",
    "final_y": "553722.200087",
    "longitude": "-90.08059030441866",
    "latitude": "30.01667109555022",
    "geocoded_column": {
      "latitude": "30.01667109555022",
      "longitude": "-90.08059030441866"
    }
  },
  {
    "service_request": "2025-1230464",
    "request_type": "Abandoned Vehicles",
    "request_reason": "Abandoned/Junk Vehicles",
    "date_created": "2025-10-01T15:04:23.000",
    "date_modified": "2025-10-01T15:04:24.000",
    "request_status": "Pending",
    "responsible_agency": "Department of Public Works",
    "final_address": "4516 Palmyra St",
    "address_councildis": "A",
    "status": "Pending",
    "rowid": "1230464",
    "final_x": "3669094.16212",
    "final_y": "538807.130249",
    "longitude": "-90.10699734215574",
    "latitude": "29.975903705272543",
    "geocoded_column": {
      "latitude": "29.975903705272543",
      "longitude": "-90.10699734215574"
    }
  },
  {
    "service_request": "2025-1230463",
    "request_type": "Parks & Parkways",
    "request_reason": "Request Tree Service (Right of Way/Public Property)",
    "date_created": "2025-10-01T15:02:19.000",
    "date_modified": "2025-10-01T15:02:21.000",
    "request_status": "Pending",
    "responsible_agency": "Department of Parks & Parkway",
    "final_address": "4533 S Roman St",
    "address_councildis": "B",
    "status": "Pending",
    "rowid": "1230463",
    "final_x": "3669611.04276",
    "final_y": "526543.622654",
    "longitude": "-90.10577981827996",
    "latitude": "29.942167893668707",
    "geocoded_column": {
      "latitude": "29.942167893668707",
      "longitude": "-90.10577981827996"
    }
  },
  {
    "service_request": "2025-1230462",
    "request_type": "Trash/Recycling",
    "request_reason": "Request a Large Item Pick Up",
    "date_created": "2025-10-01T14:55:33.000",
    "date_modified": "2025-10-01T14:55:35.000",
    "request_status": "Pending",
    "responsible_agency": "Department of Sanitation",
    "final_address": "3225 Jena St",
    "address_councildis": "B",
    "status": "Assigned to Contractor",
    "contractor": "IV Waste",
    "rowid": "1230462",
    "final_x": "3669908.77479",
    "final_y": "526744.486014",
    "longitude": "-90.10483301148392",
    "latitude": "29.942711428890053",
    "geocoded_column": {
      "latitude": "29.942711428890053",
      "longitude": "-90.10483301148392"
    }
  },
  {
    "service_request": "2025-1230461",
    "request_type": "Trash/Recycling",
    "request_reason": "Missed Trash Pick-Up",
    "date_created": "2025-10-01T14:53:03.000",
    "date_modified": "2025-10-01T15:18:36.000",
    "case_close_date": "2025-10-01T10:18:35.000",
    "request_status": "Closed",
    "responsible_agency": "Department of Sanitation",
    "final_address": "1432 Dante St",
    "address_councildis": "A",
    "status": "Invalid Request",
    "contractor": "IV Waste",
    "contractor_action": "Invalid",
    "rowid": "1230461",
    "final_x": "3662059.3632",
    "final_y": "529617.392257",
    "longitude": "-90.12952028405246",
    "latitude": "29.950840070833188",
    "geocoded_column": {
      "latitude": "29.950840070833188",
      "longitude": "-90.12952028405246"
    }
  },
  {
    "service_request": "2025-1230460",
    "request_type": "Parks & Parkways",
    "request_reason": "Request Tree Service (Right of Way/Public Property)",
    "date_created": "2025-10-01T14:50:34.000",
    "date_modified": "2025-10-01T14:50:36.000",
    "request_status": "Pending",
    "responsible_agency": "Department of Parks & Parkway",
    "final_address": "4219 Fontainebleau Dr",
    "address_councildis": "B",
    "status": "Pending",
    "rowid": "1230460",
    "final_x": "3669655.31892",
    "final_y": "529337.794753",
    "longitude": "-90.10554550106471",
    "latitude": "29.949849652474594",
    "geocoded_column": {
      "latitude": "29.949849652474594",
      "longitude": "-90.10554550106471"
    }
  },
  {
    "service_request": "2025-1230459",
    "request_type": "Trash/Recycling",
    "request_reason": "Order Recycling Cart",
    "date_created": "2025-10-01T14:46:36.000",
    "date_modified": "2025-10-01T14:46:37.000",
    "request_status": "Pending",
    "responsible_agency": "Department of Sanitation",
    "final_address": "906 Dumaine St",
    "address_councildis": "C",
    "status": "Pending",
    "rowid": "1230459",
    "final_x": "3682353.71112",
    "final_y": "533511.497028",
    "longitude": "-90.06530502183061",
    "latitude": "29.960945672519728",
    "geocoded_column": {
      "latitude": "29.960945672519728",
      "longitude": "-90.06530502183061"
    }
  },
  {
    "service_request": "2025-1230458",
    "request_type": "Trash/Recycling",
    "request_reason": "Replace Trash Cart",
    "date_created": "2025-10-01T14:44:49.000",
    "date_modified": "2025-10-01T14:44:51.000",
    "request_status": "Pending",
    "responsible_agency": "Department of Sanitation",
    "final_address": "329 N Derbigny St",
    "address_councildis": "B",
    "status": "Assigned to Contractor",
    "contractor": "IV Waste",
    "rowid": "1230458",
    "final_x": "3678698.68482",
    "final_y": "533881.436869",
    "longitude": "-90.07683410062025",
    "latitude": "29.96207359328885",
    "geocoded_column": {
      "latitude": "29.96207359328885",
      "longitude": "-90.07683410062025"
    }
  },
  {
    "service_request": "2025-1230457",
    "request_type": "Trash/Recycling",
    "request_reason": "Replace Trash Cart",
    "date_created": "2025-10-01T14:44:12.000",
    "date_modified": "2025-10-01T14:44:14.000",
    "request_status": "Pending",
    "responsible_agency": "Department of Sanitation",
    "final_address": "331 N Derbigny St",
    "address_councildis": "B",
    "status": "Assigned to Contractor",
    "contractor": "IV Waste",
    "rowid": "1230457",
    "final_x": "3678708.40706",
    "final_y": "533891.157893",
    "longitude": "-90.07680306262961",
    "latitude": "29.9621000296573",
    "geocoded_column": {
      "latitude": "29.9621000296573",
      "longitude": "-90.07680306262961"
    }
  },
  {
    "service_request": "2025-1230456",
    "request_type": "Trash/Recycling",
    "request_reason": "Order Trash Cart",
    "date_created": "2025-10-01T14:42:56.000",
    "date_modified": "2025-10-01T14:42:58.000",
    "request_status": "Pending",
    "responsible_agency": "Department of Sanitation",
    "final_address": "329 N Derbigny St",
    "address_councildis": "B",
    "status": "Assigned to Contractor",
    "contractor": "IV Waste",
    "rowid": "1230456",
    "final_x": "3678698.68482",
    "final_y": "533881.436869",
    "longitude": "-90.07683410062025",
    "latitude": "29.96207359328885",
    "geocoded_column": {
      "latitude": "29.96207359328885",
      "longitude": "-90.07683410062025"
    }
  },
  {
    "service_request": "2025-1230455",
    "request_type": "Trash/Recycling",
    "request_reason": "Replace Trash Cart",
    "date_created": "2025-10-01T14:40:31.000",
    "date_modified": "2025-10-01T14:40:32.000",
    "request_status": "Pending",
    "responsible_agency": "Department of Sanitation",
    "final_address": "2719 Chestnut St",
    "address_councildis": "B",
    "status": "Assigned to Contractor",
    "contractor": "IV Waste",
    "rowid": "1230455",
    "final_x": "3676748.15969",
    "final_y": "521573.215033",
    "longitude": "-90.08341754534626",
    "latitude": "29.92828872883929",
    "geocoded_column": {
      "latitude": "29.92828872883929",
      "longitude": "-90.08341754534626"
    }
  },
  {
    "service_request": "2025-1230454",
    "request_type": "Abandoned Vehicles",
    "request_reason": "Abandoned/Junk Vehicles",
    "date_created": "2025-10-01T14:38:19.000",
    "date_modified": "2025-10-01T14:38:21.000",
    "request_status": "Pending",
    "responsible_agency": "Department of Public Works",
    "final_address": "3200 BLK Montegut St",
    "address_councildis": "D",
    "status": "Pending",
    "rowid": "1230454",
    "final_x": "3690567.53582",
    "final_y": "544627.93481",
    "longitude": "-90.03897085940719",
    "latitude": "29.991259439775355",
    "geocoded_column": {
      "latitude": "29.991259439775355",
      "longitude": "-90.03897085940719"
    }
  },
  {
    "service_request": "2025-1230453",
    "request_type": "Trash/Recycling",
    "request_reason": "Request a Large Item Pick Up",
    "date_created": "2025-10-01T14:33:18.000",
    "date_modified": "2025-10-01T14:33:20.000",
    "request_status": "Pending",
    "responsible_agency": "Department of Sanitation",
    "final_address": "4818 Deanne St",
    "address_councildis": "D",
    "status": "Assigned to Contractor",
    "contractor": "Waste Pro",
    "rowid": "1230453",
    "final_x": "3696261.86986",
    "final_y": "554542.063128",
    "longitude": "-90.02062508242828",
    "latitude": "30.01834151101226",
    "geocoded_column": {
      "latitude": "30.01834151101226",
      "longitude": "-90.02062508242828"
    }
  },
  {
    "service_request": "2025-1230452",
    "request_type": "Trash/Recycling",
    "request_reason": "Order Recycling Cart",
    "date_created": "2025-10-01T14:30:38.000",
    "date_modified": "2025-10-01T14:31:14.000",
    "request_status": "Pending",
    "responsible_agency": "Department of Sanitation",
    "final_address": "4951 Arts St",
    "address_councildis": "D",
    "status": "Pending",
    "rowid": "1230452",
    "final_x": "3685915.48348",
    "final_y": "551289.044245",
    "longitude": "-90.05343057448746",
    "latitude": "30.009718761372714",
    "geocoded_column": {
      "latitude": "30.009718761372714",
      "longitude": "-90.05343057448746"
    }
  },
  {
    "service_request": "2025-1230451",
    "request_type": "Trash/Recycling",
    "request_reason": "Replace Recycling Cart",
    "date_created": "2025-10-01T14:30:27.000",
    "date_modified": "2025-10-01T14:30:29.000",
    "request_status": "Pending",
    "responsible_agency": "Department of Sanitation",
    "final_address": "8524 Apricot St",
    "address_councildis": "A",
    "status": "Pending",
    "rowid": "1230451",
    "final_x": "3664590.6553",
    "final_y": "533698.349445",
    "longitude": "-90.12139142380168",
    "latitude": "29.961988008104072",
    "geocoded_column": {
      "latitude": "29.961988008104072",
      "longitude": "-90.12139142380168"
    }
  },
  {
    "service_request": "2025-1230450",
    "request_type": "Safety & Permits",
    "request_reason": "Licenses & Permits",
    "date_created": "2025-10-01T14:28:57.000",
    "date_modified": "2025-10-01T14:29:00.000",
    "request_status": "Pending",
    "responsible_agency": "Safety and Permits",
    "final_address": "2410 Carondelet St",
    "address_councildis": "B",
    "status": "Pending",
    "rowid": "1230450",
    "final_x": "3676666.32501",
    "final_y": "523452.008827",
    "longitude": "-90.08361119320041",
    "latitude": "29.933457253820503",
    "geocoded_column": {
      "latitude": "29.933457253820503",
      "longitude": "-90.08361119320041"
    }
  },
  {
    "service_request": "2025-1230449",
    "request_type": "Trash/Recycling",
    "request_reason": "Request a Large Item Pick Up",
    "date_created": "2025-10-01T14:27:55.000",
    "date_modified": "2025-10-01T14:27:57.000",
    "request_status": "Pending",
    "responsible_agency": "Department of Sanitation",
    "final_address": "5027 Debore Cir",
    "address_councildis": "D",
    "status": "Assigned to Contractor",
    "contractor": "IV Waste",
    "rowid": "1230449",
    "final_x": "3692306.54518",
    "final_y": "552956.282967",
    "longitude": "-90.0331792457985",
    "latitude": "30.014105209238963",
    "geocoded_column": {
      "latitude": "30.014105209238963",
      "longitude": "-90.0331792457985"
    }
  },
  {
    "service_request": "2025-1230448",
    "request_type": "Trash/Recycling",
    "request_reason": "Order Recycling Cart",
    "date_created": "2025-10-01T14:27:48.000",
    "date_modified": "2025-10-01T14:28:18.000",
    "request_status": "Pending",
    "responsible_agency": "Department of Sanitation",
    "final_address": "2121 Burdette St",
    "address_councildis": "A",
    "status": "Pending",
    "rowid": "1230448",
    "final_x": "3665113.62298",
    "final_y": "530034.530497",
    "longitude": "-90.11986249249206",
    "latitude": "29.951898481390913",
    "geocoded_column": {
      "latitude": "29.951898481390913",
      "longitude": "-90.11986249249206"
    }
  },
  {
    "service_request": "2025-1230447",
    "request_type": "Trash/Recycling",
    "request_reason": "Request a Large Item Pick Up",
    "date_created": "2025-10-01T14:25:19.000",
    "date_modified": "2025-10-01T14:25:21.000",
    "request_status": "Pending",
    "responsible_agency": "Department of Sanitation",
    "final_address": "4808 St Claude Ave",
    "address_councildis": "E",
    "status": "Assigned to Contractor",
    "contractor": "Waste Pro",
    "rowid": "1230447",
    "final_x": "3695140.33008",
    "final_y": "534421.409861",
    "longitude": "-90.0248946657472",
    "latitude": "29.963052336513883",
    "geocoded_column": {
      "latitude": "29.963052336513883",
      "longitude": "-90.0248946657472"
    }
  },
  {
    "service_request": "2025-1230446",
    "request_type": "Trash/Recycling",
    "request_reason": "Order Recycling Cart",
    "date_created": "2025-10-01T14:23:42.000",
    "date_modified": "2025-10-01T14:23:43.000",
    "request_status": "Pending",
    "responsible_agency": "Department of Sanitation",
    "final_address": "2653 Iberville St",
    "address_councildis": "B",
    "status": "Pending",
    "rowid": "1230446",
    "final_x": "3675779.74747",
    "final_y": "535417.309254",
    "longitude": "-90.08599887419115",
    "latitude": "29.966384412837648",
    "geocoded_column": {
      "latitude": "29.966384412837648",
      "longitude": "-90.08599887419115"
    }
  },
  {
    "service_request": "2025-1230445",
    "request_type": "Abandoned Vehicles",
    "request_reason": "Abandoned/Junk Vehicles",
    "date_created": "2025-10-01T14:21:36.000",
    "date_modified": "2025-10-01T14:21:37.000",
    "request_status": "Pending",
    "responsible_agency": "Department of Public Works",
    "final_address": "LOUISA ST & ALJA MEYERS PL",
    "address_councildis": "D",
    "status": "Pending",
    "rowid": "1230445",
    "final_x": "3691947.54",
    "final_y": "545288.29",
    "longitude": "-90.0345881154641",
    "latitude": "29.99303224134298",
    "geocoded_column": {
      "latitude": "29.99303224134298",
      "longitude": "-90.0345881154641"
    }
  },
  {
    "service_request": "2025-1230444",
    "request_type": "Abandoned Vehicles",
    "request_reason": "Abandoned/Junk Vehicles",
    "date_created": "2025-10-01T14:20:36.000",
    "date_modified": "2025-10-01T14:20:37.000",
    "request_status": "Pending",
    "responsible_agency": "Department of Public Works",
    "final_address": "3321 N Roman St",
    "address_councildis": "D",
    "status": "Pending",
    "rowid": "1230444",
    "final_x": "3690702.91568",
    "final_y": "538477.918729",
    "longitude": "-90.03876270714389",
    "latitude": "29.97434488952309",
    "geocoded_column": {
      "latitude": "29.97434488952309",
      "longitude": "-90.03876270714389"
    }
  },
  {
    "service_request": "2025-1230443",
    "request_type": "Safety & Permits",
    "request_reason": "Zoning Enforcement",
    "date_created": "2025-10-01T14:19:32.000",
    "date_modified": "2025-10-01T14:23:44.000",
    "request_status": "Pending",
    "responsible_agency": "Safety and Permits",
    "final_address": "1547 Leda St",
    "address_councildis": "A",
    "status": "Pending",
    "rowid": "1230443",
    "final_x": "3675698.75361",
    "final_y": "541841.050444",
    "longitude": "-90.08603382857136",
    "latitude": "29.984049928303698",
    "geocoded_column": {
      "latitude": "29.984049928303698",
      "longitude": "-90.08603382857136"
    }
  },
  {
    "service_request": "2025-1230442",
    "request_type": "Trash/Recycling",
    "request_reason": "Request a Large Item Pick Up",
    "date_created": "2025-10-01T14:17:34.000",
    "date_modified": "2025-10-01T14:18:34.000",
    "request_status": "Pending",
    "responsible_agency": "Department of Sanitation",
    "final_address": "1505 Virginia Marie St",
    "address_councildis": "D",
    "status": "Assigned to Contractor",
    "contractor": "IV Waste",
    "rowid": "1230442",
    "final_x": "3678862.50997",
    "final_y": "548851.246931",
    "longitude": "-90.07579796134566",
    "latitude": "30.00323042592219",
    "geocoded_column": {
      "latitude": "30.00323042592219",
      "longitude": "-90.07579796134566"
    }
  },
  {
    "service_request": "2025-1230441",
    "request_type": "Drainage",
    "request_reason": "Catch Basin Not Draining",
    "date_created": "2025-10-01T14:17:04.000",
    "date_modified": "2025-10-01T14:17:06.000",
    "request_status": "Pending",
    "responsible_agency": "Sewerage & Water Board",
    "final_address": "EARHART BLVD & S BROAD ST",
    "address_councildis": "B",
    "status": "Pending",
    "rowid": "1230441",
    "final_x": "3672618.29",
    "final_y": "531189.99",
    "longitude": "-90.09612687060421",
    "latitude": "29.954854946139424",
    "geocoded_column": {
      "latitude": "29.954854946139424",
      "longitude": "-90.09612687060421"
    }
  },
  {
    "service_request": "2025-1230440",
    "request_type": "Property Maintenance",
    "request_reason": "Property Maintenance",
    "date_created": "2025-10-01T14:15:59.000",
    "date_modified": "2025-10-01T15:10:02.000",
    "case_close_date": "2025-10-01T10:09:59.000",
    "request_status": "Closed",
    "responsible_agency": "Department of Code Enforcement",
    "final_address": "3144 Metropolitan St",
    "address_councildis": "D",
    "status": "Referred to Code Enforcement",
    "rowid": "1230440",
    "final_x": "3691313.8511",
    "final_y": "544198.003662",
    "longitude": "-90.03662879700421",
    "latitude": "29.990054082455895",
    "geocoded_column": {
      "latitude": "29.990054082455895",
      "longitude": "-90.03662879700421"
    }
  },
  {
    "service_request": "2025-1230439",
    "request_type": "Abandoned Vehicles",
    "request_reason": "Abandoned/Junk Vehicles",
    "date_created": "2025-10-01T14:15:48.000",
    "date_modified": "2025-10-01T14:15:50.000",
    "request_status": "Pending",
    "responsible_agency": "Department of Public Works",
    "final_address": "136 S Lopez St",
    "address_councildis": "B",
    "status": "Pending",
    "rowid": "1230439",
    "final_x": "3673724.06753",
    "final_y": "535899.005767",
    "longitude": "-90.09247421685122",
    "latitude": "29.96777028662247",
    "geocoded_column": {
      "latitude": "29.96777028662247",
      "longitude": "-90.09247421685122"
    }
  },
  {
    "service_request": "2025-1230438",
    "request_type": "Streetlights",
    "request_reason": "Streetlight Outage/Malfunction",
    "date_created": "2025-10-01T14:13:44.000",
    "date_modified": "2025-10-01T14:13:45.000",
    "request_status": "Pending",
    "responsible_agency": "Department of Public Works",
    "final_address": "4920 Corinne St",
    "address_councildis": "E",
    "status": "Pending",
    "rowid": "1230438",
    "final_x": "3714885.65848",
    "final_y": "557538.195163",
    "longitude": "-89.9616681464877",
    "latitude": "30.02597988046699",
    "geocoded_column": {
      "latitude": "30.02597988046699",
      "longitude": "-89.9616681464877"
    }
  },
  {
    "service_request": "2025-1230437",
    "request_type": "Trash/Recycling",
    "request_reason": "Request a Large Item Pick Up",
    "date_created": "2025-10-01T14:12:03.000",
    "date_modified": "2025-10-01T14:12:04.000",
    "request_status": "Pending",
    "responsible_agency": "Department of Sanitation",
    "final_address": "1420 Gordon St",
    "address_councildis": "E",
    "status": "Assigned to Contractor",
    "contractor": "Waste Pro",
    "rowid": "1230437",
    "final_x": "3699534.28285",
    "final_y": "534721.313478",
    "longitude": "-90.01100825274783",
    "latitude": "29.96373826966449",
    "geocoded_column": {
      "latitude": "29.96373826966449",
      "longitude": "-90.01100825274783"
    }
  },
  {
    "service_request": "2025-1230436",
    "request_type": "Roads and Streets",
    "request_reason": "Street Subsidence (Sinking)",
    "date_created": "2025-10-01T14:12:00.000",
    "date_modified": "2025-10-01T14:12:02.000",
    "request_status": "Pending",
    "responsible_agency": "Sewerage & Water Board",
    "final_address": "6540 Memphis St",
    "address_councildis": "A",
    "status": "Pending",
    "rowid": "1230436",
    "final_x": "3669438.07585",
    "final_y": "551001.341013",
    "longitude": "-90.1054984736569",
    "latitude": "30.009423464867847",
    "geocoded_column": {
      "latitude": "30.009423464867847",
      "longitude": "-90.1054984736569"
    }
  },
  {
    "service_request": "2025-1230435",
    "request_type": "Trash/Recycling",
    "request_reason": "Order Recycling Cart",
    "date_created": "2025-10-01T14:07:19.000",
    "date_modified": "2025-10-01T14:07:21.000",
    "request_status": "Pending",
    "responsible_agency": "Department of Sanitation",
    "final_address": "2017 Dearmas St",
    "address_councildis": "C",
    "status": "Pending",
    "rowid": "1230435",
    "final_x": "3691577.60387",
    "final_y": "526956.628606",
    "longitude": "-90.03641209125226",
    "latitude": "29.942638158658834",
    "geocoded_column": {
      "latitude": "29.942638158658834",
      "longitude": "-90.03641209125226"
    }
  },
  {
    "service_request": "2025-1230434",
    "request_type": "Trash/Recycling",
    "request_reason": "Order Second Trash Cart",
    "date_created": "2025-10-01T14:06:13.000",
    "date_modified": "2025-10-01T14:06:16.000",
    "request_status": "Pending",
    "responsible_agency": "Department of Sanitation",
    "final_address": "2017 Dearmas St",
    "address_councildis": "C",
    "status": "Assigned to Contractor",
    "contractor": "Richards Disposal",
    "rowid": "1230434",
    "final_x": "3691577.60387",
    "final_y": "526956.628606",
    "longitude": "-90.03641209125226",
    "latitude": "29.942638158658834",
    "geocoded_column": {
      "latitude": "29.942638158658834",
      "longitude": "-90.03641209125226"
    }
  },
  {
    "service_request": "2025-1230433",
    "request_type": "Abandoned Vehicles",
    "request_reason": "Abandoned/Junk Vehicles",
    "date_created": "2025-10-01T14:00:07.000",
    "date_modified": "2025-10-01T14:00:09.000",
    "request_status": "Pending",
    "responsible_agency": "Department of Public Works",
    "final_address": "DAUPHINE ST & ST FERDINAND ST",
    "address_councildis": "C",
    "status": "Pending",
    "rowid": "1230433",
    "final_x": "3687422.4",
    "final_y": "535180.18",
    "longitude": "-90.04924004203802",
    "latitude": "29.965378764517904",
    "geocoded_column": {
      "latitude": "29.965378764517904",
      "longitude": "-90.04924004203802"
    }
  },
  {
    "service_request": "2025-1230432",
    "request_type": "Streetlights",
    "request_reason": "Streetlight Outage/Malfunction",
    "date_created": "2025-10-01T13:51:33.000",
    "date_modified": "2025-10-01T13:52:27.000",
    "request_status": "Pending",
    "responsible_agency": "Department of Public Works",
    "final_address": "3740 Inwood Ave",
    "address_councildis": "C",
    "status": "Pending",
    "rowid": "1230432",
    "final_x": "3704753.0323",
    "final_y": "514737.386355",
    "longitude": "-89.99526503055331",
    "latitude": "29.908622871723622",
    "geocoded_column": {
      "latitude": "29.908622871723622",
      "longitude": "-89.99526503055331"
    }
  },
  {
    "service_request": "2025-1230431",
    "request_type": "Streetlights",
    "request_reason": "Streetlight Outage/Malfunction",
    "date_created": "2025-10-01T13:51:14.000",
    "date_modified": "2025-10-01T13:51:45.000",
    "request_status": "Pending",
    "responsible_agency": "Department of Public Works",
    "final_address": "HICKORY ST & HAMILTON ST",
    "address_councildis": "A",
    "status": "Pending",
    "rowid": "1230431",
    "final_x": "3660769.2",
    "final_y": "532316.08",
    "longitude": "-90.13350476109919",
    "latitude": "29.958297800580272",
    "geocoded_column": {
      "latitude": "29.958297800580272",
      "longitude": "-90.13350476109919"
    }
  },
  {
    "service_request": "2025-1230430",
    "request_type": "Trash/Recycling",
    "request_reason": "Missed Trash Pick-Up",
    "date_created": "2025-10-01T13:47:35.000",
    "date_modified": "2025-10-01T13:56:27.000",
    "case_close_date": "2025-10-01T08:56:25.000",
    "request_status": "Closed",
    "responsible_agency": "Department of Sanitation",
    "final_address": "4740 Sherwood Dr",
    "address_councildis": "E",
    "status": "Assigned to Contractor",
    "contractor": "Waste Pro",
    "contractor_action": "Invalid Pick-Up",
    "rowid": "1230430",
    "final_x": "3717936.25932",
    "final_y": "556904.797082",
    "longitude": "-89.95205288478644",
    "latitude": "30.024137524794895",
    "geocoded_column": {
      "latitude": "30.024137524794895",
      "longitude": "-89.95205288478644"
    }
  },
  {
    "service_request": "2025-1230429",
    "request_type": "Trash/Recycling",
    "request_reason": "Repair Recycling Cart",
    "date_created": "2025-10-01T13:43:27.000",
    "date_modified": "2025-10-01T13:43:29.000",
    "request_status": "Pending",
    "responsible_agency": "Department of Sanitation",
    "final_address": "6318 Rhodes Ave",
    "address_councildis": "C",
    "status": "Pending",
    "rowid": "1230429",
    "final_x": "3707511.09521",
    "final_y": "519450.233271",
    "longitude": "-89.98638537621567",
    "latitude": "29.921492718333955",
    "geocoded_column": {
      "latitude": "29.921492718333955",
      "longitude": "-89.98638537621567"
    }
  },
  {
    "service_request": "2025-1230428",
    "request_type": "Trash/Recycling",
    "request_reason": "Request a Large Item Pick Up",
    "date_created": "2025-10-01T13:41:07.000",
    "date_modified": "2025-10-01T13:41:09.000",
    "request_status": "Pending",
    "responsible_agency": "Department of Sanitation",
    "final_address": "14086 Partridge Ln",
    "address_councildis": "E",
    "status": "Assigned to Contractor",
    "contractor": "Waste Pro",
    "rowid": "1230428",
    "final_x": "3719821.19852",
    "final_y": "571940.547432",
    "longitude": "-89.94552147804639",
    "latitude": "30.065417055357347",
    "geocoded_column": {
      "latitude": "30.065417055357347",
      "longitude": "-89.94552147804639"
    }
  },
  {
    "service_request": "2025-1230427",
    "request_type": "Trash/Recycling",
    "request_reason": "Missed Trash Pick-Up",
    "date_created": "2025-10-01T13:37:58.000",
    "date_modified": "2025-10-01T14:20:01.000",
    "case_close_date": "2025-10-01T09:20:00.000",
    "request_status": "Closed",
    "responsible_agency": "Department of Sanitation",
    "final_address": "9311 Forshey St",
    "address_councildis": "A",
    "status": "Invalid Request",
    "contractor": "IV Waste",
    "contractor_action": "Invalid",
    "rowid": "1230427",
    "final_x": "3663835.67731",
    "final_y": "536865.1394",
    "longitude": "-90.12366996579719",
    "latitude": "29.97071757444581",
    "geocoded_column": {
      "latitude": "29.97071757444581",
      "longitude": "-90.12366996579719"
    }
  },
  {
    "service_request": "2025-1230426",
    "request_type": "Trash/Recycling",
    "request_reason": "Request a Large Item Pick Up",
    "date_created": "2025-10-01T13:35:04.000",
    "date_modified": "2025-10-01T13:35:06.000",
    "request_status": "Pending",
    "responsible_agency": "Department of Sanitation",
    "final_address": "5335 Burgundy St",
    "address_councildis": "E",
    "status": "Assigned to Contractor",
    "contractor": "Waste Pro",
    "rowid": "1230426",
    "final_x": "3696909.41283",
    "final_y": "533244.696324",
    "longitude": "-90.01935075891498",
    "latitude": "29.959761126486516",
    "geocoded_column": {
      "latitude": "29.959761126486516",
      "longitude": "-90.01935075891498"
    }
  },
  {
    "service_request": "2025-1230425",
    "request_type": "Streetlights",
    "request_reason": "Streetlight Knocked Down/Leaning",
    "date_created": "2025-10-01T13:32:55.000",
    "date_modified": "2025-10-01T13:32:58.000",
    "request_status": "Pending",
    "responsible_agency": "Department of Public Works",
    "final_address": "4970 Palace St",
    "address_councildis": "E",
    "status": "Pending",
    "rowid": "1230425",
    "final_x": "3728945.41293",
    "final_y": "562946.453664",
    "longitude": "-89.91703060725568",
    "latitude": "30.040380081068257",
    "geocoded_column": {
      "latitude": "30.040380081068257",
      "longitude": "-89.91703060725568"
    }
  },
  {
    "service_request": "2025-1230424",
    "request_type": "Streetlights",
    "request_reason": "Streetlight Outage/Malfunction",
    "date_created": "2025-10-01T13:27:49.000",
    "date_modified": "2025-10-01T13:27:51.000",
    "request_status": "Pending",
    "responsible_agency": "Department of Public Works",
    "final_address": "2453 Oriole St",
    "address_councildis": "D",
    "status": "Pending",
    "rowid": "1230424",
    "final_x": "3684968.06242",
    "final_y": "558305.078044",
    "longitude": "-90.05617674571842",
    "latitude": "30.02903933542002",
    "geocoded_column": {
      "latitude": "30.02903933542002",
      "longitude": "-90.05617674571842"
    }
  },
  {
    "service_request": "2025-1230423",
    "request_type": "Abandoned Vehicles",
    "request_reason": "Abandoned/Junk Vehicles",
    "date_created": "2025-10-01T13:25:51.000",
    "date_modified": "2025-10-01T13:25:53.000",
    "request_status": "Pending",
    "responsible_agency": "Department of Public Works",
    "final_address": "515 Bordeaux St",
    "address_councildis": "B",
    "status": "Pending",
    "rowid": "1230423",
    "final_x": "3669749.56519",
    "final_y": "517457.152054",
    "longitude": "-90.10564984220926",
    "latitude": "29.91717892414297",
    "geocoded_column": {
      "latitude": "29.91717892414297",
      "longitude": "-90.10564984220926"
    }
  },
  {
    "service_request": "2025-1230422",
    "request_type": "Trash/Recycling",
    "request_reason": "Request a Large Item Pick Up",
    "date_created": "2025-10-01T13:22:58.000",
    "date_modified": "2025-10-01T13:23:00.000",
    "request_status": "Pending",
    "responsible_agency": "Department of Sanitation",
    "final_address": "5122 Laurel St",
    "address_councildis": "B",
    "status": "Assigned to Contractor",
    "contractor": "IV Waste",
    "rowid": "1230422",
    "final_x": "3668119.98285",
    "final_y": "517826.913078",
    "longitude": "-90.11078106588477",
    "latitude": "29.91824355898369",
    "geocoded_column": {
      "latitude": "29.91824355898369",
      "longitude": "-90.11078106588477"
    }
  },
  {
    "service_request": "2025-1230421",
    "request_type": "Trash/Recycling",
    "request_reason": "Request a Large Item Pick Up",
    "date_created": "2025-10-01T13:21:05.000",
    "date_modified": "2025-10-01T13:21:07.000",
    "request_status": "Pending",
    "responsible_agency": "Department of Sanitation",
    "final_address": "7100 Grey Oaks Dr",
    "address_councildis": "E",
    "status": "Assigned to Contractor",
    "contractor": "Waste Pro",
    "rowid": "1230421",
    "final_x": "3702137.68036",
    "final_y": "559321.485149",
    "longitude": "-90.00188435689445",
    "latitude": "30.031296679409138",
    "geocoded_column": {
      "latitude": "30.031296679409138",
      "longitude": "-90.00188435689445"
    }
  },
  {
    "service_request": "2025-1230420",
    "request_type": "Trash/Recycling",
    "request_reason": "Request a Large Item Pick Up",
    "date_created": "2025-10-01T13:12:45.000",
    "date_modified": "2025-10-01T13:12:47.000",
    "request_status": "Pending",
    "responsible_agency": "Department of Sanitation",
    "final_address": "7818 Sail St",
    "address_councildis": "E",
    "status": "Assigned to Contractor",
    "contractor": "Waste Pro",
    "rowid": "1230420",
    "final_x": "3720078.01356",
    "final_y": "573934.634666",
    "longitude": "-89.94463326950024",
    "latitude": "30.07089139964522",
    "geocoded_column": {
      "latitude": "30.07089139964522",
      "longitude": "-89.94463326950024"
    }
  },
  {
    "service_request": "2025-1230419",
    "request_type": "Trash/Recycling",
    "request_reason": "Request a Large Item Pick Up",
    "date_created": "2025-10-01T13:11:45.000",
    "date_modified": "2025-10-01T13:11:47.000",
    "request_status": "Pending",
    "responsible_agency": "Department of Sanitation",
    "final_address": "4600 Flake Ave",
    "address_councildis": "E",
    "status": "Assigned to Contractor",
    "contractor": "Waste Pro",
    "rowid": "1230419",
    "final_x": "3706145.17745",
    "final_y": "554505.801688",
    "longitude": "-89.98939909735681",
    "latitude": "30.017926773144712",
    "geocoded_column": {
      "latitude": "30.017926773144712",
      "longitude": "-89.98939909735681"
    }
  },
  {
    "service_request": "2025-1230418",
    "request_type": "Street and Traffic Signs",
    "request_reason": "Street Name Sign Damaged or Missing",
    "date_created": "2025-10-01T13:11:04.000",
    "date_modified": "2025-10-01T13:11:07.000",
    "request_status": "Pending",
    "responsible_agency": "Department of Public Works",
    "final_address": "4601 Hauck Dr",
    "address_councildis": "E",
    "status": "Pending",
    "rowid": "1230418",
    "final_x": "3714711.28543",
    "final_y": "555937.172249",
    "longitude": "-89.96227967024959",
    "latitude": "30.02158344015493",
    "geocoded_column": {
      "latitude": "30.02158344015493",
      "longitude": "-89.96227967024959"
    }
  },
  {
    "service_request": "2025-1230417",
    "request_type": "Trash/Recycling",
    "request_reason": "Request a Large Item Pick Up",
    "date_created": "2025-10-01T13:08:41.000",
    "date_modified": "2025-10-01T14:39:50.000",
    "case_close_date": "2025-10-01T09:39:48.000",
    "request_status": "Closed",
    "responsible_agency": "Department of Sanitation",
    "final_address": "4810 Evangeline Dr",
    "address_councildis": "E",
    "status": "Assigned to Contractor",
    "contractor": "Waste Pro",
    "contractor_action": "Duplicate",
    "rowid": "1230417",
    "final_x": "3709000.12478",
    "final_y": "556159.092762",
    "longitude": "-89.98031696068",
    "latitude": "30.0223802990736",
    "geocoded_column": {
      "latitude": "30.0223802990736",
      "longitude": "-89.98031696068"
    }
  },
  {
    "service_request": "2025-1230416",
    "request_type": "Trash/Recycling",
    "request_reason": "Request a Large Item Pick Up",
    "date_created": "2025-10-01T13:06:54.000",
    "date_modified": "2025-10-01T13:06:58.000",
    "request_status": "Pending",
    "responsible_agency": "Department of Sanitation",
    "final_address": "4601 Hauck Dr",
    "address_councildis": "E",
    "status": "Assigned to Contractor",
    "contractor": "Waste Pro",
    "rowid": "1230416",
    "final_x": "3714711.28543",
    "final_y": "555937.172249",
    "longitude": "-89.96227967024959",
    "latitude": "30.02158344015493",
    "geocoded_column": {
      "latitude": "30.02158344015493",
      "longitude": "-89.96227967024959"
    }
  },
  {
    "service_request": "2025-1230415",
    "request_type": "Streetlights",
    "request_reason": "Streetlight Outage/Malfunction",
    "date_created": "2025-10-01T13:06:45.000",
    "date_modified": "2025-10-01T13:06:48.000",
    "request_status": "Pending",
    "responsible_agency": "Department of Public Works",
    "final_address": "5500 BLK Franklin Ave",
    "address_councildis": "D",
    "status": "Pending",
    "rowid": "1230415",
    "final_x": "3686591.08446",
    "final_y": "553456.72752",
    "longitude": "-90.05121948535688",
    "latitude": "30.015658328230835",
    "geocoded_column": {
      "latitude": "30.015658328230835",
      "longitude": "-90.05121948535688"
    }
  },
  {
    "service_request": "2025-1230414",
    "request_type": "Streetlights",
    "request_reason": "Streetlight Outage/Malfunction",
    "date_created": "2025-10-01T13:04:19.000",
    "date_modified": "2025-10-01T13:04:22.000",
    "request_status": "Pending",
    "responsible_agency": "Department of Public Works",
    "final_address": "429 Audubon Blvd",
    "address_councildis": "B",
    "status": "Pending",
    "rowid": "1230414",
    "final_x": "3667574.04583",
    "final_y": "530436.451906",
    "longitude": "-90.11208009019968",
    "latitude": "29.952931758185454",
    "geocoded_column": {
      "latitude": "29.952931758185454",
      "longitude": "-90.11208009019968"
    }
  },
  {
    "service_request": "2025-1230413",
    "request_type": "Trash/Recycling",
    "request_reason": "Request a Large Item Pick Up",
    "date_created": "2025-10-01T13:03:02.000",
    "date_modified": "2025-10-01T13:03:04.000",
    "request_status": "Pending",
    "responsible_agency": "Department of Sanitation",
    "final_address": "4601 Hauck Dr",
    "address_councildis": "E",
    "status": "Assigned to Contractor",
    "contractor": "Waste Pro",
    "rowid": "1230413",
    "final_x": "3714711.28543",
    "final_y": "555937.172249",
    "longitude": "-89.96227967024959",
    "latitude": "30.02158344015493",
    "geocoded_column": {
      "latitude": "30.02158344015493",
      "longitude": "-89.96227967024959"
    }
  },
  {
    "service_request": "2025-1230412",
    "request_type": "Trash/Recycling",
    "request_reason": "Missed Trash Pick-Up",
    "date_created": "2025-10-01T13:02:35.000",
    "date_modified": "2025-10-01T14:28:14.000",
    "case_close_date": "2025-10-01T09:28:12.000",
    "request_status": "Closed",
    "responsible_agency": "Department of Sanitation",
    "final_address": "243 Stafford Pl",
    "address_councildis": "A",
    "status": "Invalid Request",
    "contractor": "IV Waste",
    "contractor_action": "Invalid",
    "rowid": "1230412",
    "final_x": "3665664.07508",
    "final_y": "554018.661912",
    "longitude": "-90.11732073455657",
    "latitude": "30.017830699267385",
    "geocoded_column": {
      "latitude": "30.017830699267385",
      "longitude": "-90.11732073455657"
    }
  },
  {
    "service_request": "2025-1230411",
    "request_type": "Property Maintenance",
    "request_reason": "Property Maintenance",
    "date_created": "2025-10-01T13:02:24.000",
    "date_modified": "2025-10-01T14:59:15.000",
    "case_close_date": "2025-10-01T09:59:13.000",
    "request_status": "Closed",
    "responsible_agency": "Department of Code Enforcement",
    "final_address": "5332 Franklin Ave",
    "address_councildis": "D",
    "status": "Referred to Code Enforcement",
    "rowid": "1230411",
    "final_x": "3686594.38262",
    "final_y": "552509.259478",
    "longitude": "-90.05124255995877",
    "latitude": "30.013053037734434",
    "geocoded_column": {
      "latitude": "30.013053037734434",
      "longitude": "-90.05124255995877"
    }
  },
  {
    "service_request": "2025-1230410",
    "request_type": "Property Maintenance",
    "request_reason": "Property Maintenance",
    "date_created": "2025-10-01T12:54:24.000",
    "date_modified": "2025-10-01T15:16:36.000",
    "case_close_date": "2025-10-01T10:16:34.000",
    "request_status": "Closed",
    "responsible_agency": "Department of Code Enforcement",
    "final_address": "2313 S Johnson St",
    "address_councildis": "B",
    "status": "Referred to Code Enforcement",
    "rowid": "1230410",
    "final_x": "3673604.85358",
    "final_y": "528700.773312",
    "longitude": "-90.09309674804481",
    "latitude": "29.947981097020467",
    "geocoded_column": {
      "latitude": "29.947981097020467",
      "longitude": "-90.09309674804481"
    }
  },