[
  {
    "service_request": "2023-977866",
    "request_type": "Traffic Signals/Signs/Striping/Streetlights",
    "request_reason": "Street Light Outage/Malfunction",
    "date_created": "2023-02-25T00:24:38.000",
    "date_modified": "2023-02-25T00:24:39.000",
    "request_status": "Pending",
    "responsible_agency": "Department of Public Works",
    "final_address": "3014 Constance St",
    "address_councildis": "B",
    "status": "Assigned to Contractor",
    "contractor": "Legacy Professional Services",
    "rowid": "977866",
    "final_x": "3676489.77768",
    "final_y": "519967.327032",
    "longitude": "-90.08428846132198",
    "latitude": "29.923880804604785",
    "geocoded_column": {
      "latitude": "29.923880804604785",
      "longitude": "-90.08428846132198"
    }
  },
  {
    "service_request": "2023-977865",
    "request_type": "Health Related Request",
    "request_reason": "Noise Ordinance Complaint",
    "date_created": "2023-02-25T00:20:07.000",
    "date_modified": "2023-02-25T00:20:07.000",
    "request_status": "Pending",
    "responsible_agency": "Health Department",
    "final_address": "718 Bourbon St",
    "address_councildis": "C",
    "status": "Pending",
    "rowid": "977865",
    "final_x": "3682364.17781",
    "final_y": "532746.008004",
    "longitude": "-90.06529872053143",
    "latitude": "29.95884052062511",
    "geocoded_column": {
      "latitude": "29.95884052062511",
      "longitude": "-90.06529872053143"
    }
  },
  {
    "service_request": "2023-977864",
    "request_type": "Trash/Recycling",
    "request_reason": "Missed Trash Pick-Up",
    "date_created": "2023-02-24T23:36:53.000",
    "date_modified": "2023-02-24T23:36:54.000",
    "request_status": "Pending",
    "responsible_agency": "Department of Sanitation",
    "final_address": "2814 Seine St",
    "address_councildis": "C",
    "status": "Assigned to Contractor",
    "contractor": "Richards Disposal",
    "rowid": "977864",
    "final_x": "3693417.14537",
    "final_y": "521015.798969",
    "longitude": "-90.03081746734189",
    "latitude": "29.926245526240336",
    "geocoded_column": {
      "latitude": "29.926245526240336",
      "longitude": "-90.03081746734189"
    }
  },
  {
    "service_request": "2023-977862",
    "request_type": "Trash/Recycling",
    "request_reason": "Order Recycling Cart",
    "date_created": "2023-02-24T23:22:15.000",
    "date_modified": "2023-02-24T23:22:15.000",
    "request_status": "Pending",
    "responsible_agency": "Department of Sanitation",
    "final_address": "7109 Warfield St",
    "address_councildis": "E",
    "status": "Pending",
    "rowid": "977862",
    "final_x": "3701464.9073",
    "final_y": "553139.451479",
    "longitude": "-90.00423692970146",
    "latitude": "30.01431993846624",
    "geocoded_column": {
      "latitude": "30.01431993846624",
      "longitude": "-90.00423692970146"
    }
  },
  {
    "service_request": "2023-977861",
    "request_type": "Trash/Recycling",
    "request_reason": "Missed Trash Pick-Up",
    "date_created": "2023-02-24T23:21:03.000",
    "date_modified": "2023-02-24T23:21:04.000",
    "request_status": "Pending",
    "responsible_agency": "Department of Sanitation",
    "final_address": "7109 Warfield St",
    "address_councildis": "E",
    "status": "Assigned to Contractor",
    "contractor": "Waste Pro",
    "rowid": "977861",
    "final_x": "3701464.9073",
    "final_y": "553139.451479",
    "longitude": "-90.00423692970146",
    "latitude": "30.01431993846624",
    "geocoded_column": {
      "latitude": "30.01431993846624",
      "longitude": "-90.00423692970146"
    }
  },
  {
    "service_request": "2023-977860",
    "request_type": "Roads/Drainage",
    "request_reason": "Accessibility Ramps, Curbs and Sidewalk Repair",
    "date_created": "2023-02-24T22:49:14.000",
    "date_modified": "2023-02-24T22:49:14.000",
    "request_status": "Pending",
    "responsible_agency": "Department of Public Works",
    "final_address": "7301 Downman Rd",
    "address_councildis": "D",
    "status": "Pending",
    "rowid": "977860",
    "final_x": "3695044.74544",
    "final_y": "557472.703579",
    "longitude": "-90.02436494613139",
    "latitude": "30.02643794800339",
    "geocoded_column": {
      "latitude": "30.02643794800339",
      "longitude": "-90.02436494613139"
    }
  },
  {
    "service_request": "2023-977859",
    "request_type": "Trash/Recycling",
    "request_reason": "Missed Trash Pick-Up",
    "date_created": "2023-02-24T22:46:40.000",
    "date_modified": "2023-02-24T22:46:40.000",
    "request_status": "Pending",
    "responsible_agency": "Department of Sanitation",
    "final_address": "609 Eleonore St",
    "address_councildis": "A",
    "status": "Assigned to Contractor",
    "contractor": "Richards Disposal",
    "rowid": "977859",
    "final_x": "3665134.981",
    "final_y": "518484.693558",
    "longitude": "-90.12018116679658",
    "latitude": "29.920139485356092",
    "geocoded_column": {
      "latitude": "29.920139485356092",
      "longitude": "-90.12018116679658"
    }
  },
  {
    "service_request": "2023-977858",
    "request_type": "Trash/Recycling",
    "request_reason": "Missed Trash Pick-Up",
    "date_created": "2023-02-24T22:38:17.000",
    "date_modified": "2023-02-24T22:38:17.000",
    "request_status": "Pending",
    "responsible_agency": "Department of Sanitation",
    "final_address": "6659 Wales St",
    "address_councildis": "E",
    "status": "Assigned to Contractor",
    "contractor": "Waste Pro",
    "rowid": "977858",
    "final_x": "3697565.38467",
    "final_y": "560533.324894",
    "longitude": "-90.01628889638079",
    "latitude": "30.03477406527213",
    "geocoded_column": {
      "latitude": "30.03477406527213",
      "longitude": "-90.01628889638079"
    }
  },
  {
    "service_request": "2023-977856",
    "request_type": "Trash/Recycling",
    "request_reason": "Missed Trash Pick-Up",
    "date_created": "2023-02-24T21:19:47.000",
    "date_modified": "2023-02-24T21:19:48.000",
    "request_status": "Pending",
    "responsible_agency": "Department of Sanitation",
    "final_address": "1930 State St",
    "address_councildis": "A",
    "status": "Assigned to Contractor",
    "contractor": "Richards Disposal",
    "rowid": "977856",
    "final_x": "3666180.63591",
    "final_y": "524024.275388",
    "longitude": "-90.11669485948651",
    "latitude": "29.935341101152154",
    "geocoded_column": {
      "latitude": "29.935341101152154",
      "longitude": "-90.11669485948651"
    }
  },
  {
    "service_request": "2023-977855",
    "request_type": "Abandoned Vehicles",
    "request_reason": "Abandoned/Junk Vehicles",
    "date_created": "2023-02-24T21:10:49.000",
    "date_modified": "2023-02-24T21:10:49.000",
    "request_status": "Pending",
    "responsible_agency": "Department of Public Works",
    "final_address": "727 First St",
    "address_councildis": "B",
    "status": "Pending",
    "rowid": "977855",
    "final_x": "3678799.15707",
    "final_y": "520464.1326",
    "longitude": "-90.07698138646909",
    "latitude": "29.925177436454717",
    "geocoded_column": {
      "latitude": "29.925177436454717",
      "longitude": "-90.07698138646909"
    }
  },
  {
    "service_request": "2023-977854",
    "request_type": "Abandoned Vehicles",
    "request_reason": "Abandoned/Junk Vehicles",
    "date_created": "2023-02-24T21:09:12.000",
    "date_modified": "2023-02-24T21:09:12.000",
    "request_status": "Pending",
    "responsible_agency": "Department of Public Works",
    "final_address": "908 First St",
    "address_councildis": "B",
    "status": "Pending",
    "rowid": "977854",
    "final_x": "3678393.44386",
    "final_y": "520936.860473",
    "longitude": "-90.07824574866011",
    "latitude": "29.926489509719314",
    "geocoded_column": {
      "latitude": "29.926489509719314",
      "longitude": "-90.07824574866011"
    }
  },
  {
    "service_request": "2023-977853",
    "request_type": "Trash/Recycling",
    "request_reason": "Request a Large Item Pick Up",
    "date_created": "2023-02-24T21:06:50.000",
    "date_modified": "2023-02-24T21:06:50.000",
    "request_status": "Pending",
    "responsible_agency": "Department of Sanitation",
    "final_address": "908 First St",
    "address_councildis": "B",
    "status": "Assigned to Contractor",
    "contractor": "Richards Disposal",
    "rowid": "977853",
    "final_x": "3678393.44386",
    "final_y": "520936.860473",
    "longitude": "-90.07824574866011",
    "latitude": "29.926489509719314",
    "geocoded_column": {
      "latitude": "29.926489509719314",
      "longitude": "-90.07824574866011"
    }
  },
  {
    "service_request": "2023-977852",
    "request_type": "Trash/Recycling",
    "request_reason": "MIssed Recycling Pick-Up",
    "date_created": "2023-02-24T20:35:36.000",
    "date_modified": "2023-02-24T20:35:37.000",
    "request_status": "Pending",
    "responsible_agency": "Department of Sanitation",
    "final_address": "225 Walnut St",
    "address_councildis": "A",
    "status": "Assigned to Contractor",
    "contractor": "Richards Disposal",
    "rowid": "977852",
    "final_x": "3661395.55418",
    "final_y": "521207.350969",
    "longitude": "-90.13189469890942",
    "latitude": "29.927734279295464",
    "geocoded_column": {
      "latitude": "29.927734279295464",
      "longitude": "-90.13189469890942"
    }
  },
  {
    "service_request": "2023-977851",
    "request_type": "Trash/Recycling",
    "request_reason": "Illegal Dumping",
    "date_created": "2023-02-24T20:31:26.000",
    "date_modified": "2023-02-24T20:31:26.000",
    "request_status": "Pending",
    "responsible_agency": "Department of Sanitation",
    "final_address": "1940 Eagle St",
    "address_councildis": "A",
    "status": "Pending",
    "rowid": "977851",
    "final_x": "3661957.53024",
    "final_y": "532116.562947",
    "longitude": "-90.12975893524977",
    "latitude": "29.957714925181932",
    "geocoded_column": {
      "latitude": "29.957714925181932",
      "longitude": "-90.12975893524977"
    }
  },
  {
    "service_request": "2023-977850",
    "request_type": "Trash/Recycling",
    "request_reason": "Missed Trash Pick-Up",
    "date_created": "2023-02-24T20:30:09.000",
    "date_modified": "2023-02-24T20:30:09.000",
    "request_status": "Pending",
    "responsible_agency": "Department of Sanitation",
    "final_address": "2339 N Johnson Street,  New Orleans, LA 70117",
    "address_councildis": "D",
    "status": "Assigned to Contractor",
    "contractor": "IV Waste",
    "rowid": "977850",
    "final_x": "3686036.86812",
    "final_y": "539811.763658",
    "longitude": "-90.0534521038891",
    "latitude": "29.978156623262326",
    "geocoded_column": {
      "latitude": "29.978156623262326",
      "longitude": "-90.0534521038891"
    }
  },
  {
    "service_request": "2023-977849",
    "request_type": "Trash/Recycling",
    "request_reason": "Missed Trash Pick-Up",
    "date_created": "2023-02-24T20:25:34.000",
    "date_modified": "2023-02-24T20:25:34.000",
    "request_status": "Pending",
    "responsible_agency": "Department of Sanitation",
    "final_address": "828 Marigny St",
    "address_councildis": "C",
    "status": "Assigned to Contractor",
    "contractor": "IV Waste",
    "rowid": "977849",
    "final_x": "3685445.07113",
    "final_y": "535504.997702",
    "longitude": "-90.05547290165538",
    "latitude": "29.966332682341207",
    "geocoded_column": {
      "latitude": "29.966332682341207",
      "longitude": "-90.05547290165538"
    }
  },
  {
    "service_request": "2023-977848",
    "request_type": "Trash/Recycling",
    "request_reason": "Missed Trash Pick-Up",
    "date_created": "2023-02-24T20:22:58.000",
    "date_modified": "2023-02-24T20:22:58.000",
    "request_status": "Pending",
    "responsible_agency": "Department of Sanitation",
    "final_address": "3609 Nashville Ave",
    "address_councildis": "A",
    "status": "Assigned to Contractor",
    "contractor": "Richards Disposal",
    "rowid": "977848",
    "final_x": "3668340.89306",
    "final_y": "528826.355776",
    "longitude": "-90.10971300793435",
    "latitude": "29.948482023631545",
    "geocoded_column": {
      "latitude": "29.948482023631545",
      "longitude": "-90.10971300793435"
    }
  },
  {
    "service_request": "2023-977847",
    "request_type": "Traffic Signals/Signs/Striping/Streetlights",
    "request_reason": "Additional signage",
    "date_created": "2023-02-24T20:19:20.000",
    "date_modified": "2023-02-24T20:19:20.000",
    "request_status": "Pending",
    "responsible_agency": "Department of Public Works",
    "final_address": "2631 Sage St",
    "address_councildis": "D",
    "status": "Pending",
    "rowid": "977847",
    "final_x": "3687498.70268",
    "final_y": "545548.447824",
    "longitude": "-90.04863197810378",
    "latitude": "29.993885482722604",
    "geocoded_column": {
      "latitude": "29.993885482722604",
      "longitude": "-90.04863197810378"
    }
  },
  {
    "service_request": "2023-977846",
    "request_type": "Trash/Recycling",
    "request_reason": "Replace Trash Cart",
    "date_created": "2023-02-24T20:18:03.000",
    "date_modified": "2023-02-24T20:18:03.000",
    "request_status": "Pending",
    "responsible_agency": "Department of Sanitation",
    "final_address": "3211 Louisiana Avenue Prkwy",
    "address_councildis": "B",
    "status": "Assigned to Contractor",
    "contractor": "Richards Disposal",
    "rowid": "977846",
    "final_x": "3671998.09575",
    "final_y": "527027.973182",
    "longitude": "-90.09822687140662",
    "latitude": "29.943429166895452",
    "geocoded_column": {
      "latitude": "29.943429166895452",
      "longitude": "-90.09822687140662"
    }
  },
  {
    "service_request": "2023-977845",
    "request_type": "Trash/Recycling",
    "request_reason": "Missed Trash Pick-Up",
    "date_created": "2023-02-24T20:16:46.000",
    "date_modified": "2023-02-24T20:16:47.000",
    "request_status": "Pending",
    "responsible_agency": "Department of Sanitation",
    "final_address": "7425 Malvern Dr",
    "address_councildis": "E",
    "status": "Assigned to Contractor",
    "contractor": "Waste Pro",
    "rowid": "977845",
    "final_x": "3702725.15249",
    "final_y": "561126.749342",
    "longitude": "-89.99996155161045",
    "latitude": "30.036241669094775",
    "geocoded_column": {
      "latitude": "30.036241669094775",
      "longitude": "-89.99996155161045"
    }
  },
  {
    "service_request": "2023-977844",
    "request_type": "Roads/Drainage",
    "request_reason": "Street Subsidence (Sinking)",
    "date_created": "2023-02-24T20:15:53.000",
    "date_modified": "2023-02-24T20:15:53.000",
    "request_status": "Pending",
    "responsible_agency": "Department of Public Works",
    "final_address": "6125 Fleur-De-Lis Dr",
    "address_councildis": "A",
    "status": "Pending",
    "rowid": "977844",
    "final_x": "3665282.17748",
    "final_y": "548334.496786",
    "longitude": "-90.11871776603554",
    "latitude": "30.002212361222195",
    "geocoded_column": {
      "latitude": "30.002212361222195",
      "longitude": "-90.11871776603554"
    }
  },
  {
    "service_request": "2023-977843",
    "request_type": "Roads/Drainage",
    "request_reason": "Man hole cover issue",
    "date_created": "2023-02-24T20:12:15.000",
    "date_modified": "2023-02-24T20:12:15.000",
    "request_status": "Pending",
    "responsible_agency": "Department of Public Works",
    "final_address": "524 S Hennessey St",
    "address_councildis": "A",
    "status": "Pending",
    "rowid": "977843",
    "final_x": "3669232.24129",
    "final_y": "537498.29428",
    "longitude": "-90.10660550225433",
    "latitude": "29.97230078230179",
    "geocoded_column": {
      "latitude": "29.97230078230179",
      "longitude": "-90.10660550225433"
    }
  },
  {
    "service_request": "2023-977842",
    "request_type": "Trash/Recycling",
    "request_reason": "Missed Trash Pick-Up",
    "date_created": "2023-02-24T20:10:24.000",
    "date_modified": "2023-02-24T20:10:25.000",
    "request_status": "Pending",
    "responsible_agency": "Department of Sanitation",
    "final_address": "608 Arabella St",
    "address_councildis": "A",
    "status": "Assigned to Contractor",
    "contractor": "Richards Disposal",
    "rowid": "977842",
    "final_x": "3665661.39303",
    "final_y": "518361.733558",
    "longitude": "-90.11852364404969",
    "latitude": "29.919786048400677",
    "geocoded_column": {
      "latitude": "29.919786048400677",
      "longitude": "-90.11852364404969"
    }
  },
  {
    "service_request": "2023-977841",
    "request_type": "Traffic Signals/Signs/Striping/Streetlights",
    "request_reason": "Street Light Outage/Malfunction",
    "date_created": "2023-02-24T19:57:59.000",
    "date_modified": "2023-02-24T19:57:59.000",
    "request_status": "Pending",
    "responsible_agency": "Department of Public Works",
    "final_address": "720 S Galvez St",
    "address_councildis": "B",
    "status": "Assigned to Contractor",
    "contractor": "Legacy Professional Services",
    "rowid": "977841",
    "final_x": "3674975.1924",
    "final_y": "531065.169858",
    "longitude": "-90.08868894104444",
    "latitude": "29.95444154746983",
    "geocoded_column": {
      "latitude": "29.95444154746983",
      "longitude": "-90.08868894104444"
    }
  },
  {
    "service_request": "2023-977840",
    "request_type": "Traffic Signals/Signs/Striping/Streetlights",
    "request_reason": "Street Light Outage/Malfunction",
    "date_created": "2023-02-24T19:55:10.000",
    "date_modified": "2023-02-24T19:55:11.000",
    "request_status": "Pending",
    "responsible_agency": "Department of Public Works",
    "final_address": "5080 Pontchartrain Blvd",
    "address_councildis": "A",
    "status": "Assigned to Contractor",
    "contractor": "Legacy Professional Services",
    "rowid": "977840",
    "final_x": "3666841.38119",
    "final_y": "540528.132811",
    "longitude": "-90.1140544564024",
    "latitude": "29.980701987063558",
    "geocoded_column": {
      "latitude": "29.980701987063558",
      "longitude": "-90.1140544564024"
    }
  },
  {
    "service_request": "2023-977839",
    "request_type": "Trash/Recycling",
    "request_reason": "Missed Trash Pick-Up",
    "date_created": "2023-02-24T19:50:03.000",
    "date_modified": "2023-02-24T19:50:03.000",
    "request_status": "Pending",
    "responsible_agency": "Department of Sanitation",
    "final_address": "4317 Dauphine St",
    "address_councildis": "C",
    "status": "Assigned to Contractor",
    "contractor": "IV Waste",
    "rowid": "977839",
    "final_x": "3692595.75677",
    "final_y": "533997.146053",
    "longitude": "-90.03294529209185",
    "latitude": "29.9619654102583",
    "geocoded_column": {
      "latitude": "29.9619654102583",
      "longitude": "-90.03294529209185"
    }
  },
  {
    "service_request": "2023-977838",
    "request_type": "Trash/Recycling",
    "request_reason": "Missed Trash Pick-Up",
    "date_created": "2023-02-24T19:47:01.000",
    "date_modified": "2023-02-24T19:47:02.000",
    "request_status": "Pending",
    "responsible_agency": "Department of Sanitation",
    "final_address": "4215 Dauphine St",
    "address_councildis": "C",
    "status": "Assigned to Contractor",
    "contractor": "IV Waste",
    "rowid": "977838",
    "final_x": "3692258.08054",
    "final_y": "534005.104581",
    "longitude": "-90.0340113318976",
    "latitude": "29.961997826360474",
    "geocoded_column": {
      "latitude": "29.961997826360474",
      "longitude": "-90.0340113318976"
    }
  },
  {
    "service_request": "2023-977837",
    "request_type": "Trash/Recycling",
    "request_reason": "Missed Trash Pick-Up",
    "date_created": "2023-02-24T19:45:34.000",
    "date_modified": "2023-02-24T19:45:34.000",
    "request_status": "Pending",
    "responsible_agency": "Department of Sanitation",
    "final_address": "2329 General Meyer Ave",
    "address_councildis": "C",
    "status": "Assigned to Contractor",
    "contractor": "Richards Disposal",
    "rowid": "977837",
    "final_x": "3692652.05296",
    "final_y": "527621.965631",
    "longitude": "-90.03299598049206",
    "latitude": "29.944434123735533",
    "geocoded_column": {
      "latitude": "29.944434123735533",
      "longitude": "-90.03299598049206"
    }
  },
  {
    "service_request": "2023-977836",
    "request_type": "Trash/Recycling",
    "request_reason": "Request a Large Item Pick Up",
    "date_created": "2023-02-24T19:45:33.000",
    "date_modified": "2023-02-24T19:45:34.000",
    "request_status": "Pending",
    "responsible_agency": "Department of Sanitation",
    "final_address": "524 Bouny St",
    "address_councildis": "C",
    "status": "Assigned to Contractor",
    "contractor": "Richards Disposal",
    "rowid": "977836",
    "final_x": "3686268.4847",
    "final_y": "529590.171969",
    "longitude": "-90.0530812814291",
    "latitude": "29.95004367170826",
    "geocoded_column": {
      "latitude": "29.95004367170826",
      "longitude": "-90.0530812814291"
    }
  },
  {
    "service_request": "2023-977835",
    "request_type": "Trash/Recycling",
    "request_reason": "Request a Large Item Pick Up",
    "date_created": "2023-02-24T19:39:19.000",
    "date_modified": "2023-02-24T19:39:20.000",
    "request_status": "Pending",
    "responsible_agency": "Department of Sanitation",
    "final_address": "926 Taft Pl",
    "address_councildis": "A",
    "status": "Assigned to Contractor",
    "contractor": "Richards Disposal",
    "rowid": "977835",
    "final_x": "3673911.17633",
    "final_y": "540272.635467",
    "longitude": "-90.09173365759641",
    "latitude": "29.97979070870281",
    "geocoded_column": {
      "latitude": "29.97979070870281",
      "longitude": "-90.09173365759641"
    }
  },
  {
    "service_request": "2023-977834",
    "request_type": "Trash/Recycling",
    "request_reason": "Missed Trash Pick-Up",
    "date_created": "2023-02-24T19:35:31.000",
    "date_modified": "2023-02-24T19:35:32.000",
    "request_status": "Pending",
    "responsible_agency": "Department of Sanitation",
    "final_address": "923 Louisa St",
    "address_councildis": "C",
    "status": "Assigned to Contractor",
    "contractor": "IV Waste",
    "rowid": "977834",
    "final_x": "3689438.55171",
    "final_y": "535251.11495",
    "longitude": "-90.04287062756084",
    "latitude": "29.965511530713883",
    "geocoded_column": {
      "latitude": "29.965511530713883",
      "longitude": "-90.04287062756084"
    }
  },
  {
    "service_request": "2023-977833",
    "request_type": "Traffic Signals/Signs/Striping/Streetlights",
    "request_reason": "Street Light Outage/Malfunction",
    "date_created": "2023-02-24T19:35:06.000",
    "date_modified": "2023-02-24T19:35:07.000",
    "request_status": "Pending",
    "responsible_agency": "Department of Public Works",
    "final_address": "12330 Hayne Blvd",
    "address_councildis": "E",
    "status": "Assigned to Contractor",
    "contractor": "Legacy Professional Services",
    "rowid": "977833",
    "final_x": "3713433.09983",
    "final_y": "569605.898214",
    "longitude": "-89.96580289712361",
    "latitude": "30.059208925431566",
    "geocoded_column": {
      "latitude": "30.059208925431566",
      "longitude": "-89.96580289712361"
    }
  },
  {
    "service_request": "2023-977832",
    "request_type": "Traffic Signals/Signs/Striping/Streetlights",
    "request_reason": "Street Light Outage/Malfunction",
    "date_created": "2023-02-24T19:25:15.000",
    "date_modified": "2023-02-24T19:25:16.000",
    "request_status": "Pending",
    "responsible_agency": "Department of Public Works",
    "final_address": "2735 Octavia St",
    "address_councildis": "A",
    "status": "Assigned to Contractor",
    "contractor": "Legacy Professional Services",
    "rowid": "977832",
    "final_x": "3667995.9682",
    "final_y": "525657.812733",
    "longitude": "-90.11090881442182",
    "latitude": "29.939779679428753",
    "geocoded_column": {
      "latitude": "29.939779679428753",
      "longitude": "-90.11090881442182"
    }
  },
  {
    "service_request": "2023-977831",
    "request_type": "Trash/Recycling",
    "request_reason": "Missed Trash Pick-Up",
    "date_created": "2023-02-24T19:22:02.000",
    "date_modified": "2023-02-24T19:22:03.000",
    "request_status": "Pending",
    "responsible_agency": "Department of Sanitation",
    "final_address": "1219 Kentucky St",
    "address_councildis": "D",
    "status": "Assigned to Contractor",
    "contractor": "IV Waste",
    "rowid": "977831",
    "final_x": "3693523.56374",
    "final_y": "535413.52199",
    "longitude": "-90.02996455891095",
    "latitude": "29.965830959720016",
    "geocoded_column": {
      "latitude": "29.965830959720016",
      "longitude": "-90.02996455891095"
    }
  },
  {
    "service_request": "2023-977830",
    "request_type": "Trash/Recycling",
    "request_reason": "Missed Trash Pick-Up",
    "date_created": "2023-02-24T19:21:46.000",
    "date_modified": "2023-02-24T19:21:47.000",
    "request_status": "Pending",
    "responsible_agency": "Department of Sanitation",
    "final_address": "1662 State St, New Orleans, Louisiana, 70118",
    "address_councildis": "A",
    "status": "Assigned to Contractor",
    "contractor": "Richards Disposal",
    "rowid": "977830",
    "final_x": "3665910.96052",
    "final_y": "523230.624891",
    "longitude": "-90.1175728131946",
    "latitude": "29.933166685542844",
    "geocoded_column": {
      "latitude": "29.933166685542844",
      "longitude": "-90.1175728131946"
    }
  },
  {
    "service_request": "2023-977829",
    "request_type": "Trash/Recycling",
    "request_reason": "Missed Trash Pick-Up",
    "date_created": "2023-02-24T19:20:39.000",
    "date_modified": "2023-02-24T19:20:40.000",
    "request_status": "Pending",
    "responsible_agency": "Department of Sanitation",
    "final_address": "821 Poland Ave",
    "address_councildis": "C",
    "status": "Assigned to Contractor",
    "contractor": "IV Waste",
    "rowid": "977829",
    "final_x": "3692853.24765",
    "final_y": "534005.285765",
    "longitude": "-90.03213188742626",
    "latitude": "29.96197975403568",
    "geocoded_column": {
      "latitude": "29.96197975403568",
      "longitude": "-90.03213188742626"
    }
  },
  {
    "service_request": "2023-977828",
    "request_type": "Trash/Recycling",
    "request_reason": "Missed Trash Pick-Up",
    "date_created": "2023-02-24T19:10:42.000",
    "date_modified": "2023-02-24T19:10:43.000",
    "request_status": "Pending",
    "responsible_agency": "Department of Sanitation",
    "final_address": "1545 Sixth St",
    "address_councildis": "B",
    "status": "Assigned to Contractor",
    "contractor": "Richards Disposal",
    "rowid": "977828",
    "final_x": "3675601.21806",
    "final_y": "522148.22041",
    "longitude": "-90.08701844753327",
    "latitude": "29.9299041589221",
    "geocoded_column": {
      "latitude": "29.9299041589221",
      "longitude": "-90.08701844753327"
    }
  },
  {
    "service_request": "2023-977827",
    "request_type": "Trash/Recycling",
    "request_reason": "Missed Trash Pick-Up",
    "date_created": "2023-02-24T19:09:42.000",
    "date_modified": "2023-02-24T19:09:42.000",
    "request_status": "Pending",
    "responsible_agency": "Department of Sanitation",
    "final_address": "2735 Octavia St",
    "address_councildis": "A",
    "status": "Assigned to Contractor",
    "contractor": "Richards Disposal",
    "rowid": "977827",
    "final_x": "3667995.9682",
    "final_y": "525657.812733",
    "longitude": "-90.11090881442182",
    "latitude": "29.939779679428753",
    "geocoded_column": {
      "latitude": "29.939779679428753",
      "longitude": "-90.11090881442182"
    }
  },
  {
    "service_request": "2023-977826",
    "request_type": "Traffic Signals/Signs/Striping/Streetlights",
    "request_reason": "Street Light Knocked Down/Leaning",
    "date_created": "2023-02-24T19:07:53.000",
    "date_modified": "2023-02-24T19:07:53.000",
    "request_status": "Pending",
    "responsible_agency": "Department of Public Works",
    "final_address": "7401 Downman Rd",
    "address_councildis": "D",
    "status": "Pending",
    "contractor": "Legacy Professional Services",
    "rowid": "977826",
    "final_x": "3694944.48976",
    "final_y": "557816.998811",
    "longitude": "-90.02466931586191",
    "latitude": "30.02738777777175",
    "geocoded_column": {
      "latitude": "30.02738777777175",
      "longitude": "-90.02466931586191"
    }
  },
  {
    "service_request": "2023-977825",
    "request_type": "Trash/Recycling",
    "request_reason": "Order Recycling Cart",
    "date_created": "2023-02-24T19:05:10.000",
    "date_modified": "2023-02-24T19:05:10.000",
    "request_status": "Pending",
    "responsible_agency": "Department of Sanitation",
    "final_address": "4600 Magnolia St",
    "address_councildis": "B",
    "status": "Pending",
    "rowid": "977825",
    "final_x": "3669683.20212",
    "final_y": "524626.360124",
    "longitude": "-90.10561685232985",
    "latitude": "29.936893915786232",
    "geocoded_column": {
      "latitude": "29.936893915786232",
      "longitude": "-90.10561685232985"
    }
  },
  {
    "service_request": "2023-977824",
    "request_type": "Traffic Signals/Signs/Striping/Streetlights",
    "request_reason": "Street Light Outage/Malfunction",
    "date_created": "2023-02-24T19:00:10.000",
    "date_modified": "2023-02-24T19:00:11.000",
    "request_status": "Pending",
    "responsible_agency": "Department of Public Works",
    "final_address": "2308 Joseph St",
    "address_councildis": "A",
    "status": "Assigned to Contractor",
    "contractor": "Legacy Professional Services",
    "rowid": "977824",
    "final_x": "3667299.55693",
    "final_y": "524552.270716",
    "longitude": "-90.11314466030142",
    "latitude": "29.936760204203424",
    "geocoded_column": {
      "latitude": "29.936760204203424",
      "longitude": "-90.11314466030142"
    }
  },
  {
    "service_request": "2023-977823",
    "request_type": "Traffic Signals/Signs/Striping/Streetlights",
    "request_reason": "Street Light Outage/Malfunction",
    "date_created": "2023-02-24T18:59:55.000",
    "date_modified": "2023-02-24T18:59:56.000",
    "request_status": "Pending",
    "responsible_agency": "Department of Public Works",
    "final_address": "2308 Joseph St",
    "address_councildis": "A",
    "status": "Assigned to Contractor",
    "contractor": "Legacy Professional Services",
    "rowid": "977823",
    "final_x": "3667299.55693",
    "final_y": "524552.270716",
    "longitude": "-90.11314466030142",
    "latitude": "29.936760204203424",
    "geocoded_column": {
      "latitude": "29.936760204203424",
      "longitude": "-90.11314466030142"
    }
  },
  {
    "service_request": "2023-977822",
    "request_type": "Trash/Recycling",
    "request_reason": "Dead Animal Pick Up",
    "date_created": "2023-02-24T18:58:03.000",
    "date_modified": "2023-02-24T18:58:04.000",
    "request_status": "Pending",
    "responsible_agency": "Department of Sanitation",
    "final_address": "TULLIS DR & LENNOX BLVD",
    "address_councildis": "C",
    "status": "Assigned to Contractor",
    "contractor": "Richards Disposal",
    "rowid": "977822",
    "final_x": "3700726.4",
    "final_y": "512045.48",
    "longitude": "-90.00807189563612",
    "latitude": "29.90134971681044",
    "geocoded_column": {
      "latitude": "29.90134971681044",
      "longitude": "-90.00807189563612"
    }
  },
  {
    "service_request": "2023-977821",
    "request_type": "Trash/Recycling",
    "request_reason": "MIssed Recycling Pick-Up",
    "date_created": "2023-02-24T18:50:23.000",
    "date_modified": "2023-02-24T18:50:24.000",
    "request_status": "Pending",
    "responsible_agency": "Department of Sanitation",
    "final_address": "7328 Plum St",
    "address_councildis": "A",
    "status": "Assigned to Contractor",
    "contractor": "Richards Disposal",
    "rowid": "977821",
    "final_x": "3663927.37088",
    "final_y": "527035.813182",
    "longitude": "-90.12370808767713",
    "latitude": "29.94368746359225",
    "geocoded_column": {
      "latitude": "29.94368746359225",
      "longitude": "-90.12370808767713"
    }
  },
  {
    "service_request": "2023-977820",
    "request_type": "Trash/Recycling",
    "request_reason": "Missed Trash Pick-Up",
    "date_created": "2023-02-24T18:49:57.000",
    "date_modified": "2023-02-24T18:49:58.000",
    "request_status": "Pending",
    "responsible_agency": "Department of Sanitation",
    "final_address": "1322 Charbonnet St",
    "address_councildis": "E",
    "status": "Assigned to Contractor",
    "contractor": "Waste Pro",
    "rowid": "977820",
    "final_x": "3698824.68503",
    "final_y": "534538.059077",
    "longitude": "-90.01325574554086",
    "latitude": "29.963256883085656",
    "geocoded_column": {
      "latitude": "29.963256883085656",
      "longitude": "-90.01325574554086"
    }
  },
  {
    "service_request": "2023-977819",
    "request_type": "Property Maintenance",
    "request_reason": "Property Maintenance",
    "date_created": "2023-02-24T18:48:18.000",
    "date_modified": "2023-02-24T18:48:18.000",
    "request_status": "Pending",
    "responsible_agency": "Department of Code Enforcement",
    "final_address": "1922 Clouet St",
    "address_councildis": "D",
    "status": "Pending",
    "rowid": "977819",
    "final_x": "3689760.34492",
    "final_y": "539201.500362",
    "longitude": "-90.04171379902628",
    "latitude": "29.97636373081016",
    "geocoded_column": {
      "latitude": "29.97636373081016",
      "longitude": "-90.04171379902628"
    }
  },
  {
    "service_request": "2023-977818",
    "request_type": "Trash/Recycling",
    "request_reason": "Replace Trash Cart",
    "date_created": "2023-02-24T18:38:19.000",
    "date_modified": "2023-02-24T18:38:19.000",
    "request_status": "Pending",
    "responsible_agency": "Department of Sanitation",
    "final_address": "1030 Tricou St",
    "address_councildis": "E",
    "status": "Assigned to Contractor",
    "contractor": "Waste Pro",
    "rowid": "977818",
    "final_x": "3700013.42359",
    "final_y": "532859.020612",
    "longitude": "-90.00956312494074",
    "latitude": "29.958602416737786",
    "geocoded_column": {
      "latitude": "29.958602416737786",
      "longitude": "-90.00956312494074"
    }
  },
  {
    "service_request": "2023-977817",
    "request_type": "Trash/Recycling",
    "request_reason": "Order Recycling Cart",
    "date_created": "2023-02-24T18:37:56.000",
    "date_modified": "2023-02-24T18:37:56.000",
    "request_status": "Pending",
    "responsible_agency": "Department of Sanitation",
    "final_address": "5653 Catina St",
    "address_councildis": "A",
    "status": "Pending",
    "rowid": "977817",
    "final_x": "3666701.94785",
    "final_y": "545142.056911",
    "longitude": "-90.11433981783817",
    "latitude": "29.993392791124908",
    "geocoded_column": {
      "latitude": "29.993392791124908",
      "longitude": "-90.11433981783817"
    }
  },
  {
    "service_request": "2023-977816",
    "request_type": "Trash/Recycling",
    "request_reason": "Missed Trash Pick-Up",
    "date_created": "2023-02-24T18:32:24.000",
    "date_modified": "2023-02-24T18:32:24.000",
    "request_status": "Pending",
    "responsible_agency": "Department of Sanitation",
    "final_address": "716 Arabella St",
    "address_councildis": "A",
    "status": "Assigned to Contractor",
    "contractor": "Richards Disposal",
    "rowid": "977816",
    "final_x": "3665747.91725",
    "final_y": "518760.718199",
    "longitude": "-90.11823717315387",
    "latitude": "29.92088060857142",
    "geocoded_column": {
      "latitude": "29.92088060857142",
      "longitude": "-90.11823717315387"
    }
  },
  {
    "service_request": "2023-977815",
    "request_type": "Trash/Recycling",
    "request_reason": "Request a Large Item Pick Up",
    "date_created": "2023-02-24T18:22:12.000",
    "date_modified": "2023-02-24T18:22:13.000",
    "request_status": "Pending",
    "responsible_agency": "Department of Sanitation",
    "final_address": "4838 Laurel St",
    "address_councildis": "B",
    "status": "Assigned to Contractor",
    "contractor": "Richards Disposal",
    "rowid": "977815",
    "final_x": "3669367.1643",
    "final_y": "517838.076982",
    "longitude": "-90.10684399672023",
    "latitude": "29.91823760791575",
    "geocoded_column": {
      "latitude": "29.91823760791575",
      "longitude": "-90.10684399672023"
    }
  },
  {
    "service_request": "2023-977814",
    "request_type": "Trash/Recycling",
    "request_reason": "MIssed Recycling Pick-Up",
    "date_created": "2023-02-24T18:11:52.000",
    "date_modified": "2023-02-24T18:11:53.000",
    "request_status": "Pending",
    "responsible_agency": "Department of Sanitation",
    "final_address": "4715 Rhodes Dr",
    "address_councildis": "E",
    "status": "Assigned to Contractor",
    "contractor": "Waste Pro",
    "rowid": "977814",
    "final_x": "3702603.64113",
    "final_y": "554175.997976",
    "longitude": "-90.00060103259554",
    "latitude": "30.017133677784727",
    "geocoded_column": {
      "latitude": "30.017133677784727",
      "longitude": "-90.00060103259554"
    }
  },
  {
    "service_request": "2023-977813",
    "request_type": "Trash/Recycling",
    "request_reason": "Replace Trash Cart",
    "date_created": "2023-02-24T18:05:37.000",
    "date_modified": "2023-02-24T18:05:38.000",
    "request_status": "Pending",
    "responsible_agency": "Department of Sanitation",
    "final_address": "834 Solomon Pl",
    "address_councildis": "A",
    "status": "Assigned to Contractor",
    "contractor": "Richards Disposal",
    "rowid": "977813",
    "final_x": "3672525.74196",
    "final_y": "540883.776395",
    "longitude": "-90.09608859238475",
    "latitude": "29.981512343050092",
    "geocoded_column": {
      "latitude": "29.981512343050092",
      "longitude": "-90.09608859238475"
    }
  },
  {
    "service_request": "2023-977812",
    "request_type": "Trash/Recycling",
    "request_reason": "Missed Trash Pick-Up",
    "date_created": "2023-02-24T18:04:55.000",
    "date_modified": "2023-02-24T18:04:56.000",
    "request_status": "Pending",
    "responsible_agency": "Department of Sanitation",
    "final_address": "4715 Rhodes Dr",
    "address_councildis": "E",
    "status": "Assigned to Contractor",
    "contractor": "Waste Pro",
    "rowid": "977812",
    "final_x": "3702603.64113",
    "final_y": "554175.997976",
    "longitude": "-90.00060103259554",
    "latitude": "30.017133677784727",
    "geocoded_column": {
      "latitude": "30.017133677784727",
      "longitude": "-90.00060103259554"
    }
  },
  {
    "service_request": "2023-977811",
    "request_type": "Trash/Recycling",
    "request_reason": "Missed Trash Pick-Up",
    "date_created": "2023-02-24T18:03:24.000",
    "date_modified": "2023-02-24T18:03:25.000",
    "request_status": "Pending",
    "responsible_agency": "Department of Sanitation",
    "final_address": "2635 Joseph St",
    "address_councildis": "A",
    "status": "Assigned to Contractor",
    "contractor": "Richards Disposal",
    "rowid": "977811",
    "final_x": "3667722.56378",
    "final_y": "525707.261885",
    "longitude": "-90.11177032979522",
    "latitude": "29.93992366603247",
    "geocoded_column": {
      "latitude": "29.93992366603247",
      "longitude": "-90.11177032979522"
    }
  },
  {
    "service_request": "2023-977810",
    "request_type": "Trash/Recycling",
    "request_reason": "Missed Trash Pick-Up",
    "date_created": "2023-02-24T18:01:17.000",
    "date_modified": "2023-02-24T18:01:18.000",
    "request_status": "Pending",
    "responsible_agency": "Department of Sanitation",
    "final_address": "1030 Arabella St",
    "address_councildis": "A",
    "status": "Assigned to Contractor",
    "contractor": "Richards Disposal",
    "rowid": "977810",
    "final_x": "3665985.89351",
    "final_y": "519860.701688",
    "longitude": "-90.11744914342509",
    "latitude": "29.92389827639747",
    "geocoded_column": {
      "latitude": "29.92389827639747",
      "longitude": "-90.11744914342509"
    }
  },
  {
    "service_request": "2023-977809",
    "request_type": "Trash/Recycling",
    "request_reason": "Missed Trash Pick-Up",
    "date_created": "2023-02-24T17:55:10.000",
    "date_modified": "2023-02-24T17:55:10.000",
    "request_status": "Pending",
    "responsible_agency": "Department of Sanitation",
    "final_address": "5715 Constance St",
    "address_councildis": "A",
    "status": "Assigned to Contractor",
    "contractor": "Richards Disposal",
    "rowid": "977809",
    "final_x": "3665642.70656",
    "final_y": "518700.141303",
    "longitude": "-90.1185713039261",
    "latitude": "29.920717108476044",
    "geocoded_column": {
      "latitude": "29.920717108476044",
      "longitude": "-90.1185713039261"
    }
  },
  {
    "service_request": "2023-977808",
    "request_type": "Roads/Drainage",
    "request_reason": "Street Subsidence (Sinking)",
    "date_created": "2023-02-24T17:52:25.000",
    "date_modified": "2023-02-24T17:52:25.000",
    "request_status": "Pending",
    "responsible_agency": "Department of Public Works",
    "final_address": "5190 Canal Blvd",
    "address_councildis": "A",
    "status": "Pending",
    "rowid": "977808",
    "final_x": "3667707.86138",
    "final_y": "542281.719885",
    "longitude": "-90.11125865244507",
    "latitude": "29.98549837703443",
    "geocoded_column": {
      "latitude": "29.98549837703443",
      "longitude": "-90.11125865244507"
    }
  },
  {
    "service_request": "2023-977807",
    "request_type": "Roads/Drainage",
    "request_reason": "Pothole",
    "date_created": "2023-02-24T17:45:33.000",
    "date_modified": "2023-02-24T17:45:33.000",
    "request_status": "Pending",
    "responsible_agency": "Department of Public Works",
    "final_address": "714 Voisin St",
    "address_councildis": "A",
    "status": "Pending",
    "rowid": "977807",
    "final_x": "3668342.3307",
    "final_y": "543216.037838",
    "longitude": "-90.10922309066108",
    "latitude": "29.988048811486006",
    "geocoded_column": {
      "latitude": "29.988048811486006",
      "longitude": "-90.10922309066108"
    }
  },
  {
    "service_request": "2023-977806",
    "request_type": "Trash/Recycling",
    "request_reason": "Missed Trash Pick-Up",
    "date_created": "2023-02-24T17:43:09.000",
    "date_modified": "2023-02-24T17:43:10.000",
    "request_status": "Pending",
    "responsible_agency": "Department of Sanitation",
    "final_address": "6030 Hurst St",
    "address_councildis": "A",
    "status": "Assigned to Contractor",
    "contractor": "Richards Disposal",
    "rowid": "977806",
    "final_x": "3665256.5074",
    "final_y": "521786.983866",
    "longitude": "-90.11968715854152",
    "latitude": "29.92921620713637",
    "geocoded_column": {
      "latitude": "29.92921620713637",
      "longitude": "-90.11968715854152"
    }
  },
  {
    "service_request": "2023-977805",
    "request_type": "Trash/Recycling",
    "request_reason": "MIssed Recycling Pick-Up",
    "date_created": "2023-02-24T17:41:21.000",
    "date_modified": "2023-02-24T17:41:22.000",
    "request_status": "Pending",
    "responsible_agency": "Department of Sanitation",
    "final_address": "2222 Cambronne St",
    "address_councildis": "A",
    "status": "Assigned to Contractor",
    "contractor": "Richards Disposal",
    "rowid": "977805",
    "final_x": "3663646.12467",
    "final_y": "531890.178051",
    "longitude": "-90.12443436090143",
    "latitude": "29.95704356214727",
    "geocoded_column": {
      "latitude": "29.95704356214727",
      "longitude": "-90.12443436090143"
    }
  },
  {
    "service_request": "2023-977804",
    "request_type": "Trash/Recycling",
    "request_reason": "Missed Trash Pick-Up",
    "date_created": "2023-02-24T17:33:09.000",
    "date_modified": "2023-02-24T17:33:10.000",
    "request_status": "Pending",
    "responsible_agency": "Department of Sanitation",
    "final_address": "2643 Jefferson Ave",
    "address_councildis": "B",
    "status": "Assigned to Contractor",
    "contractor": "Richards Disposal",
    "rowid": "977804",
    "final_x": "3668294.60948",
    "final_y": "525221.917117",
    "longitude": "-90.10998065101649",
    "latitude": "29.938572343002797",
    "geocoded_column": {
      "latitude": "29.938572343002797",
      "longitude": "-90.10998065101649"
    }
  },
  {
    "service_request": "2023-977803",
    "request_type": "Trash/Recycling",
    "request_reason": "MIssed Recycling Pick-Up",
    "date_created": "2023-02-24T17:32:33.000",
    "date_modified": "2023-02-24T17:32:34.000",
    "request_status": "Pending",
    "responsible_agency": "Department of Sanitation",
    "final_address": "2931 St Claude Ave",
    "address_councildis": "C",
    "status": "Assigned to Contractor",
    "contractor": "IV Waste",
    "rowid": "977803",
    "final_x": "3688401.44431",
    "final_y": "536252.633159",
    "longitude": "-90.04611022881703",
    "latitude": "29.968297431309566",
    "geocoded_column": {
      "latitude": "29.968297431309566",
      "longitude": "-90.04611022881703"
    }
  },
  {
    "service_request": "2023-977802",
    "request_type": "Trash/Recycling",
    "request_reason": "Missed Trash Pick-Up",
    "date_created": "2023-02-24T17:31:40.000",
    "date_modified": "2023-02-24T17:31:41.000",
    "request_status": "Pending",
    "responsible_agency": "Department of Sanitation",
    "final_address": "2931 St Claude Ave",
    "address_councildis": "C",
    "status": "Assigned to Contractor",
    "contractor": "IV Waste",
    "rowid": "977802",
    "final_x": "3688401.44431",
    "final_y": "536252.633159",
    "longitude": "-90.04611022881703",
    "latitude": "29.968297431309566",
    "geocoded_column": {
      "latitude": "29.968297431309566",
      "longitude": "-90.04611022881703"
    }
  },
  {
    "service_request": "2023-977801",
    "request_type": "Abandoned Vehicles",
    "request_reason": "Abandoned/Junk Vehicles",
    "date_created": "2023-02-24T17:20:34.000",
    "date_modified": "2023-02-24T17:23:21.000",
    "request_status": "Pending",
    "responsible_agency": "Department of Public Works",
    "final_address": "4809 Camp St",
    "address_councildis": "B",
    "status": "Pending",
    "rowid": "977801",
    "final_x": "3669453.50663",
    "final_y": "519038.285431",
    "longitude": "-90.10653089874715",
    "latitude": "29.921535260308538",
    "geocoded_column": {
      "latitude": "29.921535260308538",
      "longitude": "-90.10653089874715"
    }
  },
  {
    "service_request": "2023-977800",
    "request_type": "Traffic Signals/Signs/Striping/Streetlights",
    "request_reason": "Traffic Sign Missing/Damaged",
    "date_created": "2023-02-24T17:19:36.000",
    "date_modified": "2023-02-24T17:19:36.000",
    "request_status": "Pending",
    "responsible_agency": "Department of Public Works",
    "final_address": "8801 Oak St",
    "address_councildis": "A",
    "status": "Pending",
    "rowid": "977800",
    "final_x": "3660098.05478",
    "final_y": "530117.387521",
    "longitude": "-90.13569663481883",
    "latitude": "29.95227141000116",
    "geocoded_column": {
      "latitude": "29.95227141000116",
      "longitude": "-90.13569663481883"
    }
  },
  {
    "service_request": "2023-977799",
    "request_type": "Abandoned Vehicles",
    "request_reason": "Abandoned/Junk Vehicles",
    "date_created": "2023-02-24T17:15:39.000",
    "date_modified": "2023-02-24T17:15:39.000",
    "request_status": "Pending",
    "responsible_agency": "Department of Public Works",
    "final_address": "2309 Joseph St",
    "address_councildis": "A",
    "status": "Pending",
    "rowid": "977799",
    "final_x": "3667448.77665",
    "final_y": "524550.542972",
    "longitude": "-90.11267362305888",
    "latitude": "29.936751083335352",
    "geocoded_column": {
      "latitude": "29.936751083335352",
      "longitude": "-90.11267362305888"
    }
  },
  {
    "service_request": "2023-977798",
    "request_type": "Trash/Recycling",
    "request_reason": "Missed Trash Pick-Up",
    "date_created": "2023-02-24T17:15:16.000",
    "date_modified": "2023-02-24T17:15:17.000",
    "request_status": "Pending",
    "responsible_agency": "Department of Sanitation",
    "final_address": "2124 S Gayoso St",
    "address_councildis": "B",
    "status": "Assigned to Contractor",
    "contractor": "Richards Disposal",
    "rowid": "977798",
    "final_x": "3669691.5625",
    "final_y": "528928.721152",
    "longitude": "-90.10544490426787",
    "latitude": "29.948723765931963",
    "geocoded_column": {
      "latitude": "29.948723765931963",
      "longitude": "-90.10544490426787"
    }
  },
  {
    "service_request": "2023-977797",
    "request_type": "Trash/Recycling",
    "request_reason": "Missed Trash Pick-Up",
    "date_created": "2023-02-24T17:14:47.000",
    "date_modified": "2023-02-24T17:14:48.000",
    "request_status": "Pending",
    "responsible_agency": "Department of Sanitation",
    "final_address": "605 Wagner St",
    "address_councildis": "C",
    "status": "Assigned to Contractor",
    "contractor": "Richards Disposal",
    "rowid": "977797",
    "final_x": "3690512.86806",
    "final_y": "529298.582209",
    "longitude": "-90.0396902202122",
    "latitude": "29.94911082150968",
    "geocoded_column": {
      "latitude": "29.94911082150968",
      "longitude": "-90.0396902202122"
    }
  },
  {
    "service_request": "2023-977796",
    "request_type": "Traffic Signals/Signs/Striping/Streetlights",
    "request_reason": "Street Light Outage/Malfunction",
    "date_created": "2023-02-24T17:06:34.000",
    "date_modified": "2023-02-24T17:06:34.000",
    "request_status": "Pending",
    "responsible_agency": "Department of Public Works",
    "final_address": "5961 General Diaz St",
    "address_councildis": "A",
    "status": "Assigned to Contractor",
    "contractor": "Legacy Professional Services",
    "rowid": "977796",
    "final_x": "3669573.68135",
    "final_y": "546987.167633",
    "longitude": "-90.10520597689062",
    "latitude": "29.998381891961117",
    "geocoded_column": {
      "latitude": "29.998381891961117",
      "longitude": "-90.10520597689062"
    }
  },
  {
    "service_request": "2023-977795",
    "request_type": "Trash/Recycling",
    "request_reason": "Missed Trash Pick-Up",
    "date_created": "2023-02-24T17:03:48.000",
    "date_modified": "2023-02-24T17:03:49.000",
    "request_status": "Pending",
    "responsible_agency": "Department of Sanitation",
    "final_address": "1811 Louisa St",
    "address_councildis": "D",
    "status": "Assigned to Contractor",
    "contractor": "IV Waste",
    "rowid": "977795",
    "final_x": "3690282.8655",
    "final_y": "538608.570697",
    "longitude": "-90.04008466328578",
    "latitude": "29.974717178602628",
    "geocoded_column": {
      "latitude": "29.974717178602628",
      "longitude": "-90.04008466328578"
    }
  },
  {
    "service_request": "2023-977794",
    "request_type": "Trash/Recycling",
    "request_reason": "MIssed Recycling Pick-Up",
    "date_created": "2023-02-24T17:02:10.000",
    "date_modified": "2023-02-24T17:02:11.000",
    "request_status": "Pending",
    "responsible_agency": "Department of Sanitation",
    "final_address": "1516 Audubon St",
    "address_councildis": "A",
    "status": "Assigned to Contractor",
    "contractor": "Richards Disposal",
    "rowid": "977794",
    "final_x": "3665087.73882",
    "final_y": "527397.294079",
    "longitude": "-90.12003239683767",
    "latitude": "29.944647686482103",
    "geocoded_column": {
      "latitude": "29.944647686482103",
      "longitude": "-90.12003239683767"
    }
  },
  {
    "service_request": "2023-977793",
    "request_type": "Trash/Recycling",
    "request_reason": "Missed Trash Pick-Up",
    "date_created": "2023-02-24T17:02:02.000",
    "date_modified": "2023-02-24T17:02:04.000",
    "request_status": "Pending",
    "responsible_agency": "Department of Sanitation",
    "final_address": "1026 Bartholomew St, New Orleans, Louisiana, 70117",
    "address_councildis": "C",
    "status": "Assigned to Contractor",
    "contractor": "IV Waste",
    "rowid": "977793",
    "final_x": "3691716.73833",
    "final_y": "535089.254278",
    "longitude": "-90.03568202888471",
    "latitude": "29.96499572541909",
    "geocoded_column": {
      "latitude": "29.96499572541909",
      "longitude": "-90.03568202888471"
    }
  },
  {
    "service_request": "2023-977792",
    "request_type": "Trash/Recycling",
    "request_reason": "Dead Animal Pick Up",
    "date_created": "2023-02-24T17:01:16.000",
    "date_modified": "2023-02-24T17:01:17.000",
    "request_status": "Pending",
    "responsible_agency": "Department of Sanitation",
    "final_address": "1 Eugenie Ct",
    "address_councildis": "C",
    "status": "Assigned to Contractor",
    "contractor": "Richards Disposal",
    "rowid": "977792",
    "final_x": "3700593.7329",
    "final_y": "511897.647088",
    "longitude": "-90.00849597492535",
    "latitude": "29.900947444406643",
    "geocoded_column": {
      "latitude": "29.900947444406643",
      "longitude": "-90.00849597492535"
    }
  },
  {
    "service_request": "2023-977791",
    "request_type": "Trash/Recycling",
    "request_reason": "Illegal Dumping",
    "date_created": "2023-02-24T16:59:02.000",
    "date_modified": "2023-02-24T16:59:02.000",
    "request_status": "Pending",
    "responsible_agency": "Department of Sanitation",
    "final_address": "120 N Norman C Francis Prkwy",
    "address_councildis": "B",
    "status": "Pending",
    "rowid": "977791",
    "final_x": "3673479.79496",
    "final_y": "536850.009928",
    "longitude": "-90.09321313375989",
    "latitude": "29.970392498272314",
    "geocoded_column": {
      "latitude": "29.970392498272314",
      "longitude": "-90.09321313375989"
    }
  },
  {
    "service_request": "2023-977790",
    "request_type": "Traffic Signals/Signs/Striping/Streetlights",
    "request_reason": "Street Light Outage/Malfunction",
    "date_created": "2023-02-24T16:56:20.000",
    "date_modified": "2023-02-24T16:56:21.000",
    "request_status": "Pending",
    "responsible_agency": "Department of Public Works",
    "final_address": "419 Exposition Blvd",
    "address_councildis": "A",
    "status": "Assigned to Contractor",
    "contractor": "Legacy Professional Services",
    "rowid": "977790",
    "final_x": "3662648.28672",
    "final_y": "518721.711415",
    "longitude": "-90.12802263962828",
    "latitude": "29.920863369445737",
    "geocoded_column": {
      "latitude": "29.920863369445737",
      "longitude": "-90.12802263962828"
    }
  },
  {
    "service_request": "2023-977789",
    "request_type": "Trash/Recycling",
    "request_reason": "MIssed Recycling Pick-Up",
    "date_created": "2023-02-24T16:54:25.000",
    "date_modified": "2023-02-24T16:54:26.000",
    "request_status": "Pending",
    "responsible_agency": "Department of Sanitation",
    "final_address": "7224 Walmsley Ave",
    "address_councildis": "B",
    "status": "Assigned to Contractor",
    "contractor": "Richards Disposal",
    "rowid": "977789",
    "final_x": "3667133.42746",
    "final_y": "531347.688962",
    "longitude": "-90.11344074122005",
    "latitude": "29.955450267875644",
    "geocoded_column": {
      "latitude": "29.955450267875644",
      "longitude": "-90.11344074122005"
    }
  },
  {
    "service_request": "2023-977788",
    "request_type": "Trash/Recycling",
    "request_reason": "MIssed Recycling Pick-Up",
    "date_created": "2023-02-24T16:54:24.000",
    "date_modified": "2023-02-24T16:54:24.000",
    "request_status": "Pending",
    "responsible_agency": "Department of Sanitation",
    "final_address": "3019 Joseph St",
    "address_councildis": "A",
    "status": "Assigned to Contractor",
    "contractor": "Richards Disposal",
    "rowid": "977788",
    "final_x": "3667970.43981",
    "final_y": "526880.150334",
    "longitude": "-90.11094824251568",
    "latitude": "29.943141462271317",
    "geocoded_column": {
      "latitude": "29.943141462271317",
      "longitude": "-90.11094824251568"
    }
  },
  {
    "service_request": "2023-977787",
    "request_type": "Trash/Recycling",
    "request_reason": "Repair Trash Cart",
    "date_created": "2023-02-24T16:53:47.000",
    "date_modified": "2023-02-24T16:53:47.000",
    "request_status": "Pending",
    "responsible_agency": "Department of Sanitation",
    "final_address": "5708 Tullis Dr",
    "address_councildis": "C",
    "status": "Assigned to Contractor",
    "contractor": "Richards Disposal",
    "rowid": "977787",
    "final_x": "3705088.69604",
    "final_y": "512790.840817",
    "longitude": "-89.9942774268727",
    "latitude": "29.903259753787538",
    "geocoded_column": {
      "latitude": "29.903259753787538",
      "longitude": "-89.9942774268727"
    }
  },
  {
    "service_request": "2023-977786",
    "request_type": "Trash/Recycling",
    "request_reason": "Return Trash Cart",
    "date_created": "2023-02-24T16:47:15.000",
    "date_modified": "2023-02-24T16:47:16.000",
    "request_status": "Pending",
    "responsible_agency": "Department of Sanitation",
    "final_address": "4639 Camp St",
    "address_councildis": "B",
    "status": "Assigned to Contractor",
    "contractor": "Richards Disposal",
    "rowid": "977786",
    "final_x": "3670033.12583",
    "final_y": "519091.324151",
    "longitude": "-90.10469949245802",
    "latitude": "29.92166402347215",
    "geocoded_column": {
      "latitude": "29.92166402347215",
      "longitude": "-90.10469949245802"
    }
  },
  {
    "service_request": "2023-977785",
    "request_type": "Trash/Recycling",
    "request_reason": "Missed Trash Pick-Up",
    "date_created": "2023-02-24T16:45:23.000",
    "date_modified": "2023-02-24T16:45:23.000",
    "request_status": "Pending",
    "responsible_agency": "Department of Sanitation",
    "final_address": "1718 Urquhart St",
    "address_councildis": "C",
    "status": "Assigned to Contractor",
    "contractor": "IV Waste",
    "rowid": "977785",
    "final_x": "3683265.47279",
    "final_y": "536801.357512",
    "longitude": "-90.06231061593071",
    "latitude": "29.969963880521334",
    "geocoded_column": {
      "latitude": "29.969963880521334",
      "longitude": "-90.06231061593071"
    }
  },
  {
    "service_request": "2023-977784",
    "request_type": "Trash/Recycling",
    "request_reason": "Missed Trash Pick-Up",
    "date_created": "2023-02-24T16:41:10.000",
    "date_modified": "2023-02-24T16:41:11.000",
    "request_status": "Pending",
    "responsible_agency": "Department of Sanitation",
    "final_address": "939 Hillary St",
    "address_councildis": "A",
    "status": "Assigned to Contractor",
    "contractor": "Richards Disposal",
    "rowid": "977784",
    "final_x": "3662811.06816",
    "final_y": "526583.115966",
    "longitude": "-90.12724761414447",
    "latitude": "29.94247504682695",
    "geocoded_column": {
      "latitude": "29.94247504682695",
      "longitude": "-90.12724761414447"
    }
  },
  {
    "service_request": "2023-977782",
    "request_type": "Trash/Recycling",
    "request_reason": "Illegal Dumping",
    "date_created": "2023-02-24T16:33:41.000",
    "date_modified": "2023-02-24T16:33:41.000",
    "request_status": "Pending",
    "responsible_agency": "Department of Sanitation",
    "final_address": "3214 Banks St A",
    "address_councildis": "B",
    "status": "Pending",
    "rowid": "977782",
    "final_x": "3673007.13704",
    "final_y": "535293.007814",
    "longitude": "-90.09475899429067",
    "latitude": "29.966125324550838",
    "geocoded_column": {
      "latitude": "29.966125324550838",
      "longitude": "-90.09475899429067"
    }
  },
  {
    "service_request": "2023-977781",
    "request_type": "Trash/Recycling",
    "request_reason": "Missed Trash Pick-Up",
    "date_created": "2023-02-24T16:32:03.000",
    "date_modified": "2023-02-24T16:32:04.000",
    "request_status": "Pending",
    "responsible_agency": "Department of Sanitation",
    "final_address": "2418 Rousseau St",
    "address_councildis": "B",
    "status": "Assigned to Contractor",
    "contractor": "Richards Disposal",
    "rowid": "977781",
    "final_x": "3679202.23778",
    "final_y": "519502.010551",
    "longitude": "-90.07574232241964",
    "latitude": "29.92251975544145",
    "geocoded_column": {
      "latitude": "29.92251975544145",
      "longitude": "-90.07574232241964"
    }
  },
  {
    "service_request": "2023-977780",
    "request_type": "Trash/Recycling",
    "request_reason": "Missed Trash Pick-Up",
    "date_created": "2023-02-24T16:31:33.000",
    "date_modified": "2023-02-24T16:31:34.000",
    "request_status": "Pending",
    "responsible_agency": "Department of Sanitation",
    "final_address": "2522 Jefferson Ave",
    "address_councildis": "A",
    "status": "Assigned to Contractor",
    "contractor": "Richards Disposal",
    "rowid": "977780",
    "final_x": "3668039.10708",
    "final_y": "524855.95622",
    "longitude": "-90.1107996285821",
    "latitude": "29.937573566434033",
    "geocoded_column": {
      "latitude": "29.937573566434033",
      "longitude": "-90.1107996285821"
    }
  },
  {
    "service_request": "2023-977779",
    "request_type": "Property Maintenance",
    "request_reason": "Property Maintenance",
    "date_created": "2023-02-24T16:31:23.000",
    "date_modified": "2023-02-24T16:31:23.000",
    "request_status": "Pending",
    "responsible_agency": "Department of Code Enforcement",
    "final_address": "1913 Casa Calvo St",
    "address_councildis": "C",
    "status": "Pending",
    "rowid": "977779",
    "final_x": "3691896.8712",
    "final_y": "524164.881404",
    "longitude": "-90.03550392712869",
    "latitude": "29.934951867401704",
    "geocoded_column": {
      "latitude": "29.934951867401704",
      "longitude": "-90.03550392712869"
    }
  },
  {
    "service_request": "2023-977778",
    "request_type": "Trash/Recycling",
    "request_reason": "Request a Large Item Pick Up",
    "date_created": "2023-02-24T16:30:50.000",
    "date_modified": "2023-02-24T16:30:50.000",
    "request_status": "Pending",
    "responsible_agency": "Department of Sanitation",
    "final_address": "3205 St Philip St",
    "address_councildis": "A",
    "status": "Assigned to Contractor",
    "contractor": "Richards Disposal",
    "rowid": "977778",
    "final_x": "3675642.76693",
    "final_y": "539262.44353",
    "longitude": "-90.0862993044398",
    "latitude": "29.976961322126005",
    "geocoded_column": {
      "latitude": "29.976961322126005",
      "longitude": "-90.0862993044398"
    }
  },
  {
    "service_request": "2023-977777",
    "request_type": "Trash/Recycling",
    "request_reason": "Missed Trash Pick-Up",
    "date_created": "2023-02-24T16:28:10.000",
    "date_modified": "2023-02-24T16:28:11.000",
    "request_status": "Pending",
    "responsible_agency": "Department of Sanitation",
    "final_address": "6110 St Charles Ave",
    "address_councildis": "A",
    "status": "Assigned to Contractor",
    "contractor": "Richards Disposal",
    "rowid": "977777",
    "final_x": "3665239.50599",
    "final_y": "522755.429306",
    "longitude": "-90.11970844840434",
    "latitude": "29.93187962075964",
    "geocoded_column": {
      "latitude": "29.93187962075964",
      "longitude": "-90.11970844840434"
    }
  },
  {
    "service_request": "2023-977776",
    "request_type": "Trash/Recycling",
    "request_reason": "Missed Trash Pick-Up",
    "date_created": "2023-02-24T16:27:16.000",
    "date_modified": "2023-02-24T16:27:17.000",
    "request_status": "Pending",
    "responsible_agency": "Department of Sanitation",
    "final_address": "700 Block of Jefferson Ave, New Orleans, Louisiana, 70115",
    "status": "Assigned to Contractor",
    "rowid": "977776",
    "longitude": "0.0",
    "latitude": "0.0",
    "geocoded_column": {
      "latitude": "0.0",
      "longitude": "0.0"
    }
  },
  {
    "service_request": "2023-977774",
    "request_type": "Trash/Recycling",
    "request_reason": "Missed Trash Pick-Up",
    "date_created": "2023-02-24T16:23:22.000",
    "date_modified": "2023-02-24T16:23:23.000",
    "request_status": "Pending",
    "responsible_agency": "Department of Sanitation",
    "final_address": "821 Port St",
    "address_councildis": "C",
    "status": "Assigned to Contractor",
    "contractor": "IV Waste",
    "rowid": "977774",
    "final_x": "3687192.4079",
    "final_y": "535398.134854",
    "longitude": "-90.04995863536993",
    "latitude": "29.965985149573925",
    "geocoded_column": {
      "latitude": "29.965985149573925",
      "longitude": "-90.04995863536993"
    }
  },
  {
    "service_request": "2023-977773",
    "request_type": "Trash/Recycling",
    "request_reason": "MIssed Recycling Pick-Up",
    "date_created": "2023-02-24T16:21:26.000",
    "date_modified": "2023-02-24T16:21:27.000",
    "request_status": "Pending",
    "responsible_agency": "Department of Sanitation",
    "final_address": "3330 Mansfield Ave",
    "address_councildis": "C",
    "status": "Assigned to Contractor",
    "contractor": "Richards Disposal",
    "rowid": "977773",
    "final_x": "3709145.22622",
    "final_y": "518361.746678",
    "longitude": "-89.981267727357",
    "latitude": "29.918446840510832",
    "geocoded_column": {
      "latitude": "29.918446840510832",
      "longitude": "-89.981267727357"
    }
  },
  {
    "service_request": "2023-977772",
    "request_type": "Trash/Recycling",
    "request_reason": "Missed Trash Pick-Up",
    "date_created": "2023-02-24T16:20:45.000",
    "date_modified": "2023-02-24T16:20:46.000",
    "request_status": "Pending",
    "responsible_agency": "Department of Sanitation",
    "final_address": "1435 N Robertson St",
    "address_councildis": "C",
    "status": "Assigned to Contractor",
    "contractor": "IV Waste",
    "rowid": "977772",
    "final_x": "3681734.68271",
    "final_y": "536613.017223",
    "longitude": "-90.06715156959311",
    "latitude": "29.969492610806274",
    "geocoded_column": {
      "latitude": "29.969492610806274",
      "longitude": "-90.06715156959311"
    }
  },
  {
    "service_request": "2023-977771",
    "request_type": "Trash/Recycling",
    "request_reason": "Replace Trash Cart",
    "date_created": "2023-02-24T16:20:07.000",
    "date_modified": "2023-02-24T16:20:07.000",
    "request_status": "Pending",
    "responsible_agency": "Department of Sanitation",
    "final_address": "3214 Banks St A",
    "address_councildis": "B",
    "status": "Assigned to Contractor",
    "contractor": "Richards Disposal",
    "rowid": "977771",
    "final_x": "3673007.13704",
    "final_y": "535293.007814",
    "longitude": "-90.09475899429067",
    "latitude": "29.966125324550838",
    "geocoded_column": {
      "latitude": "29.966125324550838",
      "longitude": "-90.09475899429067"
    }
  },
  {
    "service_request": "2023-977770",
    "request_type": "Trash/Recycling",
    "request_reason": "Missed Trash Pick-Up",
    "date_created": "2023-02-24T16:19:28.000",
    "date_modified": "2023-02-24T16:19:29.000",
    "request_status": "Pending",
    "responsible_agency": "Department of Sanitation",
    "final_address": "327 Arabella St",
    "address_councildis": "A",
    "status": "Assigned to Contractor",
    "contractor": "Richards Disposal",
    "rowid": "977770",
    "final_x": "3665526.45287",
    "final_y": "517394.312245",
    "longitude": "-90.11898194842252",
    "latitude": "29.917129875054222",
    "geocoded_column": {
      "latitude": "29.917129875054222",
      "longitude": "-90.11898194842252"
    }
  },
  {
    "service_request": "2023-977769",
    "request_type": "Trash/Recycling",
    "request_reason": "Missed Trash Pick-Up",
    "date_created": "2023-02-24T16:13:23.000",
    "date_modified": "2023-02-24T16:13:24.000",
    "request_status": "Pending",
    "responsible_agency": "Department of Sanitation",
    "final_address": "307 Webster St",
    "address_councildis": "A",
    "status": "Assigned to Contractor",
    "contractor": "Richards Disposal",
    "rowid": "977769",
    "final_x": "3663588.91187",
    "final_y": "517819.939638",
    "longitude": "-90.12508351598878",
    "latitude": "29.918356537645057",
    "geocoded_column": {
      "latitude": "29.918356537645057",
      "longitude": "-90.12508351598878"
    }
  },
  {
    "service_request": "2023-977768",
    "request_type": "Trash/Recycling",
    "request_reason": "MIssed Recycling Pick-Up",
    "date_created": "2023-02-24T16:10:40.000",
    "date_modified": "2023-02-24T16:10:41.000",
    "request_status": "Pending",
    "responsible_agency": "Department of Sanitation",
    "final_address": "1014 Desire St",
    "address_councildis": "C",
    "status": "Assigned to Contractor",
    "contractor": "IV Waste",
    "rowid": "977768",
    "final_x": "3690078.27043",
    "final_y": "535408.076614",
    "longitude": "-90.04084483903002",
    "latitude": "29.96592329460682",
    "geocoded_column": {
      "latitude": "29.96592329460682",
      "longitude": "-90.04084483903002"
    }
  },
  {
    "service_request": "2023-977767",
    "request_type": "Property Maintenance",
    "request_reason": "Property Maintenance",
    "date_created": "2023-02-24T16:10:39.000",
    "date_modified": "2023-02-24T16:10:39.000",
    "request_status": "Pending",
    "responsible_agency": "Department of Code Enforcement",
    "final_address": "1818 N Johnson St",
    "address_councildis": "D",
    "status": "Pending",
    "rowid": "977767",
    "final_x": "3682686.63701",
    "final_y": "539413.056458",
    "longitude": "-90.06404726811128",
    "latitude": "29.977162788098568",
    "geocoded_column": {
      "latitude": "29.977162788098568",
      "longitude": "-90.06404726811128"
    }
  },
  {
    "service_request": "2023-977766",
    "request_type": "Trash/Recycling",
    "request_reason": "Missed Trash Pick-Up",
    "date_created": "2023-02-24T16:10:08.000",
    "date_modified": "2023-02-24T16:10:09.000",
    "request_status": "Pending",
    "responsible_agency": "Department of Sanitation",
    "final_address": "1014 Desire St",
    "address_councildis": "C",
    "status": "Assigned to Contractor",
    "contractor": "IV Waste",
    "rowid": "977766",
    "final_x": "3690078.27043",
    "final_y": "535408.076614",
    "longitude": "-90.04084483903002",
    "latitude": "29.96592329460682",
    "geocoded_column": {
      "latitude": "29.96592329460682",
      "longitude": "-90.04084483903002"
    }
  },
  {
    "service_request": "2023-977765",
    "request_type": "Trash/Recycling",
    "request_reason": "Missed Trash Pick-Up",
    "date_created": "2023-02-24T16:07:46.000",
    "date_modified": "2023-02-24T16:07:46.000",
    "request_status": "Pending",
    "responsible_agency": "Department of Sanitation",
    "final_address": "631 Spain St",
    "address_councildis": "C",
    "status": "Assigned to Contractor",
    "contractor": "IV Waste",
    "rowid": "977765",
    "final_x": "3686291.1709",
    "final_y": "534864.76551",
    "longitude": "-90.05282353353596",
    "latitude": "29.964546293486528",
    "geocoded_column": {
      "latitude": "29.964546293486528",
      "longitude": "-90.05282353353596"
    }
  },
  {
    "service_request": "2023-977764",
    "request_type": "Trash/Recycling",
    "request_reason": "Request a Large Item Pick Up",
    "date_created": "2023-02-24T16:06:34.000",
    "date_modified": "2023-02-24T16:06:35.000",
    "request_status": "Pending",
    "responsible_agency": "Department of Sanitation",
    "final_address": "7015 Green St, New Orleans, Louisiana, 70118",
    "address_councildis": "A",
    "status": "Assigned to Contractor",
    "contractor": "Richards Disposal",
    "rowid": "977764",
    "final_x": "3665602.57709",
    "final_y": "527799.287679",
    "longitude": "-90.11839343555381",
    "latitude": "29.94573803954166",
    "geocoded_column": {
      "latitude": "29.94573803954166",
      "longitude": "-90.11839343555381"
    }
  },
  {
    "service_request": "2023-977763",
    "request_type": "Trash/Recycling",
    "request_reason": "Order Recycling Cart",
    "date_created": "2023-02-24T16:05:33.000",
    "date_modified": "2023-02-24T16:05:34.000",
    "request_status": "Pending",
    "responsible_agency": "Department of Sanitation",
    "final_address": "7931 Bullard Ave Apt C",
    "address_councildis": "E",
    "status": "Pending",
    "rowid": "977763",
    "final_x": "3712521.57304",
    "final_y": "568478.139941",
    "longitude": "-89.96872658794103",
    "latitude": "30.056137933201885",
    "geocoded_column": {
      "latitude": "30.056137933201885",
      "longitude": "-89.96872658794103"
    }
  },
  {
    "service_request": "2023-977762",
    "request_type": "Trash/Recycling",
    "request_reason": "Order Trash Cart",
    "date_created": "2023-02-24T16:04:58.000",
    "date_modified": "2023-02-24T16:04:59.000",
    "request_status": "Pending",
    "responsible_agency": "Department of Sanitation",
    "final_address": "7931 Bullard Ave Apt C",
    "address_councildis": "E",
    "status": "Assigned to Contractor",
    "contractor": "Waste Pro",
    "rowid": "977762",
    "final_x": "3712521.57304",
    "final_y": "568478.139941",
    "longitude": "-89.96872658794103",
    "latitude": "30.056137933201885",
    "geocoded_column": {
      "latitude": "30.056137933201885",
      "longitude": "-89.96872658794103"
    }
  },
  {
    "service_request": "2023-977761",
    "request_type": "Trash/Recycling",
    "request_reason": "Repair Trash Cart",
    "date_created": "2023-02-24T16:04:47.000",
    "date_modified": "2023-02-24T16:04:48.000",
    "request_status": "Pending",
    "responsible_agency": "Department of Sanitation",
    "final_address": "349 Audubon St",
    "address_councildis": "A",
    "status": "Assigned to Contractor",
    "contractor": "Richards Disposal",
    "rowid": "977761",
    "final_x": "3661848.70995",
    "final_y": "522414.897658",
    "longitude": "-90.13042416879195",
    "latitude": "29.93104158163319",
    "geocoded_column": {
      "latitude": "29.93104158163319",
      "longitude": "-90.13042416879195"
    }
  },
  {
    "service_request": "2023-977760",
    "request_type": "Trash/Recycling",
    "request_reason": "Missed Trash Pick-Up",
    "date_created": "2023-02-24T16:03:44.000",
    "date_modified": "2023-02-24T16:03:45.000",
    "request_status": "Pending",
    "responsible_agency": "Department of Sanitation",
    "final_address": "1020 Pauline St",
    "address_councildis": "C",
    "status": "Assigned to Contractor",
    "contractor": "IV Waste",
    "rowid": "977760",
    "final_x": "3691117.51459",
    "final_y": "535195.48679",
    "longitude": "-90.03757054119713",
    "latitude": "29.965306473488177",
    "geocoded_column": {
      "latitude": "29.965306473488177",
      "longitude": "-90.03757054119713"
    }
  },
  {
    "service_request": "2023-977759",
    "request_type": "Trash/Recycling",
    "request_reason": "Repair Trash Cart",
    "date_created": "2023-02-24T16:03:41.000",
    "date_modified": "2023-02-24T16:03:41.000",
    "request_status": "Pending",
    "responsible_agency": "Department of Sanitation",
    "final_address": "347 Audubon St",
    "address_councildis": "A",
    "status": "Assigned to Contractor",
    "contractor": "Richards Disposal",
    "rowid": "977759",
    "final_x": "3661841.48775",
    "final_y": "522398.508794",
    "longitude": "-90.13044751156193",
    "latitude": "29.930996725877694",
    "geocoded_column": {
      "latitude": "29.930996725877694",
      "longitude": "-90.13044751156193"
    }
  },
  {
    "service_request": "2023-977758",
    "request_type": "Trash/Recycling",
    "request_reason": "Request a Large Item Pick Up",
    "date_created": "2023-02-24T16:03:08.000",
    "date_modified": "2023-02-24T16:03:09.000",
    "request_status": "Pending",
    "responsible_agency": "Department of Sanitation",
    "final_address": "305 River Oaks Dr",
    "address_councildis": "C",
    "status": "Assigned to Contractor",
    "contractor": "Richards Disposal",
    "rowid": "977758",
    "final_x": "3701514.0817",
    "final_y": "522687.770682",
    "longitude": "-90.0051967507642",
    "latitude": "29.930587305385398",
    "geocoded_column": {
      "latitude": "29.930587305385398",
      "longitude": "-90.0051967507642"
    }
  },
  {
    "service_request": "2023-977757",
    "request_type": "Roads/Drainage",
    "request_reason": "Pothole",
    "date_created": "2023-02-24T16:03:02.000",
    "date_modified": "2023-02-24T16:03:02.000",
    "request_status": "Pending",
    "responsible_agency": "Department of Public Works",
    "final_address": "2676 Wisteria St",
    "address_councildis": "D",
    "status": "Pending",
    "rowid": "977757",
    "final_x": "3687621.90108",
    "final_y": "548347.23829",
    "longitude": "-90.04814365178576",
    "latitude": "30.00157734700328",
    "geocoded_column": {
      "latitude": "30.00157734700328",
      "longitude": "-90.04814365178576"
    }
  },
  {
    "service_request": "2023-977756",
    "request_type": "Property Maintenance",
    "request_reason": "Property Maintenance",
    "date_created": "2023-02-24T16:01:38.000",
    "date_modified": "2023-02-24T16:01:39.000",
    "request_status": "Pending",
    "responsible_agency": "Department of Code Enforcement",
    "final_address": "3214 Banks St A",
    "address_councildis": "B",
    "status": "Pending",
    "rowid": "977756",
    "final_x": "3673007.13704",
    "final_y": "535293.007814",
    "longitude": "-90.09475899429067",
    "latitude": "29.966125324550838",
    "geocoded_column": {
      "latitude": "29.966125324550838",
      "longitude": "-90.09475899429067"
    }
  },
  {
    "service_request": "2023-977755",
    "request_type": "Trash/Recycling",
    "request_reason": "Order Recycling Cart",
    "date_created": "2023-02-24T15:57:57.000",
    "date_modified": "2023-02-24T15:57:58.000",
    "request_status": "Pending",
    "responsible_agency": "Department of Sanitation",
    "final_address": "7568 Shorewood Blvd",
    "address_councildis": "E",
    "status": "Pending",
    "rowid": "977755",
    "final_x": "3719990.17049",
    "final_y": "572630.074857",
    "longitude": "-89.94496093375021",
    "latitude": "30.06730733751172",
    "geocoded_column": {
      "latitude": "30.06730733751172",
      "longitude": "-89.94496093375021"
    }
  },
  {
    "service_request": "2023-977754",
    "request_type": "Abandoned Vehicles",
    "request_reason": "Vehicle Blocking Your Driveway",
    "date_created": "2023-02-24T15:51:46.000",
    "date_modified": "2023-02-24T15:51:46.000",
    "request_status": "Pending",
    "responsible_agency": "Department of Public Works",
    "final_address": "2723 Baronne St",
    "address_councildis": "B",
    "status": "Pending",
    "rowid": "977754",
    "final_x": "3675582.96718",
    "final_y": "523232.233147",
    "longitude": "-90.08703884202001",
    "latitude": "29.932885387283857",
    "geocoded_column": {
      "latitude": "29.932885387283857",
      "longitude": "-90.08703884202001"
    }
  },
  {
    "service_request": "2023-977753",
    "request_type": "Trash/Recycling",
    "request_reason": "Missed Trash Pick-Up",
    "date_created": "2023-02-24T15:49:08.000",
    "date_modified": "2023-02-24T15:49:09.000",
    "request_status": "Pending",
    "responsible_agency": "Department of Sanitation",
    "final_address": "5828 Magnolia St",
    "address_councildis": "A",
    "status": "Assigned to Contractor",
    "contractor": "Richards Disposal",
    "rowid": "977753",
    "final_x": "3666802.00109",
    "final_y": "524902.680572",
    "longitude": "-90.114703708006",
    "latitude": "29.937738278607156",
    "geocoded_column": {
      "latitude": "29.937738278607156",
      "longitude": "-90.114703708006"
    }
  },
  {
    "service_request": "2023-977752",
    "request_type": "Property Maintenance",
    "request_reason": "Property Maintenance",
    "date_created": "2023-02-24T15:45:10.000",
    "date_modified": "2023-02-24T15:45:10.000",
    "request_status": "Pending",
    "responsible_agency": "Department of Code Enforcement",
    "final_address": "6880 Parc Brittany Blvd",
    "address_councildis": "E",
    "status": "Pending",
    "rowid": "977752",
    "final_x": "3702661.06884",
    "final_y": "557779.036635",
    "longitude": "-90.00028714562029",
    "latitude": "30.02703881139196",
    "geocoded_column": {
      "latitude": "30.02703881139196",
      "longitude": "-90.00028714562029"
    }
  },
  {
    "service_request": "2023-977751",
    "request_type": "Trash/Recycling",
    "request_reason": "MIssed Recycling Pick-Up",
    "date_created": "2023-02-24T15:44:14.000",
    "date_modified": "2023-02-24T15:44:15.000",
    "request_status": "Pending",
    "responsible_agency": "Department of Sanitation",
    "final_address": "2118 Elysian Fields Ave, New Orleans, Louisiana, 70117",
    "address_councildis": "D",
    "status": "Assigned to Contractor",
    "contractor": "IV Waste",
    "rowid": "977751",
    "final_x": "3684484.62287",
    "final_y": "540227.920203",
    "longitude": "-90.05834001558696",
    "latitude": "29.97934849071494",
    "geocoded_column": {
      "latitude": "29.97934849071494",
      "longitude": "-90.05834001558696"
    }
  },
  {
    "service_request": "2023-977750",
    "request_type": "Trash/Recycling",
    "request_reason": "Repair Trash Cart",
    "date_created": "2023-02-24T15:43:32.000",
    "date_modified": "2023-02-24T15:43:32.000",
    "request_status": "Pending",
    "responsible_agency": "Department of Sanitation",
    "final_address": "16 Richmond Pl",
    "address_councildis": "A",
    "status": "Assigned to Contractor",
    "contractor": "Richards Disposal",
    "rowid": "977750",
    "final_x": "3666540.94132",
    "final_y": "524024.027836",
    "longitude": "-90.11555737849028",
    "latitude": "29.935329896184776",
    "geocoded_column": {
      "latitude": "29.935329896184776",
      "longitude": "-90.11555737849028"
    }
  },
  {
    "service_request": "2023-977749",
    "request_type": "Trash/Recycling",
    "request_reason": "Missed Trash Pick-Up",
    "date_created": "2023-02-24T15:39:43.000",
    "date_modified": "2023-02-24T15:39:44.000",
    "request_status": "Pending",
    "responsible_agency": "Department of Sanitation",
    "final_address": "5826 Clara St",
    "address_councildis": "A",
    "status": "Assigned to Contractor",
    "contractor": "Richards Disposal",
    "rowid": "977749",
    "final_x": "3666914.57978",
    "final_y": "525225.735933",
    "longitude": "-90.11433743670578",
    "latitude": "29.938623284611396",
    "geocoded_column": {
      "latitude": "29.938623284611396",
      "longitude": "-90.11433743670578"
    }
  },
  {
    "service_request": "2023-977748",
    "request_type": "Traffic Signals/Signs/Striping/Streetlights",
    "request_reason": "Street Light Outage/Malfunction",
    "date_created": "2023-02-24T15:38:08.000",
    "date_modified": "2023-02-24T15:38:08.000",
    "request_status": "Pending",
    "responsible_agency": "Department of Public Works",
    "final_address": "6727 Avenue A",
    "address_councildis": "A",
    "status": "Assigned to Contractor",
    "contractor": "Legacy Professional Services",
    "rowid": "977748",
    "final_x": "3666139.16378",
    "final_y": "552910.780567",
    "longitude": "-90.11585682529864",
    "latitude": "30.01477054299106",
    "geocoded_column": {
      "latitude": "30.01477054299106",
      "longitude": "-90.11585682529864"
    }
  },
  {
    "service_request": "2023-977747",
    "request_type": "Trash/Recycling",
    "request_reason": "Missed Trash Pick-Up",
    "date_created": "2023-02-24T15:34:01.000",
    "date_modified": "2023-02-24T15:34:02.000",
    "request_status": "Pending",
    "responsible_agency": "Department of Sanitation",
    "final_address": "3131 Urquhart St",
    "address_councildis": "C",
    "status": "Assigned to Contractor",
    "contractor": "IV Waste",
    "rowid": "977747",
    "final_x": "3689463.67535",
    "final_y": "536701.729031",
    "longitude": "-90.04273969161328",
    "latitude": "29.969499433001527",
    "geocoded_column": {
      "latitude": "29.969499433001527",
      "longitude": "-90.04273969161328"
    }
  },
  {
    "service_request": "2023-977746",
    "request_type": "Trash/Recycling",
    "request_reason": "Missed Trash Pick-Up",
    "date_created": "2023-02-24T15:33:21.000",
    "date_modified": "2023-02-24T15:57:13.000",
    "case_close_date": "2023-02-24T09:57:13.000",
    "request_status": "Closed",
    "responsible_agency": "Department of Sanitation",
    "final_address": "1630 Choctaw St",
    "address_councildis": "E",
    "status": "Assigned to Contractor",
    "contractor": "Waste Pro",
    "contractor_action": "Completed",
    "rowid": "977746",
    "final_x": "3697967.21879",
    "final_y": "536017.165383",
    "longitude": "-90.0159098072827",
    "latitude": "29.967351032143032",
    "geocoded_column": {
      "latitude": "29.967351032143032",
      "longitude": "-90.0159098072827"
    }
  },
  {
    "service_request": "2023-977745",
    "request_type": "Trash/Recycling",
    "request_reason": "Missed Trash Pick-Up",
    "date_created": "2023-02-24T15:32:53.000",
    "date_modified": "2023-02-24T15:32:54.000",
    "request_status": "Pending",
    "responsible_agency": "Department of Sanitation",
    "final_address": "1313 Congress St",
    "address_councildis": "D",
    "status": "Assigned to Contractor",
    "contractor": "IV Waste",
    "rowid": "977745",
    "final_x": "3690963.90492",
    "final_y": "536422.512263",
    "longitude": "-90.03801182735657",
    "latitude": "29.968685137644492",
    "geocoded_column": {
      "latitude": "29.968685137644492",
      "longitude": "-90.03801182735657"
    }
  },
  {
    "service_request": "2023-977744",
    "request_type": "Trash/Recycling",
    "request_reason": "Order Recycling Cart",
    "date_created": "2023-02-24T15:32:45.000",
    "date_modified": "2023-02-24T15:32:46.000",
    "request_status": "Pending",
    "responsible_agency": "Department of Sanitation",
    "final_address": "1929 Washington Ave",
    "address_councildis": "B",
    "status": "Pending",
    "rowid": "977744",
    "final_x": "3675214.03093",
    "final_y": "523675.187899",
    "longitude": "-90.08818835170085",
    "latitude": "29.934114397345276",
    "geocoded_column": {
      "latitude": "29.934114397345276",
      "longitude": "-90.08818835170085"
    }
  },
  {
    "service_request": "2023-977743",
    "request_type": "Trash/Recycling",
    "request_reason": "Order Trash Cart",
    "date_created": "2023-02-24T15:32:26.000",
    "date_modified": "2023-02-24T15:32:27.000",
    "request_status": "Pending",
    "responsible_agency": "Department of Sanitation",
    "final_address": "1929 Washington Ave",
    "address_councildis": "B",
    "status": "Assigned to Contractor",
    "contractor": "Richards Disposal",
    "rowid": "977743",
    "final_x": "3675214.03093",
    "final_y": "523675.187899",
    "longitude": "-90.08818835170085",
    "latitude": "29.934114397345276",
    "geocoded_column": {
      "latitude": "29.934114397345276",
      "longitude": "-90.08818835170085"
    }
  },
  {
    "service_request": "2023-977742",
    "request_type": "Property Maintenance",
    "request_reason": "Property Maintenance",
    "date_created": "2023-02-24T15:32:08.000",
    "date_modified": "2023-02-24T15:32:08.000",
    "request_status": "Pending",
    "responsible_agency": "Department of Code Enforcement",
    "final_address": "7210 Chadbourne Dr",
    "address_councildis": "E",
    "status": "Pending",
    "rowid": "977742",
    "final_x": "3700882.43556",
    "final_y": "557373.398107",
    "longitude": "-90.00592226920955",
    "latitude": "30.025980237631984",
    "geocoded_column": {
      "latitude": "30.025980237631984",
      "longitude": "-90.00592226920955"
    }
  },
  {
    "service_request": "2023-977741",
    "request_type": "Roads/Drainage",
    "request_reason": "Accessibility Ramps, Curbs and Sidewalk Repair",
    "date_created": "2023-02-24T15:30:18.000",
    "date_modified": "2023-02-24T15:30:18.000",
    "request_status": "Pending",
    "responsible_agency": "Department of Public Works",
    "final_address": "8555 Fordham Ct",
    "address_councildis": "E",
    "status": "Pending",
    "rowid": "977741",
    "final_x": "3705192.43185",
    "final_y": "560527.454686",
    "longitude": "-89.99218669339425",
    "latitude": "30.034514669502943",
    "geocoded_column": {
      "latitude": "30.034514669502943",
      "longitude": "-89.99218669339425"
    }
  },
  {
    "service_request": "2023-977740",
    "request_type": "Abandoned Vehicles",
    "request_reason": "Abandoned/Junk Vehicles",
    "date_created": "2023-02-24T15:26:07.000",
    "date_modified": "2023-02-24T15:26:08.000",
    "request_status": "Pending",
    "responsible_agency": "Department of Public Works",
    "final_address": "4400 BLK Lancelot Dr",
    "address_councildis": "E",
    "status": "Pending",
    "rowid": "977740",
    "final_x": "3707606.50437",
    "final_y": "553921.932298",
    "longitude": "-89.98480361705609",
    "latitude": "30.0162741496338",
    "geocoded_column": {
      "latitude": "30.0162741496338",
      "longitude": "-89.98480361705609"
    }
  },
  {
    "service_request": "2023-977739",
    "request_type": "Roads/Drainage",
    "request_reason": "Pothole",
    "date_created": "2023-02-24T15:26:01.000",
    "date_modified": "2023-02-24T15:26:01.000",
    "request_status": "Pending",
    "responsible_agency": "Department of Public Works",
    "final_address": "7071 Yorktown Dr",
    "address_councildis": "E",
    "status": "Pending",
    "rowid": "977739",
    "final_x": "3706121.88004",
    "final_y": "560767.23619",
    "longitude": "-89.98924064131506",
    "latitude": "30.03514402921631",
    "geocoded_column": {
      "latitude": "30.03514402921631",
      "longitude": "-89.98924064131506"
    }
  },
  {
    "service_request": "2023-977738",
    "request_type": "Property Maintenance",
    "request_reason": "Property Maintenance",
    "date_created": "2023-02-24T15:25:07.000",
    "date_modified": "2023-02-24T15:25:07.000",
    "request_status": "Pending",
    "responsible_agency": "Department of Code Enforcement",
    "final_address": "6800 S Interstate 10 Service Rd",
    "address_councildis": "E",
    "status": "Pending",
    "rowid": "977738",
    "final_x": "3699572.72151",
    "final_y": "556889.258906",
    "longitude": "-90.01007843819505",
    "latitude": "30.02469069419991",
    "geocoded_column": {
      "latitude": "30.02469069419991",
      "longitude": "-90.01007843819505"
    }
  },
  {
    "service_request": "2023-977737",
    "request_type": "Trash/Recycling",
    "request_reason": "Repair Trash Cart",
    "date_created": "2023-02-24T15:22:19.000",
    "date_modified": "2023-02-24T15:22:20.000",
    "request_status": "Pending",
    "responsible_agency": "Department of Sanitation",
    "final_address": "2416 Constance St",
    "address_councildis": "B",
    "status": "Assigned to Contractor",
    "contractor": "Richards Disposal",
    "rowid": "977737",
    "final_x": "3678166.28226",
    "final_y": "521069.634553",
    "longitude": "-90.07895824667936",
    "latitude": "29.926861434982772",
    "geocoded_column": {
      "latitude": "29.926861434982772",
      "longitude": "-90.07895824667936"
    }
  },
  {
    "service_request": "2023-977736",
    "request_type": "Roads/Drainage",
    "request_reason": "Street Flooding / Drainage",
    "date_created": "2023-02-24T15:19:40.000",
    "date_modified": "2023-02-24T15:19:40.000",
    "request_status": "Pending",
    "responsible_agency": "Department of Public Works",
    "final_address": "6600 Franklin Ave",
    "address_councildis": "D",
    "status": "Pending",
    "rowid": "977736",
    "final_x": "3685596.64431",
    "final_y": "557999.040667",
    "longitude": "-90.054201246174",
    "latitude": "30.028178567309073",
    "geocoded_column": {
      "latitude": "30.028178567309073",
      "longitude": "-90.054201246174"
    }
  },
  {
    "service_request": "2023-977735",
    "request_type": "Trash/Recycling",
    "request_reason": "Replace Trash Cart",
    "date_created": "2023-02-24T15:18:07.000",
    "date_modified": "2023-02-24T15:18:08.000",
    "request_status": "Pending",
    "responsible_agency": "Department of Sanitation",
    "final_address": "5818 Eads St",
    "address_councildis": "D",
    "status": "Assigned to Contractor",
    "contractor": "IV Waste",
    "rowid": "977735",
    "final_x": "3686771.4045",
    "final_y": "554645.606616",
    "longitude": "-90.05060770692445",
    "latitude": "30.018921758224337",
    "geocoded_column": {
      "latitude": "30.018921758224337",
      "longitude": "-90.05060770692445"
    }
  },
  {
    "service_request": "2023-977734",
    "request_type": "Trash/Recycling",
    "request_reason": "Repair Trash Cart",
    "date_created": "2023-02-24T15:15:43.000",
    "date_modified": "2023-02-24T15:15:43.000",
    "request_status": "Pending",
    "responsible_agency": "Department of Sanitation",
    "final_address": "2468 N Prieur St",
    "address_councildis": "D",
    "status": "Assigned to Contractor",
    "contractor": "IV Waste",
    "rowid": "977734",
    "final_x": "3686876.35081",
    "final_y": "539387.308938",
    "longitude": "-90.0508157288439",
    "latitude": "29.976963712507114",
    "geocoded_column": {
      "latitude": "29.976963712507114",
      "longitude": "-90.0508157288439"
    }
  },
  {
    "service_request": "2023-977733",
    "request_type": "Roads/Drainage",
    "request_reason": "Leaking Hydrant",
    "date_created": "2023-02-24T15:14:12.000",
    "date_modified": "2023-02-24T15:14:12.000",
    "request_status": "Pending",
    "responsible_agency": "Department of Public Works",
    "final_address": "5505 Franklin Ave",
    "address_councildis": "D",
    "status": "Pending",
    "rowid": "977733",
    "final_x": "3686673.01519",
    "final_y": "553342.029847",
    "longitude": "-90.0509646778625",
    "latitude": "30.015340430859602",
    "geocoded_column": {
      "latitude": "30.015340430859602",
      "longitude": "-90.0509646778625"
    }
  },
  {
    "service_request": "2023-977732",
    "request_type": "Trash/Recycling",
    "request_reason": "Request a Large Item Pick Up",
    "date_created": "2023-02-24T15:13:03.000",
    "date_modified": "2023-02-24T15:13:05.000",
    "request_status": "Pending",
    "responsible_agency": "Department of Sanitation",
    "final_address": "4957 Corinne St",
    "address_councildis": "E",
    "status": "Assigned to Contractor",
    "contractor": "Waste Pro",
    "rowid": "977732",
    "final_x": "3715009.80434",
    "final_y": "557851.752987",
    "longitude": "-89.96126400177687",
    "latitude": "30.026837952926996",
    "geocoded_column": {
      "latitude": "30.026837952926996",
      "longitude": "-89.96126400177687"
    }
  },
  {
    "service_request": "2023-977731",
    "request_type": "Trash/Recycling",
    "request_reason": "Order Trash Cart",
    "date_created": "2023-02-24T15:12:30.000",
    "date_modified": "2023-02-24T15:12:31.000",
    "request_status": "Pending",
    "responsible_agency": "Department of Sanitation",
    "final_address": "2543 Palmyra St",
    "address_councildis": "B",
    "status": "Assigned to Contractor",
    "contractor": "Richards Disposal",
    "rowid": "977731",
    "final_x": "3675420.99739",
    "final_y": "534145.156293",
    "longitude": "-90.08717549431296",
    "latitude": "29.9628971549209",
    "geocoded_column": {
      "latitude": "29.9628971549209",
      "longitude": "-90.08717549431296"
    }
  },
  {
    "service_request": "2023-977730",
    "request_type": "Trash/Recycling",
    "request_reason": "Request a Large Item Pick Up",
    "date_created": "2023-02-24T15:11:45.000",
    "date_modified": "2023-02-24T15:11:46.000",
    "request_status": "Pending",
    "responsible_agency": "Department of Sanitation",
    "final_address": "121 S. Murat Street, New Orleans, LA 70119",
    "address_councildis": "A",
    "status": "Assigned to Contractor",
    "contractor": "Richards Disposal",
    "rowid": "977730",
    "final_x": "3669507.60257",
    "final_y": "539246.73345",
    "longitude": "-90.10567669999202",
    "latitude": "29.97710029244941",
    "geocoded_column": {
      "latitude": "29.97710029244941",
      "longitude": "-90.10567669999202"
    }
  },
  {
    "service_request": "2023-977729",
    "request_type": "Trash/Recycling",
    "request_reason": "Repair Recycling Cart",
    "date_created": "2023-02-24T15:03:08.000",
    "date_modified": "2023-02-24T15:03:09.000",
    "request_status": "Pending",
    "responsible_agency": "Department of Sanitation",
    "final_address": "116 Alden Pl",
    "address_councildis": "D",
    "status": "Pending",
    "rowid": "977729",
    "final_x": "3678656.06024",
    "final_y": "544047.449934",
    "longitude": "-90.07661661140169",
    "latitude": "29.990027909207633",
    "geocoded_column": {
      "latitude": "29.990027909207633",
      "longitude": "-90.07661661140169"
    }
  },
  {
    "service_request": "2023-977728",
    "request_type": "Traffic Signals/Signs/Striping/Streetlights",
    "request_reason": "Street Light Outage/Malfunction",
    "date_created": "2023-02-24T15:03:04.000",
    "date_modified": "2023-02-24T15:03:05.000",
    "request_status": "Pending",
    "responsible_agency": "Department of Public Works",
    "final_address": "6537 Marshal Foch St",
    "address_councildis": "A",
    "status": "Assigned to Contractor",
    "contractor": "Legacy Professional Services",
    "rowid": "977728",
    "final_x": "3670253.28506",
    "final_y": "550878.484501",
    "longitude": "-90.1029271057722",
    "latitude": "30.009061608112315",
    "geocoded_column": {
      "latitude": "30.009061608112315",
      "longitude": "-90.1029271057722"
    }
  },
  {
    "service_request": "2023-977727",
    "request_type": "Trash/Recycling",
    "request_reason": "Missed Trash Pick-Up",
    "date_created": "2023-02-24T15:02:40.000",
    "date_modified": "2023-02-24T15:24:08.000",
    "case_close_date": "2023-02-24T09:24:08.000",
    "request_status": "Closed",
    "responsible_agency": "Department of Sanitation",
    "final_address": "1442 Lesseps St",
    "address_councildis": "D",
    "status": "Assigned to Contractor",
    "contractor": "IV Waste",
    "contractor_action": "Completed",
    "rowid": "977727",
    "final_x": "3693011.68048",
    "final_y": "536540.114823",
    "longitude": "-90.03154064288901",
    "latitude": "29.96894469189437",
    "geocoded_column": {
      "latitude": "29.96894469189437",
      "longitude": "-90.03154064288901"
    }
  },
  {
    "service_request": "2023-977726",
    "request_type": "Trash/Recycling",
    "request_reason": "Replace Recycling Cart",
    "date_created": "2023-02-24T15:00:28.000",
    "date_modified": "2023-02-24T15:00:29.000",
    "request_status": "Pending",
    "responsible_agency": "Department of Sanitation",
    "final_address": "3020 Cadiz St",
    "address_councildis": "B",
    "status": "Pending",
    "rowid": "977726",
    "final_x": "3669483.12295",
    "final_y": "526012.869054",
    "longitude": "-90.10620163610217",
    "latitude": "29.940712260754378",
    "geocoded_column": {
      "latitude": "29.940712260754378",
      "longitude": "-90.10620163610217"
    }
  },