[
  {
    "service_request": "2026-1254340",
    "request_type": "Streetlights",
    "request_reason": "Streetlight Outage/Malfunction",
    "date_created": "2026-01-24T23:12:57.000",
    "date_modified": "2026-01-24T23:12:59.000",
    "request_status": "Pending",
    "responsible_agency": "Department of Public Works",
    "final_address": "2600 BLK S Claiborne Ave",
    "address_councildis": "B",
    "status": "Pending",
    "rowid": "1254340",
    "final_x": "3673586.21086",
    "final_y": "526909.824249",
    "longitude": "-90.09321681074977",
    "latitude": "29.943057130692832",
    "geocoded_column": {
      "latitude": "29.943057130692832",
      "longitude": "-90.09321681074977"
    }
  },
  {
    "service_request": "2026-1254339",
    "request_type": "Street and Traffic Signs",
    "request_reason": "Street Name Sign Damaged or Missing",
    "date_created": "2026-01-24T22:52:19.000",
    "date_modified": "2026-01-24T22:52:21.000",
    "request_status": "Pending",
    "responsible_agency": "Department of Public Works",
    "final_address": "ST ROCH AVE & BURGUNDY ST",
    "address_councildis": "C",
    "status": "Pending",
    "rowid": "1254339",
    "final_x": "3686549.2",
    "final_y": "535704.58",
    "longitude": "-90.05197904128819",
    "latitude": "29.966847560382202",
    "geocoded_column": {
      "latitude": "29.966847560382202",
      "longitude": "-90.05197904128819"
    }
  },
  {
    "service_request": "2026-1254338",
    "request_type": "Trash/Recycling",
    "request_reason": "Request a Large Item Pick Up",
    "date_created": "2026-01-24T22:50:36.000",
    "date_modified": "2026-01-24T22:50:39.000",
    "request_status": "Pending",
    "responsible_agency": "Department of Sanitation",
    "final_address": "8000 Windward Ct",
    "address_councildis": "E",
    "status": "Assigned to Contractor",
    "contractor": "Waste Pro",
    "rowid": "1254338",
    "final_x": "3714962.94712",
    "final_y": "570508.440871",
    "longitude": "-89.96093305009403",
    "latitude": "30.061640252845887",
    "geocoded_column": {
      "latitude": "30.061640252845887",
      "longitude": "-89.96093305009403"
    }
  },
  {
    "service_request": "2026-1254337",
    "request_type": "General Services",
    "request_reason": "General Service Request",
    "date_created": "2026-01-24T22:15:44.000",
    "date_modified": "2026-01-24T22:15:46.000",
    "request_status": "Pending",
    "responsible_agency": "Orleans Parish Communication District",
    "final_address": "933 Royal St",
    "address_councildis": "C",
    "status": "Pending",
    "rowid": "1254337",
    "final_x": "3683135.44021",
    "final_y": "533286.22554",
    "longitude": "-90.06284435849595",
    "latitude": "29.960302442893084",
    "geocoded_column": {
      "latitude": "29.960302442893084",
      "longitude": "-90.06284435849595"
    }
  },
  {
    "service_request": "2026-1254336",
    "request_type": "Trash/Recycling",
    "request_reason": "Request a Large Item Pick Up",
    "date_created": "2026-01-24T21:35:18.000",
    "date_modified": "2026-01-24T21:35:20.000",
    "request_status": "Pending",
    "responsible_agency": "Department of Sanitation",
    "final_address": "1823 Murl St",
    "address_councildis": "C",
    "status": "Assigned to Contractor",
    "contractor": "Richards Disposal",
    "rowid": "1254336",
    "final_x": "3695298.31818",
    "final_y": "524542.925244",
    "longitude": "-90.02475201647124",
    "latitude": "29.93588498549612",
    "geocoded_column": {
      "latitude": "29.93588498549612",
      "longitude": "-90.02475201647124"
    }
  },
  {
    "service_request": "2026-1254335",
    "request_type": "General Services",
    "request_reason": "General Service Request",
    "date_created": "2026-01-24T21:20:42.000",
    "date_modified": "2026-01-24T21:20:44.000",
    "request_status": "Pending",
    "responsible_agency": "Orleans Parish Communication District",
    "final_address": "5769 Warrington Dr",
    "address_councildis": "D",
    "status": "Pending",
    "rowid": "1254335",
    "final_x": "3680829.62299",
    "final_y": "554464.313944",
    "longitude": "-90.06938795480225",
    "latitude": "30.018604825870657",
    "geocoded_column": {
      "latitude": "30.018604825870657",
      "longitude": "-90.06938795480225"
    }
  },
  {
    "service_request": "2026-1254334",
    "request_type": "Trash/Recycling",
    "request_reason": "Illegal Dumping",
    "date_created": "2026-01-24T21:18:50.000",
    "date_modified": "2026-01-24T21:18:51.000",
    "request_status": "Pending",
    "responsible_agency": "Department of Sanitation",
    "final_address": "2558 Esplanade Ave",
    "address_councildis": "D",
    "status": "Pending",
    "rowid": "1254334",
    "final_x": "3678222.21448",
    "final_y": "538721.740169",
    "longitude": "-90.07817128958183",
    "latitude": "29.975397132337815",
    "geocoded_column": {
      "latitude": "29.975397132337815",
      "longitude": "-90.07817128958183"
    }
  },
  {
    "service_request": "2026-1254333",
    "request_type": "General Services",
    "request_reason": "General Service Request",
    "date_created": "2026-01-24T21:17:24.000",
    "date_modified": "2026-01-24T21:17:25.000",
    "request_status": "Pending",
    "responsible_agency": "Orleans Parish Communication District",
    "final_address": "2558 Esplanade Ave",
    "address_councildis": "D",
    "status": "Pending",
    "rowid": "1254333",
    "final_x": "3678222.21448",
    "final_y": "538721.740169",
    "longitude": "-90.07817128958183",
    "latitude": "29.975397132337815",
    "geocoded_column": {
      "latitude": "29.975397132337815",
      "longitude": "-90.07817128958183"
    }
  },
  {
    "service_request": "2026-1254332",
    "request_type": "Street and Traffic Signs",
    "request_reason": "Street Name Sign Damaged or Missing",
    "date_created": "2026-01-24T20:55:54.000",
    "date_modified": "2026-01-24T20:55:56.000",
    "request_status": "Pending",
    "responsible_agency": "Department of Public Works",
    "final_address": "DAUPHINE ST & FRENCHMEN ST",
    "address_councildis": "C",
    "status": "Pending",
    "rowid": "1254332",
    "final_x": "3684680.1",
    "final_y": "535194.48",
    "longitude": "-90.05789957847277",
    "latitude": "29.965502301424035",
    "geocoded_column": {
      "latitude": "29.965502301424035",
      "longitude": "-90.05789957847277"
    }
  },
  {
    "service_request": "2026-1254331",
    "request_type": "Street and Traffic Signs",
    "request_reason": "Street Name Sign Damaged or Missing",
    "date_created": "2026-01-24T20:54:49.000",
    "date_modified": "2026-01-24T20:54:50.000",
    "request_status": "Pending",
    "responsible_agency": "Department of Public Works",
    "final_address": "BURGUNDY ST & FRENCHMEN ST",
    "address_councildis": "C",
    "status": "Pending",
    "rowid": "1254331",
    "final_x": "3684651.7",
    "final_y": "535550.98",
    "longitude": "-90.05797673365942",
    "latitude": "29.966483422338076",
    "geocoded_column": {
      "latitude": "29.966483422338076",
      "longitude": "-90.05797673365942"
    }
  },
  {
    "service_request": "2026-1254330",
    "request_type": "General Services",
    "request_reason": "General Service Request",
    "date_created": "2026-01-24T20:42:41.000",
    "date_modified": "2026-01-24T20:42:43.000",
    "request_status": "Pending",
    "responsible_agency": "Orleans Parish Communication District",
    "final_address": "1000 BLK Kentucky St",
    "address_councildis": "C",
    "status": "Pending",
    "rowid": "1254330",
    "final_x": "3693260.84179",
    "final_y": "534708.362458",
    "longitude": "-90.03081953607649",
    "latitude": "29.96390023418378",
    "geocoded_column": {
      "latitude": "29.96390023418378",
      "longitude": "-90.03081953607649"
    }
  },
  {
    "service_request": "2026-1254329",
    "request_type": "Drainage",
    "request_reason": "Catch Basin Not Draining",
    "date_created": "2026-01-24T19:13:22.000",
    "date_modified": "2026-01-24T19:13:24.000",
    "request_status": "Pending",
    "responsible_agency": "Sewerage & Water Board",
    "final_address": "3125 Esplanade Ave",
    "address_councildis": "A",
    "status": "Pending",
    "rowid": "1254329",
    "final_x": "3676360.85077",
    "final_y": "540481.313675",
    "longitude": "-90.08398939135179",
    "latitude": "29.980291287751943",
    "geocoded_column": {
      "latitude": "29.980291287751943",
      "longitude": "-90.08398939135179"
    }
  },
  {
    "service_request": "2026-1254328",
    "request_type": "Trash/Recycling",
    "request_reason": "Order Trash Cart",
    "date_created": "2026-01-24T19:01:24.000",
    "date_modified": "2026-01-24T19:01:25.000",
    "request_status": "Pending",
    "responsible_agency": "Department of Sanitation",
    "final_address": "2216 Baronne St",
    "address_councildis": "B",
    "status": "Assigned to Contractor",
    "contractor": "IV Waste",
    "rowid": "1254328",
    "final_x": "3676915.01384",
    "final_y": "524368.98246",
    "longitude": "-90.0827945028432",
    "latitude": "29.935971170604425",
    "geocoded_column": {
      "latitude": "29.935971170604425",
      "longitude": "-90.0827945028432"
    }
  },
  {
    "service_request": "2026-1254327",
    "request_type": "Streetlights",
    "request_reason": "Streetlight Outage/Malfunction",
    "date_created": "2026-01-24T18:58:30.000",
    "date_modified": "2026-01-24T18:58:33.000",
    "request_status": "Pending",
    "responsible_agency": "Department of Public Works",
    "final_address": "1716 Marengo St",
    "address_councildis": "B",
    "status": "Pending",
    "rowid": "1254327",
    "final_x": "3671805.66343",
    "final_y": "521504.600889",
    "longitude": "-90.09902228300098",
    "latitude": "29.92824738311538",
    "geocoded_column": {
      "latitude": "29.92824738311538",
      "longitude": "-90.09902228300098"
    }
  },
  {
    "service_request": "2026-1254326",
    "request_type": "Mosquito, Termite & Rodent Control",
    "request_reason": "Mosquito Complaint",
    "date_created": "2026-01-24T18:34:17.000",
    "date_modified": "2026-01-24T18:34:19.000",
    "request_status": "Pending",
    "responsible_agency": "Mosquito, Termite & Rodent Control Board",
    "final_address": "3132 Nashville Ave",
    "address_councildis": "A",
    "status": "Pending",
    "rowid": "1254326",
    "final_x": "3667786.69037",
    "final_y": "527453.623295",
    "longitude": "-90.11150908058728",
    "latitude": "29.94472371617843",
    "geocoded_column": {
      "latitude": "29.94472371617843",
      "longitude": "-90.11150908058728"
    }
  },
  {
    "service_request": "2026-1254325",
    "request_type": "Streetlights",
    "request_reason": "Streetlight Outage/Malfunction",
    "date_created": "2026-01-24T18:23:50.000",
    "date_modified": "2026-01-24T18:23:52.000",
    "request_status": "Pending",
    "responsible_agency": "Department of Public Works",
    "final_address": "3123 State Street Dr",
    "address_councildis": "A",
    "status": "Pending",
    "rowid": "1254325",
    "final_x": "3667472.94548",
    "final_y": "527579.363583",
    "longitude": "-90.11249544066442",
    "latitude": "29.94507865658494",
    "geocoded_column": {
      "latitude": "29.94507865658494",
      "longitude": "-90.11249544066442"
    }
  },
  {
    "service_request": "2026-1254324",
    "request_type": "Roads and Streets",
    "request_reason": "Road Shoulder Damage",
    "date_created": "2026-01-24T18:11:14.000",
    "date_modified": "2026-01-24T18:11:16.000",
    "request_status": "Pending",
    "responsible_agency": "Department of Public Works",
    "final_address": "4500 Magazine St",
    "address_councildis": "B",
    "status": "Pending",
    "rowid": "1254324",
    "final_x": "3670622.99195",
    "final_y": "518710.399927",
    "longitude": "-90.10285044646265",
    "latitude": "29.920599198235752",
    "geocoded_column": {
      "latitude": "29.920599198235752",
      "longitude": "-90.10285044646265"
    }
  },
  {
    "service_request": "2026-1254323",
    "request_type": "Healthy Homes",
    "request_reason": "Healthy Homes",
    "date_created": "2026-01-24T18:01:38.000",
    "date_modified": "2026-01-24T18:01:40.000",
    "request_status": "Pending",
    "responsible_agency": "Department of Code Enforcement",
    "final_address": "4514 St Claude Ave",
    "address_councildis": "C",
    "status": "Pending",
    "rowid": "1254323",
    "final_x": "3693441.35056",
    "final_y": "534850.664646",
    "longitude": "-90.03024439841478",
    "latitude": "29.964285871775576",
    "geocoded_column": {
      "latitude": "29.964285871775576",
      "longitude": "-90.03024439841478"
    }
  },
  {
    "service_request": "2026-1254322",
    "request_type": "Trash/Recycling",
    "request_reason": "Order Trash Cart",
    "date_created": "2026-01-24T17:56:50.000",
    "date_modified": "2026-01-24T17:56:53.000",
    "request_status": "Pending",
    "responsible_agency": "Department of Sanitation",
    "final_address": "1024 Charbonnet St",
    "address_councildis": "E",
    "status": "Assigned to Contractor",
    "contractor": "Waste Pro",
    "rowid": "1254322",
    "final_x": "3698527.15159",
    "final_y": "533420.847556",
    "longitude": "-90.01423593118689",
    "latitude": "29.960194370990365",
    "geocoded_column": {
      "latitude": "29.960194370990365",
      "longitude": "-90.01423593118689"
    }
  },
  {
    "service_request": "2026-1254321",
    "request_type": "Abandoned Vehicles",
    "request_reason": "Abandoned/Junk Vehicles",
    "date_created": "2026-01-24T17:15:20.000",
    "date_modified": "2026-01-24T17:15:23.000",
    "request_status": "Pending",
    "responsible_agency": "Department of Public Works",
    "final_address": "4774 Eunice Dr",
    "address_councildis": "E",
    "status": "Pending",
    "rowid": "1254321",
    "final_x": "3710447.44638",
    "final_y": "556005.179417",
    "longitude": "-89.97574958215873",
    "latitude": "30.02191002691221",
    "geocoded_column": {
      "latitude": "30.02191002691221",
      "longitude": "-89.97574958215873"
    }
  },
  {
    "service_request": "2026-1254320",
    "request_type": "Abandoned Vehicles",
    "request_reason": "Abandoned/Junk Vehicles",
    "date_created": "2026-01-24T17:05:44.000",
    "date_modified": "2026-01-24T17:05:47.000",
    "request_status": "Pending",
    "responsible_agency": "Department of Public Works",
    "final_address": "4774 Eunice Dr",
    "address_councildis": "E",
    "status": "Pending",
    "rowid": "1254320",
    "final_x": "3710447.44638",
    "final_y": "556005.179417",
    "longitude": "-89.97574958215873",
    "latitude": "30.02191002691221",
    "geocoded_column": {
      "latitude": "30.02191002691221",
      "longitude": "-89.97574958215873"
    }
  },
  {
    "service_request": "2026-1254319",
    "request_type": "Abandoned Vehicles",
    "request_reason": "Abandoned/Junk Vehicles",
    "date_created": "2026-01-24T16:57:14.000",
    "date_modified": "2026-01-24T16:57:16.000",
    "request_status": "Pending",
    "responsible_agency": "Department of Public Works",
    "final_address": "4774 Eunice Dr",
    "address_councildis": "E",
    "status": "Pending",
    "rowid": "1254319",
    "final_x": "3710447.44638",
    "final_y": "556005.179417",
    "longitude": "-89.97574958215873",
    "latitude": "30.02191002691221",
    "geocoded_column": {
      "latitude": "30.02191002691221",
      "longitude": "-89.97574958215873"
    }
  },
  {
    "service_request": "2026-1254318",
    "request_type": "Trash/Recycling",
    "request_reason": "Replace Trash Cart",
    "date_created": "2026-01-24T16:31:53.000",
    "date_modified": "2026-01-24T16:31:55.000",
    "request_status": "Pending",
    "responsible_agency": "Department of Sanitation",
    "final_address": "3219 De Soto St",
    "address_councildis": "A",
    "status": "Assigned to Contractor",
    "contractor": "IV Waste",
    "rowid": "1254318",
    "final_x": "3675880.23701",
    "final_y": "540064.189323",
    "longitude": "-90.0855217222257",
    "latitude": "29.97915873944059",
    "geocoded_column": {
      "latitude": "29.97915873944059",
      "longitude": "-90.0855217222257"
    }
  },
  {
    "service_request": "2026-1254317",
    "request_type": "Streetlights",
    "request_reason": "Streetlight Outage/Malfunction",
    "date_created": "2026-01-24T16:26:26.000",
    "date_modified": "2026-01-24T16:26:29.000",
    "request_status": "Pending",
    "responsible_agency": "Department of Public Works",
    "final_address": "0 BLK Across St",
    "address_councildis": "E",
    "status": "Pending",
    "rowid": "1254317",
    "final_x": "3711887.63918",
    "final_y": "553972.247814",
    "longitude": "-89.97127534652184",
    "latitude": "30.01627326470007",
    "geocoded_column": {
      "latitude": "30.01627326470007",
      "longitude": "-89.97127534652184"
    }
  },
  {
    "service_request": "2026-1254316",
    "request_type": "General Services",
    "request_reason": "General Service Request",
    "date_created": "2026-01-24T15:53:07.000",
    "date_modified": "2026-01-24T15:53:09.000",
    "request_status": "Pending",
    "responsible_agency": "Orleans Parish Communication District",
    "final_address": "7744 St Charles Ave",
    "address_councildis": "A",
    "status": "Pending",
    "rowid": "1254316",
    "final_x": "3661392.67366",
    "final_y": "525997.454014",
    "longitude": "-90.13174522285735",
    "latitude": "29.940905637962846",
    "geocoded_column": {
      "latitude": "29.940905637962846",
      "longitude": "-90.13174522285735"
    }
  },
  {
    "service_request": "2026-1254315",
    "request_type": "Abandoned Vehicles",
    "request_reason": "Abandoned/Junk Vehicles",
    "date_created": "2026-01-24T15:50:03.000",
    "date_modified": "2026-01-24T15:50:06.000",
    "request_status": "Pending",
    "responsible_agency": "Department of Public Works",
    "final_address": "2110 Royal St",
    "address_councildis": "C",
    "status": "Pending",
    "rowid": "1254315",
    "final_x": "3684809.73826",
    "final_y": "534800.66823",
    "longitude": "-90.05750403441212",
    "latitude": "29.96441548673089",
    "geocoded_column": {
      "latitude": "29.96441548673089",
      "longitude": "-90.05750403441212"
    }
  },
  {
    "service_request": "2026-1254314",
    "request_type": "Streetlights",
    "request_reason": "Streetlight Outage/Malfunction",
    "date_created": "2026-01-24T15:42:48.000",
    "date_modified": "2026-01-24T15:42:49.000",
    "request_status": "Pending",
    "responsible_agency": "Department of Public Works",
    "final_address": "2100 BLK State St",
    "address_councildis": "A",
    "status": "Pending",
    "rowid": "1254314",
    "final_x": "3666430.69368",
    "final_y": "524551.150817",
    "longitude": "-90.1158877505877",
    "latitude": "29.936782537310712",
    "geocoded_column": {
      "latitude": "29.936782537310712",
      "longitude": "-90.1158877505877"
    }
  },
  {
    "service_request": "2026-1254313",
    "request_type": "Trash/Recycling",
    "request_reason": "Request a Large Item Pick Up",
    "date_created": "2026-01-24T15:41:25.000",
    "date_modified": "2026-01-24T15:41:27.000",
    "request_status": "Pending",
    "responsible_agency": "Department of Sanitation",
    "final_address": "30 Dove St",
    "address_councildis": "D",
    "status": "Assigned to Contractor",
    "contractor": "IV Waste",
    "rowid": "1254313",
    "final_x": "3673637.14024",
    "final_y": "554893.200856",
    "longitude": "-90.0920989554618",
    "latitude": "30.020000301446665",
    "geocoded_column": {
      "latitude": "30.020000301446665",
      "longitude": "-90.0920989554618"
    }
  },
  {
    "service_request": "2026-1254312",
    "request_type": "Trash/Recycling",
    "request_reason": "Illegal Dumping",
    "date_created": "2026-01-24T15:29:00.000",
    "date_modified": "2026-01-24T15:29:02.000",
    "request_status": "Pending",
    "responsible_agency": "Department of Sanitation",
    "final_address": "4518 St Claude Ave",
    "address_councildis": "C",
    "status": "Pending",
    "rowid": "1254312",
    "final_x": "3693488.77744",
    "final_y": "534789.894214",
    "longitude": "-90.03009681156085",
    "latitude": "29.964117291392498",
    "geocoded_column": {
      "latitude": "29.964117291392498",
      "longitude": "-90.03009681156085"
    }
  },
  {
    "service_request": "2026-1254311",
    "request_type": "Trash/Recycling",
    "request_reason": "Order Recycling Cart",
    "date_created": "2026-01-24T15:27:39.000",
    "date_modified": "2026-01-24T15:27:40.000",
    "request_status": "Pending",
    "responsible_agency": "Department of Sanitation",
    "final_address": "3302 Conti St",
    "address_councildis": "B",
    "status": "Pending",
    "rowid": "1254311",
    "final_x": "3674230.15291",
    "final_y": "537385.133512",
    "longitude": "-90.09082509073505",
    "latitude": "29.97184155540839",
    "geocoded_column": {
      "latitude": "29.97184155540839",
      "longitude": "-90.09082509073505"
    }
  },
  {
    "service_request": "2026-1254310",
    "request_type": "General Services",
    "request_reason": "General Service Request",
    "date_created": "2026-01-24T15:27:08.000",
    "date_modified": "2026-01-24T15:27:20.000",
    "request_status": "Pending",
    "responsible_agency": "Orleans Parish Communication District",
    "final_address": "4518 St Claude Ave",
    "address_councildis": "C",
    "status": "Pending",
    "rowid": "1254310",
    "final_x": "3693488.77744",
    "final_y": "534789.894214",
    "longitude": "-90.03009681156085",
    "latitude": "29.964117291392498",
    "geocoded_column": {
      "latitude": "29.964117291392498",
      "longitude": "-90.03009681156085"
    }
  },
  {
    "service_request": "2026-1254309",
    "request_type": "Drainage",
    "request_reason": "Illegal Dumping (Catch Basin)",
    "date_created": "2026-01-24T15:25:34.000",
    "date_modified": "2026-01-24T15:25:36.000",
    "request_status": "Pending",
    "responsible_agency": "Sewerage & Water Board",
    "final_address": "4518 St Claude Ave",
    "address_councildis": "C",
    "status": "Pending",
    "rowid": "1254309",
    "final_x": "3693488.77744",
    "final_y": "534789.894214",
    "longitude": "-90.03009681156085",
    "latitude": "29.964117291392498",
    "geocoded_column": {
      "latitude": "29.964117291392498",
      "longitude": "-90.03009681156085"
    }
  },
  {
    "service_request": "2026-1254308",
    "request_type": "Alley Ways",
    "request_reason": "Alley Way Issues",
    "date_created": "2026-01-24T15:22:22.000",
    "date_modified": "2026-01-24T15:22:24.000",
    "request_status": "Pending",
    "responsible_agency": "Department of Public Works",
    "final_address": "4518 St Claude Ave",
    "address_councildis": "C",
    "status": "Pending",
    "rowid": "1254308",
    "final_x": "3693488.77744",
    "final_y": "534789.894214",
    "longitude": "-90.03009681156085",
    "latitude": "29.964117291392498",
    "geocoded_column": {
      "latitude": "29.964117291392498",
      "longitude": "-90.03009681156085"
    }
  },
  {
    "service_request": "2026-1254307",
    "request_type": "Roads and Streets",
    "request_reason": "Debris in Driving Lanes",
    "date_created": "2026-01-24T15:18:13.000",
    "date_modified": "2026-01-24T15:18:16.000",
    "request_status": "Pending",
    "responsible_agency": "Department of Public Works",
    "final_address": "4518 St Claude Ave",
    "address_councildis": "C",
    "status": "Pending",
    "rowid": "1254307",
    "final_x": "3693488.77744",
    "final_y": "534789.894214",
    "longitude": "-90.03009681156085",
    "latitude": "29.964117291392498",
    "geocoded_column": {
      "latitude": "29.964117291392498",
      "longitude": "-90.03009681156085"
    }
  },
  {
    "service_request": "2026-1254306",
    "request_type": "Trash/Recycling",
    "request_reason": "Replace Recycling Cart",
    "date_created": "2026-01-24T15:09:38.000",
    "date_modified": "2026-01-24T15:09:39.000",
    "request_status": "Pending",
    "responsible_agency": "Department of Sanitation",
    "final_address": "5535 Chamberlain Dr",
    "address_councildis": "D",
    "status": "Pending",
    "rowid": "1254306",
    "final_x": "3679520.10709",
    "final_y": "552844.894166",
    "longitude": "-90.07358180518474",
    "latitude": "30.01419166151176",
    "geocoded_column": {
      "latitude": "30.01419166151176",
      "longitude": "-90.07358180518474"
    }
  },
  {
    "service_request": "2026-1254305",
    "request_type": "Trash/Recycling",
    "request_reason": "Request a Large Item Pick Up",
    "date_created": "2026-01-24T15:08:01.000",
    "date_modified": "2026-01-24T15:08:03.000",
    "request_status": "Pending",
    "responsible_agency": "Department of Sanitation",
    "final_address": "4200 Perrier St",
    "address_councildis": "B",
    "status": "Assigned to Contractor",
    "contractor": "IV Waste",
    "rowid": "1254305",
    "final_x": "3671579.76411",
    "final_y": "520095.16844",
    "longitude": "-90.09978329705561",
    "latitude": "29.924378584144126",
    "geocoded_column": {
      "latitude": "29.924378584144126",
      "longitude": "-90.09978329705561"
    }
  },
  {
    "service_request": "2026-1254304",
    "request_type": "Trash/Recycling",
    "request_reason": "Order Trash Cart",
    "date_created": "2026-01-24T14:51:31.000",
    "date_modified": "2026-01-24T14:51:33.000",
    "request_status": "Pending",
    "responsible_agency": "Department of Sanitation",
    "final_address": "2123 Onzaga St",
    "address_councildis": "D",
    "status": "Assigned to Contractor",
    "contractor": "IV Waste",
    "rowid": "1254304",
    "final_x": "3680865.2004",
    "final_y": "539312.144586",
    "longitude": "-90.06980346960889",
    "latitude": "29.976940668592444",
    "geocoded_column": {
      "latitude": "29.976940668592444",
      "longitude": "-90.06980346960889"
    }
  },
  {
    "service_request": "2026-1254303",
    "request_type": "Trash/Recycling",
    "request_reason": "MIssed Recycling Pick-Up",
    "date_created": "2026-01-24T14:48:06.000",
    "date_modified": "2026-01-24T14:48:09.000",
    "request_status": "Pending",
    "responsible_agency": "Department of Sanitation",
    "final_address": "1518 Simon Bolivar Ave",
    "address_councildis": "B",
    "status": "Assigned to Contractor",
    "contractor": "IV Waste",
    "rowid": "1254303",
    "final_x": "3677266.96194",
    "final_y": "526520.972094",
    "longitude": "-90.08160917739548",
    "latitude": "29.941877867042155",
    "geocoded_column": {
      "latitude": "29.941877867042155",
      "longitude": "-90.08160917739548"
    }
  },
  {
    "service_request": "2026-1254302",
    "request_type": "Trash/Recycling",
    "request_reason": "Request a Large Item Pick Up",
    "date_created": "2026-01-24T14:31:04.000",
    "date_modified": "2026-01-24T14:31:08.000",
    "request_status": "Pending",
    "responsible_agency": "Department of Sanitation",
    "final_address": "10210 Seawood St",
    "address_councildis": "E",
    "status": "Assigned to Contractor",
    "contractor": "Waste Pro",
    "rowid": "1254302",
    "final_x": "3713129.82206",
    "final_y": "557361.871707",
    "longitude": "-89.96722294744801",
    "latitude": "30.025552737647814",
    "geocoded_column": {
      "latitude": "30.025552737647814",
      "longitude": "-89.96722294744801"
    }
  },
  {
    "service_request": "2026-1254301",
    "request_type": "Abandoned Vehicles",
    "request_reason": "Abandoned/Junk Vehicles",
    "date_created": "2026-01-24T14:14:03.000",
    "date_modified": "2026-01-24T14:14:05.000",
    "request_status": "Pending",
    "responsible_agency": "Department of Public Works",
    "final_address": "316 Vallette St",
    "address_councildis": "C",
    "status": "Pending",
    "rowid": "1254301",
    "final_x": "3687596.45756",
    "final_y": "530627.611778",
    "longitude": "-90.04885154096822",
    "latitude": "29.95285541077239",
    "geocoded_column": {
      "latitude": "29.95285541077239",
      "longitude": "-90.04885154096822"
    }
  },
  {
    "service_request": "2026-1254300",
    "request_type": "Abandoned Vehicles",
    "request_reason": "Abandoned/Junk Vehicles",
    "date_created": "2026-01-24T14:10:57.000",
    "date_modified": "2026-01-24T14:10:59.000",
    "request_status": "Pending",
    "responsible_agency": "Department of Public Works",
    "final_address": "1301 St Roch Ave",
    "address_councildis": "C",
    "status": "Pending",
    "rowid": "1254300",
    "final_x": "3686505.54991",
    "final_y": "537199.437064",
    "longitude": "-90.05206410085172",
    "latitude": "29.970959238433785",
    "geocoded_column": {
      "latitude": "29.970959238433785",
      "longitude": "-90.05206410085172"
    }
  },
  {
    "service_request": "2026-1254299",
    "request_type": "Mosquito, Termite & Rodent Control",
    "request_reason": "Non-Rodent Complaint (Possums & Snakes)",
    "date_created": "2026-01-24T13:57:13.000",
    "date_modified": "2026-01-24T13:57:15.000",
    "request_status": "Pending",
    "responsible_agency": "Mosquito, Termite & Rodent Control Board",
    "final_address": "2320 Madrid St",
    "address_councildis": "D",
    "status": "Pending",
    "rowid": "1254299",
    "final_x": "3684440.29852",
    "final_y": "555345.746713",
    "longitude": "-90.05794854666149",
    "latitude": "30.02091843392504",
    "geocoded_column": {
      "latitude": "30.02091843392504",
      "longitude": "-90.05794854666149"
    }
  },
  {
    "service_request": "2026-1254298",
    "request_type": "Streetlights",
    "request_reason": "Streetlight Outage/Malfunction",
    "date_created": "2026-01-24T13:31:11.000",
    "date_modified": "2026-01-24T13:31:13.000",
    "request_status": "Pending",
    "responsible_agency": "Department of Public Works",
    "final_address": "1127 Philip St",
    "address_councildis": "B",
    "status": "Pending",
    "rowid": "1254298",
    "final_x": "3678423.50491",
    "final_y": "522054.605114",
    "longitude": "-90.07811220197074",
    "latitude": "29.929562037329514",
    "geocoded_column": {
      "latitude": "29.929562037329514",
      "longitude": "-90.07811220197074"
    }
  },
  {
    "service_request": "2026-1254297",
    "request_type": "Trash/Recycling",
    "request_reason": "Replace Trash Cart",
    "date_created": "2026-01-24T12:59:31.000",
    "date_modified": "2026-01-24T12:59:32.000",
    "request_status": "Pending",
    "responsible_agency": "Department of Sanitation",
    "final_address": "225 40Th St",
    "address_councildis": "A",
    "status": "Assigned to Contractor",
    "contractor": "IV Waste",
    "rowid": "1254297",
    "final_x": "3665908.03533",
    "final_y": "553360.142359",
    "longitude": "-90.11657200591897",
    "latitude": "30.016012880807963",
    "geocoded_column": {
      "latitude": "30.016012880807963",
      "longitude": "-90.11657200591897"
    }
  },
  {
    "service_request": "2026-1254296",
    "request_type": "General Services",
    "request_reason": "General Service Request",
    "date_created": "2026-01-24T12:35:22.000",
    "date_modified": "2026-01-24T12:35:24.000",
    "request_status": "Pending",
    "responsible_agency": "Orleans Parish Communication District",
    "final_address": "919 St Roch Ave",
    "address_councildis": "C",
    "status": "Pending",
    "rowid": "1254296",
    "final_x": "3686567.3599",
    "final_y": "535881.161863",
    "longitude": "-90.05191545620613",
    "latitude": "29.967332540679948",
    "geocoded_column": {
      "latitude": "29.967332540679948",
      "longitude": "-90.05191545620613"
    }
  },
  {
    "service_request": "2026-1254295",
    "request_type": "Trash/Recycling",
    "request_reason": "Request a Large Item Pick Up",
    "date_created": "2026-01-24T12:21:37.000",
    "date_modified": "2026-01-24T12:21:38.000",
    "request_status": "Pending",
    "responsible_agency": "Department of Sanitation",
    "final_address": "14643 Emory Rd",
    "address_councildis": "E",
    "status": "Assigned to Contractor",
    "contractor": "Waste Pro",
    "rowid": "1254295",
    "final_x": "3720147.09234",
    "final_y": "573482.533738",
    "longitude": "-89.9444322178259",
    "latitude": "30.06964601099963",
    "geocoded_column": {
      "latitude": "30.06964601099963",
      "longitude": "-89.9444322178259"
    }
  },
  {
    "service_request": "2026-1254294",
    "request_type": "Property Maintenance",
    "request_reason": "Property Maintenance",
    "date_created": "2026-01-24T12:21:36.000",
    "date_modified": "2026-01-24T12:21:39.000",
    "request_status": "Pending",
    "responsible_agency": "Department of Code Enforcement",
    "final_address": "4117 N Johnson St",
    "address_councildis": "D",
    "status": "Pending",
    "rowid": "1254294",
    "final_x": "3693143.10845",
    "final_y": "538675.509769",
    "longitude": "-90.03104894214016",
    "latitude": "29.974812162841307",
    "geocoded_column": {
      "latitude": "29.974812162841307",
      "longitude": "-90.03104894214016"
    }
  },
  {
    "service_request": "2026-1254293",
    "request_type": "Trash/Recycling",
    "request_reason": "Illegal Dumping",
    "date_created": "2026-01-24T11:51:17.000",
    "date_modified": "2026-01-24T11:51:18.000",
    "request_status": "Pending",
    "responsible_agency": "Department of Sanitation",
    "final_address": "2025 Dumaine St",
    "address_councildis": "D",
    "status": "Pending",
    "rowid": "1254293",
    "final_x": "3679200.72162",
    "final_y": "536009.613703",
    "longitude": "-90.07517495256164",
    "latitude": "29.967910207220616",
    "geocoded_column": {
      "latitude": "29.967910207220616",
      "longitude": "-90.07517495256164"
    }
  },
  {
    "service_request": "2026-1254292",
    "request_type": "Safety & Permits",
    "request_reason": "Construction permit",
    "date_created": "2026-01-24T11:48:45.000",
    "date_modified": "2026-01-24T11:48:47.000",
    "request_status": "Pending",
    "responsible_agency": "Safety and Permits",
    "final_address": "2025 Dumaine St",
    "address_councildis": "D",
    "status": "Pending",
    "rowid": "1254292",
    "final_x": "3679200.72162",
    "final_y": "536009.613703",
    "longitude": "-90.07517495256164",
    "latitude": "29.967910207220616",
    "geocoded_column": {
      "latitude": "29.967910207220616",
      "longitude": "-90.07517495256164"
    }
  },
  {
    "service_request": "2026-1254291",
    "request_type": "Trash/Recycling",
    "request_reason": "Illegal Dumping",
    "date_created": "2026-01-24T11:34:43.000",
    "date_modified": "2026-01-24T11:34:45.000",
    "request_status": "Pending",
    "responsible_agency": "Department of Sanitation",
    "final_address": "2003 Dumaine St",
    "address_councildis": "D",
    "status": "Pending",
    "rowid": "1254291",
    "final_x": "3679350.506",
    "final_y": "535890.096647",
    "longitude": "-90.07470607450968",
    "latitude": "29.967577053077765",
    "geocoded_column": {
      "latitude": "29.967577053077765",
      "longitude": "-90.07470607450968"
    }
  },
  {
    "service_request": "2026-1254290",
    "request_type": "Tax and Revenue",
    "request_reason": "General Tax Question",
    "date_created": "2026-01-24T11:00:04.000",
    "date_modified": "2026-01-24T11:00:06.000",
    "request_status": "Pending",
    "responsible_agency": "Bureau of Revenue",
    "final_address": "0 BLK Blanc Pl",
    "address_councildis": "B",
    "status": "Pending",
    "rowid": "1254290",
    "final_x": "3667951.08401",
    "final_y": "520874.262829",
    "longitude": "-90.11121159835395",
    "latitude": "29.926627762655404",
    "geocoded_column": {
      "latitude": "29.926627762655404",
      "longitude": "-90.11121159835395"
    }
  },
  {
    "service_request": "2026-1254289",
    "request_type": "Trash/Recycling",
    "request_reason": "Replace Trash Cart",
    "date_created": "2026-01-24T10:53:09.000",
    "date_modified": "2026-01-24T10:53:11.000",
    "request_status": "Pending",
    "responsible_agency": "Department of Sanitation",
    "final_address": "2100 St Nick Dr",
    "address_councildis": "C",
    "status": "Assigned to Contractor",
    "contractor": "Richards Disposal",
    "rowid": "1254289",
    "final_x": "3700034.89994",
    "final_y": "523399.626619",
    "longitude": "-90.00984032211632",
    "latitude": "29.932591723322812",
    "geocoded_column": {
      "latitude": "29.932591723322812",
      "longitude": "-90.00984032211632"
    }
  },
  {
    "service_request": "2026-1254288",
    "request_type": "Streetlights",
    "request_reason": "Streetlight Outage/Malfunction",
    "date_created": "2026-01-24T10:44:26.000",
    "date_modified": "2026-01-24T10:44:28.000",
    "request_status": "Pending",
    "responsible_agency": "Department of Public Works",
    "final_address": "5361 Canal Blvd",
    "address_councildis": "A",
    "status": "Pending",
    "rowid": "1254288",
    "final_x": "3668221.19124",
    "final_y": "543144.061517",
    "longitude": "-90.10960815955602",
    "latitude": "29.987854459035148",
    "geocoded_column": {
      "latitude": "29.987854459035148",
      "longitude": "-90.10960815955602"
    }
  },
  {
    "service_request": "2026-1254287",
    "request_type": "General Services",
    "request_reason": "General Service Request",
    "date_created": "2026-01-24T10:40:05.000",
    "date_modified": "2026-01-24T10:40:07.000",
    "request_status": "Pending",
    "responsible_agency": "Orleans Parish Communication District",
    "final_address": "400 N Carrollton Ave, New Orleans, Louisiana, 70119",
    "address_councildis": "A",
    "status": "Pending",
    "rowid": "1254287",
    "final_x": "3672315.02676",
    "final_y": "539084.368074",
    "longitude": "-90.09681546128527",
    "latitude": "29.976570837739217",
    "geocoded_column": {
      "latitude": "29.976570837739217",
      "longitude": "-90.09681546128527"
    }
  },
  {
    "service_request": "2026-1254286",
    "request_type": "Trash/Recycling",
    "request_reason": "Request a Large Item Pick Up",
    "date_created": "2026-01-24T10:29:32.000",
    "date_modified": "2026-01-24T10:29:34.000",
    "request_status": "Pending",
    "responsible_agency": "Department of Sanitation",
    "final_address": "3701 Huntlee Dr",
    "address_councildis": "C",
    "status": "Assigned to Contractor",
    "contractor": "Richards Disposal",
    "rowid": "1254286",
    "final_x": "3701625.09399",
    "final_y": "517505.187574",
    "longitude": "-90.00503596160141",
    "latitude": "29.91633344864772",
    "geocoded_column": {
      "latitude": "29.91633344864772",
      "longitude": "-90.00503596160141"
    }
  },
  {
    "service_request": "2026-1254285",
    "request_type": "Drainage",
    "request_reason": "Drainage Manhole Cover Missing or Damaged",
    "date_created": "2026-01-24T10:12:58.000",
    "date_modified": "2026-01-24T10:13:01.000",
    "request_status": "Pending",
    "responsible_agency": "Sewerage & Water Board",
    "final_address": "543 Pacific Ave",
    "address_councildis": "C",
    "status": "Pending",
    "rowid": "1254285",
    "final_x": "3688446.08041",
    "final_y": "529537.630657",
    "longitude": "-90.04620747692685",
    "latitude": "29.949832121178336",
    "geocoded_column": {
      "latitude": "29.949832121178336",
      "longitude": "-90.04620747692685"
    }
  },
  {
    "service_request": "2026-1254284",
    "request_type": "Trash/Recycling",
    "request_reason": "Replace Recycling Cart",
    "date_created": "2026-01-24T09:36:16.000",
    "date_modified": "2026-01-24T09:36:17.000",
    "request_status": "Pending",
    "responsible_agency": "Department of Sanitation",
    "final_address": "511 Bellecastle St",
    "address_councildis": "B",
    "status": "Pending",
    "rowid": "1254284",
    "final_x": "3667685.32513",
    "final_y": "517305.812149",
    "longitude": "-90.11217058062803",
    "latitude": "29.91682343962668",
    "geocoded_column": {
      "latitude": "29.91682343962668",
      "longitude": "-90.11217058062803"
    }
  },
  {
    "service_request": "2026-1254283",
    "request_type": "Trash/Recycling",
    "request_reason": "Replace Recycling Cart",
    "date_created": "2026-01-24T09:35:47.000",
    "date_modified": "2026-01-24T09:35:49.000",
    "request_status": "Pending",
    "responsible_agency": "Department of Sanitation",
    "final_address": "513 Bellecastle St",
    "address_councildis": "B",
    "status": "Pending",
    "rowid": "1254283",
    "final_x": "3667685.03233",
    "final_y": "517322.467701",
    "longitude": "-90.1121709445526",
    "latitude": "29.916869245752714",
    "geocoded_column": {
      "latitude": "29.916869245752714",
      "longitude": "-90.1121709445526"
    }
  },
  {
    "service_request": "2026-1254282",
    "request_type": "Trash/Recycling",
    "request_reason": "Order Trash Cart",
    "date_created": "2026-01-24T09:34:48.000",
    "date_modified": "2026-01-24T09:34:50.000",
    "request_status": "Pending",
    "responsible_agency": "Department of Sanitation",
    "final_address": "513 Bellecastle St",
    "address_councildis": "B",
    "status": "Assigned to Contractor",
    "contractor": "IV Waste",
    "rowid": "1254282",
    "final_x": "3667685.03233",
    "final_y": "517322.467701",
    "longitude": "-90.1121709445526",
    "latitude": "29.916869245752714",
    "geocoded_column": {
      "latitude": "29.916869245752714",
      "longitude": "-90.1121709445526"
    }
  },
  {
    "service_request": "2026-1254281",
    "request_type": "Abandoned Vehicles",
    "request_reason": "Abandoned/Junk Vehicles",
    "date_created": "2026-01-24T09:27:14.000",
    "date_modified": "2026-01-24T09:27:16.000",
    "request_status": "Pending",
    "responsible_agency": "Department of Public Works",
    "final_address": "1126 Frenchmen St",
    "address_councildis": "C",
    "status": "Pending",
    "rowid": "1254281",
    "final_x": "3684524.91004",
    "final_y": "536488.893447",
    "longitude": "-90.0583441765534",
    "latitude": "29.96906623917138",
    "geocoded_column": {
      "latitude": "29.96906623917138",
      "longitude": "-90.0583441765534"
    }
  },
  {
    "service_request": "2026-1254280",
    "request_type": "Trash/Recycling",
    "request_reason": "Replace Trash Cart",
    "date_created": "2026-01-24T09:16:27.000",
    "date_modified": "2026-01-24T09:16:30.000",
    "request_status": "Pending",
    "responsible_agency": "Department of Sanitation",
    "final_address": "7138 W Laverne St",
    "address_councildis": "D",
    "status": "Assigned to Contractor",
    "contractor": "Waste Pro",
    "rowid": "1254280",
    "final_x": "3695729.16803",
    "final_y": "556914.827802",
    "longitude": "-90.02222243049894",
    "latitude": "30.024882485679445",
    "geocoded_column": {
      "latitude": "30.024882485679445",
      "longitude": "-90.02222243049894"
    }
  },
  {
    "service_request": "2026-1254279",
    "request_type": "Drainage",
    "request_reason": "Illegal Dumping (Sewer Odor)",
    "date_created": "2026-01-24T08:55:02.000",
    "date_modified": "2026-01-24T08:55:04.000",
    "request_status": "Pending",
    "responsible_agency": "Sewerage & Water Board",
    "final_address": "8224 Spruce St",
    "address_councildis": "A",
    "status": "Pending",
    "rowid": "1254279",
    "final_x": "3663403.06951",
    "final_y": "530806.048834",
    "longitude": "-90.12523795050471",
    "latitude": "29.954069607151137",
    "geocoded_column": {
      "latitude": "29.954069607151137",
      "longitude": "-90.12523795050471"
    }
  },
  {
    "service_request": "2026-1254278",
    "request_type": "Trash/Recycling",
    "request_reason": "Start Trash Service",
    "date_created": "2026-01-24T08:43:51.000",
    "date_modified": "2026-01-24T08:43:54.000",
    "request_status": "Pending",
    "responsible_agency": "Department of Sanitation",
    "final_address": "8455 Huntington Park Dr",
    "address_councildis": "E",
    "status": "Assigned to Contractor",
    "contractor": "Waste Pro",
    "rowid": "1254278",
    "final_x": "3704903.38391",
    "final_y": "560068.180253",
    "longitude": "-89.99311709436036",
    "latitude": "30.033261144035663",
    "geocoded_column": {
      "latitude": "30.033261144035663",
      "longitude": "-89.99311709436036"
    }
  },
  {
    "service_request": "2026-1254277",
    "request_type": "Trash/Recycling",
    "request_reason": "Replace Trash Cart",
    "date_created": "2026-01-24T07:59:46.000",
    "date_modified": "2026-01-24T07:59:48.000",
    "request_status": "Pending",
    "responsible_agency": "Department of Sanitation",
    "final_address": "5808 Magazine St Apt 3A",
    "address_councildis": "A",
    "status": "Assigned to Contractor",
    "contractor": "IV Waste",
    "rowid": "1254277",
    "final_x": "3665347.01882",
    "final_y": "518990.762103",
    "longitude": "-90.11949493994034",
    "latitude": "29.92152484085733",
    "geocoded_column": {
      "latitude": "29.92152484085733",
      "longitude": "-90.11949493994034"
    }
  },
  {
    "service_request": "2026-1254276",
    "request_type": "Mosquito, Termite & Rodent Control",
    "request_reason": "Non-Rodent Complaint (Possums & Snakes)",
    "date_created": "2026-01-24T07:50:14.000",
    "date_modified": "2026-01-24T07:50:16.000",
    "request_status": "Pending",
    "responsible_agency": "Mosquito, Termite & Rodent Control Board",
    "final_address": "1736 Terpsichore St",
    "address_councildis": "B",
    "status": "Pending",
    "rowid": "1254276",
    "final_x": "3678370.76386",
    "final_y": "525655.343485",
    "longitude": "-90.07815418063373",
    "latitude": "29.93946447310462",
    "geocoded_column": {
      "latitude": "29.93946447310462",
      "longitude": "-90.07815418063373"
    }
  },
  {
    "service_request": "2026-1254275",
    "request_type": "Roads and Streets",
    "request_reason": "Sidewalk Damaged or Missing",
    "date_created": "2026-01-24T07:16:40.000",
    "date_modified": "2026-01-24T07:16:43.000",
    "request_status": "Pending",
    "responsible_agency": "Department of Public Works",
    "final_address": "2621 Magazine St",
    "address_councildis": "B",
    "status": "Pending",
    "rowid": "1254275",
    "final_x": "3677370.22702",
    "final_y": "521093.392313",
    "longitude": "-90.08147036346391",
    "latitude": "29.926950699350996",
    "geocoded_column": {
      "latitude": "29.926950699350996",
      "longitude": "-90.08147036346391"
    }
  },
  {
    "service_request": "2026-1254274",
    "request_type": "Roads and Streets",
    "request_reason": "Curb Damage",
    "date_created": "2026-01-24T00:17:08.000",
    "date_modified": "2026-01-24T00:17:10.000",
    "request_status": "Pending",
    "responsible_agency": "Department of Public Works",
    "final_address": "1501 Mandeville St",
    "address_councildis": "C",
    "status": "Pending",
    "rowid": "1254274",
    "final_x": "3685693.2742",
    "final_y": "537873.872585",
    "longitude": "-90.05460559774029",
    "latitude": "29.972838650290722",
    "geocoded_column": {
      "latitude": "29.972838650290722",
      "longitude": "-90.05460559774029"
    }
  },
  {
    "service_request": "2026-1254273",
    "request_type": "Street and Traffic Signs",
    "request_reason": "One Way Sign Missing or Damaged",
    "date_created": "2026-01-24T00:12:00.000",
    "date_modified": "2026-01-24T00:12:03.000",
    "request_status": "Pending",
    "responsible_agency": "Department of Public Works",
    "final_address": "1501 Mandeville St",
    "address_councildis": "C",
    "status": "Pending",
    "rowid": "1254273",
    "final_x": "3685693.2742",
    "final_y": "537873.872585",
    "longitude": "-90.05460559774029",
    "latitude": "29.972838650290722",
    "geocoded_column": {
      "latitude": "29.972838650290722",
      "longitude": "-90.05460559774029"
    }
  },
  {
    "service_request": "2026-1254272",
    "request_type": "Health Related Request",
    "request_reason": "Noise Ordinance Complaint",
    "date_created": "2026-01-23T23:55:58.000",
    "date_modified": "2026-01-23T23:56:01.000",
    "request_status": "Pending",
    "responsible_agency": "Health Department",
    "final_address": "1125 Saint Mary St, New Orleans, Louisiana, 70130",
    "address_councildis": "B",
    "status": "Pending",
    "rowid": "1254272",
    "final_x": "3679638.07797",
    "final_y": "522995.941243",
    "longitude": "-90.07424536126065",
    "latitude": "29.932113761941242",
    "geocoded_column": {
      "latitude": "29.932113761941242",
      "longitude": "-90.07424536126065"
    }
  },
  {
    "service_request": "2026-1254271",
    "request_type": "Streetlights",
    "request_reason": "Streetlight Outage/Malfunction",
    "date_created": "2026-01-23T23:34:54.000",
    "date_modified": "2026-01-23T23:34:56.000",
    "request_status": "Pending",
    "responsible_agency": "Department of Public Works",
    "final_address": "7453 Bullard Ave",
    "address_councildis": "E",
    "status": "Pending",
    "rowid": "1254271",
    "final_x": "3713531.63045",
    "final_y": "567007.437988",
    "longitude": "-89.96558949396862",
    "latitude": "30.052060990432924",
    "geocoded_column": {
      "latitude": "30.052060990432924",
      "longitude": "-89.96558949396862"
    }
  },
  {
    "service_request": "2026-1254270",
    "request_type": "Streetlights",
    "request_reason": "Streetlight Outage/Malfunction",
    "date_created": "2026-01-23T23:31:07.000",
    "date_modified": "2026-01-23T23:31:09.000",
    "request_status": "Pending",
    "responsible_agency": "Department of Public Works",
    "final_address": "7453 Bullard Ave",
    "address_councildis": "E",
    "status": "Pending",
    "rowid": "1254270",
    "final_x": "3713531.63045",
    "final_y": "567007.437988",
    "longitude": "-89.96558949396862",
    "latitude": "30.052060990432924",
    "geocoded_column": {
      "latitude": "30.052060990432924",
      "longitude": "-89.96558949396862"
    }
  },
  {
    "service_request": "2026-1254269",
    "request_type": "General Services",
    "request_reason": "General Service Request",
    "date_created": "2026-01-23T23:03:43.000",
    "date_modified": "2026-01-23T23:03:45.000",
    "request_status": "Pending",
    "responsible_agency": "Orleans Parish Communication District",
    "final_address": "1607 Ursulines Ave",
    "address_councildis": "D",
    "status": "Pending",
    "rowid": "1254269",
    "final_x": "3680933.30018",
    "final_y": "535621.918918",
    "longitude": "-90.06971691755334",
    "latitude": "29.9667917561131",
    "geocoded_column": {
      "latitude": "29.9667917561131",
      "longitude": "-90.06971691755334"
    }
  },
  {
    "service_request": "2026-1254268",
    "request_type": "Trash/Recycling",
    "request_reason": "Request a Large Item Pick Up",
    "date_created": "2026-01-23T22:16:38.000",
    "date_modified": "2026-01-23T22:16:40.000",
    "request_status": "Pending",
    "responsible_agency": "Department of Sanitation",
    "final_address": "2901 Laurel St",
    "address_councildis": "B",
    "status": "Assigned to Contractor",
    "contractor": "IV Waste",
    "rowid": "1254268",
    "final_x": "3676972.91848",
    "final_y": "519931.53356",
    "longitude": "-90.08276459191325",
    "latitude": "29.923767893950686",
    "geocoded_column": {
      "latitude": "29.923767893950686",
      "longitude": "-90.08276459191325"
    }
  },
  {
    "service_request": "2026-1254267",
    "request_type": "Streetlights",
    "request_reason": "Streetlight Outage/Malfunction",
    "date_created": "2026-01-23T22:08:15.000",
    "date_modified": "2026-01-23T22:08:17.000",
    "request_status": "Pending",
    "responsible_agency": "Department of Public Works",
    "final_address": "1720 Mendez Dr",
    "address_councildis": "D",
    "status": "Pending",
    "rowid": "1254267",
    "final_x": "3679915.78255",
    "final_y": "553253.304215",
    "longitude": "-90.07231746881075",
    "latitude": "30.015302674170943",
    "geocoded_column": {
      "latitude": "30.015302674170943",
      "longitude": "-90.07231746881075"
    }
  },
  {
    "service_request": "2026-1254266",
    "request_type": "Streetlights",
    "request_reason": "New Streetlight Request",
    "date_created": "2026-01-23T21:52:08.000",
    "date_modified": "2026-01-23T21:52:11.000",
    "request_status": "Pending",
    "responsible_agency": "Department of Public Works",
    "final_address": "1025 Kentucky St",
    "address_councildis": "C",
    "status": "Pending",
    "rowid": "1254266",
    "final_x": "3693301.34787",
    "final_y": "534693.044678",
    "longitude": "-90.03069217215898",
    "latitude": "29.963856849556752",
    "geocoded_column": {
      "latitude": "29.963856849556752",
      "longitude": "-90.03069217215898"
    }
  },
  {
    "service_request": "2026-1254265",
    "request_type": "Abandoned Vehicles",
    "request_reason": "Abandoned/Junk Vehicles",
    "date_created": "2026-01-23T20:46:15.000",
    "date_modified": "2026-01-23T20:46:17.000",
    "request_status": "Pending",
    "responsible_agency": "Department of Public Works",
    "final_address": "4521 Crowder Blvd",
    "address_councildis": "E",
    "status": "Pending",
    "rowid": "1254265",
    "final_x": "3706648.82411",
    "final_y": "554493.818456",
    "longitude": "-89.98780822533321",
    "latitude": "30.017877571727862",
    "geocoded_column": {
      "latitude": "30.017877571727862",
      "longitude": "-89.98780822533321"
    }
  },
  {
    "service_request": "2026-1254264",
    "request_type": "Abandoned Vehicles",
    "request_reason": "Abandoned/Junk Vehicles",
    "date_created": "2026-01-23T20:36:53.000",
    "date_modified": "2026-01-23T20:36:56.000",
    "request_status": "Pending",
    "responsible_agency": "Department of Public Works",
    "final_address": "4712 Crowder Blvd",
    "address_councildis": "E",
    "status": "Pending",
    "rowid": "1254264",
    "final_x": "3706350.32158",
    "final_y": "555400.665113",
    "longitude": "-89.98871774703846",
    "latitude": "30.020380684097812",
    "geocoded_column": {
      "latitude": "30.020380684097812",
      "longitude": "-89.98871774703846"
    }
  },
  {
    "service_request": "2026-1254263",
    "request_type": "Street and Traffic Signs",
    "request_reason": "Street Name Sign Damaged or Missing",
    "date_created": "2026-01-23T20:29:04.000",
    "date_modified": "2026-01-23T20:29:07.000",
    "request_status": "Pending",
    "responsible_agency": "Department of Public Works",
    "final_address": "6224 Bertha Dr",
    "address_councildis": "D",
    "status": "Pending",
    "rowid": "1254263",
    "final_x": "3678488.42229",
    "final_y": "556080.880154",
    "longitude": "-90.07672928800284",
    "latitude": "30.023120597416547",
    "geocoded_column": {
      "latitude": "30.023120597416547",
      "longitude": "-90.07672928800284"
    }
  },
  {
    "service_request": "2026-1254262",
    "request_type": "Safety & Permits",
    "request_reason": "Zoning Enforcement",
    "date_created": "2026-01-23T20:18:53.000",
    "date_modified": "2026-01-23T20:18:54.000",
    "request_status": "Pending",
    "responsible_agency": "Safety and Permits",
    "final_address": "4525 Camp St",
    "address_councildis": "B",
    "status": "Pending",
    "rowid": "1254262",
    "final_x": "3670407.27994",
    "final_y": "519141.701623",
    "longitude": "-90.10351673904493",
    "latitude": "29.921791508824825",
    "geocoded_column": {
      "latitude": "29.921791508824825",
      "longitude": "-90.10351673904493"
    }
  },
  {
    "service_request": "2026-1254261",
    "request_type": "Property Maintenance",
    "request_reason": "Property Maintenance",
    "date_created": "2026-01-23T20:09:33.000",
    "date_modified": "2026-01-23T20:09:34.000",
    "request_status": "Pending",
    "responsible_agency": "Department of Code Enforcement",
    "final_address": "966 Allen Toussaint Blvd",
    "address_councildis": "A",
    "status": "Pending",
    "rowid": "1254261",
    "final_x": "3671261.98299",
    "final_y": "554376.874392",
    "longitude": "-90.09962128090388",
    "latitude": "30.01865111932684",
    "geocoded_column": {
      "latitude": "30.01865111932684",
      "longitude": "-90.09962128090388"
    }
  },
  {
    "service_request": "2026-1254260",
    "request_type": "Streetlights",
    "request_reason": "Streetlight Outage/Malfunction",
    "date_created": "2026-01-23T19:53:11.000",
    "date_modified": "2026-01-23T19:53:14.000",
    "request_status": "Pending",
    "responsible_agency": "Department of Public Works",
    "final_address": "3901 Macarthur Blvd",
    "address_councildis": "C",
    "status": "Pending",
    "rowid": "1254260",
    "final_x": "3698084.55895",
    "final_y": "520378.098488",
    "longitude": "-90.01610700175507",
    "latitude": "29.92434535626145",
    "geocoded_column": {
      "latitude": "29.92434535626145",
      "longitude": "-90.01610700175507"
    }
  },
  {
    "service_request": "2026-1254259",
    "request_type": "Streetlights",
    "request_reason": "Streetlight Outage/Malfunction",
    "date_created": "2026-01-23T19:36:23.000",
    "date_modified": "2026-01-23T19:36:25.000",
    "request_status": "Pending",
    "responsible_agency": "Department of Public Works",
    "final_address": "1708 Duels St",
    "address_councildis": "D",
    "status": "Pending",
    "rowid": "1254259",
    "final_x": "3680863.89243",
    "final_y": "542232.400397",
    "longitude": "-90.06970588871799",
    "latitude": "29.98497039378413",
    "geocoded_column": {
      "latitude": "29.98497039378413",
      "longitude": "-90.06970588871799"
    }
  },
  {
    "service_request": "2026-1254258",
    "request_type": "Trash/Recycling",
    "request_reason": "Missed Trash Pick-Up",
    "date_created": "2026-01-23T19:13:41.000",
    "date_modified": "2026-01-23T19:13:43.000",
    "request_status": "Pending",
    "responsible_agency": "Department of Sanitation",
    "final_address": "5831 Abbey Dr",
    "address_councildis": "C",
    "status": "Assigned to Contractor",
    "contractor": "Richards Disposal",
    "rowid": "1254258",
    "final_x": "3705268.67102",
    "final_y": "520859.007097",
    "longitude": "-89.99341167409789",
    "latitude": "29.92543864712634",
    "geocoded_column": {
      "latitude": "29.92543864712634",
      "longitude": "-89.99341167409789"
    }
  },
  {
    "service_request": "2026-1254257",
    "request_type": "Roads and Streets",
    "request_reason": "Pothole",
    "date_created": "2026-01-23T19:04:31.000",
    "date_modified": "2026-01-23T19:04:32.000",
    "request_status": "Pending",
    "responsible_agency": "Department of Public Works",
    "final_address": "9830 Lake Forest Blvd",
    "address_councildis": "E",
    "status": "Pending",
    "rowid": "1254257",
    "final_x": "3709834.59819",
    "final_y": "558955.528476",
    "longitude": "-89.97757570453228",
    "latitude": "30.030042278761563",
    "geocoded_column": {
      "latitude": "30.030042278761563",
      "longitude": "-89.97757570453228"
    }
  },
  {
    "service_request": "2026-1254256",
    "request_type": "Roads and Streets",
    "request_reason": "Push-up/Pavement Expansion",
    "date_created": "2026-01-23T18:48:11.000",
    "date_modified": "2026-01-23T18:48:15.000",
    "request_status": "Pending",
    "responsible_agency": "Department of Public Works",
    "final_address": "23 Christopher Ct",
    "address_councildis": "E",
    "status": "Pending",
    "rowid": "1254256",
    "final_x": "3716606.24517",
    "final_y": "570267.632039",
    "longitude": "-89.95574779472973",
    "latitude": "30.060923907855518",
    "geocoded_column": {
      "latitude": "30.060923907855518",
      "longitude": "-89.95574779472973"
    }
  },
  {
    "service_request": "2026-1254255",
    "request_type": "Abandoned Vehicles",
    "request_reason": "Abandoned/Junk Vehicles",
    "date_created": "2026-01-23T18:28:35.000",
    "date_modified": "2026-01-23T18:28:37.000",
    "request_status": "Pending",
    "responsible_agency": "Department of Public Works",
    "final_address": "1118 Euterpe St",
    "address_councildis": "B",
    "status": "Pending",
    "rowid": "1254255",
    "final_x": "3680125.73659",
    "final_y": "524214.96742",
    "longitude": "-90.07266353206109",
    "latitude": "29.935450938605573",
    "geocoded_column": {
      "latitude": "29.935450938605573",
      "longitude": "-90.07266353206109"
    }
  },
  {
    "service_request": "2026-1254254",
    "request_type": "Trash/Recycling",
    "request_reason": "Replace Recycling Cart",
    "date_created": "2026-01-23T18:19:29.000",
    "date_modified": "2026-01-23T18:19:31.000",
    "request_status": "Pending",
    "responsible_agency": "Department of Sanitation",
    "final_address": "6057 Louisville St",
    "address_councildis": "A",
    "status": "Pending",
    "rowid": "1254254",
    "final_x": "3667882.08653",
    "final_y": "547781.887186",
    "longitude": "-90.11052294707667",
    "latitude": "30.000616840820655",
    "geocoded_column": {
      "latitude": "30.000616840820655",
      "longitude": "-90.11052294707667"
    }
  },
  {
    "service_request": "2026-1254253",
    "request_type": "Streetlights",
    "request_reason": "Streetlight Outage/Malfunction",
    "date_created": "2026-01-23T18:14:43.000",
    "date_modified": "2026-01-23T18:14:45.000",
    "request_status": "Pending",
    "responsible_agency": "Department of Public Works",
    "final_address": "5101 E Easterlyn Cir",
    "address_councildis": "E",
    "status": "Pending",
    "rowid": "1254253",
    "final_x": "3719224.80249",
    "final_y": "560788.146014",
    "longitude": "-89.9478330100202",
    "latitude": "30.03477239707443",
    "geocoded_column": {
      "latitude": "30.03477239707443",
      "longitude": "-89.9478330100202"
    }
  },
  {
    "service_request": "2026-1254252",
    "request_type": "Streetlights",
    "request_reason": "New Streetlight Request",
    "date_created": "2026-01-23T17:29:55.000",
    "date_modified": "2026-01-23T17:29:57.000",
    "request_status": "Pending",
    "responsible_agency": "Department of Public Works",
    "final_address": "1025 Kentucky St",
    "address_councildis": "C",
    "status": "Pending",
    "rowid": "1254252",
    "final_x": "3693301.34787",
    "final_y": "534693.044678",
    "longitude": "-90.03069217215898",
    "latitude": "29.963856849556752",
    "geocoded_column": {
      "latitude": "29.963856849556752",
      "longitude": "-90.03069217215898"
    }
  },
  {
    "service_request": "2026-1254251",
    "request_type": "Abandoned Vehicles",
    "request_reason": "Abandoned/Junk Vehicles",
    "date_created": "2026-01-23T17:25:46.000",
    "date_modified": "2026-01-23T17:25:47.000",
    "request_status": "Pending",
    "responsible_agency": "Department of Public Works",
    "final_address": "DESOTO ST & N GAYOSO ST",
    "address_councildis": "A",
    "status": "Pending",
    "rowid": "1254251",
    "final_x": "3676768.3",
    "final_y": "539698.98",
    "longitude": "-90.08272946129895",
    "latitude": "29.978127917894053",
    "geocoded_column": {
      "latitude": "29.978127917894053",
      "longitude": "-90.08272946129895"
    }
  },
  {
    "service_request": "2026-1254250",
    "request_type": "Streetlights",
    "request_reason": "Streetlight Outage/Malfunction",
    "date_created": "2026-01-23T17:20:48.000",
    "date_modified": "2026-01-23T17:20:50.000",
    "request_status": "Pending",
    "responsible_agency": "Department of Public Works",
    "final_address": "1025 Kentucky St",
    "address_councildis": "C",
    "status": "Pending",
    "rowid": "1254250",
    "final_x": "3693301.34787",
    "final_y": "534693.044678",
    "longitude": "-90.03069217215898",
    "latitude": "29.963856849556752",
    "geocoded_column": {
      "latitude": "29.963856849556752",
      "longitude": "-90.03069217215898"
    }
  },
  {
    "service_request": "2026-1254249",
    "request_type": "Health Related Request",
    "request_reason": "Noise Ordinance Complaint",
    "date_created": "2026-01-23T16:58:45.000",
    "date_modified": "2026-01-23T16:58:47.000",
    "request_status": "Pending",
    "responsible_agency": "Health Department",
    "final_address": "218 S Robertson St",
    "address_councildis": "B",
    "status": "Pending",
    "rowid": "1254249",
    "final_x": "3678366.0452",
    "final_y": "532056.137795",
    "longitude": "-90.07794767698763",
    "latitude": "29.957064663440146",
    "geocoded_column": {
      "latitude": "29.957064663440146",
      "longitude": "-90.07794767698763"
    }
  },
  {
    "service_request": "2026-1254248",
    "request_type": "Abandoned Vehicles",
    "request_reason": "Abandoned/Junk Vehicles",
    "date_created": "2026-01-23T16:56:25.000",
    "date_modified": "2026-01-23T16:56:26.000",
    "request_status": "Pending",
    "responsible_agency": "Department of Public Works",
    "final_address": "2233 Bartholomew St",
    "address_councildis": "D",
    "status": "Pending",
    "rowid": "1254248",
    "final_x": "3692944.49782",
    "final_y": "539729.85601",
    "longitude": "-90.0316383736602",
    "latitude": "29.97771744388467",
    "geocoded_column": {
      "latitude": "29.97771744388467",
      "longitude": "-90.0316383736602"
    }
  },
  {
    "service_request": "2026-1254247",
    "request_type": "Trash/Recycling",
    "request_reason": "Request a Large Item Pick Up",
    "date_created": "2026-01-23T16:49:33.000",
    "date_modified": "2026-01-23T16:49:34.000",
    "request_status": "Pending",
    "responsible_agency": "Department of Sanitation",
    "final_address": "2642 Mercedes Blvd",
    "address_councildis": "C",
    "status": "Assigned to Contractor",
    "contractor": "Richards Disposal",
    "rowid": "1254247",
    "final_x": "3698084.51299",
    "final_y": "521370.394681",
    "longitude": "-90.0160711374577",
    "latitude": "29.927073832685206",
    "geocoded_column": {
      "latitude": "29.927073832685206",
      "longitude": "-90.0160711374577"
    }
  },
  {
    "service_request": "2026-1254246",
    "request_type": "Roads and Streets",
    "request_reason": "Sidewalk Damaged or Missing",
    "date_created": "2026-01-23T16:42:48.000",
    "date_modified": "2026-01-23T16:42:49.000",
    "request_status": "Pending",
    "responsible_agency": "Department of Public Works",
    "final_address": "200 Alonzo St",
    "address_councildis": "A",
    "status": "Pending",
    "rowid": "1254246",
    "final_x": "3664456.84813",
    "final_y": "517096.615925",
    "longitude": "-90.12236802251839",
    "latitude": "29.916342428615057",
    "geocoded_column": {
      "latitude": "29.916342428615057",
      "longitude": "-90.12236802251839"
    }
  },
  {
    "service_request": "2026-1254245",
    "request_type": "Abandoned Vehicles",
    "request_reason": "Abandoned/Junk Vehicles",
    "date_created": "2026-01-23T16:37:49.000",
    "date_modified": "2026-01-23T16:37:51.000",
    "request_status": "Pending",
    "responsible_agency": "Department of Public Works",
    "final_address": "1701 St Thomas St",
    "address_councildis": "B",
    "status": "Pending",
    "rowid": "1254245",
    "final_x": "3681317.88616",
    "final_y": "522003.649722",
    "longitude": "-90.06897694345304",
    "latitude": "29.929334426274345",
    "geocoded_column": {
      "latitude": "29.929334426274345",
      "longitude": "-90.06897694345304"
    }
  },
  {
    "service_request": "2026-1254244",
    "request_type": "Trash/Recycling",
    "request_reason": "Order Recycling Cart",
    "date_created": "2026-01-23T16:36:27.000",
    "date_modified": "2026-01-23T16:36:30.000",
    "request_status": "Pending",
    "responsible_agency": "Department of Sanitation",
    "final_address": "304 Eliza St",
    "address_councildis": "C",
    "status": "Pending",
    "rowid": "1254244",
    "final_x": "3686370.91606",
    "final_y": "529493.557569",
    "longitude": "-90.05276126771746",
    "latitude": "29.94977486775579",
    "geocoded_column": {
      "latitude": "29.94977486775579",
      "longitude": "-90.05276126771746"
    }
  },
  {
    "service_request": "2026-1254243",
    "request_type": "Abandoned Vehicles",
    "request_reason": "Abandoned/Junk Vehicles",
    "date_created": "2026-01-23T16:31:00.000",
    "date_modified": "2026-01-23T16:31:02.000",
    "request_status": "Pending",
    "responsible_agency": "Department of Public Works",
    "final_address": "1400 BLK Mandeville St",
    "address_councildis": "C",
    "status": "Pending",
    "rowid": "1254243",
    "final_x": "3685673.31956",
    "final_y": "537654.765357",
    "longitude": "-90.05467634003965",
    "latitude": "29.97223679423747",
    "geocoded_column": {
      "latitude": "29.97223679423747",
      "longitude": "-90.05467634003965"
    }
  },
  {
    "service_request": "2026-1254242",
    "request_type": "Abandoned Vehicles",
    "request_reason": "Abandoned/Junk Vehicles",
    "date_created": "2026-01-23T16:28:13.000",
    "date_modified": "2026-01-23T16:28:15.000",
    "request_status": "Pending",
    "responsible_agency": "Department of Public Works",
    "final_address": "1400 BLK Mandeville St",
    "address_councildis": "C",
    "status": "Pending",
    "rowid": "1254242",
    "final_x": "3685673.31956",
    "final_y": "537654.765357",
    "longitude": "-90.05467634003965",
    "latitude": "29.97223679423747",
    "geocoded_column": {
      "latitude": "29.97223679423747",
      "longitude": "-90.05467634003965"
    }
  },
  {
    "service_request": "2026-1254241",
    "request_type": "Trash/Recycling",
    "request_reason": "Request a Large Item Pick Up",
    "date_created": "2026-01-23T16:23:21.000",
    "date_modified": "2026-01-23T16:23:23.000",
    "request_status": "Pending",
    "responsible_agency": "Department of Sanitation",
    "final_address": "7016 Derbes St",
    "address_councildis": "A",
    "status": "Assigned to Contractor",
    "contractor": "IV Waste",
    "rowid": "1254241",
    "final_x": "3665767.34176",
    "final_y": "554397.56988",
    "longitude": "-90.11698174169292",
    "latitude": "30.018869549079913",
    "geocoded_column": {
      "latitude": "30.018869549079913",
      "longitude": "-90.11698174169292"
    }
  },
  {
    "service_request": "2026-1254240",
    "request_type": "Trash/Recycling",
    "request_reason": "Request a Large Item Pick Up",
    "date_created": "2026-01-23T16:18:11.000",
    "date_modified": "2026-01-23T16:18:12.000",
    "request_status": "Pending",
    "responsible_agency": "Department of Sanitation",
    "final_address": "7801 Branch Dr",
    "address_councildis": "E",
    "status": "Assigned to Contractor",
    "contractor": "Waste Pro",
    "rowid": "1254240",
    "final_x": "3714364.85938",
    "final_y": "569256.51959",
    "longitude": "-89.96287091635176",
    "latitude": "30.0582176686775",
    "geocoded_column": {
      "latitude": "30.0582176686775",
      "longitude": "-89.96287091635176"
    }
  },
  {
    "service_request": "2026-1254239",
    "request_type": "Trash/Recycling",
    "request_reason": "Repair Recycling Cart",
    "date_created": "2026-01-23T16:16:30.000",
    "date_modified": "2026-01-23T16:16:32.000",
    "request_status": "Pending",
    "responsible_agency": "Department of Sanitation",
    "final_address": "2025 Marengo St",
    "address_councildis": "B",
    "status": "Pending",
    "rowid": "1254239",
    "final_x": "3671835.64148",
    "final_y": "522646.233722",
    "longitude": "-90.09888882314121",
    "latitude": "29.93138561835699",
    "geocoded_column": {
      "latitude": "29.93138561835699",
      "longitude": "-90.09888882314121"
    }
  },
  {
    "service_request": "2026-1254238",
    "request_type": "Traffic Signals",
    "request_reason": "Traffic Signal Malfunctioning or Damaged",
    "date_created": "2026-01-23T16:09:16.000",
    "date_modified": "2026-01-23T16:09:17.000",
    "request_status": "Pending",
    "responsible_agency": "Department of Public Works",
    "final_address": "4633 Crowder Blvd",
    "address_councildis": "E",
    "status": "Pending",
    "rowid": "1254238",
    "final_x": "3706568.50999",
    "final_y": "554985.19964",
    "longitude": "-89.9880437566826",
    "latitude": "30.019231272966504",
    "geocoded_column": {
      "latitude": "30.019231272966504",
      "longitude": "-89.9880437566826"
    }
  },
  {
    "service_request": "2026-1254237",
    "request_type": "Traffic Signals",
    "request_reason": "Traffic Signal Malfunctioning or Damaged",
    "date_created": "2026-01-23T16:04:46.000",
    "date_modified": "2026-01-23T16:04:47.000",
    "request_status": "Pending",
    "responsible_agency": "Department of Public Works",
    "final_address": "4633 Crowder Blvd",
    "address_councildis": "E",
    "status": "Pending",
    "rowid": "1254237",
    "final_x": "3706568.50999",
    "final_y": "554985.19964",
    "longitude": "-89.9880437566826",
    "latitude": "30.019231272966504",
    "geocoded_column": {
      "latitude": "30.019231272966504",
      "longitude": "-89.9880437566826"
    }
  },
  {
    "service_request": "2026-1254236",
    "request_type": "Drainage",
    "request_reason": "Catch Basin Not Draining",
    "date_created": "2026-01-23T16:02:06.000",
    "date_modified": "2026-01-23T16:03:17.000",
    "request_status": "Pending",
    "responsible_agency": "Sewerage & Water Board",
    "final_address": "254 Roselyn Park Pl",
    "address_councildis": "C",
    "status": "Pending",
    "rowid": "1254236",
    "final_x": "3702684.66372",
    "final_y": "523142.972795",
    "longitude": "-90.001484720871",
    "latitude": "29.9318015929379",
    "geocoded_column": {
      "latitude": "29.9318015929379",
      "longitude": "-90.001484720871"
    }
  },
  {
    "service_request": "2026-1254235",
    "request_type": "Utility Poles",
    "request_reason": "Utility Pole Leaning",
    "date_created": "2026-01-23T16:00:27.000",
    "date_modified": "2026-01-23T16:01:35.000",
    "request_status": "Pending",
    "responsible_agency": "Utility Company Collective",
    "final_address": "254 Roselyn Park Pl",
    "address_councildis": "C",
    "status": "Pending",
    "rowid": "1254235",
    "final_x": "3702684.66372",
    "final_y": "523142.972795",
    "longitude": "-90.001484720871",
    "latitude": "29.9318015929379",
    "geocoded_column": {
      "latitude": "29.9318015929379",
      "longitude": "-90.001484720871"
    }
  },
  {
    "service_request": "2026-1254234",
    "request_type": "Drainage",
    "request_reason": "Drainage Manhole Cover Missing or Damaged",
    "date_created": "2026-01-23T15:57:44.000",
    "date_modified": "2026-01-23T15:57:46.000",
    "request_status": "Pending",
    "responsible_agency": "Sewerage & Water Board",
    "final_address": "CITY PARK AVE & CONTI ST",
    "address_councildis": "A",
    "status": "Pending",
    "rowid": "1254234",
    "final_x": "3668924.8",
    "final_y": "541459.48",
    "longitude": "-90.10744261666858",
    "latitude": "29.98320175304132",
    "geocoded_column": {
      "latitude": "29.98320175304132",
      "longitude": "-90.10744261666858"
    }
  },
  {
    "service_request": "2026-1254233",
    "request_type": "Trash/Recycling",
    "request_reason": "Order Recycling Cart",
    "date_created": "2026-01-23T15:53:49.000",
    "date_modified": "2026-01-23T15:53:51.000",
    "request_status": "Pending",
    "responsible_agency": "Department of Sanitation",
    "final_address": "3701 Magazine St Apt 2A",
    "address_councildis": "B",
    "status": "Pending",
    "rowid": "1254233",
    "final_x": "3673528.25512",
    "final_y": "519202.471991",
    "longitude": "-90.09366305833447",
    "latitude": "29.921866132911102",
    "geocoded_column": {
      "latitude": "29.921866132911102",
      "longitude": "-90.09366305833447"
    }
  },
  {
    "service_request": "2026-1254232",
    "request_type": "Trash/Recycling",
    "request_reason": "Order Trash Cart",
    "date_created": "2026-01-23T15:53:05.000",
    "date_modified": "2026-01-23T15:53:07.000",
    "request_status": "Pending",
    "responsible_agency": "Department of Sanitation",
    "final_address": "3701 Magazine St Apt 2A",
    "address_councildis": "B",
    "status": "Assigned to Contractor",
    "contractor": "IV Waste",
    "rowid": "1254232",
    "final_x": "3673528.25512",
    "final_y": "519202.471991",
    "longitude": "-90.09366305833447",
    "latitude": "29.921866132911102",
    "geocoded_column": {
      "latitude": "29.921866132911102",
      "longitude": "-90.09366305833447"
    }
  },
  {
    "service_request": "2026-1254231",
    "request_type": "Trash/Recycling",
    "request_reason": "Start Trash Service",
    "date_created": "2026-01-23T15:51:44.000",
    "date_modified": "2026-01-23T15:51:45.000",
    "request_status": "Pending",
    "responsible_agency": "Department of Sanitation",
    "final_address": "3701 Magazine St Apt 2A",
    "address_councildis": "B",
    "status": "Assigned to Contractor",
    "contractor": "IV Waste",
    "rowid": "1254231",
    "final_x": "3673528.25512",
    "final_y": "519202.471991",
    "longitude": "-90.09366305833447",
    "latitude": "29.921866132911102",
    "geocoded_column": {
      "latitude": "29.921866132911102",
      "longitude": "-90.09366305833447"
    }
  },
  {
    "service_request": "2026-1254230",
    "request_type": "Roads and Streets",
    "request_reason": "ADA Ramps Damaged or Missing",
    "date_created": "2026-01-23T15:45:12.000",
    "date_modified": "2026-01-23T15:45:14.000",
    "request_status": "Pending",
    "responsible_agency": "Department of Public Works",
    "final_address": "310 Dauphine St",
    "address_councildis": "C",
    "status": "Pending",
    "rowid": "1254230",
    "final_x": "3681177.48808",
    "final_y": "531799.357635",
    "longitude": "-90.06907896474065",
    "latitude": "29.956273609896247",
    "geocoded_column": {
      "latitude": "29.956273609896247",
      "longitude": "-90.06907896474065"
    }
  },
  {
    "service_request": "2026-1254229",
    "request_type": "Roads and Streets",
    "request_reason": "Pothole",
    "date_created": "2026-01-23T15:42:26.000",
    "date_modified": "2026-01-23T15:42:27.000",
    "request_status": "Pending",
    "responsible_agency": "Department of Public Works",
    "final_address": "S CLAIBORNE AVE & CLEVELAND AVE",
    "address_councildis": "B",
    "status": "Pending",
    "rowid": "1254229",
    "final_x": "3678076.2",
    "final_y": "532500.88",
    "longitude": "-90.0788475433048",
    "latitude": "29.958296283105955",
    "geocoded_column": {
      "latitude": "29.958296283105955",
      "longitude": "-90.0788475433048"
    }
  },
  {
    "service_request": "2026-1254227",
    "request_type": "Trash/Recycling",
    "request_reason": "Order Second Trash Cart",
    "date_created": "2026-01-23T15:41:43.000",
    "date_modified": "2026-01-23T15:41:44.000",
    "request_status": "Pending",
    "responsible_agency": "Department of Sanitation",
    "final_address": "7434 Read Blvd",
    "address_councildis": "E",
    "status": "Assigned to Contractor",
    "contractor": "Waste Pro",
    "rowid": "1254227",
    "final_x": "3708691.52184",
    "final_y": "563974.313761",
    "longitude": "-89.98100061946067",
    "latitude": "30.043879086237517",
    "geocoded_column": {
      "latitude": "30.043879086237517",
      "longitude": "-89.98100061946067"
    }
  },
  {
    "service_request": "2026-1254228",
    "request_type": "Roads and Streets",
    "request_reason": "Debris in Driving Lanes",
    "date_created": "2026-01-23T15:41:43.000",
    "date_modified": "2026-01-23T15:41:45.000",
    "request_status": "Pending",
    "responsible_agency": "Department of Public Works",
    "final_address": "2742 St Charles Ave",
    "address_councildis": "B",
    "status": "Pending",
    "rowid": "1254228",
    "final_x": "3676022.74901",
    "final_y": "522469.35577",
    "longitude": "-90.08567670604667",
    "latitude": "29.93077456294261",
    "geocoded_column": {
      "latitude": "29.93077456294261",
      "longitude": "-90.08567670604667"
    }
  },
  {
    "service_request": "2026-1254226",
    "request_type": "Trash/Recycling",
    "request_reason": "Order Trash Cart",
    "date_created": "2026-01-23T15:41:34.000",
    "date_modified": "2026-01-23T15:41:35.000",
    "request_status": "Pending",
    "responsible_agency": "Department of Sanitation",
    "final_address": "4315 S Miro St",
    "address_councildis": "B",
    "status": "Assigned to Contractor",
    "contractor": "IV Waste",
    "rowid": "1254226",
    "final_x": "3670418.3627",
    "final_y": "527900.283711",
    "longitude": "-90.10318494202973",
    "latitude": "29.945874463483193",
    "geocoded_column": {
      "latitude": "29.945874463483193",
      "longitude": "-90.10318494202973"
    }
  },
  {
    "service_request": "2026-1254225",
    "request_type": "Trash/Recycling",
    "request_reason": "Order Recycling Cart",
    "date_created": "2026-01-23T15:40:39.000",
    "date_modified": "2026-01-23T15:40:40.000",
    "request_status": "Pending",
    "responsible_agency": "Department of Sanitation",
    "final_address": "4315 S Miro St",
    "address_councildis": "B",
    "status": "Pending",
    "rowid": "1254225",
    "final_x": "3670418.3627",
    "final_y": "527900.283711",
    "longitude": "-90.10318494202973",
    "latitude": "29.945874463483193",
    "geocoded_column": {
      "latitude": "29.945874463483193",
      "longitude": "-90.10318494202973"
    }
  },
  {
    "service_request": "2026-1254224",
    "request_type": "Trash/Recycling",
    "request_reason": "Start Trash Service",
    "date_created": "2026-01-23T15:40:10.000",
    "date_modified": "2026-01-23T15:40:13.000",
    "request_status": "Pending",
    "responsible_agency": "Department of Sanitation",
    "final_address": "4315 S Miro St",
    "address_councildis": "B",
    "status": "Assigned to Contractor",
    "contractor": "IV Waste",
    "rowid": "1254224",
    "final_x": "3670418.3627",
    "final_y": "527900.283711",
    "longitude": "-90.10318494202973",
    "latitude": "29.945874463483193",
    "geocoded_column": {
      "latitude": "29.945874463483193",
      "longitude": "-90.10318494202973"
    }
  },
  {
    "service_request": "2026-1254223",
    "request_type": "Trash/Recycling",
    "request_reason": "Return Trash Cart",
    "date_created": "2026-01-23T15:35:15.000",
    "date_modified": "2026-01-23T15:35:17.000",
    "request_status": "Pending",
    "responsible_agency": "Department of Sanitation",
    "final_address": "1823 Seventh St",
    "address_councildis": "B",
    "status": "Assigned to Contractor",
    "contractor": "IV Waste",
    "rowid": "1254223",
    "final_x": "3674856.21595",
    "final_y": "522923.632059",
    "longitude": "-90.08934372069942",
    "latitude": "29.932058549752814",
    "geocoded_column": {
      "latitude": "29.932058549752814",
      "longitude": "-90.08934372069942"
    }
  },
  {
    "service_request": "2026-1254222",
    "request_type": "Trash/Recycling",
    "request_reason": "Illegal Dumping",
    "date_created": "2026-01-23T15:31:07.000",
    "date_modified": "2026-01-23T15:32:15.000",
    "request_status": "Pending",
    "responsible_agency": "Department of Sanitation",
    "final_address": "OLD GENTILLY RD & ST FERDINAND ST",
    "address_councildis": "D",
    "status": "Pending",
    "rowid": "1254222",
    "final_x": "3689817.0",
    "final_y": "548738.28",
    "longitude": "-90.04119520970319",
    "latitude": "30.00258468878637",
    "geocoded_column": {
      "latitude": "30.00258468878637",
      "longitude": "-90.04119520970319"
    }
  },
  {
    "service_request": "2026-1254221",
    "request_type": "Trash/Recycling",
    "request_reason": "Order Second Trash Cart",
    "date_created": "2026-01-23T15:26:26.000",
    "date_modified": "2026-01-23T15:27:05.000",
    "request_status": "Pending",
    "responsible_agency": "Department of Sanitation",
    "final_address": "2815 Orchid St",
    "address_councildis": "A",
    "status": "Assigned to Contractor",
    "contractor": "IV Waste",
    "rowid": "1254221",
    "final_x": "3677191.2461",
    "final_y": "538818.496265",
    "longitude": "-90.0814240290981",
    "latitude": "29.975694190795636",
    "geocoded_column": {
      "latitude": "29.975694190795636",
      "longitude": "-90.0814240290981"
    }
  },
  {
    "service_request": "2026-1254220",
    "request_type": "Trash/Recycling",
    "request_reason": "Request a Large Item Pick Up",
    "date_created": "2026-01-23T15:22:44.000",
    "date_modified": "2026-01-23T15:22:45.000",
    "request_status": "Pending",
    "responsible_agency": "Department of Sanitation",
    "final_address": "1523 Cambronne St",
    "address_councildis": "A",
    "status": "Assigned to Contractor",
    "contractor": "IV Waste",
    "rowid": "1254220",
    "final_x": "3662037.79827",
    "final_y": "529998.105857",
    "longitude": "-90.1295757468722",
    "latitude": "29.951887533736425",
    "geocoded_column": {
      "latitude": "29.951887533736425",
      "longitude": "-90.1295757468722"
    }
  },
  {
    "service_request": "2026-1254219",
    "request_type": "Trash/Recycling",
    "request_reason": "Repair Recycling Cart",
    "date_created": "2026-01-23T15:18:41.000",
    "date_modified": "2026-01-23T15:18:42.000",
    "request_status": "Pending",
    "responsible_agency": "Department of Sanitation",
    "final_address": "4633 St Roch Ave",
    "address_councildis": "D",
    "status": "Pending",
    "rowid": "1254219",
    "final_x": "3685475.80054",
    "final_y": "549834.382676",
    "longitude": "-90.05487096417855",
    "latitude": "30.005732467816554",
    "geocoded_column": {
      "latitude": "30.005732467816554",
      "longitude": "-90.05487096417855"
    }
  },
  {
    "service_request": "2026-1254218",
    "request_type": "Drainage",
    "request_reason": "Catch Basin Not Draining",
    "date_created": "2026-01-23T15:18:01.000",
    "date_modified": "2026-01-23T15:18:03.000",
    "request_status": "Pending",
    "responsible_agency": "Sewerage & Water Board",
    "final_address": "6139 N Rampart St",
    "address_councildis": "E",
    "status": "Pending",
    "rowid": "1254218",
    "final_x": "3699641.41008",
    "final_y": "532809.82394",
    "longitude": "-90.01073963189948",
    "latitude": "29.958478955646143",
    "geocoded_column": {
      "latitude": "29.958478955646143",
      "longitude": "-90.01073963189948"
    }
  },
  {
    "service_request": "2026-1254217",
    "request_type": "Property Maintenance",
    "request_reason": "Property Maintenance",
    "date_created": "2026-01-23T15:14:23.000",
    "date_modified": "2026-01-23T15:14:24.000",
    "request_status": "Pending",
    "responsible_agency": "Department of Code Enforcement",
    "final_address": "3339 Allen St",
    "address_councildis": "D",
    "status": "Pending",
    "rowid": "1254217",
    "final_x": "3682113.47791",
    "final_y": "544929.860943",
    "longitude": "-90.06566472553969",
    "latitude": "29.992349508345924",
    "geocoded_column": {
      "latitude": "29.992349508345924",
      "longitude": "-90.06566472553969"
    }
  },
  {
    "service_request": "2026-1254216",
    "request_type": "Trash/Recycling",
    "request_reason": "Illegal Dumping",
    "date_created": "2026-01-23T15:13:29.000",
    "date_modified": "2026-01-23T15:13:30.000",
    "request_status": "Pending",
    "responsible_agency": "Department of Sanitation",
    "final_address": "2529 St Peter St",
    "address_councildis": "D",
    "status": "Pending",
    "rowid": "1254216",
    "final_x": "3677293.56712",
    "final_y": "536426.954119",
    "longitude": "-90.08118340987299",
    "latitude": "29.96911519392079",
    "geocoded_column": {
      "latitude": "29.96911519392079",
      "longitude": "-90.08118340987299"
    }
  },
  {
    "service_request": "2026-1254215",
    "request_type": "Drainage",
    "request_reason": "Catch Basin Frame and Cover Missing or Damaged",
    "date_created": "2026-01-23T15:05:00.000",
    "date_modified": "2026-01-23T15:05:54.000",
    "request_status": "Pending",
    "responsible_agency": "Sewerage & Water Board",
    "final_address": "CADIZ ST & CLARA ST",
    "address_councildis": "B",
    "status": "Pending",
    "rowid": "1254215",
    "final_x": "3669684.5",
    "final_y": "525012.28",
    "longitude": "-90.10559970037548",
    "latitude": "29.937955032727107",
    "geocoded_column": {
      "latitude": "29.937955032727107",
      "longitude": "-90.10559970037548"
    }
  },
  {
    "service_request": "2026-1254214",
    "request_type": "Trash/Recycling",
    "request_reason": "Request a Large Item Pick Up",
    "date_created": "2026-01-23T15:04:02.000",
    "date_modified": "2026-01-24T06:26:31.000",
    "case_close_date": "2026-01-24T00:26:30.000",
    "request_status": "Closed",
    "responsible_agency": "Department of Sanitation",
    "final_address": "923 Tchoupitoulas St",
    "address_councildis": "B",
    "status": "Assigned to Contractor",
    "contractor": "IV Waste",
    "contractor_action": "Completed",
    "rowid": "1254214",
    "final_x": "3681647.45519",
    "final_y": "526914.50931",
    "longitude": "-90.06776533153192",
    "latitude": "29.942827656609296",
    "geocoded_column": {
      "latitude": "29.942827656609296",
      "longitude": "-90.06776533153192"
    }
  },
  {
    "service_request": "2026-1254213",
    "request_type": "Trash/Recycling",
    "request_reason": "Repair Trash Cart",
    "date_created": "2026-01-23T15:03:33.000",
    "date_modified": "2026-01-23T15:13:16.000",
    "request_status": "Pending",
    "responsible_agency": "Department of Sanitation",
    "final_address": "1929 Desire St",
    "address_councildis": "D",
    "status": "Assigned to Contractor",
    "contractor": "IV Waste",
    "rowid": "1254213",
    "final_x": "3691043.95523",
    "final_y": "538974.13921",
    "longitude": "-90.03766790656269",
    "latitude": "29.975698720787026",
    "geocoded_column": {
      "latitude": "29.975698720787026",
      "longitude": "-90.03766790656269"
    }
  },
  {
    "service_request": "2026-1254212",
    "request_type": "Trash/Recycling",
    "request_reason": "Replace Trash Cart",
    "date_created": "2026-01-23T15:02:57.000",
    "date_modified": "2026-01-23T15:03:00.000",
    "request_status": "Pending",
    "responsible_agency": "Department of Sanitation",
    "final_address": "2700 Fourth St",
    "address_councildis": "B",
    "status": "Assigned to Contractor",
    "contractor": "IV Waste",
    "rowid": "1254212",
    "final_x": "3673925.4443",
    "final_y": "526065.321342",
    "longitude": "-90.09217464654839",
    "latitude": "29.94072492479712",
    "geocoded_column": {
      "latitude": "29.94072492479712",
      "longitude": "-90.09217464654839"
    }
  },
  {
    "service_request": "2026-1254211",
    "request_type": "Parks & Parkways",
    "request_reason": "Request Tree Service (Right of Way/Public Property)",
    "date_created": "2026-01-23T14:59:53.000",
    "date_modified": "2026-01-23T14:59:55.000",
    "request_status": "Pending",
    "responsible_agency": "Department of Parks & Parkway",
    "final_address": "6112 Marshal Foch St",
    "address_councildis": "A",
    "status": "Pending",
    "rowid": "1254211",
    "final_x": "3669823.98145",
    "final_y": "547946.85813",
    "longitude": "-90.10438276174045",
    "latitude": "30.00101332862285",
    "geocoded_column": {
      "latitude": "30.00101332862285",
      "longitude": "-90.10438276174045"
    }
  },
  {
    "service_request": "2026-1254210",
    "request_type": "Roads and Streets",
    "request_reason": "Pothole",
    "date_created": "2026-01-23T14:57:45.000",
    "date_modified": "2026-01-23T14:57:47.000",
    "request_status": "Pending",
    "responsible_agency": "Department of Public Works",
    "final_address": "1719 S Rendon St",
    "address_councildis": "B",
    "status": "Pending",
    "rowid": "1254210",
    "final_x": "3669536.59809",
    "final_y": "530687.777218",
    "longitude": "-90.10587469716206",
    "latitude": "29.9535651591184",
    "geocoded_column": {
      "latitude": "29.9535651591184",
      "longitude": "-90.10587469716206"
    }
  },
  {
    "service_request": "2026-1254209",
    "request_type": "Trash/Recycling",
    "request_reason": "Request a Large Item Pick Up",
    "date_created": "2026-01-23T14:54:23.000",
    "date_modified": "2026-01-23T14:54:25.000",
    "request_status": "Pending",
    "responsible_agency": "Department of Sanitation",
    "final_address": "6919 Foch Rd",
    "address_councildis": "D",
    "status": "Assigned to Contractor",
    "contractor": "Waste Pro",
    "rowid": "1254209",
    "final_x": "3696710.78461",
    "final_y": "556493.261658",
    "longitude": "-90.01913597698528",
    "latitude": "30.023692418779596",
    "geocoded_column": {
      "latitude": "30.023692418779596",
      "longitude": "-90.01913597698528"
    }
  },
  {
    "service_request": "2026-1254207",
    "request_type": "Healthy Homes",
    "request_reason": "Healthy Homes",
    "date_created": "2026-01-23T14:52:05.000",
    "date_modified": "2026-01-23T14:52:06.000",
    "request_status": "Pending",
    "responsible_agency": "Department of Code Enforcement",
    "final_address": "2618 Lepage St",
    "address_councildis": "A",
    "status": "Pending",
    "rowid": "1254207",
    "final_x": "3678326.47163",
    "final_y": "539509.277066",
    "longitude": "-90.07781476399029",
    "latitude": "29.977559446741445",
    "geocoded_column": {
      "latitude": "29.977559446741445",
      "longitude": "-90.07781476399029"
    }
  },
  {
    "service_request": "2026-1254208",
    "request_type": "Trash/Recycling",
    "request_reason": "Missed Trash Pick-Up",
    "date_created": "2026-01-23T14:52:05.000",
    "date_modified": "2026-01-23T14:52:07.000",
    "request_status": "Pending",
    "responsible_agency": "Department of Sanitation",
    "final_address": "5111 N Roman St",
    "address_councildis": "E",
    "status": "Assigned to Contractor",
    "contractor": "Waste Pro",
    "rowid": "1254208",
    "final_x": "3697110.28432",
    "final_y": "536810.439368",
    "longitude": "-90.01858725977259",
    "latitude": "29.969559315333782",
    "geocoded_column": {
      "latitude": "29.969559315333782",
      "longitude": "-90.01858725977259"
    }
  },
  {
    "service_request": "2026-1254206",
    "request_type": "Trash/Recycling",
    "request_reason": "Damaged Caused By Contractor",
    "date_created": "2026-01-23T14:52:04.000",
    "date_modified": "2026-01-23T15:43:59.000",
    "case_close_date": "2026-01-23T09:43:58.000",
    "request_status": "Closed",
    "responsible_agency": "Department of Sanitation",
    "final_address": "6919 Foch Rd",
    "address_councildis": "D",
    "status": "Assigned to Contractor",
    "contractor": "Waste Pro",
    "contractor_action": "Additional information required from resident",
    "rowid": "1254206",
    "final_x": "3696710.78461",
    "final_y": "556493.261658",
    "longitude": "-90.01913597698528",
    "latitude": "30.023692418779596",
    "geocoded_column": {
      "latitude": "30.023692418779596",
      "longitude": "-90.01913597698528"
    }
  },
  {
    "service_request": "2026-1254205",
    "request_type": "Trash/Recycling",
    "request_reason": "Repair Recycling Cart",
    "date_created": "2026-01-23T14:49:58.000",
    "date_modified": "2026-01-23T14:50:00.000",
    "request_status": "Pending",
    "responsible_agency": "Department of Sanitation",
    "final_address": "2210 Jena St",
    "address_councildis": "B",
    "status": "Pending",
    "rowid": "1254205",
    "final_x": "3670194.10298",
    "final_y": "523056.747963",
    "longitude": "-90.10405706949118",
    "latitude": "29.93256292593145",
    "geocoded_column": {
      "latitude": "29.93256292593145",
      "longitude": "-90.10405706949118"
    }
  },
  {
    "service_request": "2026-1254204",
    "request_type": "Trash/Recycling",
    "request_reason": "Repair Trash Cart",
    "date_created": "2026-01-23T14:46:17.000",
    "date_modified": "2026-01-23T14:46:18.000",
    "request_status": "Pending",
    "responsible_agency": "Department of Sanitation",
    "final_address": "6961 Queensway Dr",
    "address_councildis": "E",
    "status": "Assigned to Contractor",
    "contractor": "Waste Pro",
    "rowid": "1254204",
    "final_x": "3719527.50117",
    "final_y": "569059.669798",
    "longitude": "-89.9465600954472",
    "latitude": "30.05750562314138",
    "geocoded_column": {
      "latitude": "30.05750562314138",
      "longitude": "-89.9465600954472"
    }
  },
  {
    "service_request": "2026-1254203",
    "request_type": "Trash/Recycling",
    "request_reason": "Illegal Dumping",
    "date_created": "2026-01-23T14:44:07.000",
    "date_modified": "2026-01-23T14:44:08.000",
    "request_status": "Pending",
    "responsible_agency": "Department of Sanitation",
    "final_address": "202 Pacific Ave",
    "address_councildis": "C",
    "status": "Pending",
    "rowid": "1254203",
    "final_x": "3688584.9343",
    "final_y": "531115.952258",
    "longitude": "-90.04571305136906",
    "latitude": "29.954167673553734",
    "geocoded_column": {
      "latitude": "29.954167673553734",
      "longitude": "-90.04571305136906"
    }
  },
  {
    "service_request": "2026-1254202",
    "request_type": "Trash/Recycling",
    "request_reason": "Repair Trash Cart",
    "date_created": "2026-01-23T14:30:12.000",
    "date_modified": "2026-01-23T15:12:46.000",
    "request_status": "Pending",
    "responsible_agency": "Department of Sanitation",
    "final_address": "1103 Royal St",
    "address_councildis": "C",
    "status": "Assigned to Contractor",
    "contractor": "IV Waste",
    "rowid": "1254202",
    "final_x": "3683454.08885",
    "final_y": "533683.208389",
    "longitude": "-90.06182422292649",
    "latitude": "29.961384290915166",
    "geocoded_column": {
      "latitude": "29.961384290915166",
      "longitude": "-90.06182422292649"
    }
  },
  {
    "service_request": "2026-1254201",
    "request_type": "Trash/Recycling",
    "request_reason": "Request a Large Item Pick Up",
    "date_created": "2026-01-23T14:25:37.000",
    "date_modified": "2026-01-23T16:55:57.000",
    "case_close_date": "2026-01-23T10:55:57.000",
    "request_status": "Closed",
    "responsible_agency": "Department of Sanitation",
    "final_address": "4850 Gawain Dr",
    "address_councildis": "E",
    "status": "Assigned to Contractor",
    "contractor": "Waste Pro",
    "contractor_action": "Duplicate",
    "rowid": "1254201",
    "final_x": "3706817.88465",
    "final_y": "556283.705818",
    "longitude": "-89.98720762520381",
    "latitude": "30.022793608525138",
    "geocoded_column": {
      "latitude": "30.022793608525138",
      "longitude": "-89.98720762520381"
    }
  },