[
  {
    "service_request": "2022-952100",
    "request_type": "Trash/Recycling",
    "request_reason": "Request a Large Item Pick Up",
    "date_created": "2022-12-12T00:41:53.000",
    "date_modified": "2022-12-12T00:41:54.000",
    "request_status": "Pending",
    "responsible_agency": "Department of Sanitation",
    "final_address": "1940 Eagle St",
    "address_councildis": "A",
    "status": "Assigned to Contractor",
    "contractor": "Richards Disposal",
    "rowid": "952100",
    "final_x": "3661957.53024",
    "final_y": "532116.562947",
    "longitude": "-90.12975893524977",
    "latitude": "29.957714925181932",
    "geocoded_column": {
      "latitude": "29.957714925181932",
      "longitude": "-90.12975893524977"
    }
  },
  {
    "service_request": "2022-952099",
    "request_type": "Health Related Request",
    "request_reason": "Noise Ordinance Complaint",
    "date_created": "2022-12-12T00:39:12.000",
    "date_modified": "2022-12-12T00:39:12.000",
    "request_status": "Pending",
    "responsible_agency": "Health Department",
    "final_address": "1009 N Claiborne Ave, New Orleans, Louisiana, 70116",
    "address_councildis": "D",
    "status": "Pending",
    "rowid": "952099",
    "final_x": "3680417.66101",
    "final_y": "535635.218886",
    "longitude": "-90.07134484150656",
    "latitude": "29.966843952035386",
    "geocoded_column": {
      "latitude": "29.966843952035386",
      "longitude": "-90.07134484150656"
    }
  },
  {
    "service_request": "2022-952098",
    "request_type": "Trash/Recycling",
    "request_reason": "Missed Trash Pick-Up",
    "date_created": "2022-12-11T23:44:37.000",
    "date_modified": "2022-12-11T23:44:38.000",
    "request_status": "Pending",
    "responsible_agency": "Department of Sanitation",
    "final_address": "3313 Camp St",
    "address_councildis": "B",
    "status": "Assigned to Contractor",
    "contractor": "Richards Disposal",
    "rowid": "952098",
    "final_x": "3675111.24366",
    "final_y": "520117.95052",
    "longitude": "-90.08863483730508",
    "latitude": "29.924336217978798",
    "geocoded_column": {
      "latitude": "29.924336217978798",
      "longitude": "-90.08863483730508"
    }
  },
  {
    "service_request": "2022-952096",
    "request_type": "Safety & Permits",
    "request_reason": "Licenses & Permits",
    "date_created": "2022-12-11T23:21:12.000",
    "date_modified": "2022-12-11T23:21:12.000",
    "request_status": "Pending",
    "responsible_agency": "Safety and Permits",
    "final_address": "4523 Magazine St",
    "address_councildis": "B",
    "status": "Pending",
    "rowid": "952096",
    "final_x": "3670459.91399",
    "final_y": "518764.599223",
    "longitude": "-90.10336337284775",
    "latitude": "29.920753043460966",
    "geocoded_column": {
      "latitude": "29.920753043460966",
      "longitude": "-90.10336337284775"
    }
  },
  {
    "service_request": "2022-952095",
    "request_type": "Roads/Drainage",
    "request_reason": "Street Subsidence (Sinking)",
    "date_created": "2022-12-11T23:20:59.000",
    "date_modified": "2022-12-11T23:20:59.000",
    "request_status": "Pending",
    "responsible_agency": "Department of Public Works",
    "final_address": "3828 Dryades St",
    "address_councildis": "B",
    "status": "Pending",
    "rowid": "952095",
    "final_x": "3672419.82427",
    "final_y": "522083.51065",
    "longitude": "-90.0970637924963",
    "latitude": "29.929820993114532",
    "geocoded_column": {
      "latitude": "29.929820993114532",
      "longitude": "-90.0970637924963"
    }
  },
  {
    "service_request": "2022-952094",
    "request_type": "Trash/Recycling",
    "request_reason": "Replace Trash Cart",
    "date_created": "2022-12-11T23:08:36.000",
    "date_modified": "2022-12-11T23:08:37.000",
    "request_status": "Pending",
    "responsible_agency": "Department of Sanitation",
    "final_address": "4430 Laine Ave",
    "address_councildis": "E",
    "status": "Assigned to Contractor",
    "contractor": "Waste Pro",
    "rowid": "952094",
    "final_x": "3705807.14558",
    "final_y": "553614.540375",
    "longitude": "-89.99050014124",
    "latitude": "30.015487044914874",
    "geocoded_column": {
      "latitude": "30.015487044914874",
      "longitude": "-89.99050014124"
    }
  },
  {
    "service_request": "2022-952093",
    "request_type": "Trash/Recycling",
    "request_reason": "Replace Trash Cart",
    "date_created": "2022-12-11T23:08:36.000",
    "date_modified": "2022-12-11T23:08:37.000",
    "request_status": "Pending",
    "responsible_agency": "Department of Sanitation",
    "final_address": "4430 Laine Ave",
    "address_councildis": "E",
    "status": "Assigned to Contractor",
    "contractor": "Waste Pro",
    "rowid": "952093",
    "final_x": "3705807.14558",
    "final_y": "553614.540375",
    "longitude": "-89.99050014124",
    "latitude": "30.015487044914874",
    "geocoded_column": {
      "latitude": "30.015487044914874",
      "longitude": "-89.99050014124"
    }
  },
  {
    "service_request": "2022-952092",
    "request_type": "Trash/Recycling",
    "request_reason": "Request a Large Item Pick Up",
    "date_created": "2022-12-11T22:36:24.000",
    "date_modified": "2022-12-11T22:36:24.000",
    "request_status": "Pending",
    "responsible_agency": "Department of Sanitation",
    "final_address": "2428 Amelia St",
    "address_councildis": "B",
    "status": "Assigned to Contractor",
    "contractor": "Richards Disposal",
    "rowid": "952092",
    "final_x": "3672355.39527",
    "final_y": "524144.14438",
    "longitude": "-90.09719700726566",
    "latitude": "29.93548898155597",
    "geocoded_column": {
      "latitude": "29.93548898155597",
      "longitude": "-90.09719700726566"
    }
  },
  {
    "service_request": "2022-952091",
    "request_type": "Trash/Recycling",
    "request_reason": "MIssed Recycling Pick-Up",
    "date_created": "2022-12-11T22:36:20.000",
    "date_modified": "2022-12-11T22:36:20.000",
    "request_status": "Pending",
    "responsible_agency": "Department of Sanitation",
    "final_address": "2814 Seine St",
    "address_councildis": "C",
    "status": "Assigned to Contractor",
    "contractor": "Richards Disposal",
    "rowid": "952091",
    "final_x": "3693417.14537",
    "final_y": "521015.798969",
    "longitude": "-90.03081746734189",
    "latitude": "29.926245526240336",
    "geocoded_column": {
      "latitude": "29.926245526240336",
      "longitude": "-90.03081746734189"
    }
  },
  {
    "service_request": "2022-952090",
    "request_type": "Safety & Permits",
    "request_reason": "Safety & Permits Request (Cyber Incident Back Up)",
    "date_created": "2022-12-11T22:20:05.000",
    "date_modified": "2022-12-11T22:20:05.000",
    "request_status": "Pending",
    "responsible_agency": "Safety and Permits",
    "final_address": "4740 De Montluzin St",
    "address_councildis": "D",
    "status": "Pending",
    "rowid": "952090",
    "final_x": "3687087.37378",
    "final_y": "550618.100756",
    "longitude": "-90.04975190976606",
    "latitude": "30.007837867099038",
    "geocoded_column": {
      "latitude": "30.007837867099038",
      "longitude": "-90.04975190976606"
    }
  },
  {
    "service_request": "2022-952089",
    "request_type": "Trash/Recycling",
    "request_reason": "MIssed Recycling Pick-Up",
    "date_created": "2022-12-11T21:45:24.000",
    "date_modified": "2022-12-11T21:45:24.000",
    "request_status": "Pending",
    "responsible_agency": "Department of Sanitation",
    "final_address": "7811 St Charles Ave",
    "address_councildis": "A",
    "status": "Assigned to Contractor",
    "contractor": "Richards Disposal",
    "rowid": "952089",
    "final_x": "3661369.38669",
    "final_y": "526185.045118",
    "longitude": "-90.13181253396668",
    "latitude": "29.941422125431757",
    "geocoded_column": {
      "latitude": "29.941422125431757",
      "longitude": "-90.13181253396668"
    }
  },
  {
    "service_request": "2022-952088",
    "request_type": "Traffic Signals/Signs/Striping/Streetlights",
    "request_reason": "Street Light Outage/Malfunction",
    "date_created": "2022-12-11T21:14:56.000",
    "date_modified": "2022-12-11T21:14:57.000",
    "request_status": "Pending",
    "responsible_agency": "Department of Public Works",
    "final_address": "7040 Coliseum St",
    "address_councildis": "A",
    "status": "Pending",
    "contractor": "Legacy Professional Services",
    "rowid": "952088",
    "final_x": "3661580.94797",
    "final_y": "521907.78617",
    "longitude": "-90.13128625611769",
    "latitude": "29.929654910570733",
    "geocoded_column": {
      "latitude": "29.929654910570733",
      "longitude": "-90.13128625611769"
    }
  },
  {
    "service_request": "2022-952087",
    "request_type": "Trash/Recycling",
    "request_reason": "Request a Large Item Pick Up",
    "date_created": "2022-12-11T21:11:56.000",
    "date_modified": "2022-12-11T21:11:56.000",
    "request_status": "Pending",
    "responsible_agency": "Department of Sanitation",
    "final_address": "6501 Vicksburg St",
    "address_councildis": "A",
    "status": "Assigned to Contractor",
    "contractor": "IV Waste",
    "rowid": "952087",
    "final_x": "3669272.69191",
    "final_y": "550716.028693",
    "longitude": "-90.10603063534911",
    "latitude": "30.008643827894204",
    "geocoded_column": {
      "latitude": "30.008643827894204",
      "longitude": "-90.10603063534911"
    }
  },
  {
    "service_request": "2022-952086",
    "request_type": "Trash/Recycling",
    "request_reason": "Order Trash Cart",
    "date_created": "2022-12-11T20:40:40.000",
    "date_modified": "2022-12-11T20:40:40.000",
    "request_status": "Pending",
    "responsible_agency": "Department of Sanitation",
    "final_address": "522 S Cortez St",
    "address_councildis": "B",
    "status": "Assigned to Contractor",
    "contractor": "Richards Disposal",
    "rowid": "952086",
    "final_x": "3671020.73499",
    "final_y": "536144.772487",
    "longitude": "-90.10100309130189",
    "latitude": "29.96852628223104",
    "geocoded_column": {
      "latitude": "29.96852628223104",
      "longitude": "-90.10100309130189"
    }
  },
  {
    "service_request": "2022-952085",
    "request_type": "Traffic Signals/Signs/Striping/Streetlights",
    "request_reason": "Street Light Outage/Malfunction",
    "date_created": "2022-12-11T20:35:37.000",
    "date_modified": "2022-12-11T20:35:38.000",
    "request_status": "Pending",
    "responsible_agency": "Department of Public Works",
    "final_address": "2103 General Pershing St",
    "address_councildis": "B",
    "status": "Pending",
    "contractor": "Legacy Professional Services",
    "rowid": "952085",
    "final_x": "3671150.17012",
    "final_y": "522750.006842",
    "longitude": "-90.10104925414099",
    "latitude": "29.931691248963595",
    "geocoded_column": {
      "latitude": "29.931691248963595",
      "longitude": "-90.10104925414099"
    }
  },
  {
    "service_request": "2022-952084",
    "request_type": "Trash/Recycling",
    "request_reason": "Request a Large Item Pick Up",
    "date_created": "2022-12-11T20:35:05.000",
    "date_modified": "2022-12-11T20:35:06.000",
    "request_status": "Pending",
    "responsible_agency": "Department of Sanitation",
    "final_address": "4323 Vixen St",
    "address_councildis": "C",
    "status": "Assigned to Contractor",
    "contractor": "Richards Disposal",
    "rowid": "952084",
    "final_x": "3699517.86109",
    "final_y": "520650.359673",
    "longitude": "-90.01157267668405",
    "latitude": "29.925048597446466",
    "geocoded_column": {
      "latitude": "29.925048597446466",
      "longitude": "-90.01157267668405"
    }
  },
  {
    "service_request": "2022-952083",
    "request_type": "Trash/Recycling",
    "request_reason": "Order Recycling Cart",
    "date_created": "2022-12-11T20:24:54.000",
    "date_modified": "2022-12-11T20:24:54.000",
    "request_status": "Pending",
    "responsible_agency": "Department of Sanitation",
    "final_address": "5438 Chartres St",
    "address_councildis": "E",
    "status": "Pending",
    "rowid": "952083",
    "final_x": "3696969.10429",
    "final_y": "532016.096835",
    "longitude": "-90.01920676199221",
    "latitude": "29.95638102962125",
    "geocoded_column": {
      "latitude": "29.95638102962125",
      "longitude": "-90.01920676199221"
    }
  },
  {
    "service_request": "2022-952082",
    "request_type": "Roads/Drainage",
    "request_reason": "Street Flooding / Drainage",
    "date_created": "2022-12-11T20:15:22.000",
    "date_modified": "2022-12-11T20:15:22.000",
    "request_status": "Pending",
    "responsible_agency": "Department of Public Works",
    "final_address": "5575 Jacquelyn Ct",
    "address_councildis": "A",
    "status": "Pending",
    "rowid": "952082",
    "final_x": "3664531.53306",
    "final_y": "544794.791375",
    "longitude": "-90.1212074438025",
    "latitude": "29.992501239349508",
    "geocoded_column": {
      "latitude": "29.992501239349508",
      "longitude": "-90.1212074438025"
    }
  },
  {
    "service_request": "2022-952081",
    "request_type": "Roads/Drainage",
    "request_reason": "Street Subsidence (Sinking)",
    "date_created": "2022-12-11T20:14:21.000",
    "date_modified": "2022-12-11T20:14:21.000",
    "request_status": "Pending",
    "responsible_agency": "Department of Public Works",
    "final_address": "400 Harrison Ave, New Orleans, Louisiana, 70124",
    "address_councildis": "A",
    "status": "Pending",
    "rowid": "952081",
    "final_x": "3667636.16551",
    "final_y": "549245.662547",
    "longitude": "-90.11125051247275",
    "latitude": "30.00464892950619",
    "geocoded_column": {
      "latitude": "30.00464892950619",
      "longitude": "-90.11125051247275"
    }
  },
  {
    "service_request": "2022-952080",
    "request_type": "Roads/Drainage",
    "request_reason": "Street Subsidence (Sinking)",
    "date_created": "2022-12-11T20:12:27.000",
    "date_modified": "2022-12-11T20:12:27.000",
    "request_status": "Pending",
    "responsible_agency": "Department of Public Works",
    "final_address": "400 Harrison Ave, New Orleans, Louisiana, 70124",
    "address_councildis": "A",
    "status": "Pending",
    "rowid": "952080",
    "final_x": "3667636.16551",
    "final_y": "549245.662547",
    "longitude": "-90.11125051247275",
    "latitude": "30.00464892950619",
    "geocoded_column": {
      "latitude": "30.00464892950619",
      "longitude": "-90.11125051247275"
    }
  },
  {
    "service_request": "2022-952079",
    "request_type": "Trash/Recycling",
    "request_reason": "Order Recycling Cart",
    "date_created": "2022-12-11T20:10:31.000",
    "date_modified": "2022-12-11T20:10:31.000",
    "request_status": "Pending",
    "responsible_agency": "Department of Sanitation",
    "final_address": "1129 Piety St",
    "address_councildis": "C",
    "status": "Pending",
    "rowid": "952079",
    "final_x": "3689939.02352",
    "final_y": "536090.464519",
    "longitude": "-90.04126027538199",
    "latitude": "29.967803940177696",
    "geocoded_column": {
      "latitude": "29.967803940177696",
      "longitude": "-90.04126027538199"
    }
  },
  {
    "service_request": "2022-952078",
    "request_type": "Trash/Recycling",
    "request_reason": "Replace Trash Cart",
    "date_created": "2022-12-11T20:09:24.000",
    "date_modified": "2022-12-11T20:09:25.000",
    "request_status": "Pending",
    "responsible_agency": "Department of Sanitation",
    "final_address": "1129 Piety St",
    "address_councildis": "C",
    "status": "Assigned to Contractor",
    "contractor": "IV Waste",
    "rowid": "952078",
    "final_x": "3689939.02352",
    "final_y": "536090.464519",
    "longitude": "-90.04126027538199",
    "latitude": "29.967803940177696",
    "geocoded_column": {
      "latitude": "29.967803940177696",
      "longitude": "-90.04126027538199"
    }
  },
  {
    "service_request": "2022-952077",
    "request_type": "Trash/Recycling",
    "request_reason": "Missed Trash Pick-Up",
    "date_created": "2022-12-11T20:08:21.000",
    "date_modified": "2022-12-11T20:08:21.000",
    "request_status": "Pending",
    "responsible_agency": "Department of Sanitation",
    "final_address": "1021 Henry Clay Ave",
    "address_councildis": "A",
    "status": "Assigned to Contractor",
    "contractor": "Richards Disposal",
    "rowid": "952077",
    "final_x": "3664156.70228",
    "final_y": "520320.188152",
    "longitude": "-90.12320795011891",
    "latitude": "29.92521496487658",
    "geocoded_column": {
      "latitude": "29.92521496487658",
      "longitude": "-90.12320795011891"
    }
  },
  {
    "service_request": "2022-952076",
    "request_type": "Trash/Recycling",
    "request_reason": "Order Trash Cart",
    "date_created": "2022-12-11T20:06:50.000",
    "date_modified": "2022-12-11T20:06:51.000",
    "request_status": "Pending",
    "responsible_agency": "Department of Sanitation",
    "final_address": "5656 Campus Blvd",
    "address_councildis": "D",
    "status": "Assigned to Contractor",
    "contractor": "IV Waste",
    "rowid": "952076",
    "final_x": "3688939.50095",
    "final_y": "554133.983192",
    "longitude": "-90.04377549866281",
    "latitude": "30.017448068972417",
    "geocoded_column": {
      "latitude": "30.017448068972417",
      "longitude": "-90.04377549866281"
    }
  },
  {
    "service_request": "2022-952075",
    "request_type": "Trash/Recycling",
    "request_reason": "MIssed Recycling Pick-Up",
    "date_created": "2022-12-11T20:01:15.000",
    "date_modified": "2022-12-11T20:01:15.000",
    "request_status": "Pending",
    "responsible_agency": "Department of Sanitation",
    "final_address": "2600 BLK Clara St",
    "address_councildis": "B",
    "status": "Assigned to Contractor",
    "contractor": "Richards Disposal",
    "rowid": "952075",
    "final_x": "3673968.01029",
    "final_y": "526332.96451",
    "longitude": "-90.09203110421879",
    "latitude": "29.94145958802487",
    "geocoded_column": {
      "latitude": "29.94145958802487",
      "longitude": "-90.09203110421879"
    }
  },
  {
    "service_request": "2022-952074",
    "request_type": "Trash/Recycling",
    "request_reason": "Return Trash Cart",
    "date_created": "2022-12-11T20:00:52.000",
    "date_modified": "2022-12-11T20:00:52.000",
    "request_status": "Pending",
    "responsible_agency": "Department of Sanitation",
    "final_address": "8006 Nelson St",
    "address_councildis": "A",
    "status": "Assigned to Contractor",
    "contractor": "Richards Disposal",
    "rowid": "952074",
    "final_x": "3665367.32903",
    "final_y": "531563.207747",
    "longitude": "-90.11901025245511",
    "latitude": "29.956094456322788",
    "geocoded_column": {
      "latitude": "29.956094456322788",
      "longitude": "-90.11901025245511"
    }
  },
  {
    "service_request": "2022-952073",
    "request_type": "Trash/Recycling",
    "request_reason": "Missed Trash Pick-Up",
    "date_created": "2022-12-11T19:45:07.000",
    "date_modified": "2022-12-11T19:45:07.000",
    "request_status": "Pending",
    "responsible_agency": "Department of Sanitation",
    "final_address": "7501 Newcastle St",
    "address_councildis": "E",
    "status": "Assigned to Contractor",
    "contractor": "Waste Pro",
    "rowid": "952073",
    "final_x": "3697362.9409",
    "final_y": "559109.182428",
    "longitude": "-90.01698034768742",
    "latitude": "30.030864618078994",
    "geocoded_column": {
      "latitude": "30.030864618078994",
      "longitude": "-90.01698034768742"
    }
  },
  {
    "service_request": "2022-952072",
    "request_type": "Health Related Request",
    "request_reason": "Noise Ordinance Complaint",
    "date_created": "2022-12-11T19:36:53.000",
    "date_modified": "2022-12-11T19:36:53.000",
    "request_status": "Pending",
    "responsible_agency": "Health Department",
    "final_address": "301 Decatur St",
    "address_councildis": "C",
    "status": "Pending",
    "rowid": "952072",
    "final_x": "3682266.63861",
    "final_y": "530879.472258",
    "longitude": "-90.0656719309739",
    "latitude": "29.953711149639627",
    "geocoded_column": {
      "latitude": "29.953711149639627",
      "longitude": "-90.0656719309739"
    }
  },
  {
    "service_request": "2022-952071",
    "request_type": "Abandoned Vehicles",
    "request_reason": "Abandoned/Junk Vehicles",
    "date_created": "2022-12-11T19:33:07.000",
    "date_modified": "2022-12-11T19:33:07.000",
    "request_status": "Pending",
    "responsible_agency": "Department of Public Works",
    "final_address": "4701 De Montluzin St",
    "address_councildis": "D",
    "status": "Pending",
    "rowid": "952071",
    "final_x": "3687223.27855",
    "final_y": "550379.541908",
    "longitude": "-90.04933099283227",
    "latitude": "30.007177730534977",
    "geocoded_column": {
      "latitude": "30.007177730534977",
      "longitude": "-90.04933099283227"
    }
  },
  {
    "service_request": "2022-952070",
    "request_type": "Traffic Signals/Signs/Striping/Streetlights",
    "request_reason": "Street Light Outage/Malfunction",
    "date_created": "2022-12-11T19:02:23.000",
    "date_modified": "2022-12-11T19:02:24.000",
    "request_status": "Pending",
    "responsible_agency": "Department of Public Works",
    "final_address": "9214 Edinburgh St",
    "address_councildis": "A",
    "status": "Pending",
    "contractor": "Legacy Professional Services",
    "rowid": "952070",
    "final_x": "3664492.45882",
    "final_y": "537108.796616",
    "longitude": "-90.12158762325537",
    "latitude": "29.971368469584352",
    "geocoded_column": {
      "latitude": "29.971368469584352",
      "longitude": "-90.12158762325537"
    }
  },
  {
    "service_request": "2022-952069",
    "request_type": "Trash/Recycling",
    "request_reason": "Illegal Dumping",
    "date_created": "2022-12-11T18:44:19.000",
    "date_modified": "2022-12-11T18:44:19.000",
    "request_status": "Pending",
    "responsible_agency": "Department of Sanitation",
    "final_address": "2724 Pauger St",
    "address_councildis": "D",
    "status": "Pending",
    "rowid": "952069",
    "final_x": "3683559.75785",
    "final_y": "539734.05601",
    "longitude": "-90.0612784169168",
    "latitude": "29.978018801551755",
    "geocoded_column": {
      "latitude": "29.978018801551755",
      "longitude": "-90.0612784169168"
    }
  },
  {
    "service_request": "2022-952068",
    "request_type": "Trash/Recycling",
    "request_reason": "Request a Large Item Pick Up",
    "date_created": "2022-12-11T18:41:57.000",
    "date_modified": "2022-12-11T18:41:58.000",
    "request_status": "Pending",
    "responsible_agency": "Department of Sanitation",
    "final_address": "1672 Rousselin Dr",
    "address_councildis": "D",
    "status": "Assigned to Contractor",
    "contractor": "IV Waste",
    "rowid": "952068",
    "final_x": "3679718.36635",
    "final_y": "540412.744779",
    "longitude": "-90.0733873143451",
    "latitude": "29.98000166061185",
    "geocoded_column": {
      "latitude": "29.98000166061185",
      "longitude": "-90.0733873143451"
    }
  },
  {
    "service_request": "2022-952066",
    "request_type": "Trash/Recycling",
    "request_reason": "Order Recycling Cart",
    "date_created": "2022-12-11T18:23:01.000",
    "date_modified": "2022-12-11T18:23:01.000",
    "request_status": "Pending",
    "responsible_agency": "Department of Sanitation",
    "final_address": "4645 Charlene Dr",
    "address_councildis": "E",
    "status": "Pending",
    "rowid": "952066",
    "final_x": "3708041.48459",
    "final_y": "554865.30396",
    "longitude": "-89.98339416608734",
    "latitude": "30.01885397298483",
    "geocoded_column": {
      "latitude": "30.01885397298483",
      "longitude": "-89.98339416608734"
    }
  },
  {
    "service_request": "2022-952065",
    "request_type": "Abandoned Vehicles",
    "request_reason": "Abandoned/Junk Vehicles",
    "date_created": "2022-12-11T18:02:06.000",
    "date_modified": "2022-12-11T18:02:06.000",
    "request_status": "Pending",
    "responsible_agency": "Department of Public Works",
    "final_address": "4972 Miles Dr",
    "address_councildis": "D",
    "status": "Pending",
    "rowid": "952065",
    "final_x": "3680189.62018",
    "final_y": "549823.895444",
    "longitude": "-90.07157158501303",
    "latitude": "30.005864746699455",
    "geocoded_column": {
      "latitude": "30.005864746699455",
      "longitude": "-90.07157158501303"
    }
  },
  {
    "service_request": "2022-952064",
    "request_type": "Traffic Signals/Signs/Striping/Streetlights",
    "request_reason": "Street Light Outage/Malfunction",
    "date_created": "2022-12-11T17:58:40.000",
    "date_modified": "2022-12-11T17:58:41.000",
    "request_status": "Pending",
    "responsible_agency": "Department of Public Works",
    "final_address": "4972 Miles Dr",
    "address_councildis": "D",
    "status": "Pending",
    "contractor": "Legacy Professional Services",
    "rowid": "952064",
    "final_x": "3680189.62018",
    "final_y": "549823.895444",
    "longitude": "-90.07157158501303",
    "latitude": "30.005864746699455",
    "geocoded_column": {
      "latitude": "30.005864746699455",
      "longitude": "-90.07157158501303"
    }
  },
  {
    "service_request": "2022-952063",
    "request_type": "Trash/Recycling",
    "request_reason": "Return Trash Cart",
    "date_created": "2022-12-11T17:33:10.000",
    "date_modified": "2022-12-11T17:33:11.000",
    "request_status": "Pending",
    "responsible_agency": "Department of Sanitation",
    "final_address": "6909 Fleur-De-Lis Dr",
    "address_councildis": "A",
    "status": "Assigned to Contractor",
    "contractor": "IV Waste",
    "rowid": "952063",
    "final_x": "3665598.84186",
    "final_y": "553753.024727",
    "longitude": "-90.11753575269998",
    "latitude": "30.017102193715278",
    "geocoded_column": {
      "latitude": "30.017102193715278",
      "longitude": "-90.11753575269998"
    }
  },
  {
    "service_request": "2022-952062",
    "request_type": "Trash/Recycling",
    "request_reason": "MIssed Recycling Pick-Up",
    "date_created": "2022-12-11T17:31:50.000",
    "date_modified": "2022-12-11T17:31:51.000",
    "request_status": "Pending",
    "responsible_agency": "Department of Sanitation",
    "final_address": "6909 Fleur-De-Lis Dr",
    "address_councildis": "A",
    "status": "Assigned to Contractor",
    "contractor": "IV Waste",
    "rowid": "952062",
    "final_x": "3665598.84186",
    "final_y": "553753.024727",
    "longitude": "-90.11753575269998",
    "latitude": "30.017102193715278",
    "geocoded_column": {
      "latitude": "30.017102193715278",
      "longitude": "-90.11753575269998"
    }
  },
  {
    "service_request": "2022-952061",
    "request_type": "Roads/Drainage",
    "request_reason": "Street Flooding / Drainage",
    "date_created": "2022-12-11T17:28:25.000",
    "date_modified": "2022-12-11T17:28:25.000",
    "request_status": "Pending",
    "responsible_agency": "Department of Public Works",
    "final_address": "1631 Second St",
    "address_councildis": "B",
    "status": "Pending",
    "rowid": "952061",
    "final_x": "3676552.69006",
    "final_y": "523322.062011",
    "longitude": "-90.08397440548256",
    "latitude": "29.93310334989885",
    "geocoded_column": {
      "latitude": "29.93310334989885",
      "longitude": "-90.08397440548256"
    }
  },
  {
    "service_request": "2022-952060",
    "request_type": "Traffic Signals/Signs/Striping/Streetlights",
    "request_reason": "Traffic Sign Missing/Damaged",
    "date_created": "2022-12-11T17:12:19.000",
    "date_modified": "2022-12-11T17:12:19.000",
    "request_status": "Pending",
    "responsible_agency": "Department of Public Works",
    "final_address": "2730 Dauphine St",
    "address_councildis": "C",
    "status": "Pending",
    "rowid": "952060",
    "final_x": "3687368.2541",
    "final_y": "535162.575622",
    "longitude": "-90.04941165473089",
    "latitude": "29.96533202695357",
    "geocoded_column": {
      "latitude": "29.96533202695357",
      "longitude": "-90.04941165473089"
    }
  },
  {
    "service_request": "2022-952059",
    "request_type": "Trash/Recycling",
    "request_reason": "MIssed Recycling Pick-Up",
    "date_created": "2022-12-11T17:08:51.000",
    "date_modified": "2022-12-11T17:08:52.000",
    "request_status": "Pending",
    "responsible_agency": "Department of Sanitation",
    "final_address": "702 Washington Ave, New Orleans, LA 70130",
    "address_councildis": "B",
    "status": "Assigned to Contractor",
    "contractor": "Richards Disposal",
    "rowid": "952059",
    "final_x": "3677804.5339",
    "final_y": "519561.826295",
    "longitude": "-90.08015224693371",
    "latitude": "29.92272633588398",
    "geocoded_column": {
      "latitude": "29.92272633588398",
      "longitude": "-90.08015224693371"
    }
  },
  {
    "service_request": "2022-952058",
    "request_type": "Roads/Drainage",
    "request_reason": "Accessibility Ramps, Curbs and Sidewalk Repair",
    "date_created": "2022-12-11T17:05:35.000",
    "date_modified": "2022-12-11T17:05:35.000",
    "request_status": "Pending",
    "responsible_agency": "Department of Public Works",
    "final_address": "CANAL ST & CAMP ST & CHARTRES ST",
    "address_councildis": "B",
    "status": "Pending",
    "rowid": "952058",
    "final_x": "3681440.9",
    "final_y": "530424.38",
    "longitude": "-90.06829513253405",
    "latitude": "29.9524848929036",
    "geocoded_column": {
      "latitude": "29.9524848929036",
      "longitude": "-90.06829513253405"
    }
  },
  {
    "service_request": "2022-952057",
    "request_type": "Trash/Recycling",
    "request_reason": "Missed Trash Pick-Up",
    "date_created": "2022-12-11T17:04:58.000",
    "date_modified": "2022-12-11T17:04:59.000",
    "request_status": "Pending",
    "responsible_agency": "Department of Sanitation",
    "final_address": "11200 Chef Menteur Hwy",
    "address_councildis": "E",
    "status": "Assigned to Contractor",
    "contractor": "Waste Pro",
    "rowid": "952057",
    "final_x": "3716501.04197",
    "final_y": "555743.655193",
    "longitude": "-89.95663193198165",
    "latitude": "30.020992339521815",
    "geocoded_column": {
      "latitude": "30.020992339521815",
      "longitude": "-89.95663193198165"
    }
  },
  {
    "service_request": "2022-952056",
    "request_type": "Property Maintenance",
    "request_reason": "Property Maintenance",
    "date_created": "2022-12-11T17:00:49.000",
    "date_modified": "2022-12-11T17:00:49.000",
    "request_status": "Pending",
    "responsible_agency": "Department of Code Enforcement",
    "final_address": "7465 Pitt St",
    "address_councildis": "A",
    "status": "Pending",
    "rowid": "952056",
    "final_x": "3660947.35366",
    "final_y": "523801.952763",
    "longitude": "-90.13322378405022",
    "latitude": "29.934881535753707",
    "geocoded_column": {
      "latitude": "29.934881535753707",
      "longitude": "-90.13322378405022"
    }
  },
  {
    "service_request": "2022-952055",
    "request_type": "Property Maintenance",
    "request_reason": "Property Maintenance",
    "date_created": "2022-12-11T16:47:37.000",
    "date_modified": "2022-12-11T16:47:37.000",
    "request_status": "Pending",
    "responsible_agency": "Department of Code Enforcement",
    "final_address": "1806 Desire St",
    "address_councildis": "D",
    "status": "Pending",
    "rowid": "952055",
    "final_x": "3690814.33148",
    "final_y": "538416.555657",
    "longitude": "-90.03841302109154",
    "latitude": "29.97417270115042",
    "geocoded_column": {
      "latitude": "29.97417270115042",
      "longitude": "-90.03841302109154"
    }
  },
  {
    "service_request": "2022-952054",
    "request_type": "Trash/Recycling",
    "request_reason": "Replace Trash Cart",
    "date_created": "2022-12-11T16:30:32.000",
    "date_modified": "2022-12-11T16:30:33.000",
    "request_status": "Pending",
    "responsible_agency": "Department of Sanitation",
    "final_address": "8328 Fig St",
    "address_councildis": "A",
    "status": "Assigned to Contractor",
    "contractor": "Richards Disposal",
    "rowid": "952054",
    "final_x": "3665556.37908",
    "final_y": "533721.430853",
    "longitude": "-90.11834103221962",
    "latitude": "29.962023353035057",
    "geocoded_column": {
      "latitude": "29.962023353035057",
      "longitude": "-90.11834103221962"
    }
  },
  {
    "service_request": "2022-952053",
    "request_type": "Trash/Recycling",
    "request_reason": "Missed Trash Pick-Up",
    "date_created": "2022-12-11T16:28:53.000",
    "date_modified": "2022-12-11T16:28:54.000",
    "request_status": "Pending",
    "responsible_agency": "Department of Sanitation",
    "final_address": "8328 Fig St",
    "address_councildis": "A",
    "status": "Assigned to Contractor",
    "contractor": "Richards Disposal",
    "rowid": "952053",
    "final_x": "3665556.37908",
    "final_y": "533721.430853",
    "longitude": "-90.11834103221962",
    "latitude": "29.962023353035057",
    "geocoded_column": {
      "latitude": "29.962023353035057",
      "longitude": "-90.11834103221962"
    }
  },
  {
    "service_request": "2022-952052",
    "request_type": "Roads/Drainage",
    "request_reason": "Pothole",
    "date_created": "2022-12-11T16:22:20.000",
    "date_modified": "2022-12-11T16:22:20.000",
    "request_status": "Pending",
    "responsible_agency": "Department of Public Works",
    "final_address": "2325 S Roman St",
    "address_councildis": "B",
    "status": "Pending",
    "rowid": "952052",
    "final_x": "3673943.93384",
    "final_y": "528134.784063",
    "longitude": "-90.09204549277462",
    "latitude": "29.94641471714815",
    "geocoded_column": {
      "latitude": "29.94641471714815",
      "longitude": "-90.09204549277462"
    }
  },
  {
    "service_request": "2022-952051",
    "request_type": "Trash/Recycling",
    "request_reason": "Order Recycling Cart",
    "date_created": "2022-12-11T16:17:13.000",
    "date_modified": "2022-12-11T16:17:13.000",
    "request_status": "Pending",
    "responsible_agency": "Department of Sanitation",
    "final_address": "2325 S Roman St",
    "address_councildis": "B",
    "status": "Pending",
    "rowid": "952051",
    "final_x": "3673943.93384",
    "final_y": "528134.784063",
    "longitude": "-90.09204549277462",
    "latitude": "29.94641471714815",
    "geocoded_column": {
      "latitude": "29.94641471714815",
      "longitude": "-90.09204549277462"
    }
  },
  {
    "service_request": "2022-952050",
    "request_type": "Trash/Recycling",
    "request_reason": "MIssed Recycling Pick-Up",
    "date_created": "2022-12-11T16:13:03.000",
    "date_modified": "2022-12-11T16:13:03.000",
    "request_status": "Pending",
    "responsible_agency": "Department of Sanitation",
    "final_address": "2625 Joseph St",
    "address_councildis": "A",
    "status": "Assigned to Contractor",
    "contractor": "Richards Disposal",
    "rowid": "952050",
    "final_x": "3667703.77121",
    "final_y": "525619.390461",
    "longitude": "-90.11183261832659",
    "latitude": "29.939682598764872",
    "geocoded_column": {
      "latitude": "29.939682598764872",
      "longitude": "-90.11183261832659"
    }
  },
  {
    "service_request": "2022-952049",
    "request_type": "Trash/Recycling",
    "request_reason": "Replace Trash Cart",
    "date_created": "2022-12-11T16:08:59.000",
    "date_modified": "2022-12-11T16:08:59.000",
    "request_status": "Pending",
    "responsible_agency": "Department of Sanitation",
    "final_address": "2325 S Roman St",
    "address_councildis": "B",
    "status": "Assigned to Contractor",
    "contractor": "Richards Disposal",
    "rowid": "952049",
    "final_x": "3673943.93384",
    "final_y": "528134.784063",
    "longitude": "-90.09204549277462",
    "latitude": "29.94641471714815",
    "geocoded_column": {
      "latitude": "29.94641471714815",
      "longitude": "-90.09204549277462"
    }
  },
  {
    "service_request": "2022-952048",
    "request_type": "Trash/Recycling",
    "request_reason": "MIssed Recycling Pick-Up",
    "date_created": "2022-12-11T16:08:19.000",
    "date_modified": "2022-12-11T16:08:19.000",
    "request_status": "Pending",
    "responsible_agency": "Department of Sanitation",
    "final_address": "1036 Jefferson Ave",
    "address_councildis": "A",
    "status": "Assigned to Contractor",
    "contractor": "Richards Disposal",
    "rowid": "952048",
    "final_x": "3666809.81178",
    "final_y": "519471.317943",
    "longitude": "-90.11486139067169",
    "latitude": "29.922803528119932",
    "geocoded_column": {
      "latitude": "29.922803528119932",
      "longitude": "-90.11486139067169"
    }
  },
  {
    "service_request": "2022-952047",
    "request_type": "Trash/Recycling",
    "request_reason": "Order Recycling Cart",
    "date_created": "2022-12-11T16:07:59.000",
    "date_modified": "2022-12-11T16:07:59.000",
    "request_status": "Pending",
    "responsible_agency": "Department of Sanitation",
    "final_address": "4918 Mandeville St",
    "address_councildis": "D",
    "status": "Pending",
    "rowid": "952047",
    "final_x": "3684607.49826",
    "final_y": "550918.483861",
    "longitude": "-90.05757599402594",
    "latitude": "30.008739962899565",
    "geocoded_column": {
      "latitude": "30.008739962899565",
      "longitude": "-90.05757599402594"
    }
  },
  {
    "service_request": "2022-952046",
    "request_type": "Trash/Recycling",
    "request_reason": "Missed Trash Pick-Up",
    "date_created": "2022-12-11T16:07:23.000",
    "date_modified": "2022-12-11T16:07:24.000",
    "request_status": "Pending",
    "responsible_agency": "Department of Sanitation",
    "final_address": "610 Soraparu St",
    "address_councildis": "B",
    "status": "Assigned to Contractor",
    "contractor": "Richards Disposal",
    "rowid": "952046",
    "final_x": "3679276.94274",
    "final_y": "520225.52908",
    "longitude": "-90.07548143784187",
    "latitude": "29.92450694127319",
    "geocoded_column": {
      "latitude": "29.92450694127319",
      "longitude": "-90.07548143784187"
    }
  },
  {
    "service_request": "2022-952045",
    "request_type": "Trash/Recycling",
    "request_reason": "Request a Large Item Pick Up",
    "date_created": "2022-12-11T15:55:56.000",
    "date_modified": "2022-12-11T15:55:57.000",
    "request_status": "Pending",
    "responsible_agency": "Department of Sanitation",
    "final_address": "800 Weiblen Pl",
    "address_councildis": "A",
    "status": "Assigned to Contractor",
    "contractor": "IV Waste",
    "rowid": "952045",
    "final_x": "3668426.98906",
    "final_y": "542529.110541",
    "longitude": "-90.10897886649977",
    "latitude": "29.986157508466217",
    "geocoded_column": {
      "latitude": "29.986157508466217",
      "longitude": "-90.10897886649977"
    }
  },
  {
    "service_request": "2022-952044",
    "request_type": "Property Maintenance",
    "request_reason": "Property Maintenance",
    "date_created": "2022-12-11T15:38:46.000",
    "date_modified": "2022-12-11T15:38:46.000",
    "request_status": "Pending",
    "responsible_agency": "Department of Code Enforcement",
    "final_address": "4411 Longfellow Dr",
    "address_councildis": "E",
    "status": "Pending",
    "rowid": "952044",
    "final_x": "3709859.6076",
    "final_y": "554142.481368",
    "longitude": "-89.97767661709715",
    "latitude": "30.016807470655287",
    "geocoded_column": {
      "latitude": "30.016807470655287",
      "longitude": "-89.97767661709715"
    }
  },
  {
    "service_request": "2022-952043",
    "request_type": "Trash/Recycling",
    "request_reason": "Replace Trash Cart",
    "date_created": "2022-12-11T15:23:09.000",
    "date_modified": "2022-12-11T15:23:10.000",
    "request_status": "Pending",
    "responsible_agency": "Department of Sanitation",
    "final_address": "5916 W Hardy St",
    "address_councildis": "E",
    "status": "Assigned to Contractor",
    "contractor": "Waste Pro",
    "rowid": "952043",
    "final_x": "3712606.24043",
    "final_y": "561496.462367",
    "longitude": "-89.9687217830103",
    "latitude": "30.03693837162801",
    "geocoded_column": {
      "latitude": "30.03693837162801",
      "longitude": "-89.9687217830103"
    }
  },
  {
    "service_request": "2022-952042",
    "request_type": "Trash/Recycling",
    "request_reason": "Missed Trash Pick-Up",
    "date_created": "2022-12-11T15:20:38.000",
    "date_modified": "2022-12-11T15:20:39.000",
    "request_status": "Pending",
    "responsible_agency": "Department of Sanitation",
    "final_address": "900 BLK Milan St",
    "address_councildis": "B",
    "status": "Assigned to Contractor",
    "contractor": "Richards Disposal",
    "rowid": "952042",
    "final_x": "3671784.75318",
    "final_y": "519042.612621",
    "longitude": "-90.09917200231237",
    "latitude": "29.92147832184609",
    "geocoded_column": {
      "latitude": "29.92147832184609",
      "longitude": "-90.09917200231237"
    }
  },
  {
    "service_request": "2022-952041",
    "request_type": "Trash/Recycling",
    "request_reason": "Replace Trash Cart",
    "date_created": "2022-12-11T15:16:00.000",
    "date_modified": "2022-12-11T15:16:00.000",
    "request_status": "Pending",
    "responsible_agency": "Department of Sanitation",
    "final_address": "3017 Grand Route St John St",
    "address_councildis": "A",
    "status": "Assigned to Contractor",
    "contractor": "IV Waste",
    "rowid": "952041",
    "final_x": "3677008.56334",
    "final_y": "540341.763595",
    "longitude": "-90.08194845221338",
    "latitude": "29.979888138667764",
    "geocoded_column": {
      "latitude": "29.979888138667764",
      "longitude": "-90.08194845221338"
    }
  },
  {
    "service_request": "2022-952040",
    "request_type": "Trash/Recycling",
    "request_reason": "Order Trash Cart",
    "date_created": "2022-12-11T15:14:53.000",
    "date_modified": "2022-12-11T15:14:54.000",
    "request_status": "Pending",
    "responsible_agency": "Department of Sanitation",
    "final_address": "3015 Grand Route St John St",
    "address_councildis": "A",
    "status": "Assigned to Contractor",
    "contractor": "IV Waste",
    "rowid": "952040",
    "final_x": "3677023.31349",
    "final_y": "540341.044107",
    "longitude": "-90.08190188995195",
    "latitude": "29.979885717379474",
    "geocoded_column": {
      "latitude": "29.979885717379474",
      "longitude": "-90.08190188995195"
    }
  },
  {
    "service_request": "2022-952039",
    "request_type": "Trash/Recycling",
    "request_reason": "Order Recycling Cart",
    "date_created": "2022-12-11T15:14:12.000",
    "date_modified": "2022-12-11T15:14:12.000",
    "request_status": "Pending",
    "responsible_agency": "Department of Sanitation",
    "final_address": "3017 Grand Route St John St",
    "address_councildis": "A",
    "status": "Pending",
    "rowid": "952039",
    "final_x": "3677008.56334",
    "final_y": "540341.763595",
    "longitude": "-90.08194845221338",
    "latitude": "29.979888138667764",
    "geocoded_column": {
      "latitude": "29.979888138667764",
      "longitude": "-90.08194845221338"
    }
  },
  {
    "service_request": "2022-952038",
    "request_type": "Trash/Recycling",
    "request_reason": "Order Recycling Cart",
    "date_created": "2022-12-11T15:13:29.000",
    "date_modified": "2022-12-11T15:13:29.000",
    "request_status": "Pending",
    "responsible_agency": "Department of Sanitation",
    "final_address": "3015 Grand Route St John St",
    "address_councildis": "A",
    "status": "Pending",
    "rowid": "952038",
    "final_x": "3677023.31349",
    "final_y": "540341.044107",
    "longitude": "-90.08190188995195",
    "latitude": "29.979885717379474",
    "geocoded_column": {
      "latitude": "29.979885717379474",
      "longitude": "-90.08190188995195"
    }
  },
  {
    "service_request": "2022-952037",
    "request_type": "Trash/Recycling",
    "request_reason": "Missed Trash Pick-Up",
    "date_created": "2022-12-11T15:08:18.000",
    "date_modified": "2022-12-11T15:08:19.000",
    "request_status": "Pending",
    "responsible_agency": "Department of Sanitation",
    "final_address": "8311 Birch St",
    "address_councildis": "A",
    "status": "Assigned to Contractor",
    "contractor": "Richards Disposal",
    "rowid": "952037",
    "final_x": "3662318.35667",
    "final_y": "530008.140289",
    "longitude": "-90.1286895389724",
    "latitude": "29.951907017854175",
    "geocoded_column": {
      "latitude": "29.951907017854175",
      "longitude": "-90.1286895389724"
    }
  },
  {
    "service_request": "2022-952036",
    "request_type": "Abandoned Vehicles",
    "request_reason": "Vehicle Blocking Your Driveway",
    "date_created": "2022-12-11T15:05:37.000",
    "date_modified": "2022-12-11T15:05:37.000",
    "request_status": "Pending",
    "responsible_agency": "Department of Public Works",
    "final_address": "2701 Ap Tureaud Ave",
    "address_councildis": "D",
    "status": "Pending",
    "rowid": "952036",
    "final_x": "3681580.75765",
    "final_y": "542365.022285",
    "longitude": "-90.06743699151542",
    "latitude": "29.985313300450176",
    "geocoded_column": {
      "latitude": "29.985313300450176",
      "longitude": "-90.06743699151542"
    }
  },
  {
    "service_request": "2022-952035",
    "request_type": "Abandoned Vehicles",
    "request_reason": "Abandoned/Junk Vehicles",
    "date_created": "2022-12-11T14:49:50.000",
    "date_modified": "2022-12-11T14:52:43.000",
    "request_status": "Pending",
    "responsible_agency": "Department of Public Works",
    "final_address": "DELACHAISE ST & TCHOUPITOULAS ST",
    "address_councildis": "B",
    "status": "Pending",
    "rowid": "952035",
    "final_x": "3675350.2",
    "final_y": "517895.58",
    "longitude": "-90.08795678041457",
    "latitude": "29.91821827366126",
    "geocoded_column": {
      "latitude": "29.91821827366126",
      "longitude": "-90.08795678041457"
    }
  },
  {
    "service_request": "2022-952034",
    "request_type": "Trash/Recycling",
    "request_reason": "Missed Trash Pick-Up",
    "date_created": "2022-12-11T14:48:12.000",
    "date_modified": "2022-12-11T14:48:13.000",
    "request_status": "Pending",
    "responsible_agency": "Department of Sanitation",
    "final_address": "920 State St",
    "address_councildis": "A",
    "status": "Assigned to Contractor",
    "contractor": "Richards Disposal",
    "rowid": "952034",
    "final_x": "3664819.7296",
    "final_y": "519766.439096",
    "longitude": "-90.12113346716977",
    "latitude": "29.923673058223937",
    "geocoded_column": {
      "latitude": "29.923673058223937",
      "longitude": "-90.12113346716977"
    }
  },
  {
    "service_request": "2022-952033",
    "request_type": "Traffic Signals/Signs/Striping/Streetlights",
    "request_reason": "Street Light Knocked Down/Leaning",
    "date_created": "2022-12-11T14:40:39.000",
    "date_modified": "2022-12-11T14:40:40.000",
    "request_status": "Pending",
    "responsible_agency": "Department of Public Works",
    "final_address": "814 Wilson Dr",
    "address_councildis": "A",
    "status": "Pending",
    "contractor": "Legacy Professional Services",
    "rowid": "952033",
    "final_x": "3674073.62843",
    "final_y": "539340.674634",
    "longitude": "-90.09125247409784",
    "latitude": "29.9772232939344",
    "geocoded_column": {
      "latitude": "29.9772232939344",
      "longitude": "-90.09125247409784"
    }
  },
  {
    "service_request": "2022-952032",
    "request_type": "Roads/Drainage",
    "request_reason": "Pothole",
    "date_created": "2022-12-11T14:32:50.000",
    "date_modified": "2022-12-11T14:32:50.000",
    "request_status": "Pending",
    "responsible_agency": "Department of Public Works",
    "final_address": "232 Walnut St",
    "address_councildis": "A",
    "status": "Pending",
    "rowid": "952032",
    "final_x": "3661375.88966",
    "final_y": "521348.299513",
    "longitude": "-90.13195211035314",
    "latitude": "29.928122410687646",
    "geocoded_column": {
      "latitude": "29.928122410687646",
      "longitude": "-90.13195211035314"
    }
  },
  {
    "service_request": "2022-952031",
    "request_type": "Trash/Recycling",
    "request_reason": "Missed Trash Pick-Up",
    "date_created": "2022-12-11T14:30:47.000",
    "date_modified": "2022-12-11T14:30:48.000",
    "request_status": "Pending",
    "responsible_agency": "Department of Sanitation",
    "final_address": "2521 Joliet St",
    "address_councildis": "A",
    "status": "Assigned to Contractor",
    "contractor": "Richards Disposal",
    "rowid": "952031",
    "final_x": "3664209.01812",
    "final_y": "532907.365188",
    "longitude": "-90.12262297255181",
    "latitude": "29.959824153646018",
    "geocoded_column": {
      "latitude": "29.959824153646018",
      "longitude": "-90.12262297255181"
    }
  },
  {
    "service_request": "2022-952030",
    "request_type": "Trash/Recycling",
    "request_reason": "Replace Recycling Cart",
    "date_created": "2022-12-11T14:29:56.000",
    "date_modified": "2022-12-11T14:29:56.000",
    "request_status": "Pending",
    "responsible_agency": "Department of Sanitation",
    "final_address": "5519 Perrier St",
    "address_councildis": "A",
    "status": "Pending",
    "rowid": "952030",
    "final_x": "3666567.18138",
    "final_y": "520212.087544",
    "longitude": "-90.11560243180904",
    "latitude": "29.924847503312908",
    "geocoded_column": {
      "latitude": "29.924847503312908",
      "longitude": "-90.11560243180904"
    }
  },
  {
    "service_request": "2022-952029",
    "request_type": "Trash/Recycling",
    "request_reason": "Order Recycling Cart",
    "date_created": "2022-12-11T14:28:43.000",
    "date_modified": "2022-12-11T14:28:43.000",
    "request_status": "Pending",
    "responsible_agency": "Department of Sanitation",
    "final_address": "4732 Baccich St",
    "address_councildis": "D",
    "status": "Pending",
    "rowid": "952029",
    "final_x": "3687684.48527",
    "final_y": "550613.046292",
    "longitude": "-90.04786564130221",
    "latitude": "30.007805563592356",
    "geocoded_column": {
      "latitude": "30.007805563592356",
      "longitude": "-90.04786564130221"
    }
  },
  {
    "service_request": "2022-952028",
    "request_type": "Abandoned Vehicles",
    "request_reason": "Abandoned/Junk Vehicles",
    "date_created": "2022-12-11T14:24:48.000",
    "date_modified": "2022-12-11T14:24:48.000",
    "request_status": "Pending",
    "responsible_agency": "Department of Public Works",
    "final_address": "2724 Pauger St",
    "address_councildis": "D",
    "status": "Pending",
    "rowid": "952028",
    "final_x": "3683559.75785",
    "final_y": "539734.05601",
    "longitude": "-90.0612784169168",
    "latitude": "29.978018801551755",
    "geocoded_column": {
      "latitude": "29.978018801551755",
      "longitude": "-90.0612784169168"
    }
  },
  {
    "service_request": "2022-952027",
    "request_type": "Roads/Drainage",
    "request_reason": "Catch Basin - Broken/Damage",
    "date_created": "2022-12-11T14:24:14.000",
    "date_modified": "2022-12-11T14:24:14.000",
    "request_status": "Pending",
    "responsible_agency": "Department of Public Works",
    "final_address": "232 Walnut St",
    "address_councildis": "A",
    "status": "Pending",
    "rowid": "952027",
    "final_x": "3661375.88966",
    "final_y": "521348.299513",
    "longitude": "-90.13195211035314",
    "latitude": "29.928122410687646",
    "geocoded_column": {
      "latitude": "29.928122410687646",
      "longitude": "-90.13195211035314"
    }
  },
  {
    "service_request": "2022-952026",
    "request_type": "Trash/Recycling",
    "request_reason": "Missed Trash Pick-Up",
    "date_created": "2022-12-11T14:18:09.000",
    "date_modified": "2022-12-11T14:18:10.000",
    "request_status": "Pending",
    "responsible_agency": "Department of Sanitation",
    "final_address": "1525 State St",
    "address_councildis": "A",
    "status": "Assigned to Contractor",
    "contractor": "Richards Disposal",
    "rowid": "952026",
    "final_x": "3665660.08154",
    "final_y": "521961.670586",
    "longitude": "-90.11840730007484",
    "latitude": "29.92968478052464",
    "geocoded_column": {
      "latitude": "29.92968478052464",
      "longitude": "-90.11840730007484"
    }
  },
  {
    "service_request": "2022-952025",
    "request_type": "Trash/Recycling",
    "request_reason": "Missed Trash Pick-Up",
    "date_created": "2022-12-11T13:56:38.000",
    "date_modified": "2022-12-11T13:56:39.000",
    "request_status": "Pending",
    "responsible_agency": "Department of Sanitation",
    "final_address": "700 Block of Soraparu St, New Orleans, Louisiana, 70130",
    "status": "Assigned to Contractor",
    "rowid": "952025",
    "longitude": "0.0",
    "latitude": "0.0",
    "geocoded_column": {
      "latitude": "0.0",
      "longitude": "0.0"
    }
  },
  {
    "service_request": "2022-952024",
    "request_type": "Traffic Signals/Signs/Striping/Streetlights",
    "request_reason": "Street Light Outage/Malfunction",
    "date_created": "2022-12-11T13:47:55.000",
    "date_modified": "2022-12-11T13:47:56.000",
    "request_status": "Pending",
    "responsible_agency": "Department of Public Works",
    "final_address": "2361 Urquhart St",
    "address_councildis": "C",
    "status": "Pending",
    "contractor": "Legacy Professional Services",
    "rowid": "952024",
    "final_x": "3686239.72457",
    "final_y": "537174.851208",
    "longitude": "-90.05290447748668",
    "latitude": "29.97089980640983",
    "geocoded_column": {
      "latitude": "29.97089980640983",
      "longitude": "-90.05290447748668"
    }
  },
  {
    "service_request": "2022-952023",
    "request_type": "Trash/Recycling",
    "request_reason": "Missed Trash Pick-Up",
    "date_created": "2022-12-11T13:42:53.000",
    "date_modified": "2022-12-11T13:42:54.000",
    "request_status": "Pending",
    "responsible_agency": "Department of Sanitation",
    "final_address": "1461 Webster St",
    "address_councildis": "A",
    "status": "Assigned to Contractor",
    "contractor": "Richards Disposal",
    "rowid": "952023",
    "final_x": "3665088.2562",
    "final_y": "521879.517882",
    "longitude": "-90.1202152049667",
    "latitude": "29.92947554550726",
    "geocoded_column": {
      "latitude": "29.92947554550726",
      "longitude": "-90.1202152049667"
    }
  },
  {
    "service_request": "2022-952022",
    "request_type": "Trash/Recycling",
    "request_reason": "Replace Trash Cart",
    "date_created": "2022-12-11T13:38:10.000",
    "date_modified": "2022-12-11T13:38:11.000",
    "request_status": "Pending",
    "responsible_agency": "Department of Sanitation",
    "final_address": "4900 Marque Dr",
    "address_councildis": "E",
    "status": "Assigned to Contractor",
    "contractor": "Waste Pro",
    "rowid": "952022",
    "final_x": "3709894.0924",
    "final_y": "556691.806618",
    "longitude": "-89.97747234933159",
    "latitude": "30.023815998153285",
    "geocoded_column": {
      "latitude": "30.023815998153285",
      "longitude": "-89.97747234933159"
    }
  },
  {
    "service_request": "2022-952021",
    "request_type": "Safety & Permits",
    "request_reason": "Licenses & Permits",
    "date_created": "2022-12-11T13:35:41.000",
    "date_modified": "2022-12-11T13:35:41.000",
    "request_status": "Pending",
    "responsible_agency": "Safety and Permits",
    "final_address": "6138 Fleur-De-Lis Dr",
    "address_councildis": "A",
    "status": "Pending",
    "rowid": "952021",
    "final_x": "3665124.76224",
    "final_y": "548522.89621",
    "longitude": "-90.11920875510312",
    "latitude": "30.00273498194023",
    "geocoded_column": {
      "latitude": "30.00273498194023",
      "longitude": "-90.11920875510312"
    }
  },
  {
    "service_request": "2022-952020",
    "request_type": "Trash/Recycling",
    "request_reason": "Request a Large Item Pick Up",
    "date_created": "2022-12-11T13:25:12.000",
    "date_modified": "2022-12-11T13:25:13.000",
    "request_status": "Pending",
    "responsible_agency": "Department of Sanitation",
    "final_address": "517 2nd St, New Orleans, Louisiana, 70130",
    "status": "Assigned to Contractor",
    "rowid": "952020",
    "longitude": "0.0",
    "latitude": "0.0",
    "geocoded_column": {
      "latitude": "0.0",
      "longitude": "0.0"
    }
  },
  {
    "service_request": "2022-952019",
    "request_type": "Trash/Recycling",
    "request_reason": "Missed Trash Pick-Up",
    "date_created": "2022-12-11T13:21:26.000",
    "date_modified": "2022-12-11T13:21:27.000",
    "request_status": "Pending",
    "responsible_agency": "Department of Sanitation",
    "final_address": "737 Henry Clay Ave",
    "address_councildis": "A",
    "status": "Assigned to Contractor",
    "contractor": "Richards Disposal",
    "rowid": "952019",
    "final_x": "3663819.66938",
    "final_y": "519511.581751",
    "longitude": "-90.12429879359725",
    "latitude": "29.923001333316105",
    "geocoded_column": {
      "latitude": "29.923001333316105",
      "longitude": "-90.12429879359725"
    }
  },
  {
    "service_request": "2022-952018",
    "request_type": "Trash/Recycling",
    "request_reason": "Order Recycling Cart",
    "date_created": "2022-12-11T13:07:23.000",
    "date_modified": "2022-12-11T13:07:23.000",
    "request_status": "Pending",
    "responsible_agency": "Department of Sanitation",
    "final_address": "1445 Pauger St",
    "address_councildis": "C",
    "status": "Pending",
    "rowid": "952018",
    "final_x": "3684005.90191",
    "final_y": "534964.092486",
    "longitude": "-90.06003674845844",
    "latitude": "29.964889432790503",
    "geocoded_column": {
      "latitude": "29.964889432790503",
      "longitude": "-90.06003674845844"
    }
  },
  {
    "service_request": "2022-952017",
    "request_type": "Traffic Signals/Signs/Striping/Streetlights",
    "request_reason": "Street Light Outage/Malfunction",
    "date_created": "2022-12-11T13:01:05.000",
    "date_modified": "2022-12-11T13:01:05.000",
    "request_status": "Pending",
    "responsible_agency": "Department of Public Works",
    "final_address": "4726 Sierra Madre Dr",
    "address_councildis": "E",
    "status": "Pending",
    "contractor": "Legacy Professional Services",
    "rowid": "952017",
    "final_x": "3713850.90456",
    "final_y": "556295.476186",
    "longitude": "-89.96498469388595",
    "latitude": "30.022596913553635",
    "geocoded_column": {
      "latitude": "30.022596913553635",
      "longitude": "-89.96498469388595"
    }
  },
  {
    "service_request": "2022-952016",
    "request_type": "Roads/Drainage",
    "request_reason": "Street Subsidence (Sinking)",
    "date_created": "2022-12-11T13:01:00.000",
    "date_modified": "2022-12-11T13:01:00.000",
    "request_status": "Pending",
    "responsible_agency": "Department of Public Works",
    "final_address": "4503 S Galvez St",
    "address_councildis": "B",
    "status": "Pending",
    "rowid": "952016",
    "final_x": "3669726.65057",
    "final_y": "527585.990079",
    "longitude": "-90.10537954992601",
    "latitude": "29.945030659415064",
    "geocoded_column": {
      "latitude": "29.945030659415064",
      "longitude": "-90.10537954992601"
    }
  },
  {
    "service_request": "2022-952015",
    "request_type": "Roads/Drainage",
    "request_reason": "Catch Basin - Clogged",
    "date_created": "2022-12-11T12:54:39.000",
    "date_modified": "2022-12-11T12:54:39.000",
    "request_status": "Pending",
    "responsible_agency": "Department of Public Works",
    "final_address": "1926 Magazine St",
    "address_councildis": "B",
    "status": "Pending",
    "rowid": "952015",
    "final_x": "3679618.70779",
    "final_y": "522625.253754",
    "longitude": "-90.07431936903029",
    "latitude": "29.931095078395252",
    "geocoded_column": {
      "latitude": "29.931095078395252",
      "longitude": "-90.07431936903029"
    }
  },
  {
    "service_request": "2022-952014",
    "request_type": "Traffic Signals/Signs/Striping/Streetlights",
    "request_reason": "Traffic Sign Missing/Damaged",
    "date_created": "2022-12-11T12:40:44.000",
    "date_modified": "2022-12-11T12:40:44.000",
    "request_status": "Pending",
    "responsible_agency": "Department of Public Works",
    "final_address": "825 Girod St",
    "address_councildis": "B",
    "status": "Pending",
    "rowid": "952014",
    "final_x": "3679905.03413",
    "final_y": "528737.476416",
    "longitude": "-90.0732032740944",
    "latitude": "29.94789300933658",
    "geocoded_column": {
      "latitude": "29.94789300933658",
      "longitude": "-90.0732032740944"
    }
  },
  {
    "service_request": "2022-952013",
    "request_type": "Trash/Recycling",
    "request_reason": "Order Recycling Cart",
    "date_created": "2022-12-11T12:33:47.000",
    "date_modified": "2022-12-11T12:33:47.000",
    "request_status": "Pending",
    "responsible_agency": "Department of Sanitation",
    "final_address": "6113 Arts St",
    "address_councildis": "D",
    "status": "Pending",
    "rowid": "952013",
    "final_x": "3685710.70678",
    "final_y": "555635.339033",
    "longitude": "-90.05392421437583",
    "latitude": "30.021675763754317",
    "geocoded_column": {
      "latitude": "30.021675763754317",
      "longitude": "-90.05392421437583"
    }
  },
  {
    "service_request": "2022-952012",
    "request_type": "Trash/Recycling",
    "request_reason": "Request a Large Item Pick Up",
    "date_created": "2022-12-11T12:32:09.000",
    "date_modified": "2022-12-11T12:32:09.000",
    "request_status": "Pending",
    "responsible_agency": "Department of Sanitation",
    "final_address": "6113 Arts St",
    "address_councildis": "D",
    "status": "Assigned to Contractor",
    "contractor": "IV Waste",
    "rowid": "952012",
    "final_x": "3685710.70678",
    "final_y": "555635.339033",
    "longitude": "-90.05392421437583",
    "latitude": "30.021675763754317",
    "geocoded_column": {
      "latitude": "30.021675763754317",
      "longitude": "-90.05392421437583"
    }
  },
  {
    "service_request": "2022-952011",
    "request_type": "Trash/Recycling",
    "request_reason": "Order Trash Cart",
    "date_created": "2022-12-11T12:24:28.000",
    "date_modified": "2022-12-11T12:24:29.000",
    "request_status": "Pending",
    "responsible_agency": "Department of Sanitation",
    "final_address": "7710 Hansbrough Ave",
    "address_councildis": "E",
    "status": "Assigned to Contractor",
    "contractor": "Waste Pro",
    "rowid": "952011",
    "final_x": "3707464.1603",
    "final_y": "564700.262562",
    "longitude": "-89.98485258570189",
    "latitude": "30.045914927968354",
    "geocoded_column": {
      "latitude": "30.045914927968354",
      "longitude": "-89.98485258570189"
    }
  },
  {
    "service_request": "2022-952010",
    "request_type": "Trash/Recycling",
    "request_reason": "MIssed Recycling Pick-Up",
    "date_created": "2022-12-11T12:17:46.000",
    "date_modified": "2022-12-11T12:17:47.000",
    "request_status": "Pending",
    "responsible_agency": "Department of Sanitation",
    "final_address": "6233 Annunciation St",
    "address_councildis": "A",
    "status": "Assigned to Contractor",
    "contractor": "Richards Disposal",
    "rowid": "952010",
    "final_x": "3663021.20461",
    "final_y": "518395.01919",
    "longitude": "-90.12685635998794",
    "latitude": "29.91995427593572",
    "geocoded_column": {
      "latitude": "29.91995427593572",
      "longitude": "-90.12685635998794"
    }
  },
  {
    "service_request": "2022-952009",
    "request_type": "Trash/Recycling",
    "request_reason": "Order Trash Cart",
    "date_created": "2022-12-11T12:12:51.000",
    "date_modified": "2022-12-11T12:12:52.000",
    "request_status": "Pending",
    "responsible_agency": "Department of Sanitation",
    "final_address": "100 Larchmont Pl",
    "address_councildis": "C",
    "status": "Assigned to Contractor",
    "contractor": "Richards Disposal",
    "rowid": "952009",
    "final_x": "3707415.37483",
    "final_y": "521075.601977",
    "longitude": "-89.98662722155699",
    "latitude": "29.925965007463358",
    "geocoded_column": {
      "latitude": "29.925965007463358",
      "longitude": "-89.98662722155699"
    }
  },
  {
    "service_request": "2022-952008",
    "request_type": "Property Maintenance",
    "request_reason": "Property Maintenance",
    "date_created": "2022-12-11T12:11:13.000",
    "date_modified": "2022-12-11T12:11:13.000",
    "request_status": "Pending",
    "responsible_agency": "Department of Code Enforcement",
    "final_address": "1300 BLK Patterson St",
    "address_councildis": "C",
    "status": "Pending",
    "rowid": "952008",
    "final_x": "3689744.61621",
    "final_y": "531183.918063",
    "longitude": "-90.04204883556605",
    "latitude": "29.95431867220739",
    "geocoded_column": {
      "latitude": "29.95431867220739",
      "longitude": "-90.04204883556605"
    }
  },
  {
    "service_request": "2022-952007",
    "request_type": "Traffic Signals/Signs/Striping/Streetlights",
    "request_reason": "Street Name Sign Damaged or Missing",
    "date_created": "2022-12-11T11:59:26.000",
    "date_modified": "2022-12-11T11:59:26.000",
    "request_status": "Pending",
    "responsible_agency": "Department of Public Works",
    "final_address": "3101 S Carrollton Ave",
    "address_councildis": "B",
    "status": "Pending",
    "rowid": "952007",
    "final_x": "3666791.6569",
    "final_y": "533434.86618",
    "longitude": "-90.11444982624333",
    "latitude": "29.961199320902498",
    "geocoded_column": {
      "latitude": "29.961199320902498",
      "longitude": "-90.11444982624333"
    }
  },
  {
    "service_request": "2022-952006",
    "request_type": "Trash/Recycling",
    "request_reason": "MIssed Recycling Pick-Up",
    "date_created": "2022-12-11T11:57:25.000",
    "date_modified": "2022-12-11T11:57:26.000",
    "request_status": "Pending",
    "responsible_agency": "Department of Sanitation",
    "final_address": "3212 St Charles Ave",
    "address_councildis": "B",
    "status": "Assigned to Contractor",
    "contractor": "Richards Disposal",
    "rowid": "952006",
    "final_x": "3674753.54094",
    "final_y": "521705.572025",
    "longitude": "-90.08970959013618",
    "latitude": "29.928712344124584",
    "geocoded_column": {
      "latitude": "29.928712344124584",
      "longitude": "-90.08970959013618"
    }
  },
  {
    "service_request": "2022-952005",
    "request_type": "Abandoned Vehicles",
    "request_reason": "Abandoned/Junk Vehicles",
    "date_created": "2022-12-11T11:52:55.000",
    "date_modified": "2022-12-11T11:52:55.000",
    "request_status": "Pending",
    "responsible_agency": "Department of Public Works",
    "final_address": "4209 Prytania St",
    "address_councildis": "B",
    "status": "Pending",
    "rowid": "952005",
    "final_x": "3671542.19854",
    "final_y": "520454.048504",
    "longitude": "-90.09988968417052",
    "latitude": "29.925366501597154",
    "geocoded_column": {
      "latitude": "29.925366501597154",
      "longitude": "-90.09988968417052"
    }
  },
  {
    "service_request": "2022-952004",
    "request_type": "Abandoned Vehicles",
    "request_reason": "Abandoned/Junk Vehicles",
    "date_created": "2022-12-11T11:51:45.000",
    "date_modified": "2022-12-11T11:51:45.000",
    "request_status": "Pending",
    "responsible_agency": "Department of Public Works",
    "final_address": "4209 Prytania St",
    "address_councildis": "B",
    "status": "Pending",
    "rowid": "952004",
    "final_x": "3671542.19854",
    "final_y": "520454.048504",
    "longitude": "-90.09988968417052",
    "latitude": "29.925366501597154",
    "geocoded_column": {
      "latitude": "29.925366501597154",
      "longitude": "-90.09988968417052"
    }
  },
  {
    "service_request": "2022-952003",
    "request_type": "Abandoned Vehicles",
    "request_reason": "Abandoned/Junk Vehicles",
    "date_created": "2022-12-11T11:48:51.000",
    "date_modified": "2022-12-11T11:48:51.000",
    "request_status": "Pending",
    "responsible_agency": "Department of Public Works",
    "final_address": "4201 Prytania St",
    "address_councildis": "B",
    "status": "Pending",
    "rowid": "952003",
    "final_x": "3671597.35841",
    "final_y": "520435.827576",
    "longitude": "-90.09971618057574",
    "latitude": "29.925314767079986",
    "geocoded_column": {
      "latitude": "29.925314767079986",
      "longitude": "-90.09971618057574"
    }
  },
  {
    "service_request": "2022-952002",
    "request_type": "Trash/Recycling",
    "request_reason": "Missed Trash Pick-Up",
    "date_created": "2022-12-11T11:47:54.000",
    "date_modified": "2022-12-11T11:47:55.000",
    "request_status": "Pending",
    "responsible_agency": "Department of Sanitation",
    "final_address": "411 Eleonore St",
    "address_councildis": "A",
    "status": "Assigned to Contractor",
    "contractor": "Richards Disposal",
    "rowid": "952002",
    "final_x": "3665003.83162",
    "final_y": "517819.199542",
    "longitude": "-90.12061737690063",
    "latitude": "29.918313401976278",
    "geocoded_column": {
      "latitude": "29.918313401976278",
      "longitude": "-90.12061737690063"
    }
  },
  {
    "service_request": "2022-952001",
    "request_type": "Trash/Recycling",
    "request_reason": "Missed Trash Pick-Up",
    "date_created": "2022-12-11T11:34:33.000",
    "date_modified": "2022-12-11T11:34:34.000",
    "request_status": "Pending",
    "responsible_agency": "Department of Sanitation",
    "final_address": "500 BLK Webster St",
    "address_councildis": "A",
    "status": "Assigned to Contractor",
    "contractor": "Richards Disposal",
    "rowid": "952001",
    "final_x": "3663819.37902",
    "final_y": "518611.721423",
    "longitude": "-90.12432968109948",
    "latitude": "29.920527006751712",
    "geocoded_column": {
      "latitude": "29.920527006751712",
      "longitude": "-90.12432968109948"
    }
  },
  {
    "service_request": "2022-952000",
    "request_type": "Trash/Recycling",
    "request_reason": "Replace Trash Cart",
    "date_created": "2022-12-11T11:21:54.000",
    "date_modified": "2022-12-11T11:21:55.000",
    "request_status": "Pending",
    "responsible_agency": "Department of Sanitation",
    "final_address": "1823 Third St",
    "address_councildis": "B",
    "status": "Assigned to Contractor",
    "contractor": "Richards Disposal",
    "rowid": "952000",
    "final_x": "3675943.31099",
    "final_y": "523686.102843",
    "longitude": "-90.08588566375721",
    "latitude": "29.93412259904312",
    "geocoded_column": {
      "latitude": "29.93412259904312",
      "longitude": "-90.08588566375721"
    }
  },
  {
    "service_request": "2022-951999",
    "request_type": "Trash/Recycling",
    "request_reason": "Missed Trash Pick-Up",
    "date_created": "2022-12-11T11:20:00.000",
    "date_modified": "2022-12-11T11:20:01.000",
    "request_status": "Pending",
    "responsible_agency": "Department of Sanitation",
    "final_address": "2601 Danneel St",
    "address_councildis": "B",
    "status": "Assigned to Contractor",
    "contractor": "Richards Disposal",
    "rowid": "951999",
    "final_x": "3675595.874",
    "final_y": "524082.656764",
    "longitude": "-90.08696889358153",
    "latitude": "29.935223388845415",
    "geocoded_column": {
      "latitude": "29.935223388845415",
      "longitude": "-90.08696889358153"
    }
  },
  {
    "service_request": "2022-951998",
    "request_type": "Trash/Recycling",
    "request_reason": "Replace Recycling Cart",
    "date_created": "2022-12-11T11:18:22.000",
    "date_modified": "2022-12-11T11:18:22.000",
    "request_status": "Pending",
    "responsible_agency": "Department of Sanitation",
    "final_address": "5520 Mckenna St",
    "address_councildis": "A",
    "status": "Pending",
    "rowid": "951998",
    "final_x": "3668499.43233",
    "final_y": "528956.887872",
    "longitude": "-90.10920802856145",
    "latitude": "29.948836288204053",
    "geocoded_column": {
      "latitude": "29.948836288204053",
      "longitude": "-90.10920802856145"
    }
  },
  {
    "service_request": "2022-951997",
    "request_type": "Trash/Recycling",
    "request_reason": "Missed Trash Pick-Up",
    "date_created": "2022-12-11T11:01:26.000",
    "date_modified": "2022-12-11T11:01:27.000",
    "request_status": "Pending",
    "responsible_agency": "Department of Sanitation",
    "final_address": "321 Alonzo St",
    "address_councildis": "A",
    "status": "Assigned to Contractor",
    "contractor": "Richards Disposal",
    "rowid": "951997",
    "final_x": "3664633.28365",
    "final_y": "517570.918774",
    "longitude": "-90.12179528947192",
    "latitude": "29.91764148554684",
    "geocoded_column": {
      "latitude": "29.91764148554684",
      "longitude": "-90.12179528947192"
    }
  },
  {
    "service_request": "2022-951996",
    "request_type": "Trash/Recycling",
    "request_reason": "Missed Trash Pick-Up",
    "date_created": "2022-12-11T10:58:45.000",
    "date_modified": "2022-12-11T10:58:46.000",
    "request_status": "Pending",
    "responsible_agency": "Department of Sanitation",
    "final_address": "935 Jackson Ave",
    "address_councildis": "B",
    "status": "Assigned to Contractor",
    "contractor": "Richards Disposal",
    "rowid": "951996",
    "final_x": "3679163.96111",
    "final_y": "521756.026746",
    "longitude": "-90.07578505981203",
    "latitude": "29.928718720106005",
    "geocoded_column": {
      "latitude": "29.928718720106005",
      "longitude": "-90.07578505981203"
    }
  },
  {
    "service_request": "2022-951995",
    "request_type": "Traffic Signals/Signs/Striping/Streetlights",
    "request_reason": "Street Light Outage/Malfunction",
    "date_created": "2022-12-11T10:42:50.000",
    "date_modified": "2022-12-11T10:42:51.000",
    "request_status": "Pending",
    "responsible_agency": "Department of Public Works",
    "final_address": "1525 St Roch Ave",
    "address_councildis": "C",
    "status": "Pending",
    "contractor": "Legacy Professional Services",
    "rowid": "951995",
    "final_x": "3686427.58127",
    "final_y": "538127.641801",
    "longitude": "-90.05227756227208",
    "latitude": "29.97351387383174",
    "geocoded_column": {
      "latitude": "29.97351387383174",
      "longitude": "-90.05227756227208"
    }
  },
  {
    "service_request": "2022-951994",
    "request_type": "Trash/Recycling",
    "request_reason": "Missed Trash Pick-Up",
    "date_created": "2022-12-11T10:36:50.000",
    "date_modified": "2022-12-11T10:36:50.000",
    "request_status": "Pending",
    "responsible_agency": "Department of Sanitation",
    "final_address": "2920 Magazine St, New Orleans, Louisiana, 70115",
    "address_councildis": "B",
    "status": "Assigned to Contractor",
    "contractor": "Richards Disposal",
    "rowid": "951994",
    "final_x": "3676513.80936",
    "final_y": "520382.574328",
    "longitude": "-90.08419831239577",
    "latitude": "29.925021880027106",
    "geocoded_column": {
      "latitude": "29.925021880027106",
      "longitude": "-90.08419831239577"
    }
  },
  {
    "service_request": "2022-951993",
    "request_type": "Traffic Signals/Signs/Striping/Streetlights",
    "request_reason": "Traffic Signal Malfunctioning/Damaged",
    "date_created": "2022-12-11T10:36:41.000",
    "date_modified": "2022-12-11T10:36:41.000",
    "request_status": "Pending",
    "responsible_agency": "Department of Public Works",
    "final_address": "LAKE FOREST BLVD & READ BLVD",
    "address_councildis": "E",
    "status": "Pending",
    "rowid": "951993",
    "final_x": "3711213.6",
    "final_y": "559998.28",
    "longitude": "-89.97317898837136",
    "latitude": "30.03286449618675",
    "geocoded_column": {
      "latitude": "30.03286449618675",
      "longitude": "-89.97317898837136"
    }
  },
  {
    "service_request": "2022-951992",
    "request_type": "Trash/Recycling",
    "request_reason": "Missed Trash Pick-Up",
    "date_created": "2022-12-11T10:24:59.000",
    "date_modified": "2022-12-11T10:25:00.000",
    "request_status": "Pending",
    "responsible_agency": "Department of Sanitation",
    "final_address": "1112 State St",
    "address_councildis": "A",
    "status": "Assigned to Contractor",
    "contractor": "Richards Disposal",
    "rowid": "951992",
    "final_x": "3664951.87751",
    "final_y": "520342.463672",
    "longitude": "-90.12069707993706",
    "latitude": "29.92525310017286",
    "geocoded_column": {
      "latitude": "29.92525310017286",
      "longitude": "-90.12069707993706"
    }
  },
  {
    "service_request": "2022-951991",
    "request_type": "Traffic Signals/Signs/Striping/Streetlights",
    "request_reason": "Street Light Outage/Malfunction",
    "date_created": "2022-12-11T10:16:56.000",
    "date_modified": "2022-12-11T10:16:57.000",
    "request_status": "Pending",
    "responsible_agency": "Department of Public Works",
    "final_address": "6200 Louis Xiv St",
    "address_councildis": "A",
    "status": "Pending",
    "contractor": "Legacy Professional Services",
    "rowid": "951991",
    "final_x": "3668109.24244",
    "final_y": "548692.862611",
    "longitude": "-90.10977461337951",
    "latitude": "30.003115039871528",
    "geocoded_column": {
      "latitude": "30.003115039871528",
      "longitude": "-90.10977461337951"
    }
  },
  {
    "service_request": "2022-951990",
    "request_type": "Traffic Signals/Signs/Striping/Streetlights",
    "request_reason": "Street Name Sign Damaged or Missing",
    "date_created": "2022-12-11T10:04:30.000",
    "date_modified": "2022-12-11T10:04:30.000",
    "request_status": "Pending",
    "responsible_agency": "Department of Public Works",
    "final_address": "7837 Plum St",
    "address_councildis": "A",
    "status": "Pending",
    "rowid": "951990",
    "final_x": "3662860.9257",
    "final_y": "528080.388671",
    "longitude": "-90.12704043537094",
    "latitude": "29.946590624994997",
    "geocoded_column": {
      "latitude": "29.946590624994997",
      "longitude": "-90.12704043537094"
    }
  },
  {
    "service_request": "2022-951989",
    "request_type": "Traffic Signals/Signs/Striping/Streetlights",
    "request_reason": "Street Light Outage/Malfunction",
    "date_created": "2022-12-11T09:33:13.000",
    "date_modified": "2022-12-11T09:33:13.000",
    "request_status": "Pending",
    "responsible_agency": "Department of Public Works",
    "final_address": "7654 Marquis St",
    "address_councildis": "E",
    "status": "Pending",
    "contractor": "Legacy Professional Services",
    "rowid": "951989",
    "final_x": "3711174.34379",
    "final_y": "566319.310947",
    "longitude": "-89.97306591051422",
    "latitude": "30.050246077874718",
    "geocoded_column": {
      "latitude": "30.050246077874718",
      "longitude": "-89.97306591051422"
    }
  },
  {
    "service_request": "2022-951988",
    "request_type": "Trash/Recycling",
    "request_reason": "Request a Large Item Pick Up",
    "date_created": "2022-12-11T09:07:23.000",
    "date_modified": "2022-12-11T09:07:24.000",
    "request_status": "Pending",
    "responsible_agency": "Department of Sanitation",
    "final_address": "5230 Marigny St",
    "address_councildis": "D",
    "status": "Assigned to Contractor",
    "contractor": "IV Waste",
    "rowid": "951988",
    "final_x": "3684174.41737",
    "final_y": "552290.557206",
    "longitude": "-90.05889602226841",
    "latitude": "30.0125259167349",
    "geocoded_column": {
      "latitude": "30.0125259167349",
      "longitude": "-90.05889602226841"
    }
  },
  {
    "service_request": "2022-951987",
    "request_type": "Trash/Recycling",
    "request_reason": "Missed Trash Pick-Up",
    "date_created": "2022-12-11T09:00:43.000",
    "date_modified": "2022-12-11T09:00:43.000",
    "request_status": "Pending",
    "responsible_agency": "Department of Sanitation",
    "final_address": "4700 Perlita St",
    "address_councildis": "D",
    "status": "Assigned to Contractor",
    "contractor": "IV Waste",
    "rowid": "951987",
    "final_x": "3678614.75618",
    "final_y": "549820.072084",
    "longitude": "-90.07654708298314",
    "latitude": "30.005901823790282",
    "geocoded_column": {
      "latitude": "30.005901823790282",
      "longitude": "-90.07654708298314"
    }
  },
  {
    "service_request": "2022-951986",
    "request_type": "Trash/Recycling",
    "request_reason": "Missed Trash Pick-Up",
    "date_created": "2022-12-11T09:00:19.000",
    "date_modified": "2022-12-11T09:00:20.000",
    "request_status": "Pending",
    "responsible_agency": "Department of Sanitation",
    "final_address": "1334 State St",
    "address_councildis": "A",
    "status": "Assigned to Contractor",
    "contractor": "Richards Disposal",
    "rowid": "951986",
    "final_x": "3665225.53511",
    "final_y": "521135.199161",
    "longitude": "-90.1198067235895",
    "latitude": "29.927424906926657",
    "geocoded_column": {
      "latitude": "29.927424906926657",
      "longitude": "-90.1198067235895"
    }
  },
  {
    "service_request": "2022-951985",
    "request_type": "Trash/Recycling",
    "request_reason": "Request a Large Item Pick Up",
    "date_created": "2022-12-11T08:57:31.000",
    "date_modified": "2022-12-11T08:57:32.000",
    "request_status": "Pending",
    "responsible_agency": "Department of Sanitation",
    "final_address": "519 Eleonore St",
    "address_councildis": "A",
    "status": "Assigned to Contractor",
    "contractor": "Richards Disposal",
    "rowid": "951985",
    "final_x": "3665125.35527",
    "final_y": "518228.156918",
    "longitude": "-90.12022012380964",
    "latitude": "29.91943436999054",
    "geocoded_column": {
      "latitude": "29.91943436999054",
      "longitude": "-90.12022012380964"
    }
  },
  {
    "service_request": "2022-951984",
    "request_type": "Abandoned Vehicles",
    "request_reason": "Abandoned/Junk Vehicles",
    "date_created": "2022-12-11T08:51:18.000",
    "date_modified": "2022-12-11T08:51:18.000",
    "request_status": "Pending",
    "responsible_agency": "Department of Public Works",
    "final_address": "3126 Burgundy St",
    "address_councildis": "C",
    "status": "Pending",
    "rowid": "951984",
    "final_x": "3689018.33468",
    "final_y": "535116.749126",
    "longitude": "-90.044202424654",
    "latitude": "29.965155077811275",
    "geocoded_column": {
      "latitude": "29.965155077811275",
      "longitude": "-90.044202424654"
    }
  },
  {
    "service_request": "2022-951983",
    "request_type": "Abandoned Vehicles",
    "request_reason": "Abandoned/Junk Vehicles",
    "date_created": "2022-12-11T08:46:53.000",
    "date_modified": "2022-12-11T08:46:53.000",
    "request_status": "Pending",
    "responsible_agency": "Department of Public Works",
    "final_address": "3126 Burgundy St",
    "address_councildis": "C",
    "status": "Pending",
    "rowid": "951983",
    "final_x": "3689018.33468",
    "final_y": "535116.749126",
    "longitude": "-90.044202424654",
    "latitude": "29.965155077811275",
    "geocoded_column": {
      "latitude": "29.965155077811275",
      "longitude": "-90.044202424654"
    }
  },
  {
    "service_request": "2022-951982",
    "request_type": "Trash/Recycling",
    "request_reason": "Missed Trash Pick-Up",
    "date_created": "2022-12-11T08:33:25.000",
    "date_modified": "2022-12-11T08:33:26.000",
    "request_status": "Pending",
    "responsible_agency": "Department of Sanitation",
    "final_address": "1310 State St",
    "address_councildis": "A",
    "status": "Assigned to Contractor",
    "contractor": "Richards Disposal",
    "rowid": "951982",
    "final_x": "3665176.10893",
    "final_y": "520950.159353",
    "longitude": "-90.11996893590921",
    "latitude": "29.926917545026498",
    "geocoded_column": {
      "latitude": "29.926917545026498",
      "longitude": "-90.11996893590921"
    }
  },
  {
    "service_request": "2022-951981",
    "request_type": "Trash/Recycling",
    "request_reason": "Request a Large Item Pick Up",
    "date_created": "2022-12-11T08:24:35.000",
    "date_modified": "2022-12-11T08:24:36.000",
    "request_status": "Pending",
    "responsible_agency": "Department of Sanitation",
    "final_address": "26 Park Island Dr",
    "address_councildis": "A",
    "status": "Assigned to Contractor",
    "contractor": "IV Waste",
    "rowid": "951981",
    "final_x": "3676271.70843",
    "final_y": "548161.507026",
    "longitude": "-90.0840064598035",
    "latitude": "30.001411812644417",
    "geocoded_column": {
      "latitude": "30.001411812644417",
      "longitude": "-90.0840064598035"
    }
  },
  {
    "service_request": "2022-951980",
    "request_type": "Trash/Recycling",
    "request_reason": "Missed Trash Pick-Up",
    "date_created": "2022-12-11T08:10:06.000",
    "date_modified": "2022-12-11T08:10:07.000",
    "request_status": "Pending",
    "responsible_agency": "Department of Sanitation",
    "final_address": "636 State St",
    "address_councildis": "A",
    "status": "Assigned to Contractor",
    "contractor": "Richards Disposal",
    "rowid": "951980",
    "final_x": "3664529.68775",
    "final_y": "518875.585079",
    "longitude": "-90.1220787533461",
    "latitude": "29.92123192240745",
    "geocoded_column": {
      "latitude": "29.92123192240745",
      "longitude": "-90.1220787533461"
    }
  },
  {
    "service_request": "2022-951979",
    "request_type": "Trash/Recycling",
    "request_reason": "Request a Large Item Pick Up",
    "date_created": "2022-12-11T08:05:32.000",
    "date_modified": "2022-12-11T08:05:33.000",
    "request_status": "Pending",
    "responsible_agency": "Department of Sanitation",
    "final_address": "13051 Ashland Dr",
    "address_councildis": "E",
    "status": "Assigned to Contractor",
    "contractor": "Waste Pro",
    "rowid": "951979",
    "final_x": "3717786.62258",
    "final_y": "567540.085412",
    "longitude": "-89.95212061889477",
    "latitude": "30.05338521162476",
    "geocoded_column": {
      "latitude": "30.05338521162476",
      "longitude": "-89.95212061889477"
    }
  },
  {
    "service_request": "2022-951978",
    "request_type": "Trash/Recycling",
    "request_reason": "Missed Trash Pick-Up",
    "date_created": "2022-12-11T08:02:17.000",
    "date_modified": "2022-12-11T08:02:18.000",
    "request_status": "Pending",
    "responsible_agency": "Department of Sanitation",
    "final_address": "1520 Dante St",
    "address_councildis": "A",
    "status": "Assigned to Contractor",
    "contractor": "Richards Disposal",
    "rowid": "951978",
    "final_x": "3662226.39904",
    "final_y": "529809.743425",
    "longitude": "-90.12898648337769",
    "latitude": "29.951364148307604",
    "geocoded_column": {
      "latitude": "29.951364148307604",
      "longitude": "-90.12898648337769"
    }
  },
  {
    "service_request": "2022-951977",
    "request_type": "Trash/Recycling",
    "request_reason": "Repair Trash Cart",
    "date_created": "2022-12-11T07:57:35.000",
    "date_modified": "2022-12-11T07:57:36.000",
    "request_status": "Pending",
    "responsible_agency": "Department of Sanitation",
    "final_address": "320 Pacific Ave",
    "address_councildis": "C",
    "status": "Assigned to Contractor",
    "contractor": "Richards Disposal",
    "rowid": "951977",
    "final_x": "3688574.69033",
    "final_y": "530541.082178",
    "longitude": "-90.045765794881",
    "latitude": "29.952587295252297",
    "geocoded_column": {
      "latitude": "29.952587295252297",
      "longitude": "-90.045765794881"
    }
  },
  {
    "service_request": "2022-951976",
    "request_type": "Trash/Recycling",
    "request_reason": "Illegal Dumping",
    "date_created": "2022-12-11T07:57:18.000",
    "date_modified": "2022-12-11T07:57:18.000",
    "request_status": "Pending",
    "responsible_agency": "Department of Sanitation",
    "final_address": "1334 Clouet St",
    "address_councildis": "C",
    "status": "Pending",
    "rowid": "951976",
    "final_x": "3689220.0943",
    "final_y": "537025.222728",
    "longitude": "-90.04349743840184",
    "latitude": "29.970396468543253",
    "geocoded_column": {
      "latitude": "29.970396468543253",
      "longitude": "-90.04349743840184"
    }
  },
  {
    "service_request": "2022-951975",
    "request_type": "Traffic Signals/Signs/Striping/Streetlights",
    "request_reason": "Street Light Outage/Malfunction",
    "date_created": "2022-12-11T07:52:18.000",
    "date_modified": "2022-12-11T07:52:19.000",
    "request_status": "Pending",
    "responsible_agency": "Department of Public Works",
    "final_address": "2000 S Salcedo St",
    "address_councildis": "B",
    "status": "Pending",
    "contractor": "Legacy Professional Services",
    "rowid": "951975",
    "final_x": "3669690.27726",
    "final_y": "529563.139969",
    "longitude": "-90.10542749635987",
    "latitude": "29.95046824803075",
    "geocoded_column": {
      "latitude": "29.95046824803075",
      "longitude": "-90.10542749635987"
    }
  },
  {
    "service_request": "2022-951974",
    "request_type": "Trash/Recycling",
    "request_reason": "MIssed Recycling Pick-Up",
    "date_created": "2022-12-11T07:45:51.000",
    "date_modified": "2022-12-11T07:45:52.000",
    "request_status": "Pending",
    "responsible_agency": "Department of Sanitation",
    "final_address": "315 N Bernadotte St",
    "address_councildis": "A",
    "status": "Assigned to Contractor",
    "contractor": "Richards Disposal",
    "rowid": "951974",
    "final_x": "3669346.87566",
    "final_y": "540857.626891",
    "longitude": "-90.1061298391489",
    "latitude": "29.9815344382555",
    "geocoded_column": {
      "latitude": "29.9815344382555",
      "longitude": "-90.1061298391489"
    }
  },
  {
    "service_request": "2022-951973",
    "request_type": "Abandoned Vehicles",
    "request_reason": "Abandoned/Junk Vehicles",
    "date_created": "2022-12-11T07:31:30.000",
    "date_modified": "2022-12-11T07:31:30.000",
    "request_status": "Pending",
    "responsible_agency": "Department of Public Works",
    "final_address": "434 S Norman C Francis Prkwy",
    "address_councildis": "B",
    "status": "Pending",
    "rowid": "951973",
    "final_x": "3672409.18215",
    "final_y": "535431.318854",
    "longitude": "-90.09664261134922",
    "latitude": "29.966523392296445",
    "geocoded_column": {
      "latitude": "29.966523392296445",
      "longitude": "-90.09664261134922"
    }
  },
  {
    "service_request": "2022-951972",
    "request_type": "Abandoned Vehicles",
    "request_reason": "Vehicle Blocking Your Driveway",
    "date_created": "2022-12-11T07:28:05.000",
    "date_modified": "2022-12-11T07:28:05.000",
    "request_status": "Pending",
    "responsible_agency": "Department of Public Works",
    "final_address": "3002 De Soto St",
    "address_councildis": "A",
    "status": "Pending",
    "rowid": "951972",
    "final_x": "3676695.7307",
    "final_y": "539667.516106",
    "longitude": "-90.0829597455688",
    "latitude": "29.97804358065186",
    "geocoded_column": {
      "latitude": "29.97804358065186",
      "longitude": "-90.0829597455688"
    }
  },
  {
    "service_request": "2022-951971",
    "request_type": "Trash/Recycling",
    "request_reason": "Missed Trash Pick-Up",
    "date_created": "2022-12-11T07:25:15.000",
    "date_modified": "2022-12-11T07:25:16.000",
    "request_status": "Pending",
    "responsible_agency": "Department of Sanitation",
    "final_address": "2327 Loyola Ave",
    "address_councildis": "B",
    "status": "Assigned to Contractor",
    "contractor": "Richards Disposal",
    "rowid": "951971",
    "final_x": "3675810.44846",
    "final_y": "525061.717693",
    "longitude": "-90.08625784186661",
    "latitude": "29.937909066552734",
    "geocoded_column": {
      "latitude": "29.937909066552734",
      "longitude": "-90.08625784186661"
    }
  },
  {
    "service_request": "2022-951970",
    "request_type": "Trash/Recycling",
    "request_reason": "Request a Large Item Pick Up",
    "date_created": "2022-12-11T07:23:04.000",
    "date_modified": "2022-12-11T07:23:04.000",
    "request_status": "Pending",
    "responsible_agency": "Department of Sanitation",
    "final_address": "530 Ptolemy St",
    "address_councildis": "C",
    "status": "Assigned to Contractor",
    "contractor": "Richards Disposal",
    "rowid": "951970",
    "final_x": "3687422.38991",
    "final_y": "526103.727166",
    "longitude": "-90.04956120709441",
    "latitude": "29.94042163369699",
    "geocoded_column": {
      "latitude": "29.94042163369699",
      "longitude": "-90.04956120709441"
    }
  },
  {
    "service_request": "2022-951969",
    "request_type": "Trash/Recycling",
    "request_reason": "Missed Trash Pick-Up",
    "date_created": "2022-12-11T07:10:01.000",
    "date_modified": "2022-12-11T07:10:02.000",
    "request_status": "Pending",
    "responsible_agency": "Department of Sanitation",
    "final_address": "2329 General Meyer Ave",
    "address_councildis": "C",
    "status": "Assigned to Contractor",
    "contractor": "Richards Disposal",
    "rowid": "951969",
    "final_x": "3692652.05296",
    "final_y": "527621.965631",
    "longitude": "-90.03299598049206",
    "latitude": "29.944434123735533",
    "geocoded_column": {
      "latitude": "29.944434123735533",
      "longitude": "-90.03299598049206"
    }
  },
  {
    "service_request": "2022-951968",
    "request_type": "Trash/Recycling",
    "request_reason": "Repair Trash Cart",
    "date_created": "2022-12-11T04:00:15.000",
    "date_modified": "2022-12-11T04:00:15.000",
    "request_status": "Pending",
    "responsible_agency": "Department of Sanitation",
    "final_address": "615 Henry Clay Ave",
    "address_councildis": "A",
    "status": "Assigned to Contractor",
    "contractor": "Richards Disposal",
    "rowid": "951968",
    "final_x": "3663642.46701",
    "final_y": "519055.358647",
    "longitude": "-90.12487334355423",
    "latitude": "29.92175200226555",
    "geocoded_column": {
      "latitude": "29.92175200226555",
      "longitude": "-90.12487334355423"
    }
  },
  {
    "service_request": "2022-951967",
    "request_type": "Trash/Recycling",
    "request_reason": "MIssed Recycling Pick-Up",
    "date_created": "2022-12-11T03:59:25.000",
    "date_modified": "2022-12-11T03:59:26.000",
    "request_status": "Pending",
    "responsible_agency": "Department of Sanitation",
    "final_address": "615 Henry Clay Ave",
    "address_councildis": "A",
    "status": "Assigned to Contractor",
    "contractor": "Richards Disposal",
    "rowid": "951967",
    "final_x": "3663642.46701",
    "final_y": "519055.358647",
    "longitude": "-90.12487334355423",
    "latitude": "29.92175200226555",
    "geocoded_column": {
      "latitude": "29.92175200226555",
      "longitude": "-90.12487334355423"
    }
  },
  {
    "service_request": "2022-951966",
    "request_type": "Trash/Recycling",
    "request_reason": "Missed Trash Pick-Up",
    "date_created": "2022-12-11T03:58:41.000",
    "date_modified": "2022-12-11T03:58:42.000",
    "request_status": "Pending",
    "responsible_agency": "Department of Sanitation",
    "final_address": "615 Henry Clay Ave",
    "address_councildis": "A",
    "status": "Assigned to Contractor",
    "contractor": "Richards Disposal",
    "rowid": "951966",
    "final_x": "3663642.46701",
    "final_y": "519055.358647",
    "longitude": "-90.12487334355423",
    "latitude": "29.92175200226555",
    "geocoded_column": {
      "latitude": "29.92175200226555",
      "longitude": "-90.12487334355423"
    }
  },
  {
    "service_request": "2022-951965",
    "request_type": "Trash/Recycling",
    "request_reason": "Missed Trash Pick-Up",
    "date_created": "2022-12-11T01:07:44.000",
    "date_modified": "2022-12-11T01:07:44.000",
    "request_status": "Pending",
    "responsible_agency": "Department of Sanitation",
    "final_address": "1314 Dante St",
    "address_councildis": "A",
    "status": "Assigned to Contractor",
    "contractor": "Richards Disposal",
    "rowid": "951965",
    "final_x": "3661720.71718",
    "final_y": "529251.797889",
    "longitude": "-90.13060167866637",
    "latitude": "29.949844582082918",
    "geocoded_column": {
      "latitude": "29.949844582082918",
      "longitude": "-90.13060167866637"
    }
  },
  {
    "service_request": "2022-951964",
    "request_type": "Trash/Recycling",
    "request_reason": "MIssed Recycling Pick-Up",
    "date_created": "2022-12-10T23:50:27.000",
    "date_modified": "2022-12-10T23:50:28.000",
    "request_status": "Pending",
    "responsible_agency": "Department of Sanitation",
    "final_address": "8135 Nelson St",
    "address_councildis": "A",
    "status": "Assigned to Contractor",
    "contractor": "Richards Disposal",
    "rowid": "951964",
    "final_x": "3664996.39392",
    "final_y": "532087.492675",
    "longitude": "-90.12016401600818",
    "latitude": "29.957546872773094",
    "geocoded_column": {
      "latitude": "29.957546872773094",
      "longitude": "-90.12016401600818"
    }
  },
  {
    "service_request": "2022-951963",
    "request_type": "Trash/Recycling",
    "request_reason": "MIssed Recycling Pick-Up",
    "date_created": "2022-12-10T23:50:27.000",
    "date_modified": "2022-12-10T23:50:27.000",
    "request_status": "Pending",
    "responsible_agency": "Department of Sanitation",
    "final_address": "8135 Nelson St",
    "address_councildis": "A",
    "status": "Assigned to Contractor",
    "contractor": "Richards Disposal",
    "rowid": "951963",
    "final_x": "3664996.39392",
    "final_y": "532087.492675",
    "longitude": "-90.12016401600818",
    "latitude": "29.957546872773094",
    "geocoded_column": {
      "latitude": "29.957546872773094",
      "longitude": "-90.12016401600818"
    }
  },
  {
    "service_request": "2022-951962",
    "request_type": "Trash/Recycling",
    "request_reason": "Missed Trash Pick-Up",
    "date_created": "2022-12-10T23:49:40.000",
    "date_modified": "2022-12-10T23:49:41.000",
    "request_status": "Pending",
    "responsible_agency": "Department of Sanitation",
    "final_address": "8135 Nelson St",
    "address_councildis": "A",
    "status": "Assigned to Contractor",
    "contractor": "Richards Disposal",
    "rowid": "951962",
    "final_x": "3664996.39392",
    "final_y": "532087.492675",
    "longitude": "-90.12016401600818",
    "latitude": "29.957546872773094",
    "geocoded_column": {
      "latitude": "29.957546872773094",
      "longitude": "-90.12016401600818"
    }
  },
  {
    "service_request": "2022-951961",
    "request_type": "Trash/Recycling",
    "request_reason": "Replace Trash Cart",
    "date_created": "2022-12-10T22:50:59.000",
    "date_modified": "2022-12-10T22:51:00.000",
    "request_status": "Pending",
    "responsible_agency": "Department of Sanitation",
    "final_address": "3911 Iberville St",
    "address_councildis": "A",
    "status": "Assigned to Contractor",
    "contractor": "Richards Disposal",
    "rowid": "951961",
    "final_x": "3671992.07911",
    "final_y": "538289.713289",
    "longitude": "-90.09786249213481",
    "latitude": "29.97439538522974",
    "geocoded_column": {
      "latitude": "29.97439538522974",
      "longitude": "-90.09786249213481"
    }
  },