[
  {
    "service_request": "2022-887356",
    "request_type": "Trash/Recycling",
    "request_reason": "Replace Trash Cart",
    "date_created": "2022-05-31T01:12:26.000",
    "date_modified": "2022-05-31T01:12:27.000",
    "request_status": "Pending",
    "responsible_agency": "Department of Sanitation",
    "final_address": "932 N Roman St",
    "address_councildis": "D",
    "status": "Assigned to Contractor",
    "contractor": "Richards Disposal",
    "rowid": "887356",
    "final_x": "3679828.94843",
    "final_y": "535819.273031",
    "longitude": "-90.07319760269596",
    "latitude": "29.967367853256032",
    "geocoded_column": {
      "latitude": "29.967367853256032",
      "longitude": "-90.07319760269596"
    }
  },
  {
    "service_request": "2022-887355",
    "request_type": "Trash/Recycling",
    "request_reason": "Request a Large Item Pick Up",
    "date_created": "2022-05-30T23:21:39.000",
    "date_modified": "2022-05-30T23:21:41.000",
    "request_status": "Pending",
    "responsible_agency": "Department of Sanitation",
    "final_address": "607 Napoleon Ave",
    "address_councildis": "B",
    "status": "Assigned to Contractor",
    "contractor": "Richards Disposal",
    "rowid": "887355",
    "final_x": "3671240.49908",
    "final_y": "517836.634294",
    "longitude": "-90.10093092256874",
    "latitude": "29.9181783718493",
    "geocoded_column": {
      "latitude": "29.9181783718493",
      "longitude": "-90.10093092256874"
    }
  },
  {
    "service_request": "2022-887354",
    "request_type": "Trash/Recycling",
    "request_reason": "Repair Trash Cart",
    "date_created": "2022-05-30T22:01:28.000",
    "date_modified": "2022-05-30T22:01:28.000",
    "request_status": "Pending",
    "responsible_agency": "Department of Sanitation",
    "final_address": "3757 Silver Maple Ct",
    "address_councildis": "C",
    "status": "Assigned to Contractor",
    "contractor": "Richards Disposal",
    "rowid": "887354",
    "final_x": "3703560.86686",
    "final_y": "512808.054577",
    "longitude": "-89.99909856821759",
    "latitude": "29.90335609164698",
    "geocoded_column": {
      "latitude": "29.90335609164698",
      "longitude": "-89.99909856821759"
    }
  },
  {
    "service_request": "2022-887353",
    "request_type": "Trash/Recycling",
    "request_reason": "Request a Large Item Pick Up",
    "date_created": "2022-05-30T21:39:36.000",
    "date_modified": "2022-05-30T21:39:36.000",
    "request_status": "Pending",
    "responsible_agency": "Department of Sanitation",
    "final_address": "2333 Chippewa St",
    "address_councildis": "B",
    "status": "Assigned to Contractor",
    "contractor": "Richards Disposal",
    "rowid": "887353",
    "final_x": "3679185.54447",
    "final_y": "520530.881976",
    "longitude": "-90.07575937221041",
    "latitude": "29.925349320755203",
    "geocoded_column": {
      "latitude": "29.925349320755203",
      "longitude": "-90.07575937221041"
    }
  },
  {
    "service_request": "2022-887352",
    "request_type": "Trash/Recycling",
    "request_reason": "Replace Trash Cart",
    "date_created": "2022-05-30T21:39:22.000",
    "date_modified": "2022-05-30T21:39:23.000",
    "request_status": "Pending",
    "responsible_agency": "Department of Sanitation",
    "final_address": "1224 Lowerline St",
    "address_councildis": "A",
    "status": "Assigned to Contractor",
    "contractor": "Richards Disposal",
    "rowid": "887352",
    "final_x": "3663789.0464",
    "final_y": "527062.176702",
    "longitude": "-90.12414393851027",
    "latitude": "29.943763969301408",
    "geocoded_column": {
      "latitude": "29.943763969301408",
      "longitude": "-90.12414393851027"
    }
  },
  {
    "service_request": "2022-887351",
    "request_type": "Trash/Recycling",
    "request_reason": "Request a Large Item Pick Up",
    "date_created": "2022-05-30T21:24:24.000",
    "date_modified": "2022-05-30T21:24:25.000",
    "request_status": "Pending",
    "responsible_agency": "Department of Sanitation",
    "final_address": "6025 Tchoupitoulas St",
    "address_councildis": "A",
    "status": "Assigned to Contractor",
    "contractor": "Richards Disposal",
    "rowid": "887351",
    "final_x": "3663938.22919",
    "final_y": "517652.070582",
    "longitude": "-90.12398649543583",
    "latitude": "29.91788481706123",
    "geocoded_column": {
      "latitude": "29.91788481706123",
      "longitude": "-90.12398649543583"
    }
  },
  {
    "service_request": "2022-887350",
    "request_type": "Trash/Recycling",
    "request_reason": "Order Recycling Cart",
    "date_created": "2022-05-30T21:11:49.000",
    "date_modified": "2022-05-30T21:11:49.000",
    "request_status": "Pending",
    "responsible_agency": "Department of Sanitation",
    "final_address": "1964 Mirabeau Ave",
    "address_councildis": "D",
    "status": "Pending",
    "rowid": "887350",
    "final_x": "3682210.54613",
    "final_y": "550490.804692",
    "longitude": "-90.06516369342746",
    "latitude": "30.007637162054845",
    "geocoded_column": {
      "latitude": "30.007637162054845",
      "longitude": "-90.06516369342746"
    }
  },
  {
    "service_request": "2022-887349",
    "request_type": "Parks & Parkways",
    "request_reason": "Request Tree Service (Right of Way/Public Property)",
    "date_created": "2022-05-30T21:08:27.000",
    "date_modified": "2022-05-30T21:08:27.000",
    "request_status": "Pending",
    "responsible_agency": "Department of Parks & Parkway",
    "final_address": "3224 Louisiana Avenue Prkwy",
    "address_councildis": "B",
    "status": "Pending",
    "rowid": "887349",
    "final_x": "3671785.68315",
    "final_y": "527167.090815",
    "longitude": "-90.0988927823767",
    "latitude": "29.943817988902197",
    "geocoded_column": {
      "latitude": "29.943817988902197",
      "longitude": "-90.0988927823767"
    }
  },
  {
    "service_request": "2022-887348",
    "request_type": "Trash/Recycling",
    "request_reason": "Missed Trash Pick-Up",
    "date_created": "2022-05-30T21:08:15.000",
    "date_modified": "2022-05-30T21:08:16.000",
    "request_status": "Pending",
    "responsible_agency": "Department of Sanitation",
    "final_address": "2612 Octavia St",
    "address_councildis": "A",
    "status": "Assigned to Contractor",
    "contractor": "Richards Disposal",
    "rowid": "887348",
    "final_x": "3667788.31533",
    "final_y": "525169.566077",
    "longitude": "-90.11158084228225",
    "latitude": "29.938443247926383",
    "geocoded_column": {
      "latitude": "29.938443247926383",
      "longitude": "-90.11158084228225"
    }
  },
  {
    "service_request": "2022-887347",
    "request_type": "Abandoned Vehicles",
    "request_reason": "Abandoned/Junk Vehicles",
    "date_created": "2022-05-30T20:53:22.000",
    "date_modified": "2022-05-30T20:53:22.000",
    "request_status": "Pending",
    "responsible_agency": "Department of Public Works",
    "final_address": "1420 Terpsichore St",
    "address_councildis": "B",
    "status": "Pending",
    "rowid": "887347",
    "final_x": "3679617.6733",
    "final_y": "524815.81926",
    "longitude": "-90.07424664693501",
    "latitude": "29.937118442984104",
    "geocoded_column": {
      "latitude": "29.937118442984104",
      "longitude": "-90.07424664693501"
    }
  },
  {
    "service_request": "2022-887346",
    "request_type": "Trash/Recycling",
    "request_reason": "Request a Large Item Pick Up",
    "date_created": "2022-05-30T20:41:27.000",
    "date_modified": "2022-05-30T20:41:27.000",
    "request_status": "Pending",
    "responsible_agency": "Department of Sanitation",
    "final_address": "7929 Freret St",
    "address_councildis": "A",
    "status": "Assigned to Contractor",
    "contractor": "Richards Disposal",
    "rowid": "887346",
    "final_x": "3661926.85114",
    "final_y": "527522.518655",
    "longitude": "-90.13000815603785",
    "latitude": "29.9450836666227",
    "geocoded_column": {
      "latitude": "29.9450836666227",
      "longitude": "-90.13000815603785"
    }
  },
  {
    "service_request": "2022-887345",
    "request_type": "Roads/Drainage",
    "request_reason": "Street Subsidence (Sinking)",
    "date_created": "2022-05-30T20:34:53.000",
    "date_modified": "2022-05-30T20:34:53.000",
    "request_status": "Pending",
    "responsible_agency": "Department of Public Works",
    "final_address": "5213 Laurel St",
    "address_councildis": "B",
    "status": "Pending",
    "rowid": "887345",
    "final_x": "3667902.80948",
    "final_y": "517910.670262",
    "longitude": "-90.11146374842052",
    "latitude": "29.91848023448908",
    "geocoded_column": {
      "latitude": "29.91848023448908",
      "longitude": "-90.11146374842052"
    }
  },
  {
    "service_request": "2022-887344",
    "request_type": "Trash/Recycling",
    "request_reason": "Illegal Dumping",
    "date_created": "2022-05-30T20:29:15.000",
    "date_modified": "2022-05-30T20:29:15.000",
    "request_status": "Pending",
    "responsible_agency": "Department of Sanitation",
    "final_address": "2931 Banks St",
    "address_councildis": "B",
    "status": "Pending",
    "rowid": "887344",
    "final_x": "3673700.87092",
    "final_y": "534929.388806",
    "longitude": "-90.09258062970083",
    "latitude": "29.965104857305484",
    "geocoded_column": {
      "latitude": "29.965104857305484",
      "longitude": "-90.09258062970083"
    }
  },
  {
    "service_request": "2022-887343",
    "request_type": "Trash/Recycling",
    "request_reason": "Request a Large Item Pick Up",
    "date_created": "2022-05-30T20:10:59.000",
    "date_modified": "2022-05-30T20:11:00.000",
    "request_status": "Pending",
    "responsible_agency": "Department of Sanitation",
    "final_address": "2736 Octavia St",
    "address_councildis": "A",
    "status": "Assigned to Contractor",
    "contractor": "Richards Disposal",
    "rowid": "887343",
    "final_x": "3667901.85767",
    "final_y": "525666.879741",
    "longitude": "-90.11120563047973",
    "latitude": "29.939807371131554",
    "geocoded_column": {
      "latitude": "29.939807371131554",
      "longitude": "-90.11120563047973"
    }
  },
  {
    "service_request": "2022-887342",
    "request_type": "Roads/Drainage",
    "request_reason": "Pothole",
    "date_created": "2022-05-30T20:04:05.000",
    "date_modified": "2022-05-30T20:04:05.000",
    "request_status": "Pending",
    "responsible_agency": "Department of Public Works",
    "final_address": "523 Iberville St, New Orleans, Louisiana, 70130",
    "address_councildis": "B",
    "status": "Pending",
    "rowid": "887342",
    "final_x": "3676291.25077",
    "final_y": "535045.816454",
    "longitude": "-90.08439634053394",
    "latitude": "29.965347613188097",
    "geocoded_column": {
      "latitude": "29.965347613188097",
      "longitude": "-90.08439634053394"
    }
  },
  {
    "service_request": "2022-887341",
    "request_type": "Property Maintenance",
    "request_reason": "Property Maintenance",
    "date_created": "2022-05-30T19:56:59.000",
    "date_modified": "2022-05-30T19:56:59.000",
    "request_status": "Pending",
    "responsible_agency": "Department of Code Enforcement",
    "final_address": "7704 S Interstate 10 Service Rd",
    "address_councildis": "E",
    "status": "Pending",
    "rowid": "887341",
    "final_x": "3702383.36023",
    "final_y": "557854.588059",
    "longitude": "-90.00116189660335",
    "latitude": "30.02725542917181",
    "geocoded_column": {
      "latitude": "30.02725542917181",
      "longitude": "-90.00116189660335"
    }
  },
  {
    "service_request": "2022-887340",
    "request_type": "Property Maintenance",
    "request_reason": "Property Maintenance",
    "date_created": "2022-05-30T19:54:49.000",
    "date_modified": "2022-05-30T19:54:49.000",
    "request_status": "Pending",
    "responsible_agency": "Department of Code Enforcement",
    "final_address": "4206 Alfred St",
    "address_councildis": "D",
    "status": "Pending",
    "rowid": "887340",
    "final_x": "3677581.80814",
    "final_y": "547645.85429",
    "longitude": "-90.07988555016617",
    "latitude": "29.999954608584204",
    "geocoded_column": {
      "latitude": "29.999954608584204",
      "longitude": "-90.07988555016617"
    }
  },
  {
    "service_request": "2022-887338",
    "request_type": "Parks & Parkways",
    "request_reason": "Request Tree Service (Right of Way/Public Property)",
    "date_created": "2022-05-30T19:52:44.000",
    "date_modified": "2022-05-30T19:52:44.000",
    "request_status": "Pending",
    "responsible_agency": "Department of Parks & Parkway",
    "final_address": "6505 West End Blvd",
    "address_councildis": "A",
    "status": "Pending",
    "rowid": "887338",
    "final_x": "3666691.25172",
    "final_y": "550891.346197",
    "longitude": "-90.11418037454106",
    "latitude": "30.009201664009527",
    "geocoded_column": {
      "latitude": "30.009201664009527",
      "longitude": "-90.11418037454106"
    }
  },
  {
    "service_request": "2022-887337",
    "request_type": "Property Maintenance",
    "request_reason": "Property Maintenance",
    "date_created": "2022-05-30T19:52:17.000",
    "date_modified": "2022-05-30T19:52:17.000",
    "request_status": "Pending",
    "responsible_agency": "Department of Code Enforcement",
    "final_address": "1823 Charbonnet St",
    "address_councildis": "E",
    "status": "Pending",
    "rowid": "887337",
    "final_x": "3699408.82058",
    "final_y": "536388.181831",
    "longitude": "-90.01134371772882",
    "latitude": "29.968325540600837",
    "geocoded_column": {
      "latitude": "29.968325540600837",
      "longitude": "-90.01134371772882"
    }
  },
  {
    "service_request": "2022-887336",
    "request_type": "Trash/Recycling",
    "request_reason": "Illegal Dumping",
    "date_created": "2022-05-30T19:48:13.000",
    "date_modified": "2022-05-30T19:48:13.000",
    "request_status": "Pending",
    "responsible_agency": "Department of Sanitation",
    "final_address": "1327 Harrison Ave",
    "address_councildis": "D",
    "status": "Pending",
    "rowid": "887336",
    "final_x": "3677459.2196",
    "final_y": "547597.02069",
    "longitude": "-90.08027450039017",
    "latitude": "29.999824020181784",
    "geocoded_column": {
      "latitude": "29.999824020181784",
      "longitude": "-90.08027450039017"
    }
  },
  {
    "service_request": "2022-887335",
    "request_type": "Health Related Questions",
    "request_reason": "Noise Ordinance Complaint",
    "date_created": "2022-05-30T19:47:00.000",
    "date_modified": "2022-05-30T19:47:00.000",
    "request_status": "Pending",
    "responsible_agency": "Health Department",
    "final_address": "718 Bourbon St, New Orleans, Louisiana, 70116",
    "address_councildis": "C",
    "status": "Pending",
    "rowid": "887335",
    "final_x": "3682364.17781",
    "final_y": "532746.008004",
    "longitude": "-90.06529872053143",
    "latitude": "29.95884052062511",
    "geocoded_column": {
      "latitude": "29.95884052062511",
      "longitude": "-90.06529872053143"
    }
  },
  {
    "service_request": "2022-887334",
    "request_type": "Abandoned Vehicles",
    "request_reason": "Abandoned/Junk Vehicles",
    "date_created": "2022-05-30T19:08:10.000",
    "date_modified": "2022-05-30T19:08:10.000",
    "request_status": "Pending",
    "responsible_agency": "Department of Public Works",
    "final_address": "1325 Harrison Ave",
    "address_councildis": "D",
    "status": "Pending",
    "rowid": "887334",
    "final_x": "3677441.11112",
    "final_y": "547602.905234",
    "longitude": "-90.08033150260933",
    "latitude": "29.999840745095284",
    "geocoded_column": {
      "latitude": "29.999840745095284",
      "longitude": "-90.08033150260933"
    }
  },
  {
    "service_request": "2022-887333",
    "request_type": "Trash/Recycling",
    "request_reason": "Request a Large Item Pick Up",
    "date_created": "2022-05-30T18:54:44.000",
    "date_modified": "2022-05-30T18:54:44.000",
    "request_status": "Pending",
    "responsible_agency": "Department of Sanitation",
    "final_address": "2318 Gentilly Blvd",
    "address_councildis": "D",
    "status": "Assigned to Contractor",
    "contractor": "Metro Disposal",
    "rowid": "887333",
    "final_x": "3681017.90274",
    "final_y": "544607.489487",
    "longitude": "-90.06913666845362",
    "latitude": "29.9914963825638",
    "geocoded_column": {
      "latitude": "29.9914963825638",
      "longitude": "-90.06913666845362"
    }
  },
  {
    "service_request": "2022-887332",
    "request_type": "Trash/Recycling",
    "request_reason": "Request a Large Item Pick Up",
    "date_created": "2022-05-30T18:46:53.000",
    "date_modified": "2022-05-30T18:46:54.000",
    "request_status": "Pending",
    "responsible_agency": "Department of Sanitation",
    "final_address": "7011 Jeannette St",
    "address_councildis": "A",
    "status": "Assigned to Contractor",
    "contractor": "Richards Disposal",
    "rowid": "887332",
    "final_x": "3665142.10823",
    "final_y": "527160.246847",
    "longitude": "-90.11986866175788",
    "latitude": "29.94399429968434",
    "geocoded_column": {
      "latitude": "29.94399429968434",
      "longitude": "-90.11986866175788"
    }
  },
  {
    "service_request": "2022-887331",
    "request_type": "Roads/Drainage",
    "request_reason": "Pothole",
    "date_created": "2022-05-30T18:40:43.000",
    "date_modified": "2022-05-30T18:40:44.000",
    "request_status": "Pending",
    "responsible_agency": "Department of Public Works",
    "final_address": "1219 Delery St",
    "address_councildis": "E",
    "status": "Pending",
    "rowid": "887331",
    "final_x": "3700636.02807",
    "final_y": "533320.955012",
    "longitude": "-90.00758023913357",
    "latitude": "29.959852778936103",
    "geocoded_column": {
      "latitude": "29.959852778936103",
      "longitude": "-90.00758023913357"
    }
  },
  {
    "service_request": "2022-887330",
    "request_type": "Trash/Recycling",
    "request_reason": "Request a Large Item Pick Up",
    "date_created": "2022-05-30T18:34:52.000",
    "date_modified": "2022-05-30T18:34:52.000",
    "request_status": "Pending",
    "responsible_agency": "Department of Sanitation",
    "final_address": "6047 General Diaz St",
    "address_councildis": "A",
    "status": "Assigned to Contractor",
    "contractor": "Metro Disposal",
    "rowid": "887330",
    "final_x": "3669631.45761",
    "final_y": "547555.54165",
    "longitude": "-90.10500421380162",
    "latitude": "29.999943020524483",
    "geocoded_column": {
      "latitude": "29.999943020524483",
      "longitude": "-90.10500421380162"
    }
  },
  {
    "service_request": "2022-887329",
    "request_type": "Trash/Recycling",
    "request_reason": "Request a Large Item Pick Up",
    "date_created": "2022-05-30T18:32:12.000",
    "date_modified": "2022-05-30T18:32:13.000",
    "request_status": "Pending",
    "responsible_agency": "Department of Sanitation",
    "final_address": "3230 Nashville Ave",
    "address_councildis": "A",
    "status": "Assigned to Contractor",
    "contractor": "Richards Disposal",
    "rowid": "887329",
    "final_x": "3667867.32545",
    "final_y": "527725.338623",
    "longitude": "-90.11124534092289",
    "latitude": "29.945468480840393",
    "geocoded_column": {
      "latitude": "29.945468480840393",
      "longitude": "-90.11124534092289"
    }
  },
  {
    "service_request": "2022-887328",
    "request_type": "Roads/Drainage",
    "request_reason": "Pothole",
    "date_created": "2022-05-30T18:29:10.000",
    "date_modified": "2022-05-30T18:29:10.000",
    "request_status": "Pending",
    "responsible_agency": "Department of Public Works",
    "final_address": "511 Iberville St, New Orleans, Louisiana, 70130",
    "address_councildis": "B",
    "status": "Pending",
    "rowid": "887328",
    "final_x": "3673056.5602",
    "final_y": "537448.828296",
    "longitude": "-90.0945293130475",
    "latitude": "29.972051634508777",
    "geocoded_column": {
      "latitude": "29.972051634508777",
      "longitude": "-90.0945293130475"
    }
  },
  {
    "service_request": "2022-887327",
    "request_type": "Roads/Drainage",
    "request_reason": "Accessibility Ramps, Curbs and Sidewalk Repair",
    "date_created": "2022-05-30T18:23:31.000",
    "date_modified": "2022-05-30T18:23:31.000",
    "request_status": "Pending",
    "responsible_agency": "Department of Public Works",
    "final_address": "800 Canal St",
    "address_councildis": "B",
    "status": "Pending",
    "rowid": "887327",
    "final_x": "3680798.96482",
    "final_y": "530830.025986",
    "longitude": "-90.07030795216937",
    "latitude": "29.953619754055183",
    "geocoded_column": {
      "latitude": "29.953619754055183",
      "longitude": "-90.07030795216937"
    }
  },
  {
    "service_request": "2022-887325",
    "request_type": "Traffic Signals/Signs/Striping/Streetlights",
    "request_reason": "Striping/Road Surface Markings",
    "date_created": "2022-05-30T18:18:34.000",
    "date_modified": "2022-05-30T18:18:34.000",
    "request_status": "Pending",
    "responsible_agency": "Department of Public Works",
    "final_address": "800 Canal St",
    "address_councildis": "B",
    "status": "Pending",
    "rowid": "887325",
    "final_x": "3680798.96482",
    "final_y": "530830.025986",
    "longitude": "-90.07030795216937",
    "latitude": "29.953619754055183",
    "geocoded_column": {
      "latitude": "29.953619754055183",
      "longitude": "-90.07030795216937"
    }
  },
  {
    "service_request": "2022-887324",
    "request_type": "Roads/Drainage",
    "request_reason": "Accessibility Ramps, Curbs and Sidewalk Repair",
    "date_created": "2022-05-30T18:15:26.000",
    "date_modified": "2022-05-30T18:15:26.000",
    "request_status": "Pending",
    "responsible_agency": "Department of Public Works",
    "final_address": "821 Gravier St",
    "address_councildis": "B",
    "status": "Pending",
    "rowid": "887324",
    "final_x": "3680309.65109",
    "final_y": "530352.318978",
    "longitude": "-90.07186960522988",
    "latitude": "29.95232104222569",
    "geocoded_column": {
      "latitude": "29.95232104222569",
      "longitude": "-90.07186960522988"
    }
  },
  {
    "service_request": "2022-887323",
    "request_type": "Trash/Recycling",
    "request_reason": "Request a Large Item Pick Up",
    "date_created": "2022-05-30T18:10:26.000",
    "date_modified": "2022-05-30T18:10:27.000",
    "request_status": "Pending",
    "responsible_agency": "Department of Sanitation",
    "final_address": "3813 Cleveland Ave",
    "address_councildis": "A",
    "status": "Assigned to Contractor",
    "contractor": "Richards Disposal",
    "rowid": "887323",
    "final_x": "3671719.51521",
    "final_y": "537386.492296",
    "longitude": "-90.09875405080038",
    "latitude": "29.971919910695828",
    "geocoded_column": {
      "latitude": "29.971919910695828",
      "longitude": "-90.09875405080038"
    }
  },
  {
    "service_request": "2022-887322",
    "request_type": "Roads/Drainage",
    "request_reason": "Street Subsidence (Sinking)",
    "date_created": "2022-05-30T18:01:54.000",
    "date_modified": "2022-05-30T18:01:54.000",
    "request_status": "Pending",
    "responsible_agency": "Department of Public Works",
    "final_address": "1934 Ursulines Ave",
    "address_councildis": "D",
    "status": "Pending",
    "rowid": "887322",
    "final_x": "3679836.74933",
    "final_y": "536347.821447",
    "longitude": "-90.07315461011284",
    "latitude": "29.968820944429947",
    "geocoded_column": {
      "latitude": "29.968820944429947",
      "longitude": "-90.07315461011284"
    }
  },
  {
    "service_request": "2022-887321",
    "request_type": "Abandoned Vehicles",
    "request_reason": "Abandoned/Junk Vehicles",
    "date_created": "2022-05-30T18:01:43.000",
    "date_modified": "2022-05-30T18:01:43.000",
    "request_status": "Pending",
    "responsible_agency": "Department of Public Works",
    "final_address": "903 Belleville St",
    "address_councildis": "C",
    "status": "Pending",
    "rowid": "887321",
    "final_x": "3687735.24892",
    "final_y": "528307.474432",
    "longitude": "-90.04849544697929",
    "latitude": "29.946471548057215",
    "geocoded_column": {
      "latitude": "29.946471548057215",
      "longitude": "-90.04849544697929"
    }
  },
  {
    "service_request": "2022-887320",
    "request_type": "Abandoned Vehicles",
    "request_reason": "Abandoned/Junk Vehicles",
    "date_created": "2022-05-30T18:00:19.000",
    "date_modified": "2022-05-30T18:00:19.000",
    "request_status": "Pending",
    "responsible_agency": "Department of Public Works",
    "final_address": "900 Vallette St",
    "address_councildis": "C",
    "status": "Pending",
    "rowid": "887320",
    "final_x": "3687515.27151",
    "final_y": "528322.756544",
    "longitude": "-90.04918945110774",
    "latitude": "29.946520349200973",
    "geocoded_column": {
      "latitude": "29.946520349200973",
      "longitude": "-90.04918945110774"
    }
  },
  {
    "service_request": "2022-887319",
    "request_type": "Abandoned Vehicles",
    "request_reason": "Abandoned/Junk Vehicles",
    "date_created": "2022-05-30T17:58:54.000",
    "date_modified": "2022-05-30T17:58:54.000",
    "request_status": "Pending",
    "responsible_agency": "Department of Public Works",
    "final_address": "920 Vallette St",
    "address_councildis": "C",
    "status": "Pending",
    "rowid": "887319",
    "final_x": "3687512.65097",
    "final_y": "528156.678272",
    "longitude": "-90.04920360159124",
    "latitude": "29.946063771281814",
    "geocoded_column": {
      "latitude": "29.946063771281814",
      "longitude": "-90.04920360159124"
    }
  },
  {
    "service_request": "2022-887318",
    "request_type": "Abandoned Vehicles",
    "request_reason": "Abandoned/Junk Vehicles",
    "date_created": "2022-05-30T17:56:59.000",
    "date_modified": "2022-05-30T17:56:59.000",
    "request_status": "Pending",
    "responsible_agency": "Department of Public Works",
    "final_address": "923 Vallette St",
    "address_councildis": "C",
    "status": "Pending",
    "rowid": "887318",
    "final_x": "3687413.59887",
    "final_y": "528158.855936",
    "longitude": "-90.04951626507646",
    "latitude": "29.946072811050666",
    "geocoded_column": {
      "latitude": "29.946072811050666",
      "longitude": "-90.04951626507646"
    }
  },
  {
    "service_request": "2022-887317",
    "request_type": "Trash/Recycling",
    "request_reason": "Order Trash Cart",
    "date_created": "2022-05-30T17:53:51.000",
    "date_modified": "2022-05-30T17:53:51.000",
    "request_status": "Pending",
    "responsible_agency": "Department of Sanitation",
    "final_address": "6921 Boston Dr",
    "address_councildis": "E",
    "status": "Assigned to Contractor",
    "contractor": "Metro Disposal",
    "rowid": "887317",
    "final_x": "3706654.30622",
    "final_y": "560281.158685",
    "longitude": "-89.98757614357788",
    "latitude": "30.033790324047544",
    "geocoded_column": {
      "latitude": "30.033790324047544",
      "longitude": "-89.98757614357788"
    }
  },
  {
    "service_request": "2022-887316",
    "request_type": "Property Maintenance",
    "request_reason": "Property Maintenance",
    "date_created": "2022-05-30T17:45:08.000",
    "date_modified": "2022-05-30T17:45:08.000",
    "request_status": "Pending",
    "responsible_agency": "Department of Code Enforcement",
    "final_address": "8926 Forshey St",
    "address_councildis": "A",
    "status": "Pending",
    "rowid": "887316",
    "final_x": "3664710.99872",
    "final_y": "535961.134471",
    "longitude": "-90.12093579036345",
    "latitude": "29.968206421889406",
    "geocoded_column": {
      "latitude": "29.968206421889406",
      "longitude": "-90.12093579036345"
    }
  },
  {
    "service_request": "2022-887315",
    "request_type": "Trash/Recycling",
    "request_reason": "Missed Trash Pick-Up",
    "date_created": "2022-05-30T17:42:48.000",
    "date_modified": "2022-05-30T17:44:16.000",
    "request_status": "Pending",
    "responsible_agency": "Department of Sanitation",
    "final_address": "213 Lowerline St",
    "address_councildis": "A",
    "status": "Assigned to Contractor",
    "contractor": "Richards Disposal",
    "rowid": "887315",
    "final_x": "3661076.84",
    "final_y": "522876.563899",
    "longitude": "-90.13284560282253",
    "latitude": "29.932333277459808",
    "geocoded_column": {
      "latitude": "29.932333277459808",
      "longitude": "-90.13284560282253"
    }
  },
  {
    "service_request": "2022-887314",
    "request_type": "Trash/Recycling",
    "request_reason": "Request a Large Item Pick Up",
    "date_created": "2022-05-30T17:31:07.000",
    "date_modified": "2022-05-30T17:31:07.000",
    "request_status": "Pending",
    "responsible_agency": "Department of Sanitation",
    "final_address": "4234 S Roman St, New Orleans, Louisiana, 70125",
    "address_councildis": "B",
    "status": "Assigned to Contractor",
    "contractor": "Richards Disposal",
    "rowid": "887314",
    "final_x": "3670751.55764",
    "final_y": "526567.139134",
    "longitude": "-90.1021781570251",
    "latitude": "29.942198910270154",
    "geocoded_column": {
      "latitude": "29.942198910270154",
      "longitude": "-90.1021781570251"
    }
  },
  {
    "service_request": "2022-887313",
    "request_type": "Traffic Signals/Signs/Striping/Streetlights",
    "request_reason": "Additional signage",
    "date_created": "2022-05-30T17:14:20.000",
    "date_modified": "2022-05-30T17:14:21.000",
    "request_status": "Pending",
    "responsible_agency": "Department of Public Works",
    "final_address": "3021 Broadway St",
    "address_councildis": "B",
    "status": "Pending",
    "rowid": "887313",
    "final_x": "3667837.62945",
    "final_y": "531992.639491",
    "longitude": "-90.11119539711737",
    "latitude": "29.95720303680921",
    "geocoded_column": {
      "latitude": "29.95720303680921",
      "longitude": "-90.11119539711737"
    }
  },
  {
    "service_request": "2022-887312",
    "request_type": "Trash/Recycling",
    "request_reason": "Start Trash Service",
    "date_created": "2022-05-30T17:12:58.000",
    "date_modified": "2022-05-30T17:12:59.000",
    "request_status": "Pending",
    "responsible_agency": "Department of Sanitation",
    "final_address": "3021 Broadway St",
    "address_councildis": "B",
    "status": "Assigned to Contractor",
    "contractor": "Richards Disposal",
    "rowid": "887312",
    "final_x": "3667837.62945",
    "final_y": "531992.639491",
    "longitude": "-90.11119539711737",
    "latitude": "29.95720303680921",
    "geocoded_column": {
      "latitude": "29.95720303680921",
      "longitude": "-90.11119539711737"
    }
  },
  {
    "service_request": "2022-887311",
    "request_type": "Trash/Recycling",
    "request_reason": "Order Trash Cart",
    "date_created": "2022-05-30T17:12:51.000",
    "date_modified": "2022-05-30T17:12:52.000",
    "request_status": "Pending",
    "responsible_agency": "Department of Sanitation",
    "final_address": "3021 Broadway St",
    "address_councildis": "B",
    "status": "Assigned to Contractor",
    "contractor": "Richards Disposal",
    "rowid": "887311",
    "final_x": "3667837.62945",
    "final_y": "531992.639491",
    "longitude": "-90.11119539711737",
    "latitude": "29.95720303680921",
    "geocoded_column": {
      "latitude": "29.95720303680921",
      "longitude": "-90.11119539711737"
    }
  },
  {
    "service_request": "2022-887310",
    "request_type": "Abandoned Vehicles",
    "request_reason": "Abandoned/Junk Vehicles",
    "date_created": "2022-05-30T17:01:48.000",
    "date_modified": "2022-05-30T17:02:24.000",
    "request_status": "Pending",
    "responsible_agency": "Department of Public Works",
    "final_address": "3330 Iberville St",
    "address_councildis": "B",
    "status": "Pending",
    "rowid": "887310",
    "final_x": "3673619.57505",
    "final_y": "536848.50516",
    "longitude": "-90.09277174338442",
    "latitude": "29.97038420021272",
    "geocoded_column": {
      "latitude": "29.97038420021272",
      "longitude": "-90.09277174338442"
    }
  },
  {
    "service_request": "2022-887309",
    "request_type": "Trash/Recycling",
    "request_reason": "Request a Large Item Pick Up",
    "date_created": "2022-05-30T16:51:36.000",
    "date_modified": "2022-05-30T16:51:37.000",
    "request_status": "Pending",
    "responsible_agency": "Department of Sanitation",
    "final_address": "6319 Magnolia St",
    "address_councildis": "A",
    "status": "Assigned to Contractor",
    "contractor": "Richards Disposal",
    "rowid": "887309",
    "final_x": "3665778.41005",
    "final_y": "525495.819389",
    "longitude": "-90.11791541484867",
    "latitude": "29.939399114297505",
    "geocoded_column": {
      "latitude": "29.939399114297505",
      "longitude": "-90.11791541484867"
    }
  },
  {
    "service_request": "2022-887308",
    "request_type": "Property Maintenance",
    "request_reason": "Property Maintenance",
    "date_created": "2022-05-30T16:49:21.000",
    "date_modified": "2022-05-30T16:49:21.000",
    "request_status": "Pending",
    "responsible_agency": "Department of Code Enforcement",
    "final_address": "17600 Paris Rd",
    "address_councildis": "E",
    "status": "Pending",
    "rowid": "887308",
    "final_x": "3721049.61516",
    "final_y": "574670.481579",
    "longitude": "-89.94153353534014",
    "latitude": "30.07288225329255",
    "geocoded_column": {
      "latitude": "30.07288225329255",
      "longitude": "-89.94153353534014"
    }
  },
  {
    "service_request": "2022-887307",
    "request_type": "Trash/Recycling",
    "request_reason": "Missed Trash Pick-Up",
    "date_created": "2022-05-30T16:42:22.000",
    "date_modified": "2022-05-30T16:42:23.000",
    "request_status": "Pending",
    "responsible_agency": "Department of Sanitation",
    "final_address": "5027 Frenchmen St",
    "address_councildis": "D",
    "status": "Assigned to Contractor",
    "contractor": "Metro Disposal",
    "rowid": "887307",
    "final_x": "3683417.48924",
    "final_y": "551303.392853",
    "longitude": "-90.06132211551738",
    "latitude": "30.009834700314396",
    "geocoded_column": {
      "latitude": "30.009834700314396",
      "longitude": "-90.06132211551738"
    }
  },
  {
    "service_request": "2022-887306",
    "request_type": "Property Maintenance",
    "request_reason": "Property Maintenance",
    "date_created": "2022-05-30T16:35:19.000",
    "date_modified": "2022-05-30T16:35:19.000",
    "request_status": "Pending",
    "responsible_agency": "Department of Code Enforcement",
    "final_address": "PARIS RD & INDUSTRIAL CANAL BRIDGE",
    "address_councildis": "E",
    "status": "Pending",
    "rowid": "887306",
    "final_x": "3721920.49",
    "final_y": "546756.11",
    "longitude": "-89.93985361392072",
    "latitude": "29.996099999661464",
    "geocoded_column": {
      "latitude": "29.996099999661464",
      "longitude": "-89.93985361392072"
    }
  },
  {
    "service_request": "2022-887305",
    "request_type": "Trash/Recycling",
    "request_reason": "Request a Large Item Pick Up",
    "date_created": "2022-05-30T16:13:28.000",
    "date_modified": "2022-05-30T16:13:28.000",
    "request_status": "Pending",
    "responsible_agency": "Department of Sanitation",
    "final_address": "2035 Joseph St",
    "address_councildis": "A",
    "status": "Assigned to Contractor",
    "contractor": "Richards Disposal",
    "rowid": "887305",
    "final_x": "3667266.17447",
    "final_y": "523732.355643",
    "longitude": "-90.11327761237604",
    "latitude": "29.934506677502434",
    "geocoded_column": {
      "latitude": "29.934506677502434",
      "longitude": "-90.11327761237604"
    }
  },
  {
    "service_request": "2022-887304",
    "request_type": "Abandoned Vehicles",
    "request_reason": "Abandoned/Junk Vehicles",
    "date_created": "2022-05-30T16:10:55.000",
    "date_modified": "2022-05-30T16:10:55.000",
    "request_status": "Pending",
    "responsible_agency": "Department of Public Works",
    "final_address": "3018 First St",
    "address_councildis": "B",
    "status": "Pending",
    "rowid": "887304",
    "final_x": "3673998.79963",
    "final_y": "527578.961279",
    "longitude": "-90.09189127535356",
    "latitude": "29.94488475302297",
    "geocoded_column": {
      "latitude": "29.94488475302297",
      "longitude": "-90.09189127535356"
    }
  },
  {
    "service_request": "2022-887303",
    "request_type": "Trash/Recycling",
    "request_reason": "Order Recycling Cart",
    "date_created": "2022-05-30T16:09:12.000",
    "date_modified": "2022-05-30T16:09:12.000",
    "request_status": "Pending",
    "responsible_agency": "Department of Sanitation",
    "final_address": "3917 Laurel St",
    "address_councildis": "B",
    "status": "Pending",
    "rowid": "887303",
    "final_x": "3673118.24692",
    "final_y": "518282.25695",
    "longitude": "-90.0949886751293",
    "latitude": "29.919348026086276",
    "geocoded_column": {
      "latitude": "29.919348026086276",
      "longitude": "-90.0949886751293"
    }
  },
  {
    "service_request": "2022-887302",
    "request_type": "Property Maintenance",
    "request_reason": "Property Maintenance",
    "date_created": "2022-05-30T16:08:37.000",
    "date_modified": "2022-05-30T16:08:37.000",
    "request_status": "Pending",
    "responsible_agency": "Department of Code Enforcement",
    "final_address": "5928 Milne Blvd",
    "address_councildis": "A",
    "status": "Pending",
    "rowid": "887302",
    "final_x": "3666925.78266",
    "final_y": "547345.574033",
    "longitude": "-90.1135586601324",
    "latitude": "29.999445156828873",
    "geocoded_column": {
      "latitude": "29.999445156828873",
      "longitude": "-90.1135586601324"
    }
  },
  {
    "service_request": "2022-887301",
    "request_type": "Property Maintenance",
    "request_reason": "Property Maintenance",
    "date_created": "2022-05-30T15:57:39.000",
    "date_modified": "2022-05-30T15:57:39.000",
    "request_status": "Pending",
    "responsible_agency": "Department of Code Enforcement",
    "final_address": "2408 S Derbigny St",
    "address_councildis": "B",
    "status": "Pending",
    "rowid": "887301",
    "final_x": "3673913.21006",
    "final_y": "527635.037695",
    "longitude": "-90.09215959028283",
    "latitude": "29.945041494235543",
    "geocoded_column": {
      "latitude": "29.945041494235543",
      "longitude": "-90.09215959028283"
    }
  },
  {
    "service_request": "2022-887299",
    "request_type": "Trash/Recycling",
    "request_reason": "Repair Trash Cart",
    "date_created": "2022-05-30T15:45:19.000",
    "date_modified": "2022-05-30T15:45:20.000",
    "request_status": "Pending",
    "responsible_agency": "Department of Sanitation",
    "final_address": "1223 Philip St",
    "address_councildis": "B",
    "status": "Assigned to Contractor",
    "contractor": "Richards Disposal",
    "rowid": "887299",
    "final_x": "3678211.73205",
    "final_y": "522329.680826",
    "longitude": "-90.07877122329332",
    "latitude": "29.93032478286037",
    "geocoded_column": {
      "latitude": "29.93032478286037",
      "longitude": "-90.07877122329332"
    }
  },
  {
    "service_request": "2022-887300",
    "request_type": "Trash/Recycling",
    "request_reason": "Repair Trash Cart",
    "date_created": "2022-05-30T15:45:19.000",
    "date_modified": "2022-05-30T15:45:20.000",
    "request_status": "Pending",
    "responsible_agency": "Department of Sanitation",
    "final_address": "1223 Philip St",
    "address_councildis": "B",
    "status": "Assigned to Contractor",
    "contractor": "Richards Disposal",
    "rowid": "887300",
    "final_x": "3678211.73205",
    "final_y": "522329.680826",
    "longitude": "-90.07877122329332",
    "latitude": "29.93032478286037",
    "geocoded_column": {
      "latitude": "29.93032478286037",
      "longitude": "-90.07877122329332"
    }
  },
  {
    "service_request": "2022-887298",
    "request_type": "Trash/Recycling",
    "request_reason": "Order Trash Cart",
    "date_created": "2022-05-30T15:43:43.000",
    "date_modified": "2022-05-30T15:43:44.000",
    "request_status": "Pending",
    "responsible_agency": "Department of Sanitation",
    "final_address": "New Orleans,LA",
    "status": "Assigned to Contractor",
    "rowid": "887298",
    "longitude": "0.0",
    "latitude": "0.0",
    "geocoded_column": {
      "latitude": "0.0",
      "longitude": "0.0"
    }
  },
  {
    "service_request": "2022-887297",
    "request_type": "Trash/Recycling",
    "request_reason": "Missed Trash Pick-Up",
    "date_created": "2022-05-30T15:38:51.000",
    "date_modified": "2022-05-30T15:38:51.000",
    "request_status": "Pending",
    "responsible_agency": "Department of Sanitation",
    "final_address": "2268 Robert E Lee Blvd",
    "address_councildis": "D",
    "status": "Assigned to Contractor",
    "contractor": "Metro Disposal",
    "rowid": "887297",
    "final_x": "3684142.33948",
    "final_y": "555708.110233",
    "longitude": "-90.05887727498666",
    "latitude": "30.021923915774792",
    "geocoded_column": {
      "latitude": "30.021923915774792",
      "longitude": "-90.05887727498666"
    }
  },
  {
    "service_request": "2022-887295",
    "request_type": "Traffic Signals/Signs/Striping/Streetlights",
    "request_reason": "Street Name Sign Damaged or Missing",
    "date_created": "2022-05-30T15:37:02.000",
    "date_modified": "2022-05-30T15:37:02.000",
    "request_status": "Pending",
    "responsible_agency": "Department of Public Works",
    "final_address": "747 St Charles Ave",
    "address_councildis": "B",
    "status": "Pending",
    "rowid": "887295",
    "final_x": "3680394.22895",
    "final_y": "528213.912448",
    "longitude": "-90.07167689311171",
    "latitude": "29.946438581861734",
    "geocoded_column": {
      "latitude": "29.946438581861734",
      "longitude": "-90.07167689311171"
    }
  },
  {
    "service_request": "2022-887294",
    "request_type": "Trash/Recycling",
    "request_reason": "Start Trash Service",
    "date_created": "2022-05-30T15:31:46.000",
    "date_modified": "2022-05-30T15:31:46.000",
    "request_status": "Pending",
    "responsible_agency": "Department of Sanitation",
    "final_address": "837 Tricou St",
    "address_councildis": "E",
    "status": "Assigned to Contractor",
    "contractor": "Metro Disposal",
    "rowid": "887294",
    "final_x": "3699847.51268",
    "final_y": "532244.421955",
    "longitude": "-90.01010943656469",
    "latitude": "29.956917758352112",
    "geocoded_column": {
      "latitude": "29.956917758352112",
      "longitude": "-90.01010943656469"
    }
  },
  {
    "service_request": "2022-887293",
    "request_type": "Trash/Recycling",
    "request_reason": "Order Trash Cart",
    "date_created": "2022-05-30T15:31:35.000",
    "date_modified": "2022-05-30T15:31:36.000",
    "request_status": "Pending",
    "responsible_agency": "Department of Sanitation",
    "final_address": "837 Tricou St",
    "address_councildis": "E",
    "status": "Assigned to Contractor",
    "contractor": "Metro Disposal",
    "rowid": "887293",
    "final_x": "3699847.51268",
    "final_y": "532244.421955",
    "longitude": "-90.01010943656469",
    "latitude": "29.956917758352112",
    "geocoded_column": {
      "latitude": "29.956917758352112",
      "longitude": "-90.01010943656469"
    }
  },
  {
    "service_request": "2022-887292",
    "request_type": "Traffic Signals/Signs/Striping/Streetlights",
    "request_reason": "Street Name Sign Damaged or Missing",
    "date_created": "2022-05-30T15:30:17.000",
    "date_modified": "2022-05-30T15:30:17.000",
    "request_status": "Pending",
    "responsible_agency": "Department of Public Works",
    "final_address": "545 St Charles Ave",
    "address_councildis": "B",
    "status": "Pending",
    "rowid": "887292",
    "final_x": "3680580.1853",
    "final_y": "528976.663552",
    "longitude": "-90.0710632336451",
    "latitude": "29.948530260367836",
    "geocoded_column": {
      "latitude": "29.948530260367836",
      "longitude": "-90.0710632336451"
    }
  },
  {
    "service_request": "2022-887291",
    "request_type": "Abandoned Vehicles",
    "request_reason": "Abandoned/Junk Vehicles",
    "date_created": "2022-05-30T15:30:00.000",
    "date_modified": "2022-05-30T15:30:00.000",
    "request_status": "Pending",
    "responsible_agency": "Department of Public Works",
    "final_address": "1347 Coliseum St",
    "address_councildis": "B",
    "status": "Pending",
    "rowid": "887291",
    "final_x": "3679935.75829",
    "final_y": "524906.077052",
    "longitude": "-90.07323930060726",
    "latitude": "29.93735700750877",
    "geocoded_column": {
      "latitude": "29.93735700750877",
      "longitude": "-90.07323930060726"
    }
  },
  {
    "service_request": "2022-887289",
    "request_type": "Traffic Signals/Signs/Striping/Streetlights",
    "request_reason": "Traffic Sign Missing/Damaged",
    "date_created": "2022-05-30T15:16:13.000",
    "date_modified": "2022-05-30T15:16:14.000",
    "request_status": "Pending",
    "responsible_agency": "Department of Public Works",
    "final_address": "S NORMAN C FRANCIS PKWY & DHEMECOURT ST",
    "address_councildis": "B",
    "status": "Pending",
    "rowid": "887289",
    "final_x": "3671940.5",
    "final_y": "535213.18",
    "longitude": "-90.09813013364315",
    "latitude": "29.965937484228466",
    "geocoded_column": {
      "latitude": "29.965937484228466",
      "longitude": "-90.09813013364315"
    }
  },
  {
    "service_request": "2022-887288",
    "request_type": "Trash/Recycling",
    "request_reason": "Request a Large Item Pick Up",
    "date_created": "2022-05-30T15:13:45.000",
    "date_modified": "2022-05-30T15:13:46.000",
    "request_status": "Pending",
    "responsible_agency": "Department of Sanitation",
    "final_address": "3301 Banks St",
    "address_councildis": "B",
    "status": "Assigned to Contractor",
    "contractor": "Richards Disposal",
    "rowid": "887288",
    "final_x": "3672848.04545",
    "final_y": "535552.778886",
    "longitude": "-90.09525253881712",
    "latitude": "29.966844335218525",
    "geocoded_column": {
      "latitude": "29.966844335218525",
      "longitude": "-90.09525253881712"
    }
  },
  {
    "service_request": "2022-887287",
    "request_type": "Trash/Recycling",
    "request_reason": "Missed Trash Pick-Up",
    "date_created": "2022-05-30T15:13:18.000",
    "date_modified": "2022-05-30T15:13:19.000",
    "request_status": "Pending",
    "responsible_agency": "Department of Sanitation",
    "final_address": "6100 BLK Painters St",
    "address_councildis": "D",
    "status": "Assigned to Contractor",
    "contractor": "Metro Disposal",
    "rowid": "887287",
    "final_x": "3686017.73521",
    "final_y": "555722.515967",
    "longitude": "-90.05295100983109",
    "latitude": "30.021906038235528",
    "geocoded_column": {
      "latitude": "30.021906038235528",
      "longitude": "-90.05295100983109"
    }
  },
  {
    "service_request": "2022-887286",
    "request_type": "Trash/Recycling",
    "request_reason": "Request a Large Item Pick Up",
    "date_created": "2022-05-30T14:29:08.000",
    "date_modified": "2022-05-30T14:29:09.000",
    "request_status": "Pending",
    "responsible_agency": "Department of Sanitation",
    "final_address": "630 Adams St",
    "address_councildis": "A",
    "status": "Assigned to Contractor",
    "contractor": "Richards Disposal",
    "rowid": "887286",
    "final_x": "3661836.25216",
    "final_y": "526098.602942",
    "longitude": "-90.13034140649654",
    "latitude": "29.941170967571022",
    "geocoded_column": {
      "latitude": "29.941170967571022",
      "longitude": "-90.13034140649654"
    }
  },
  {
    "service_request": "2022-887285",
    "request_type": "Trash/Recycling",
    "request_reason": "Replace Trash Cart",
    "date_created": "2022-05-30T14:28:04.000",
    "date_modified": "2022-05-30T14:28:05.000",
    "request_status": "Pending",
    "responsible_agency": "Department of Sanitation",
    "final_address": "1208 Short St",
    "address_councildis": "A",
    "status": "Assigned to Contractor",
    "contractor": "Richards Disposal",
    "rowid": "887285",
    "final_x": "3662354.93754",
    "final_y": "528187.49312",
    "longitude": "-90.12863447380495",
    "latitude": "29.946899765276235",
    "geocoded_column": {
      "latitude": "29.946899765276235",
      "longitude": "-90.12863447380495"
    }
  },
  {
    "service_request": "2022-887284",
    "request_type": "Trash/Recycling",
    "request_reason": "Request a Large Item Pick Up",
    "date_created": "2022-05-30T14:23:45.000",
    "date_modified": "2022-05-30T14:23:45.000",
    "request_status": "Pending",
    "responsible_agency": "Department of Sanitation",
    "final_address": "6109 Milne Blvd",
    "address_councildis": "A",
    "status": "Assigned to Contractor",
    "contractor": "Metro Disposal",
    "rowid": "887284",
    "final_x": "3667181.42113",
    "final_y": "548191.25685",
    "longitude": "-90.11272262866004",
    "latitude": "30.001763007252087",
    "geocoded_column": {
      "latitude": "30.001763007252087",
      "longitude": "-90.11272262866004"
    }
  },
  {
    "service_request": "2022-887283",
    "request_type": "Parks & Parkways",
    "request_reason": "Request Tree Service (Right of Way/Public Property)",
    "date_created": "2022-05-30T14:23:05.000",
    "date_modified": "2022-05-30T14:23:05.000",
    "request_status": "Pending",
    "responsible_agency": "Department of Parks & Parkway",
    "final_address": "2743 Dumaine St",
    "address_councildis": "A",
    "status": "Pending",
    "rowid": "887283",
    "final_x": "3676854.6715",
    "final_y": "537802.376264",
    "longitude": "-90.0825220582567",
    "latitude": "29.972910315927674",
    "geocoded_column": {
      "latitude": "29.972910315927674",
      "longitude": "-90.0825220582567"
    }
  },
  {
    "service_request": "2022-887282",
    "request_type": "Parks & Parkways",
    "request_reason": "Request Tree Service (Right of Way/Public Property)",
    "date_created": "2022-05-30T14:22:51.000",
    "date_modified": "2022-05-30T14:22:52.000",
    "request_status": "Pending",
    "responsible_agency": "Department of Parks & Parkway",
    "final_address": "2741 Dumaine St",
    "address_councildis": "A",
    "status": "Pending",
    "rowid": "887282",
    "final_x": "3676864.56776",
    "final_y": "537796.12628",
    "longitude": "-90.08249101942967",
    "latitude": "29.97289283356405",
    "geocoded_column": {
      "latitude": "29.97289283356405",
      "longitude": "-90.08249101942967"
    }
  },
  {
    "service_request": "2022-887281",
    "request_type": "Trash/Recycling",
    "request_reason": "Request a Large Item Pick Up",
    "date_created": "2022-05-30T14:19:09.000",
    "date_modified": "2022-05-30T14:19:10.000",
    "request_status": "Pending",
    "responsible_agency": "Department of Sanitation",
    "final_address": "1455 Webster St",
    "address_councildis": "A",
    "status": "Assigned to Contractor",
    "contractor": "Richards Disposal",
    "rowid": "887281",
    "final_x": "3665076.29344",
    "final_y": "521848.969594",
    "longitude": "-90.12025399031104",
    "latitude": "29.929391895611417",
    "geocoded_column": {
      "latitude": "29.929391895611417",
      "longitude": "-90.12025399031104"
    }
  },
  {
    "service_request": "2022-887280",
    "request_type": "Traffic Signals/Signs/Striping/Streetlights",
    "request_reason": "Traffic Signal Malfunctioning/Damaged",
    "date_created": "2022-05-30T14:14:05.000",
    "date_modified": "2022-05-30T14:14:06.000",
    "request_status": "Pending",
    "responsible_agency": "Department of Public Works",
    "final_address": "ELYSIAN FIELDS AVE & N CLAIBORNE AVE",
    "address_councildis": "D",
    "status": "Pending",
    "rowid": "887280",
    "final_x": "3684815.6",
    "final_y": "538136.98",
    "longitude": "-90.05736820071654",
    "latitude": "29.973589006521028",
    "geocoded_column": {
      "latitude": "29.973589006521028",
      "longitude": "-90.05736820071654"
    }
  },
  {
    "service_request": "2022-887279",
    "request_type": "Traffic Signals/Signs/Striping/Streetlights",
    "request_reason": "Street Light Outage/Malfunction",
    "date_created": "2022-05-30T14:06:24.000",
    "date_modified": "2022-05-30T14:06:25.000",
    "request_status": "Pending",
    "responsible_agency": "Department of Public Works",
    "final_address": "4711 Mandeville St",
    "address_councildis": "D",
    "status": "Pending",
    "contractor": "Royal Engineering",
    "rowid": "887279",
    "final_x": "3684794.31605",
    "final_y": "550280.639124",
    "longitude": "-90.05700822319855",
    "latitude": "30.006980400898964",
    "geocoded_column": {
      "latitude": "30.006980400898964",
      "longitude": "-90.05700822319855"
    }
  },
  {
    "service_request": "2022-887278",
    "request_type": "Trash/Recycling",
    "request_reason": "Request a Large Item Pick Up",
    "date_created": "2022-05-30T14:04:23.000",
    "date_modified": "2022-05-30T14:04:24.000",
    "request_status": "Pending",
    "responsible_agency": "Department of Sanitation",
    "final_address": "3809 Nashville Ave, New Orleans, Louisiana, 70125",
    "status": "Assigned to Contractor",
    "rowid": "887278",
    "longitude": "0.0",
    "latitude": "0.0",
    "geocoded_column": {
      "latitude": "0.0",
      "longitude": "0.0"
    }
  },
  {
    "service_request": "2022-887277",
    "request_type": "Trash/Recycling",
    "request_reason": "Request a Large Item Pick Up",
    "date_created": "2022-05-30T13:53:54.000",
    "date_modified": "2022-05-30T13:53:55.000",
    "request_status": "Pending",
    "responsible_agency": "Department of Sanitation",
    "final_address": "3410 Robert St",
    "address_councildis": "B",
    "status": "Assigned to Contractor",
    "contractor": "Richards Disposal",
    "rowid": "887277",
    "final_x": "3668860.22759",
    "final_y": "527382.119487",
    "longitude": "-90.10812200598824",
    "latitude": "29.944495584056995",
    "geocoded_column": {
      "latitude": "29.944495584056995",
      "longitude": "-90.10812200598824"
    }
  },
  {
    "service_request": "2022-887276",
    "request_type": "Trash/Recycling",
    "request_reason": "Repair Trash Cart",
    "date_created": "2022-05-30T13:51:03.000",
    "date_modified": "2022-05-30T13:51:04.000",
    "request_status": "Pending",
    "responsible_agency": "Department of Sanitation",
    "final_address": "3636 Pin Oak Ave",
    "address_councildis": "C",
    "status": "Assigned to Contractor",
    "contractor": "Richards Disposal",
    "rowid": "887276",
    "final_x": "3703932.12638",
    "final_y": "514836.103347",
    "longitude": "-89.99785228764887",
    "latitude": "29.908920643206336",
    "geocoded_column": {
      "latitude": "29.908920643206336",
      "longitude": "-89.99785228764887"
    }
  },
  {
    "service_request": "2022-887275",
    "request_type": "Trash/Recycling",
    "request_reason": "Request a Large Item Pick Up",
    "date_created": "2022-05-30T13:42:57.000",
    "date_modified": "2022-05-30T13:42:58.000",
    "request_status": "Pending",
    "responsible_agency": "Department of Sanitation",
    "final_address": "2939 Seine St",
    "address_councildis": "C",
    "status": "Assigned to Contractor",
    "contractor": "Richards Disposal",
    "rowid": "887275",
    "final_x": "3694181.66486",
    "final_y": "520529.761976",
    "longitude": "-90.02842158132353",
    "latitude": "29.92488517087068",
    "geocoded_column": {
      "latitude": "29.92488517087068",
      "longitude": "-90.02842158132353"
    }
  },
  {
    "service_request": "2022-887274",
    "request_type": "Traffic Signals/Signs/Striping/Streetlights",
    "request_reason": "Street Name Sign Damaged or Missing",
    "date_created": "2022-05-30T13:42:17.000",
    "date_modified": "2022-05-30T13:42:18.000",
    "request_status": "Pending",
    "responsible_agency": "Department of Public Works",
    "final_address": "MORRISON RD & W LAVERNE ST",
    "address_councildis": "E",
    "status": "Pending",
    "rowid": "887274",
    "final_x": "3695508.7",
    "final_y": "557578.48",
    "longitude": "-90.02289508737017",
    "latitude": "30.026714211575943",
    "geocoded_column": {
      "latitude": "30.026714211575943",
      "longitude": "-90.02289508737017"
    }
  },
  {
    "service_request": "2022-887273",
    "request_type": "Trash/Recycling",
    "request_reason": "Start Trash Service",
    "date_created": "2022-05-30T13:40:47.000",
    "date_modified": "2022-05-30T13:40:48.000",
    "request_status": "Pending",
    "responsible_agency": "Department of Sanitation",
    "final_address": "1126 Pine St",
    "address_councildis": "A",
    "status": "Assigned to Contractor",
    "contractor": "Richards Disposal",
    "rowid": "887273",
    "final_x": "3663839.30099",
    "final_y": "526598.150398",
    "longitude": "-90.12400073292304",
    "latitude": "29.942486587105385",
    "geocoded_column": {
      "latitude": "29.942486587105385",
      "longitude": "-90.12400073292304"
    }
  },
  {
    "service_request": "2022-887272",
    "request_type": "Traffic Signals/Signs/Striping/Streetlights",
    "request_reason": "Striping/Road Surface Markings",
    "date_created": "2022-05-30T13:34:00.000",
    "date_modified": "2022-05-30T13:34:00.000",
    "request_status": "Pending",
    "responsible_agency": "Department of Public Works",
    "final_address": "3014 Holiday Dr",
    "address_councildis": "C",
    "status": "Pending",
    "rowid": "887272",
    "final_x": "3698875.24714",
    "final_y": "519797.701432",
    "longitude": "-90.01363218845437",
    "latitude": "29.922724446032788",
    "geocoded_column": {
      "latitude": "29.922724446032788",
      "longitude": "-90.01363218845437"
    }
  },
  {
    "service_request": "2022-887271",
    "request_type": "Trash/Recycling",
    "request_reason": "Request a Large Item Pick Up",
    "date_created": "2022-05-30T13:32:24.000",
    "date_modified": "2022-05-30T13:32:25.000",
    "request_status": "Pending",
    "responsible_agency": "Department of Sanitation",
    "final_address": "1936 Jena St",
    "address_councildis": "B",
    "status": "Assigned to Contractor",
    "contractor": "Richards Disposal",
    "rowid": "887271",
    "final_x": "3670276.58394",
    "final_y": "522182.16249",
    "longitude": "-90.10382630941218",
    "latitude": "29.930155663106593",
    "geocoded_column": {
      "latitude": "29.930155663106593",
      "longitude": "-90.10382630941218"
    }
  },
  {
    "service_request": "2022-887270",
    "request_type": "Trash/Recycling",
    "request_reason": "Replace Trash Cart",
    "date_created": "2022-05-30T13:31:28.000",
    "date_modified": "2022-05-30T13:31:29.000",
    "request_status": "Pending",
    "responsible_agency": "Department of Sanitation",
    "final_address": "520 S Scott St",
    "address_councildis": "B",
    "status": "Assigned to Contractor",
    "contractor": "Richards Disposal",
    "rowid": "887270",
    "final_x": "3670734.07681",
    "final_y": "536386.655687",
    "longitude": "-90.1019001656977",
    "latitude": "29.96919985387221",
    "geocoded_column": {
      "latitude": "29.96919985387221",
      "longitude": "-90.1019001656977"
    }
  },
  {
    "service_request": "2022-887269",
    "request_type": "Trash/Recycling",
    "request_reason": "Replace Trash Cart",
    "date_created": "2022-05-30T13:25:37.000",
    "date_modified": "2022-05-30T13:25:37.000",
    "request_status": "Pending",
    "responsible_agency": "Department of Sanitation",
    "final_address": "3018 General Pershing St",
    "address_councildis": "B",
    "status": "Assigned to Contractor",
    "contractor": "Richards Disposal",
    "rowid": "887269",
    "final_x": "3670666.23284",
    "final_y": "526117.347134",
    "longitude": "-90.10246280156187",
    "latitude": "29.940964648963103",
    "geocoded_column": {
      "latitude": "29.940964648963103",
      "longitude": "-90.10246280156187"
    }
  },
  {
    "service_request": "2022-887268",
    "request_type": "Traffic Signals/Signs/Striping/Streetlights",
    "request_reason": "Traffic Sign Missing/Damaged",
    "date_created": "2022-05-30T13:20:19.000",
    "date_modified": "2022-05-30T13:21:02.000",
    "request_status": "Pending",
    "responsible_agency": "Department of Public Works",
    "final_address": "PALMETTO ST & CHERRY ST",
    "address_councildis": "A",
    "status": "Pending",
    "rowid": "887268",
    "final_x": "3664991.7",
    "final_y": "537977.18",
    "longitude": "-90.1199819013071",
    "latitude": "29.973741708965985",
    "geocoded_column": {
      "latitude": "29.973741708965985",
      "longitude": "-90.1199819013071"
    }
  },
  {
    "service_request": "2022-887267",
    "request_type": "Trash/Recycling",
    "request_reason": "Missed Trash Pick-Up",
    "date_created": "2022-05-30T13:11:35.000",
    "date_modified": "2022-05-30T13:11:36.000",
    "request_status": "Pending",
    "responsible_agency": "Department of Sanitation",
    "final_address": "3137 Magazine St",
    "address_councildis": "B",
    "status": "Assigned to Contractor",
    "contractor": "Richards Disposal",
    "rowid": "887267",
    "final_x": "3675796.45557",
    "final_y": "520074.377784",
    "longitude": "-90.0864733546714",
    "latitude": "29.924195922606874",
    "geocoded_column": {
      "latitude": "29.924195922606874",
      "longitude": "-90.0864733546714"
    }
  },
  {
    "service_request": "2022-887266",
    "request_type": "Roads/Drainage",
    "request_reason": "Street Subsidence (Sinking)",
    "date_created": "2022-05-30T13:03:12.000",
    "date_modified": "2022-05-30T13:03:12.000",
    "request_status": "Pending",
    "responsible_agency": "Department of Public Works",
    "final_address": "4937 S Rocheblave St",
    "address_councildis": "B",
    "status": "Pending",
    "rowid": "887266",
    "final_x": "3669009.67412",
    "final_y": "528463.0368",
    "longitude": "-90.10761365136298",
    "latitude": "29.947463360392508",
    "geocoded_column": {
      "latitude": "29.947463360392508",
      "longitude": "-90.10761365136298"
    }
  },
  {
    "service_request": "2022-887265",
    "request_type": "Traffic Signals/Signs/Striping/Streetlights",
    "request_reason": "Street Light Outage/Malfunction",
    "date_created": "2022-05-30T13:01:56.000",
    "date_modified": "2022-05-30T13:01:56.000",
    "request_status": "Pending",
    "responsible_agency": "Department of Public Works",
    "final_address": "2518 N Johnson St",
    "address_councildis": "D",
    "status": "Pending",
    "contractor": "Royal Engineering",
    "rowid": "887265",
    "final_x": "3687102.89212",
    "final_y": "539724.709194",
    "longitude": "-90.05008830676206",
    "latitude": "29.97788447025119",
    "geocoded_column": {
      "latitude": "29.97788447025119",
      "longitude": "-90.05008830676206"
    }
  },
  {
    "service_request": "2022-887264",
    "request_type": "Trash/Recycling",
    "request_reason": "Illegal Dumping",
    "date_created": "2022-05-30T12:51:52.000",
    "date_modified": "2022-05-30T12:51:52.000",
    "request_status": "Pending",
    "responsible_agency": "Department of Sanitation",
    "final_address": "1916 France St",
    "address_councildis": "D",
    "status": "Pending",
    "rowid": "887264",
    "final_x": "3693129.90083",
    "final_y": "538314.505033",
    "longitude": "-90.03110361247862",
    "latitude": "29.97381994119079",
    "geocoded_column": {
      "latitude": "29.97381994119079",
      "longitude": "-90.03110361247862"
    }
  },
  {
    "service_request": "2022-887263",
    "request_type": "Trash/Recycling",
    "request_reason": "Order Recycling Cart",
    "date_created": "2022-05-30T12:43:37.000",
    "date_modified": "2022-05-30T12:43:37.000",
    "request_status": "Pending",
    "responsible_agency": "Department of Sanitation",
    "final_address": "2657 Ramsey Dr",
    "address_councildis": "C",
    "status": "Pending",
    "rowid": "887263",
    "final_x": "3703065.32695",
    "final_y": "521067.605753",
    "longitude": "-90.00035923453775",
    "latitude": "29.926082883633686",
    "geocoded_column": {
      "latitude": "29.926082883633686",
      "longitude": "-90.00035923453775"
    }
  },
  {
    "service_request": "2022-887262",
    "request_type": "Trash/Recycling",
    "request_reason": "Repair Recycling Cart",
    "date_created": "2022-05-30T12:43:17.000",
    "date_modified": "2022-05-30T12:43:18.000",
    "request_status": "Pending",
    "responsible_agency": "Department of Sanitation",
    "final_address": "5624 Debore Dr",
    "address_councildis": "D",
    "status": "Pending",
    "rowid": "887262",
    "final_x": "3691616.11753",
    "final_y": "554677.373272",
    "longitude": "-90.03529904018227",
    "latitude": "30.01885908912302",
    "geocoded_column": {
      "latitude": "30.01885908912302",
      "longitude": "-90.03529904018227"
    }
  },
  {
    "service_request": "2022-887261",
    "request_type": "Abandoned Vehicles",
    "request_reason": "Abandoned/Junk Vehicles",
    "date_created": "2022-05-30T12:41:35.000",
    "date_modified": "2022-05-30T12:41:35.000",
    "request_status": "Pending",
    "responsible_agency": "Department of Public Works",
    "final_address": "2335 N Derbigny St",
    "address_councildis": "D",
    "status": "Pending",
    "rowid": "887261",
    "final_x": "3685887.84278",
    "final_y": "538630.365321",
    "longitude": "-90.05396443909586",
    "latitude": "29.97491276872054",
    "geocoded_column": {
      "latitude": "29.97491276872054",
      "longitude": "-90.05396443909586"
    }
  },
  {
    "service_request": "2022-887260",
    "request_type": "Abandoned Vehicles",
    "request_reason": "Vehicle Blocking Your Driveway",
    "date_created": "2022-05-30T12:37:54.000",
    "date_modified": "2022-05-30T12:37:54.000",
    "request_status": "Pending",
    "responsible_agency": "Department of Public Works",
    "final_address": "2335 N Derbigny St",
    "address_councildis": "D",
    "status": "Pending",
    "rowid": "887260",
    "final_x": "3685887.84278",
    "final_y": "538630.365321",
    "longitude": "-90.05396443909586",
    "latitude": "29.97491276872054",
    "geocoded_column": {
      "latitude": "29.97491276872054",
      "longitude": "-90.05396443909586"
    }
  },
  {
    "service_request": "2022-887259",
    "request_type": "Trash/Recycling",
    "request_reason": "Illegal Dumping",
    "date_created": "2022-05-30T12:35:04.000",
    "date_modified": "2022-05-30T12:35:04.000",
    "request_status": "Pending",
    "responsible_agency": "Department of Sanitation",
    "final_address": "SELMA ST & DEMONTLUZIN ST",
    "address_councildis": "D",
    "status": "Pending",
    "rowid": "887259",
    "final_x": "3687058.7",
    "final_y": "551610.48",
    "longitude": "-90.0498073790366",
    "latitude": "30.010567430409612",
    "geocoded_column": {
      "latitude": "30.010567430409612",
      "longitude": "-90.0498073790366"
    }
  },
  {
    "service_request": "2022-887258",
    "request_type": "Abandoned Vehicles",
    "request_reason": "Abandoned/Junk Vehicles",
    "date_created": "2022-05-30T12:31:09.000",
    "date_modified": "2022-05-30T12:31:09.000",
    "request_status": "Pending",
    "responsible_agency": "Department of Public Works",
    "final_address": "1923 Esplanade Ave",
    "address_councildis": "D",
    "status": "Pending",
    "rowid": "887258",
    "final_x": "3680325.67701",
    "final_y": "537396.8306",
    "longitude": "-90.07157406714207",
    "latitude": "29.971690564509444",
    "geocoded_column": {
      "latitude": "29.971690564509444",
      "longitude": "-90.07157406714207"
    }
  },
  {
    "service_request": "2022-887257",
    "request_type": "Traffic Signals/Signs/Striping/Streetlights",
    "request_reason": "Street Light Outage/Malfunction",
    "date_created": "2022-05-30T12:29:12.000",
    "date_modified": "2022-05-30T12:29:13.000",
    "request_status": "Pending",
    "responsible_agency": "Department of Public Works",
    "final_address": "N RAMPART ST & GORDON ST",
    "address_councildis": "E",
    "status": "Pending",
    "contractor": "Royal Engineering",
    "rowid": "887257",
    "final_x": "3698990.4",
    "final_y": "533027.28",
    "longitude": "-90.0127874225163",
    "latitude": "29.959097528300106",
    "geocoded_column": {
      "latitude": "29.959097528300106",
      "longitude": "-90.0127874225163"
    }
  },
  {
    "service_request": "2022-887256",
    "request_type": "Roads/Drainage",
    "request_reason": "Street Flooding / Drainage",
    "date_created": "2022-05-30T12:25:30.000",
    "date_modified": "2022-05-30T12:25:30.000",
    "request_status": "Pending",
    "responsible_agency": "Department of Public Works",
    "final_address": "5700 Annunciation St",
    "address_councildis": "A",
    "status": "Pending",
    "rowid": "887256",
    "final_x": "3665481.69965",
    "final_y": "517524.606006",
    "longitude": "-90.11911885120603",
    "latitude": "29.91748944632555",
    "geocoded_column": {
      "latitude": "29.91748944632555",
      "longitude": "-90.11911885120603"
    }
  },
  {
    "service_request": "2022-887255",
    "request_type": "Roads/Drainage",
    "request_reason": "Damaged Sidewalk",
    "date_created": "2022-05-30T12:21:54.000",
    "date_modified": "2022-05-30T12:21:54.000",
    "request_status": "Pending",
    "responsible_agency": "Department of Public Works",
    "final_address": "5700 Annunciation St",
    "address_councildis": "A",
    "status": "Pending",
    "rowid": "887255",
    "final_x": "3665481.69965",
    "final_y": "517524.606006",
    "longitude": "-90.11911885120603",
    "latitude": "29.91748944632555",
    "geocoded_column": {
      "latitude": "29.91748944632555",
      "longitude": "-90.11911885120603"
    }
  },
  {
    "service_request": "2022-887254",
    "request_type": "Trash/Recycling",
    "request_reason": "Request a Large Item Pick Up",
    "date_created": "2022-05-30T12:16:19.000",
    "date_modified": "2022-05-30T12:16:20.000",
    "request_status": "Pending",
    "responsible_agency": "Department of Sanitation",
    "final_address": "1226 Dauphine St",
    "address_councildis": "C",
    "status": "Assigned to Contractor",
    "contractor": "Empire Services",
    "rowid": "887254",
    "final_x": "3683260.32143",
    "final_y": "534504.932485",
    "longitude": "-90.06240732472712",
    "latitude": "29.963649660962602",
    "geocoded_column": {
      "latitude": "29.963649660962602",
      "longitude": "-90.06240732472712"
    }
  },
  {
    "service_request": "2022-887253",
    "request_type": "Trash/Recycling",
    "request_reason": "Request a Large Item Pick Up",
    "date_created": "2022-05-30T12:13:28.000",
    "date_modified": "2022-05-30T12:13:28.000",
    "request_status": "Pending",
    "responsible_agency": "Department of Sanitation",
    "final_address": "224 S White St",
    "address_councildis": "B",
    "status": "Assigned to Contractor",
    "contractor": "Richards Disposal",
    "rowid": "887253",
    "final_x": "3674545.76168",
    "final_y": "534888.611206",
    "longitude": "-90.089913905671",
    "latitude": "29.96496754965032",
    "geocoded_column": {
      "latitude": "29.96496754965032",
      "longitude": "-90.089913905671"
    }
  },
  {
    "service_request": "2022-887252",
    "request_type": "Traffic Signals/Signs/Striping/Streetlights",
    "request_reason": "Street Light Outage/Malfunction",
    "date_created": "2022-05-30T12:05:37.000",
    "date_modified": "2022-05-30T12:05:38.000",
    "request_status": "Pending",
    "responsible_agency": "Department of Public Works",
    "final_address": "929 Camp St",
    "address_councildis": "B",
    "status": "Pending",
    "contractor": "Royal Engineering",
    "rowid": "887252",
    "final_x": "3680528.52533",
    "final_y": "527119.343167",
    "longitude": "-90.07129093630782",
    "latitude": "29.9434248155926",
    "geocoded_column": {
      "latitude": "29.9434248155926",
      "longitude": "-90.07129093630782"
    }
  },
  {
    "service_request": "2022-887251",
    "request_type": "Traffic Signals/Signs/Striping/Streetlights",
    "request_reason": "Street Light Outage/Malfunction",
    "date_created": "2022-05-30T12:05:35.000",
    "date_modified": "2022-05-30T12:05:36.000",
    "request_status": "Pending",
    "responsible_agency": "Department of Public Works",
    "final_address": "929 Camp St",
    "address_councildis": "B",
    "status": "Pending",
    "contractor": "Royal Engineering",
    "rowid": "887251",
    "final_x": "3680528.52533",
    "final_y": "527119.343167",
    "longitude": "-90.07129093630782",
    "latitude": "29.9434248155926",
    "geocoded_column": {
      "latitude": "29.9434248155926",
      "longitude": "-90.07129093630782"
    }
  },
  {
    "service_request": "2022-887250",
    "request_type": "Trash/Recycling",
    "request_reason": "Repair Trash Cart",
    "date_created": "2022-05-30T12:05:12.000",
    "date_modified": "2022-05-30T12:05:13.000",
    "request_status": "Pending",
    "responsible_agency": "Department of Sanitation",
    "final_address": "3125 Bell St",
    "address_councildis": "A",
    "status": "Assigned to Contractor",
    "contractor": "Richards Disposal",
    "rowid": "887250",
    "final_x": "3676079.78888",
    "final_y": "539526.13409",
    "longitude": "-90.08490997452002",
    "latitude": "29.977673295617663",
    "geocoded_column": {
      "latitude": "29.977673295617663",
      "longitude": "-90.08490997452002"
    }
  },
  {
    "service_request": "2022-887249",
    "request_type": "Abandoned Vehicles",
    "request_reason": "Abandoned/Junk Vehicles",
    "date_created": "2022-05-30T12:04:30.000",
    "date_modified": "2022-05-30T12:04:30.000",
    "request_status": "Pending",
    "responsible_agency": "Department of Public Works",
    "final_address": "1641 Frenchmen St",
    "address_councildis": "D",
    "status": "Pending",
    "rowid": "887249",
    "final_x": "3684484.70837",
    "final_y": "538452.089161",
    "longitude": "-90.05840215213034",
    "latitude": "29.97446557425428",
    "geocoded_column": {
      "latitude": "29.97446557425428",
      "longitude": "-90.05840215213034"
    }
  },
  {
    "service_request": "2022-887248",
    "request_type": "Trash/Recycling",
    "request_reason": "Request a Large Item Pick Up",
    "date_created": "2022-05-30T12:04:24.000",
    "date_modified": "2022-05-30T12:04:25.000",
    "request_status": "Pending",
    "responsible_agency": "Department of Sanitation",
    "final_address": "3125 Bell St",
    "address_councildis": "A",
    "status": "Assigned to Contractor",
    "contractor": "Richards Disposal",
    "rowid": "887248",
    "final_x": "3676079.78888",
    "final_y": "539526.13409",
    "longitude": "-90.08490997452002",
    "latitude": "29.977673295617663",
    "geocoded_column": {
      "latitude": "29.977673295617663",
      "longitude": "-90.08490997452002"
    }
  },
  {
    "service_request": "2022-887247",
    "request_type": "Traffic Signals/Signs/Striping/Streetlights",
    "request_reason": "Request for Stop Sign",
    "date_created": "2022-05-30T12:01:57.000",
    "date_modified": "2022-05-30T12:01:57.000",
    "request_status": "Pending",
    "responsible_agency": "Department of Public Works",
    "final_address": "929 Camp St",
    "address_councildis": "B",
    "status": "Pending",
    "rowid": "887247",
    "final_x": "3680528.52533",
    "final_y": "527119.343167",
    "longitude": "-90.07129093630782",
    "latitude": "29.9434248155926",
    "geocoded_column": {
      "latitude": "29.9434248155926",
      "longitude": "-90.07129093630782"
    }
  },
  {
    "service_request": "2022-887246",
    "request_type": "Traffic Signals/Signs/Striping/Streetlights",
    "request_reason": "Request for Stop Sign",
    "date_created": "2022-05-30T12:01:56.000",
    "date_modified": "2022-05-30T12:01:56.000",
    "request_status": "Pending",
    "responsible_agency": "Department of Public Works",
    "final_address": "929 Camp St",
    "address_councildis": "B",
    "status": "Pending",
    "rowid": "887246",
    "final_x": "3680528.52533",
    "final_y": "527119.343167",
    "longitude": "-90.07129093630782",
    "latitude": "29.9434248155926",
    "geocoded_column": {
      "latitude": "29.9434248155926",
      "longitude": "-90.07129093630782"
    }
  },
  {
    "service_request": "2022-887245",
    "request_type": "Trash/Recycling",
    "request_reason": "Replace Trash Cart",
    "date_created": "2022-05-30T12:01:45.000",
    "date_modified": "2022-05-30T12:01:45.000",
    "request_status": "Pending",
    "responsible_agency": "Department of Sanitation",
    "final_address": "1705 Burdette St",
    "address_councildis": "A",
    "status": "Assigned to Contractor",
    "contractor": "Richards Disposal",
    "rowid": "887245",
    "final_x": "3664052.14503",
    "final_y": "528930.482496",
    "longitude": "-90.12325096702352",
    "latitude": "29.948893572976004",
    "geocoded_column": {
      "latitude": "29.948893572976004",
      "longitude": "-90.12325096702352"
    }
  },
  {
    "service_request": "2022-887244",
    "request_type": "Abandoned Vehicles",
    "request_reason": "Abandoned/Junk Vehicles",
    "date_created": "2022-05-30T11:59:17.000",
    "date_modified": "2022-05-30T11:59:17.000",
    "request_status": "Pending",
    "responsible_agency": "Department of Public Works",
    "final_address": "1622 Frenchmen St",
    "address_councildis": "D",
    "status": "Pending",
    "rowid": "887244",
    "final_x": "3684343.30364",
    "final_y": "538298.350921",
    "longitude": "-90.0588541420589",
    "latitude": "29.974047173141663",
    "geocoded_column": {
      "latitude": "29.974047173141663",
      "longitude": "-90.0588541420589"
    }
  },
  {
    "service_request": "2022-887243",
    "request_type": "Trash/Recycling",
    "request_reason": "Replace Trash Cart",
    "date_created": "2022-05-30T11:57:05.000",
    "date_modified": "2022-05-30T11:57:06.000",
    "request_status": "Pending",
    "responsible_agency": "Department of Sanitation",
    "final_address": "1705 Burdette St, New Orleans, Louisiana, 70118",
    "address_councildis": "A",
    "status": "Assigned to Contractor",
    "contractor": "Richards Disposal",
    "rowid": "887243",
    "final_x": "3664052.14503",
    "final_y": "528930.482496",
    "longitude": "-90.12325096702352",
    "latitude": "29.948893572976004",
    "geocoded_column": {
      "latitude": "29.948893572976004",
      "longitude": "-90.12325096702352"
    }
  },
  {
    "service_request": "2022-887242",
    "request_type": "Trash/Recycling",
    "request_reason": "Repair Recycling Cart",
    "date_created": "2022-05-30T11:34:29.000",
    "date_modified": "2022-05-30T11:34:29.000",
    "request_status": "Pending",
    "responsible_agency": "Department of Sanitation",
    "final_address": "540 Olivier St",
    "address_councildis": "C",
    "status": "Pending",
    "rowid": "887242",
    "final_x": "3687328.09545",
    "final_y": "529594.280001",
    "longitude": "-90.04973545802754",
    "latitude": "29.950022371398884",
    "geocoded_column": {
      "latitude": "29.950022371398884",
      "longitude": "-90.04973545802754"
    }
  },
  {
    "service_request": "2022-887241",
    "request_type": "Trash/Recycling",
    "request_reason": "Repair Trash Cart",
    "date_created": "2022-05-30T11:32:50.000",
    "date_modified": "2022-05-30T11:32:51.000",
    "request_status": "Pending",
    "responsible_agency": "Department of Sanitation",
    "final_address": "2517 Clover St",
    "address_councildis": "D",
    "status": "Assigned to Contractor",
    "contractor": "Metro Disposal",
    "rowid": "887241",
    "final_x": "3686502.00086",
    "final_y": "546637.879377",
    "longitude": "-90.05174191705936",
    "latitude": "29.996911717432916",
    "geocoded_column": {
      "latitude": "29.996911717432916",
      "longitude": "-90.05174191705936"
    }
  },
  {
    "service_request": "2022-887240",
    "request_type": "Trash/Recycling",
    "request_reason": "Repair Trash Cart",
    "date_created": "2022-05-30T11:32:23.000",
    "date_modified": "2022-05-30T11:32:24.000",
    "request_status": "Pending",
    "responsible_agency": "Department of Sanitation",
    "final_address": "2517 Clover St",
    "address_councildis": "D",
    "status": "Assigned to Contractor",
    "contractor": "Metro Disposal",
    "rowid": "887240",
    "final_x": "3686502.00086",
    "final_y": "546637.879377",
    "longitude": "-90.05174191705936",
    "latitude": "29.996911717432916",
    "geocoded_column": {
      "latitude": "29.996911717432916",
      "longitude": "-90.05174191705936"
    }
  },
  {
    "service_request": "2022-887239",
    "request_type": "Abandoned Vehicles",
    "request_reason": "Abandoned/Junk Vehicles",
    "date_created": "2022-05-30T11:25:29.000",
    "date_modified": "2022-05-30T11:25:30.000",
    "request_status": "Pending",
    "responsible_agency": "Department of Public Works",
    "final_address": "7942 Edward St",
    "address_councildis": "E",
    "status": "Pending",
    "rowid": "887239",
    "final_x": "3700499.38269",
    "final_y": "561908.189279",
    "longitude": "-90.00696679010159",
    "latitude": "30.03846135311635",
    "geocoded_column": {
      "latitude": "30.03846135311635",
      "longitude": "-90.00696679010159"
    }
  },
  {
    "service_request": "2022-887238",
    "request_type": "Trash/Recycling",
    "request_reason": "Request a Large Item Pick Up",
    "date_created": "2022-05-30T11:23:14.000",
    "date_modified": "2022-05-30T11:23:15.000",
    "request_status": "Pending",
    "responsible_agency": "Department of Sanitation",
    "final_address": "4327 America St",
    "address_councildis": "E",
    "status": "Assigned to Contractor",
    "contractor": "Metro Disposal",
    "rowid": "887238",
    "final_x": "3699973.03984",
    "final_y": "552805.97007",
    "longitude": "-90.00896263587734",
    "latitude": "30.01345048792716",
    "geocoded_column": {
      "latitude": "30.01345048792716",
      "longitude": "-90.00896263587734"
    }
  },
  {
    "service_request": "2022-887237",
    "request_type": "Property Maintenance",
    "request_reason": "Property Maintenance",
    "date_created": "2022-05-30T11:18:28.000",
    "date_modified": "2022-05-30T11:18:29.000",
    "request_status": "Pending",
    "responsible_agency": "Department of Code Enforcement",
    "final_address": "1701 Old Prieur St",
    "address_councildis": "D",
    "status": "Pending",
    "rowid": "887237",
    "final_x": "3681824.60706",
    "final_y": "539162.420042",
    "longitude": "-90.06677858707985",
    "latitude": "29.97649985337846",
    "geocoded_column": {
      "latitude": "29.97649985337846",
      "longitude": "-90.06677858707985"
    }
  },
  {
    "service_request": "2022-887236",
    "request_type": "Trash/Recycling",
    "request_reason": "Request a Large Item Pick Up",
    "date_created": "2022-05-30T11:01:02.000",
    "date_modified": "2022-05-30T11:01:03.000",
    "request_status": "Pending",
    "responsible_agency": "Department of Sanitation",
    "final_address": "2627 Prancer St",
    "address_councildis": "C",
    "status": "Assigned to Contractor",
    "contractor": "Richards Disposal",
    "rowid": "887236",
    "final_x": "3699535.40656",
    "final_y": "521231.756537",
    "longitude": "-90.01149611995653",
    "latitude": "29.92664668258332",
    "geocoded_column": {
      "latitude": "29.92664668258332",
      "longitude": "-90.01149611995653"
    }
  },
  {
    "service_request": "2022-887235",
    "request_type": "Roads/Drainage",
    "request_reason": "Accessibility Ramps, Curbs and Sidewalk Repair",
    "date_created": "2022-05-30T11:00:51.000",
    "date_modified": "2022-05-30T13:29:58.000",
    "request_status": "Pending",
    "responsible_agency": "Department of Public Works",
    "final_address": "New Orleans,LA",
    "address_councildis": "B",
    "rowid": "887235",
    "final_x": "3673838.6",
    "final_y": "518405.18",
    "longitude": "-90.09271067842519",
    "latitude": "29.91966459910258",
    "geocoded_column": {
      "latitude": "29.91966459910258",
      "longitude": "-90.09271067842519"
    }
  },
  {
    "service_request": "2022-887234",
    "request_type": "Trash/Recycling",
    "request_reason": "Request a Large Item Pick Up",
    "date_created": "2022-05-30T10:57:54.000",
    "date_modified": "2022-05-30T10:57:55.000",
    "request_status": "Pending",
    "responsible_agency": "Department of Sanitation",
    "final_address": "1212 Burdette St",
    "address_councildis": "A",
    "status": "Assigned to Contractor",
    "contractor": "Richards Disposal",
    "rowid": "887234",
    "final_x": "3662833.14816",
    "final_y": "527715.554239",
    "longitude": "-90.12714026531278",
    "latitude": "29.945588251206917",
    "geocoded_column": {
      "latitude": "29.945588251206917",
      "longitude": "-90.12714026531278"
    }
  },
  {
    "service_request": "2022-887233",
    "request_type": "Trash/Recycling",
    "request_reason": "Repair Trash Cart",
    "date_created": "2022-05-30T10:46:41.000",
    "date_modified": "2022-05-30T10:49:28.000",
    "request_status": "Pending",
    "responsible_agency": "Department of Sanitation",
    "final_address": "735 8th St, New Orleans, Louisiana, 70115",
    "rowid": "887233",
    "longitude": "0.0",
    "latitude": "0.0",
    "geocoded_column": {
      "latitude": "0.0",
      "longitude": "0.0"
    }
  },
  {
    "service_request": "2022-887232",
    "request_type": "Trash/Recycling",
    "request_reason": "Replace Trash Cart",
    "date_created": "2022-05-30T10:39:35.000",
    "date_modified": "2022-05-30T10:39:36.000",
    "request_status": "Pending",
    "responsible_agency": "Department of Sanitation",
    "final_address": "5314 St Anthony Ave",
    "address_councildis": "D",
    "status": "Assigned to Contractor",
    "contractor": "Metro Disposal",
    "rowid": "887232",
    "final_x": "3682090.1876",
    "final_y": "552537.304982",
    "longitude": "-90.06547240069479",
    "latitude": "30.01326795939257",
    "geocoded_column": {
      "latitude": "30.01326795939257",
      "longitude": "-90.06547240069479"
    }
  },
  {
    "service_request": "2022-887231",
    "request_type": "Traffic Signals/Signs/Striping/Streetlights",
    "request_reason": "Traffic Sign Missing/Damaged",
    "date_created": "2022-05-30T10:34:09.000",
    "date_modified": "2022-05-30T10:34:10.000",
    "request_status": "Pending",
    "responsible_agency": "Department of Public Works",
    "final_address": "HEATON ST & HOLLYGROVE ST",
    "address_councildis": "A",
    "status": "Pending",
    "rowid": "887231",
    "final_x": "3667022.2",
    "final_y": "538645.68",
    "longitude": "-90.11354664253082",
    "latitude": "29.97552058266496",
    "geocoded_column": {
      "latitude": "29.97552058266496",
      "longitude": "-90.11354664253082"
    }
  },
  {
    "service_request": "2022-887230",
    "request_type": "Abandoned Vehicles",
    "request_reason": "Abandoned/Junk Vehicles",
    "date_created": "2022-05-30T10:32:55.000",
    "date_modified": "2022-05-30T10:32:56.000",
    "request_status": "Pending",
    "responsible_agency": "Department of Public Works",
    "final_address": "318 S Clark St",
    "address_councildis": "B",
    "status": "Pending",
    "rowid": "887230",
    "final_x": "3672312.20955",
    "final_y": "536205.927047",
    "longitude": "-90.09692245476676",
    "latitude": "29.968656181895078",
    "geocoded_column": {
      "latitude": "29.968656181895078",
      "longitude": "-90.09692245476676"
    }
  },
  {
    "service_request": "2022-887229",
    "request_type": "Trash/Recycling",
    "request_reason": "Order Trash Cart",
    "date_created": "2022-05-30T10:31:04.000",
    "date_modified": "2022-05-30T10:31:05.000",
    "request_status": "Pending",
    "responsible_agency": "Department of Sanitation",
    "final_address": "3308 Esplanade Ave",
    "address_councildis": "A",
    "status": "Assigned to Contractor",
    "contractor": "Richards Disposal",
    "rowid": "887229",
    "final_x": "3675969.48526",
    "final_y": "540603.771019",
    "longitude": "-90.08522127809773",
    "latitude": "29.98063973073273",
    "geocoded_column": {
      "latitude": "29.98063973073273",
      "longitude": "-90.08522127809773"
    }
  },
  {
    "service_request": "2022-887228",
    "request_type": "Trash/Recycling",
    "request_reason": "Repair Trash Cart",
    "date_created": "2022-05-30T10:30:43.000",
    "date_modified": "2022-05-30T10:30:44.000",
    "request_status": "Pending",
    "responsible_agency": "Department of Sanitation",
    "final_address": "2701 Dublin St",
    "address_councildis": "A",
    "status": "Assigned to Contractor",
    "contractor": "Richards Disposal",
    "rowid": "887228",
    "final_x": "3665413.60474",
    "final_y": "532582.92602",
    "longitude": "-90.1188300001876",
    "latitude": "29.95889699991687",
    "geocoded_column": {
      "latitude": "29.95889699991687",
      "longitude": "-90.1188300001876"
    }
  },
  {
    "service_request": "2022-887227",
    "request_type": "Trash/Recycling",
    "request_reason": "Request a Large Item Pick Up",
    "date_created": "2022-05-30T10:19:26.000",
    "date_modified": "2022-05-30T10:19:27.000",
    "request_status": "Pending",
    "responsible_agency": "Department of Sanitation",
    "final_address": "8807 Colapissa St",
    "address_councildis": "A",
    "status": "Assigned to Contractor",
    "contractor": "Richards Disposal",
    "rowid": "887227",
    "final_x": "3664680.68013",
    "final_y": "535147.30119",
    "longitude": "-90.12105872951632",
    "latitude": "29.96596953081577",
    "geocoded_column": {
      "latitude": "29.96596953081577",
      "longitude": "-90.12105872951632"
    }
  },
  {
    "service_request": "2022-887226",
    "request_type": "Trash/Recycling",
    "request_reason": "Request a Large Item Pick Up",
    "date_created": "2022-05-30T10:16:41.000",
    "date_modified": "2022-05-30T10:16:43.000",
    "request_status": "Pending",
    "responsible_agency": "Department of Sanitation",
    "final_address": "6025 S Robertson St",
    "address_councildis": "A",
    "status": "Assigned to Contractor",
    "contractor": "Richards Disposal",
    "rowid": "887226",
    "final_x": "3666318.69991",
    "final_y": "524879.60678",
    "longitude": "-90.11623030720973",
    "latitude": "29.937688957607346",
    "geocoded_column": {
      "latitude": "29.937688957607346",
      "longitude": "-90.11623030720973"
    }
  },
  {
    "service_request": "2022-887225",
    "request_type": "Trash/Recycling",
    "request_reason": "Repair Recycling Cart",
    "date_created": "2022-05-30T10:09:39.000",
    "date_modified": "2022-05-30T10:09:40.000",
    "request_status": "Pending",
    "responsible_agency": "Department of Sanitation",
    "final_address": "822 Franklin Ave",
    "address_councildis": "C",
    "status": "Pending",
    "rowid": "887225",
    "final_x": "3686856.16738",
    "final_y": "535553.168582",
    "longitude": "-90.05101499192216",
    "latitude": "29.966421789313486",
    "geocoded_column": {
      "latitude": "29.966421789313486",
      "longitude": "-90.05101499192216"
    }
  },
  {
    "service_request": "2022-887224",
    "request_type": "Traffic Signals/Signs/Striping/Streetlights",
    "request_reason": "Street Name Sign Damaged or Missing",
    "date_created": "2022-05-30T10:01:51.000",
    "date_modified": "2022-05-30T10:01:51.000",
    "request_status": "Pending",
    "responsible_agency": "Department of Public Works",
    "final_address": "6345 Pandora St",
    "address_councildis": "D",
    "status": "Pending",
    "rowid": "887224",
    "final_x": "3697013.90243",
    "final_y": "557499.582235",
    "longitude": "-90.01814169359123",
    "latitude": "30.026449854229362",
    "geocoded_column": {
      "latitude": "30.026449854229362",
      "longitude": "-90.01814169359123"
    }
  },
  {
    "service_request": "2022-887223",
    "request_type": "Trash/Recycling",
    "request_reason": "Order Recycling Cart",
    "date_created": "2022-05-30T09:58:26.000",
    "date_modified": "2022-05-30T09:58:26.000",
    "request_status": "Pending",
    "responsible_agency": "Department of Sanitation",
    "final_address": "1512 St Philip St",
    "address_councildis": "C",
    "status": "Pending",
    "rowid": "887223",
    "final_x": "3680854.78664",
    "final_y": "535113.084998",
    "longitude": "-90.06998257987387",
    "latitude": "29.96539501770498",
    "geocoded_column": {
      "latitude": "29.96539501770498",
      "longitude": "-90.06998257987387"
    }
  },
  {
    "service_request": "2022-887222",
    "request_type": "Trash/Recycling",
    "request_reason": "Missed Trash Pick-Up",
    "date_created": "2022-05-30T09:56:40.000",
    "date_modified": "2022-05-30T09:56:41.000",
    "request_status": "Pending",
    "responsible_agency": "Department of Sanitation",
    "final_address": "3112 Esplanade Ave, New Orleans, Louisiana, 70119",
    "address_councildis": "A",
    "status": "Assigned to Contractor",
    "contractor": "Richards Disposal",
    "rowid": "887222",
    "final_x": "3676427.73217",
    "final_y": "540230.439819",
    "longitude": "-90.0837867921193",
    "latitude": "29.97959946577619",
    "geocoded_column": {
      "latitude": "29.97959946577619",
      "longitude": "-90.0837867921193"
    }
  },
  {
    "service_request": "2022-887221",
    "request_type": "Safety & Permits",
    "request_reason": "Licenses & Permits",
    "date_created": "2022-05-30T09:56:33.000",
    "date_modified": "2022-05-30T09:56:33.000",
    "request_status": "Pending",
    "responsible_agency": "Safety and Permits",
    "final_address": "7300 Zimple St",
    "address_councildis": "A",
    "status": "Pending",
    "rowid": "887221",
    "final_x": "3663656.30637",
    "final_y": "526364.193342",
    "longitude": "-90.12458628347895",
    "latitude": "29.94184858923732",
    "geocoded_column": {
      "latitude": "29.94184858923732",
      "longitude": "-90.12458628347895"
    }
  },
  {
    "service_request": "2022-887220",
    "request_type": "Trash/Recycling",
    "request_reason": "Request a Large Item Pick Up",
    "date_created": "2022-05-30T09:54:32.000",
    "date_modified": "2022-05-30T09:54:33.000",
    "request_status": "Pending",
    "responsible_agency": "Department of Sanitation",
    "final_address": "2160 Carnot St",
    "address_councildis": "D",
    "status": "Assigned to Contractor",
    "contractor": "Metro Disposal",
    "rowid": "887220",
    "final_x": "3683687.49359",
    "final_y": "549870.752404",
    "longitude": "-90.06051935356228",
    "latitude": "30.005887213498333",
    "geocoded_column": {
      "latitude": "30.005887213498333",
      "longitude": "-90.06051935356228"
    }
  },
  {
    "service_request": "2022-887219",
    "request_type": "Trash/Recycling",
    "request_reason": "Illegal Dumping",
    "date_created": "2022-05-30T09:50:41.000",
    "date_modified": "2022-05-30T09:50:42.000",
    "request_status": "Pending",
    "responsible_agency": "Department of Sanitation",
    "final_address": "6345 Pandora St",
    "address_councildis": "D",
    "status": "Pending",
    "rowid": "887219",
    "final_x": "3697013.90243",
    "final_y": "557499.582235",
    "longitude": "-90.01814169359123",
    "latitude": "30.026449854229362",
    "geocoded_column": {
      "latitude": "30.026449854229362",
      "longitude": "-90.01814169359123"
    }
  },
  {
    "service_request": "2022-887218",
    "request_type": "Traffic Signals/Signs/Striping/Streetlights",
    "request_reason": "Street Light Outage/Malfunction",
    "date_created": "2022-05-30T09:48:22.000",
    "date_modified": "2022-05-30T09:48:22.000",
    "request_status": "Pending",
    "responsible_agency": "Department of Public Works",
    "final_address": "7901 Devine Ave",
    "address_councildis": "E",
    "status": "Pending",
    "contractor": "Royal Engineering",
    "rowid": "887218",
    "final_x": "3705310.89745",
    "final_y": "563839.626145",
    "longitude": "-89.99168977325742",
    "latitude": "30.04361802092966",
    "geocoded_column": {
      "latitude": "30.04361802092966",
      "longitude": "-89.99168977325742"
    }
  },
  {
    "service_request": "2022-887217",
    "request_type": "Trash/Recycling",
    "request_reason": "Request a Large Item Pick Up",
    "date_created": "2022-05-30T09:45:31.000",
    "date_modified": "2022-05-30T09:45:32.000",
    "request_status": "Pending",
    "responsible_agency": "Department of Sanitation",
    "final_address": "3737 Gentilly Blvd",
    "address_councildis": "D",
    "status": "Assigned to Contractor",
    "contractor": "Metro Disposal",
    "rowid": "887217",
    "final_x": "3687333.41084",
    "final_y": "549004.090643",
    "longitude": "-90.04903176058781",
    "latitude": "30.00339234655874",
    "geocoded_column": {
      "latitude": "30.00339234655874",
      "longitude": "-90.04903176058781"
    }
  },
  {
    "service_request": "2022-887216",
    "request_type": "Traffic Signals/Signs/Striping/Streetlights",
    "request_reason": "Request for Stop Sign",
    "date_created": "2022-05-30T09:44:53.000",
    "date_modified": "2022-05-30T09:44:53.000",
    "request_status": "Pending",
    "responsible_agency": "Department of Public Works",
    "final_address": "7900 Devine Ave",
    "address_councildis": "E",
    "status": "Pending",
    "rowid": "887216",
    "final_x": "3705180.57124",
    "final_y": "563762.683617",
    "longitude": "-89.99210450322346",
    "latitude": "30.043410654665667",
    "geocoded_column": {
      "latitude": "30.043410654665667",
      "longitude": "-89.99210450322346"
    }
  },
  {
    "service_request": "2022-887215",
    "request_type": "Abandoned Vehicles",
    "request_reason": "Abandoned/Junk Vehicles",
    "date_created": "2022-05-30T09:36:27.000",
    "date_modified": "2022-05-30T09:36:27.000",
    "request_status": "Pending",
    "responsible_agency": "Department of Public Works",
    "final_address": "10321 Chevy Chase Dr",
    "address_councildis": "E",
    "status": "Pending",
    "rowid": "887215",
    "final_x": "3710298.56459",
    "final_y": "563471.784864",
    "longitude": "-89.97594052300386",
    "latitude": "30.04244508473971",
    "geocoded_column": {
      "latitude": "30.04244508473971",
      "longitude": "-89.97594052300386"
    }
  },
  {
    "service_request": "2022-887214",
    "request_type": "Property Maintenance",
    "request_reason": "Property Maintenance",
    "date_created": "2022-05-30T09:23:57.000",
    "date_modified": "2022-05-30T09:23:57.000",
    "request_status": "Pending",
    "responsible_agency": "Department of Code Enforcement",
    "final_address": "3209 Fern St",
    "address_councildis": "B",
    "status": "Pending",
    "rowid": "887214",
    "final_x": "3667435.06522",
    "final_y": "533185.973956",
    "longitude": "-90.11242642568176",
    "latitude": "29.960496114292834",
    "geocoded_column": {
      "latitude": "29.960496114292834",
      "longitude": "-90.11242642568176"
    }
  },