[
  {
    "service_request": "2022-885585",
    "request_type": "Trash/Recycling",
    "request_reason": "MIssed Recycling Pick-Up",
    "date_created": "2022-05-23T23:25:08.000",
    "date_modified": "2022-05-23T23:25:09.000",
    "request_status": "Pending",
    "responsible_agency": "Department of Sanitation",
    "final_address": "2020 Barracks St",
    "address_councildis": "D",
    "status": "Assigned to Contractor",
    "contractor": "Richards Disposal",
    "rowid": "885585",
    "final_x": "3680078.49512",
    "final_y": "537091.329928",
    "longitude": "-90.07236532258773",
    "latitude": "29.970858024687544",
    "geocoded_column": {
      "latitude": "29.970858024687544",
      "longitude": "-90.07236532258773"
    }
  },
  {
    "service_request": "2022-885584",
    "request_type": "Trash/Recycling",
    "request_reason": "Missed Trash Pick-Up",
    "date_created": "2022-05-23T23:24:11.000",
    "date_modified": "2022-05-23T23:24:12.000",
    "request_status": "Pending",
    "responsible_agency": "Department of Sanitation",
    "final_address": "2020 Barracks St",
    "address_councildis": "D",
    "status": "Assigned to Contractor",
    "contractor": "Richards Disposal",
    "rowid": "885584",
    "final_x": "3680078.49512",
    "final_y": "537091.329928",
    "longitude": "-90.07236532258773",
    "latitude": "29.970858024687544",
    "geocoded_column": {
      "latitude": "29.970858024687544",
      "longitude": "-90.07236532258773"
    }
  },
  {
    "service_request": "2022-885583",
    "request_type": "Traffic Signals/Signs/Striping/Streetlights",
    "request_reason": "Street Light Outage/Malfunction",
    "date_created": "2022-05-23T22:11:40.000",
    "date_modified": "2022-05-23T22:11:40.000",
    "request_status": "Pending",
    "responsible_agency": "Department of Public Works",
    "final_address": "1346 Rapides Dr",
    "address_councildis": "D",
    "status": "Pending",
    "contractor": "Royal Engineering",
    "rowid": "885583",
    "final_x": "3677392.80731",
    "final_y": "552594.196694",
    "longitude": "-90.08031167040814",
    "latitude": "30.01356647005323",
    "geocoded_column": {
      "latitude": "30.01356647005323",
      "longitude": "-90.08031167040814"
    }
  },
  {
    "service_request": "2022-885582",
    "request_type": "Roads/Drainage",
    "request_reason": "Street Subsidence (Sinking)",
    "date_created": "2022-05-23T22:11:17.000",
    "date_modified": "2022-05-23T22:11:17.000",
    "request_status": "Pending",
    "responsible_agency": "Department of Public Works",
    "final_address": "5406 Provincial Pl",
    "address_councildis": "E",
    "status": "Pending",
    "rowid": "885582",
    "final_x": "3726202.78438",
    "final_y": "564015.491489",
    "longitude": "-89.92565657724954",
    "latitude": "30.043412418027142",
    "geocoded_column": {
      "latitude": "30.043412418027142",
      "longitude": "-89.92565657724954"
    }
  },
  {
    "service_request": "2022-885581",
    "request_type": "Property Maintenance",
    "request_reason": "Property Maintenance",
    "date_created": "2022-05-23T22:10:40.000",
    "date_modified": "2022-05-23T22:10:40.000",
    "request_status": "Pending",
    "responsible_agency": "Department of Code Enforcement",
    "final_address": "4400 General Meyer Ave",
    "address_councildis": "C",
    "status": "Pending",
    "rowid": "885581",
    "final_x": "3700416.39607",
    "final_y": "524158.487036",
    "longitude": "-90.00860828252121",
    "latitude": "29.93466620433065",
    "geocoded_column": {
      "latitude": "29.93466620433065",
      "longitude": "-90.00860828252121"
    }
  },
  {
    "service_request": "2022-885579",
    "request_type": "Roads/Drainage",
    "request_reason": "Street Subsidence (Sinking)",
    "date_created": "2022-05-23T21:27:02.000",
    "date_modified": "2022-05-23T21:27:02.000",
    "request_status": "Pending",
    "responsible_agency": "Department of Public Works",
    "final_address": "1401 Girod St",
    "address_councildis": "B",
    "status": "Pending",
    "rowid": "885579",
    "final_x": "3678228.29877",
    "final_y": "529189.969408",
    "longitude": "-90.07848175258108",
    "latitude": "29.949187810781694",
    "geocoded_column": {
      "latitude": "29.949187810781694",
      "longitude": "-90.07848175258108"
    }
  },
  {
    "service_request": "2022-885578",
    "request_type": "Abandoned Vehicles",
    "request_reason": "Abandoned/Junk Vehicles",
    "date_created": "2022-05-23T21:13:00.000",
    "date_modified": "2022-05-23T21:13:00.000",
    "request_status": "Pending",
    "responsible_agency": "Department of Public Works",
    "final_address": "4433 S Tonti St",
    "address_councildis": "B",
    "status": "Pending",
    "rowid": "885578",
    "final_x": "3669765.11066",
    "final_y": "528154.830528",
    "longitude": "-90.10523886987541",
    "latitude": "29.946593651992345",
    "geocoded_column": {
      "latitude": "29.946593651992345",
      "longitude": "-90.10523886987541"
    }
  },
  {
    "service_request": "2022-885577",
    "request_type": "Trash/Recycling",
    "request_reason": "MIssed Recycling Pick-Up",
    "date_created": "2022-05-23T21:01:14.000",
    "date_modified": "2022-05-23T21:01:15.000",
    "request_status": "Pending",
    "responsible_agency": "Department of Sanitation",
    "final_address": "410 Dearmas St",
    "address_councildis": "C",
    "status": "Assigned to Contractor",
    "contractor": "Richards Disposal",
    "rowid": "885577",
    "final_x": "3686728.55599",
    "final_y": "527206.563327",
    "longitude": "-90.05171280462834",
    "latitude": "29.94347541639722",
    "geocoded_column": {
      "latitude": "29.94347541639722",
      "longitude": "-90.05171280462834"
    }
  },
  {
    "service_request": "2022-885576",
    "request_type": "Trash/Recycling",
    "request_reason": "Replace Trash Cart",
    "date_created": "2022-05-23T21:00:05.000",
    "date_modified": "2022-05-23T21:00:06.000",
    "request_status": "Pending",
    "responsible_agency": "Department of Sanitation",
    "final_address": "1922 Bienville Ave",
    "address_councildis": "B",
    "status": "Assigned to Contractor",
    "contractor": "Richards Disposal",
    "rowid": "885576",
    "final_x": "3678092.26363",
    "final_y": "533923.680837",
    "longitude": "-90.07874762663201",
    "latitude": "29.9622080208094",
    "geocoded_column": {
      "latitude": "29.9622080208094",
      "longitude": "-90.07874762663201"
    }
  },
  {
    "service_request": "2022-885575",
    "request_type": "Property Maintenance",
    "request_reason": "Property Maintenance",
    "date_created": "2022-05-23T20:54:59.000",
    "date_modified": "2022-05-23T20:54:59.000",
    "request_status": "Pending",
    "responsible_agency": "Department of Code Enforcement",
    "final_address": "2521 Dryades St",
    "address_councildis": "B",
    "status": "Pending",
    "rowid": "885575",
    "final_x": "3675923.48942",
    "final_y": "523880.847356",
    "longitude": "-90.08594154690756",
    "latitude": "29.934658676203817",
    "geocoded_column": {
      "latitude": "29.934658676203817",
      "longitude": "-90.08594154690756"
    }
  },
  {
    "service_request": "2022-885574",
    "request_type": "Trash/Recycling",
    "request_reason": "Missed Trash Pick-Up",
    "date_created": "2022-05-23T20:52:36.000",
    "date_modified": "2022-05-23T20:52:37.000",
    "request_status": "Pending",
    "responsible_agency": "Department of Sanitation",
    "final_address": "7471 Pitt St, New Orleans, Louisiana, 70118",
    "address_councildis": "A",
    "status": "Assigned to Contractor",
    "contractor": "Richards Disposal",
    "rowid": "885574",
    "final_x": "3660918.94387",
    "final_y": "523832.040379",
    "longitude": "-90.13331247911697",
    "latitude": "29.93496508537649",
    "geocoded_column": {
      "latitude": "29.93496508537649",
      "longitude": "-90.13331247911697"
    }
  },
  {
    "service_request": "2022-885572",
    "request_type": "Traffic Signals/Signs/Striping/Streetlights",
    "request_reason": "Street Light Outage/Malfunction",
    "date_created": "2022-05-23T20:43:14.000",
    "date_modified": "2022-05-23T20:43:16.000",
    "request_status": "Pending",
    "responsible_agency": "Department of Public Works",
    "final_address": "1905 Broadway St",
    "address_councildis": "A",
    "status": "Pending",
    "contractor": "Royal Engineering",
    "rowid": "885572",
    "final_x": "3665657.03847",
    "final_y": "528604.453888",
    "longitude": "-90.11819452298613",
    "latitude": "29.947950398777863",
    "geocoded_column": {
      "latitude": "29.947950398777863",
      "longitude": "-90.11819452298613"
    }
  },
  {
    "service_request": "2022-885571",
    "request_type": "Traffic Signals/Signs/Striping/Streetlights",
    "request_reason": "Street Light Outage/Malfunction",
    "date_created": "2022-05-23T20:40:02.000",
    "date_modified": "2022-05-23T20:40:03.000",
    "request_status": "Pending",
    "responsible_agency": "Department of Public Works",
    "final_address": "1901 Broadway St",
    "address_councildis": "A",
    "status": "Pending",
    "contractor": "Royal Engineering",
    "rowid": "885571",
    "final_x": "3665627.85664",
    "final_y": "528564.207488",
    "longitude": "-90.11828800959307",
    "latitude": "29.94784058508408",
    "geocoded_column": {
      "latitude": "29.94784058508408",
      "longitude": "-90.11828800959307"
    }
  },
  {
    "service_request": "2022-885570",
    "request_type": "Traffic Signals/Signs/Striping/Streetlights",
    "request_reason": "Street Light Outage/Malfunction",
    "date_created": "2022-05-23T20:34:58.000",
    "date_modified": "2022-05-23T20:34:59.000",
    "request_status": "Pending",
    "responsible_agency": "Department of Public Works",
    "final_address": "1834 Broadway St",
    "address_councildis": "A",
    "status": "Pending",
    "contractor": "Royal Engineering",
    "rowid": "885570",
    "final_x": "3665456.008",
    "final_y": "528520.851968",
    "longitude": "-90.118832057248",
    "latitude": "29.947726380948694",
    "geocoded_column": {
      "latitude": "29.947726380948694",
      "longitude": "-90.118832057248"
    }
  },
  {
    "service_request": "2022-885569",
    "request_type": "Property Maintenance",
    "request_reason": "Property Maintenance",
    "date_created": "2022-05-23T20:20:41.000",
    "date_modified": "2022-05-23T20:20:41.000",
    "request_status": "Pending",
    "responsible_agency": "Department of Code Enforcement",
    "final_address": "2108 Third St",
    "address_councildis": "B",
    "status": "Pending",
    "rowid": "885569",
    "final_x": "3675385.15675",
    "final_y": "524412.670844",
    "longitude": "-90.08762280179653",
    "latitude": "29.93613712044748",
    "geocoded_column": {
      "latitude": "29.93613712044748",
      "longitude": "-90.08762280179653"
    }
  },
  {
    "service_request": "2022-885568",
    "request_type": "Traffic Signals/Signs/Striping/Streetlights",
    "request_reason": "Street Light Outage/Malfunction",
    "date_created": "2022-05-23T20:08:13.000",
    "date_modified": "2022-05-23T20:09:31.000",
    "request_status": "Pending",
    "responsible_agency": "Department of Public Works",
    "final_address": "4421 Eastern St",
    "address_councildis": "D",
    "status": "Pending",
    "contractor": "Royal Engineering",
    "rowid": "885568",
    "final_x": "3688165.21846",
    "final_y": "549364.634131",
    "longitude": "-90.04639116492343",
    "latitude": "30.004358048103864",
    "geocoded_column": {
      "latitude": "30.004358048103864",
      "longitude": "-90.04639116492343"
    }
  },
  {
    "service_request": "2022-885567",
    "request_type": "Property Maintenance",
    "request_reason": "Property Maintenance",
    "date_created": "2022-05-23T19:49:20.000",
    "date_modified": "2022-05-23T19:49:20.000",
    "request_status": "Pending",
    "responsible_agency": "Department of Code Enforcement",
    "final_address": "701 Cadiz St",
    "address_councildis": "B",
    "status": "Pending",
    "rowid": "885567",
    "final_x": "3670414.36942",
    "final_y": "518019.58271",
    "longitude": "-90.10353237647114",
    "latitude": "29.91870582824868",
    "geocoded_column": {
      "latitude": "29.91870582824868",
      "longitude": "-90.10353237647114"
    }
  },
  {
    "service_request": "2022-885566",
    "request_type": "Property Maintenance",
    "request_reason": "Property Maintenance",
    "date_created": "2022-05-23T19:48:13.000",
    "date_modified": "2022-05-23T19:48:13.000",
    "request_status": "Pending",
    "responsible_agency": "Department of Code Enforcement",
    "final_address": "4901 Cardenas Dr",
    "address_councildis": "E",
    "status": "Pending",
    "rowid": "885566",
    "final_x": "3713656.21951",
    "final_y": "557293.050459",
    "longitude": "-89.96556222012688",
    "latitude": "30.025346239619385",
    "geocoded_column": {
      "latitude": "30.025346239619385",
      "longitude": "-89.96556222012688"
    }
  },
  {
    "service_request": "2022-885565",
    "request_type": "Trash/Recycling",
    "request_reason": "Request a Large Item Pick Up",
    "date_created": "2022-05-23T19:45:44.000",
    "date_modified": "2022-05-23T19:45:45.000",
    "request_status": "Pending",
    "responsible_agency": "Department of Sanitation",
    "final_address": "2620 Mexico St",
    "address_councildis": "D",
    "status": "Assigned to Contractor",
    "contractor": "Metro Disposal",
    "rowid": "885565",
    "final_x": "3686549.88796",
    "final_y": "556343.683034",
    "longitude": "-90.05124758686065",
    "latitude": "30.023597656136218",
    "geocoded_column": {
      "latitude": "30.023597656136218",
      "longitude": "-90.05124758686065"
    }
  },
  {
    "service_request": "2022-885564",
    "request_type": "Trash/Recycling",
    "request_reason": "Repair Trash Cart",
    "date_created": "2022-05-23T19:45:32.000",
    "date_modified": "2022-05-23T19:45:33.000",
    "request_status": "Pending",
    "responsible_agency": "Department of Sanitation",
    "final_address": "4532 Laurel St",
    "address_councildis": "B",
    "status": "Assigned to Contractor",
    "contractor": "Richards Disposal",
    "rowid": "885564",
    "final_x": "3670454.41819",
    "final_y": "517950.357174",
    "longitude": "-90.10340830858514",
    "latitude": "29.918514297964627",
    "geocoded_column": {
      "latitude": "29.918514297964627",
      "longitude": "-90.10340830858514"
    }
  },
  {
    "service_request": "2022-885563",
    "request_type": "Property Maintenance",
    "request_reason": "Property Maintenance",
    "date_created": "2022-05-23T19:37:16.000",
    "date_modified": "2022-05-23T19:37:16.000",
    "request_status": "Pending",
    "responsible_agency": "Department of Code Enforcement",
    "final_address": "510 N St Patrick St",
    "address_councildis": "A",
    "status": "Pending",
    "rowid": "885563",
    "final_x": "3670125.46132",
    "final_y": "541113.800076",
    "longitude": "-90.10366201457815",
    "latitude": "29.982215875843906",
    "geocoded_column": {
      "latitude": "29.982215875843906",
      "longitude": "-90.10366201457815"
    }
  },
  {
    "service_request": "2022-885562",
    "request_type": "Trash/Recycling",
    "request_reason": "Order Recycling Cart",
    "date_created": "2022-05-23T19:31:24.000",
    "date_modified": "2022-05-23T19:31:24.000",
    "request_status": "Pending",
    "responsible_agency": "Department of Sanitation",
    "final_address": "2911 Ponce De Leon St",
    "address_councildis": "A",
    "status": "Pending",
    "rowid": "885562",
    "final_x": "3677640.00334",
    "final_y": "540547.446219",
    "longitude": "-90.07994699763053",
    "latitude": "29.980434718014358",
    "geocoded_column": {
      "latitude": "29.980434718014358",
      "longitude": "-90.07994699763053"
    }
  },
  {
    "service_request": "2022-885561",
    "request_type": "Property Maintenance",
    "request_reason": "Property Maintenance",
    "date_created": "2022-05-23T19:28:25.000",
    "date_modified": "2022-05-23T19:28:25.000",
    "request_status": "Pending",
    "responsible_agency": "Department of Code Enforcement",
    "final_address": "4963 De Montluzin St",
    "address_councildis": "D",
    "status": "Pending",
    "rowid": "885561",
    "final_x": "3687126.23126",
    "final_y": "551477.101909",
    "longitude": "-90.0495987434505",
    "latitude": "30.01019860933172",
    "geocoded_column": {
      "latitude": "30.01019860933172",
      "longitude": "-90.0495987434505"
    }
  },
  {
    "service_request": "2022-885560",
    "request_type": "Trash/Recycling",
    "request_reason": "Illegal Dumping",
    "date_created": "2022-05-23T19:24:03.000",
    "date_modified": "2022-05-23T19:24:03.000",
    "request_status": "Pending",
    "responsible_agency": "Department of Sanitation",
    "final_address": "2512 Dryades St",
    "address_councildis": "B",
    "status": "Pending",
    "rowid": "885560",
    "final_x": "3676033.37397",
    "final_y": "523872.246652",
    "longitude": "-90.08559493883756",
    "latitude": "29.93463173737598",
    "geocoded_column": {
      "latitude": "29.93463173737598",
      "longitude": "-90.08559493883756"
    }
  },
  {
    "service_request": "2022-885559",
    "request_type": "Trash/Recycling",
    "request_reason": "MIssed Recycling Pick-Up",
    "date_created": "2022-05-23T19:20:06.000",
    "date_modified": "2022-05-23T19:20:07.000",
    "request_status": "Pending",
    "responsible_agency": "Department of Sanitation",
    "final_address": "635 S Dupre St",
    "address_councildis": "B",
    "status": "Assigned to Contractor",
    "contractor": "Richards Disposal",
    "rowid": "885559",
    "final_x": "3673225.5835",
    "final_y": "533980.175493",
    "longitude": "-90.0941139819175",
    "latitude": "29.96250898184961",
    "geocoded_column": {
      "latitude": "29.96250898184961",
      "longitude": "-90.0941139819175"
    }
  },
  {
    "service_request": "2022-885558",
    "request_type": "Trash/Recycling",
    "request_reason": "Missed Trash Pick-Up",
    "date_created": "2022-05-23T19:18:17.000",
    "date_modified": "2022-05-23T19:18:18.000",
    "request_status": "Pending",
    "responsible_agency": "Department of Sanitation",
    "final_address": "633 S Dupre St",
    "address_councildis": "B",
    "status": "Assigned to Contractor",
    "contractor": "Richards Disposal",
    "rowid": "885558",
    "final_x": "3673230.92424",
    "final_y": "533989.234693",
    "longitude": "-90.09409680717329",
    "latitude": "29.962533732794363",
    "geocoded_column": {
      "latitude": "29.962533732794363",
      "longitude": "-90.09409680717329"
    }
  },
  {
    "service_request": "2022-885557",
    "request_type": "Trash/Recycling",
    "request_reason": "Missed Trash Pick-Up",
    "date_created": "2022-05-23T19:14:59.000",
    "date_modified": "2022-05-23T19:15:00.000",
    "request_status": "Pending",
    "responsible_agency": "Department of Sanitation",
    "final_address": "6971 Camberley Ct",
    "address_councildis": "E",
    "status": "Assigned to Contractor",
    "contractor": "Metro Disposal",
    "rowid": "885557",
    "final_x": "3713746.87877",
    "final_y": "564385.910305",
    "longitude": "-89.96500811304813",
    "latitude": "30.044845788438092",
    "geocoded_column": {
      "latitude": "30.044845788438092",
      "longitude": "-89.96500811304813"
    }
  },
  {
    "service_request": "2022-885555",
    "request_type": "Trash/Recycling",
    "request_reason": "Request a Large Item Pick Up",
    "date_created": "2022-05-23T18:52:57.000",
    "date_modified": "2022-05-23T18:52:58.000",
    "request_status": "Pending",
    "responsible_agency": "Department of Sanitation",
    "final_address": "928 Picheloup Pl",
    "address_councildis": "A",
    "status": "Assigned to Contractor",
    "contractor": "Richards Disposal",
    "rowid": "885555",
    "final_x": "3673662.37518",
    "final_y": "540470.250699",
    "longitude": "-90.09251271578353",
    "latitude": "29.980341493507478",
    "geocoded_column": {
      "latitude": "29.980341493507478",
      "longitude": "-90.09251271578353"
    }
  },
  {
    "service_request": "2022-885554",
    "request_type": "Trash/Recycling",
    "request_reason": "Request a Large Item Pick Up",
    "date_created": "2022-05-23T18:41:32.000",
    "date_modified": "2022-05-23T18:41:32.000",
    "request_status": "Pending",
    "responsible_agency": "Department of Sanitation",
    "final_address": "2526 Peniston St",
    "address_councildis": "B",
    "status": "Assigned to Contractor",
    "contractor": "Richards Disposal",
    "rowid": "885554",
    "final_x": "3672039.00571",
    "final_y": "524433.091196",
    "longitude": "-90.09818602041159",
    "latitude": "29.936292873152844",
    "geocoded_column": {
      "latitude": "29.936292873152844",
      "longitude": "-90.09818602041159"
    }
  },
  {
    "service_request": "2022-885553",
    "request_type": "Property Maintenance",
    "request_reason": "Property Maintenance",
    "date_created": "2022-05-23T18:39:04.000",
    "date_modified": "2022-05-23T18:39:04.000",
    "request_status": "Pending",
    "responsible_agency": "Department of Code Enforcement",
    "final_address": "1218 Valmont St",
    "address_councildis": "B",
    "status": "Pending",
    "rowid": "885553",
    "final_x": "3667607.61377",
    "final_y": "519847.047736",
    "longitude": "-90.11233039725113",
    "latitude": "29.92381331479471",
    "geocoded_column": {
      "latitude": "29.92381331479471",
      "longitude": "-90.11233039725113"
    }
  },
  {
    "service_request": "2022-885552",
    "request_type": "Trash/Recycling",
    "request_reason": "Request a Large Item Pick Up",
    "date_created": "2022-05-23T18:36:04.000",
    "date_modified": "2022-05-23T18:36:05.000",
    "request_status": "Pending",
    "responsible_agency": "Department of Sanitation",
    "final_address": "3512 Robert St",
    "address_councildis": "B",
    "status": "Assigned to Contractor",
    "contractor": "Richards Disposal",
    "rowid": "885552",
    "final_x": "3668904.48814",
    "final_y": "527746.705343",
    "longitude": "-90.10796995214906",
    "latitude": "29.94549677537386",
    "geocoded_column": {
      "latitude": "29.94549677537386",
      "longitude": "-90.10796995214906"
    }
  },
  {
    "service_request": "2022-885551",
    "request_type": "Trash/Recycling",
    "request_reason": "Repair Trash Cart",
    "date_created": "2022-05-23T18:33:55.000",
    "date_modified": "2022-05-23T18:38:47.000",
    "request_status": "Pending",
    "responsible_agency": "Department of Sanitation",
    "final_address": "3102 Saint Philip St, New Orleans, Louisiana, 70119",
    "rowid": "885551",
    "longitude": "0.0",
    "latitude": "0.0",
    "geocoded_column": {
      "latitude": "0.0",
      "longitude": "0.0"
    }
  },
  {
    "service_request": "2022-885550",
    "request_type": "Abandoned Vehicles",
    "request_reason": "Abandoned/Junk Vehicles",
    "date_created": "2022-05-23T18:33:48.000",
    "date_modified": "2022-05-23T18:33:48.000",
    "request_status": "Pending",
    "responsible_agency": "Department of Public Works",
    "final_address": "2725 Marais St",
    "address_councildis": "C",
    "status": "Pending",
    "rowid": "885550",
    "final_x": "3687734.79158",
    "final_y": "536718.050183",
    "longitude": "-90.04819905781827",
    "latitude": "29.969597741017083",
    "geocoded_column": {
      "latitude": "29.969597741017083",
      "longitude": "-90.04819905781827"
    }
  },
  {
    "service_request": "2022-885549",
    "request_type": "Abandoned Vehicles",
    "request_reason": "Abandoned/Junk Vehicles",
    "date_created": "2022-05-23T18:30:48.000",
    "date_modified": "2022-05-23T18:30:48.000",
    "request_status": "Pending",
    "responsible_agency": "Department of Public Works",
    "final_address": "2725 Marais St",
    "address_councildis": "C",
    "status": "Pending",
    "rowid": "885549",
    "final_x": "3687734.79158",
    "final_y": "536718.050183",
    "longitude": "-90.04819905781827",
    "latitude": "29.969597741017083",
    "geocoded_column": {
      "latitude": "29.969597741017083",
      "longitude": "-90.04819905781827"
    }
  },
  {
    "service_request": "2022-885548",
    "request_type": "Roads/Drainage",
    "request_reason": "Pothole",
    "date_created": "2022-05-23T18:27:22.000",
    "date_modified": "2022-05-23T18:27:23.000",
    "request_status": "Pending",
    "responsible_agency": "Department of Public Works",
    "final_address": "917 N Roman St",
    "address_councildis": "D",
    "status": "Pending",
    "rowid": "885548",
    "final_x": "3679719.26306",
    "final_y": "535783.262471",
    "longitude": "-90.07354524106039",
    "latitude": "29.96727215289225",
    "geocoded_column": {
      "latitude": "29.96727215289225",
      "longitude": "-90.07354524106039"
    }
  },
  {
    "service_request": "2022-885547",
    "request_type": "Trash/Recycling",
    "request_reason": "Missed Trash Pick-Up",
    "date_created": "2022-05-23T18:25:55.000",
    "date_modified": "2022-05-23T18:25:56.000",
    "request_status": "Pending",
    "responsible_agency": "Department of Sanitation",
    "final_address": "654 N Pierce St",
    "address_councildis": "A",
    "status": "Assigned to Contractor",
    "contractor": "Richards Disposal",
    "rowid": "885547",
    "final_x": "3672900.52104",
    "final_y": "539759.30209",
    "longitude": "-90.09494324893608",
    "latitude": "29.978409290317277",
    "geocoded_column": {
      "latitude": "29.978409290317277",
      "longitude": "-90.09494324893608"
    }
  },
  {
    "service_request": "2022-885546",
    "request_type": "Abandoned Vehicles",
    "request_reason": "Abandoned/Junk Vehicles",
    "date_created": "2022-05-23T18:19:30.000",
    "date_modified": "2022-05-23T18:19:30.000",
    "request_status": "Pending",
    "responsible_agency": "Department of Public Works",
    "final_address": "2725 Marais St",
    "address_councildis": "C",
    "status": "Pending",
    "rowid": "885546",
    "final_x": "3687734.79158",
    "final_y": "536718.050183",
    "longitude": "-90.04819905781827",
    "latitude": "29.969597741017083",
    "geocoded_column": {
      "latitude": "29.969597741017083",
      "longitude": "-90.04819905781827"
    }
  },
  {
    "service_request": "2022-885545",
    "request_type": "Abandoned Vehicles",
    "request_reason": "Abandoned/Junk Vehicles",
    "date_created": "2022-05-23T18:15:42.000",
    "date_modified": "2022-05-23T18:15:42.000",
    "request_status": "Pending",
    "responsible_agency": "Department of Public Works",
    "final_address": "2725 Marais St",
    "address_councildis": "C",
    "status": "Pending",
    "rowid": "885545",
    "final_x": "3687734.79158",
    "final_y": "536718.050183",
    "longitude": "-90.04819905781827",
    "latitude": "29.969597741017083",
    "geocoded_column": {
      "latitude": "29.969597741017083",
      "longitude": "-90.04819905781827"
    }
  },
  {
    "service_request": "2022-885544",
    "request_type": "Trash/Recycling",
    "request_reason": "Request a Large Item Pick Up",
    "date_created": "2022-05-23T18:08:40.000",
    "date_modified": "2022-05-23T18:08:41.000",
    "request_status": "Pending",
    "responsible_agency": "Department of Sanitation",
    "final_address": "6123 Carlisle Ct",
    "address_councildis": "C",
    "status": "Assigned to Contractor",
    "contractor": "Richards Disposal",
    "rowid": "885544",
    "final_x": "3706564.28772",
    "final_y": "516407.440373",
    "longitude": "-89.9894866543288",
    "latitude": "29.913156662124077",
    "geocoded_column": {
      "latitude": "29.913156662124077",
      "longitude": "-89.9894866543288"
    }
  },
  {
    "service_request": "2022-885543",
    "request_type": "Trash/Recycling",
    "request_reason": "Illegal Dumping",
    "date_created": "2022-05-23T18:05:33.000",
    "date_modified": "2022-05-23T18:05:33.000",
    "request_status": "Pending",
    "responsible_agency": "Department of Sanitation",
    "final_address": "1711 Audubon St",
    "address_councildis": "A",
    "status": "Pending",
    "rowid": "885543",
    "final_x": "3665508.98215",
    "final_y": "527875.705279",
    "longitude": "-90.1186863893367",
    "latitude": "29.945950891728756",
    "geocoded_column": {
      "latitude": "29.945950891728756",
      "longitude": "-90.1186863893367"
    }
  },
  {
    "service_request": "2022-885542",
    "request_type": "Trash/Recycling",
    "request_reason": "Request a Large Item Pick Up",
    "date_created": "2022-05-23T18:05:14.000",
    "date_modified": "2022-05-23T18:05:15.000",
    "request_status": "Pending",
    "responsible_agency": "Department of Sanitation",
    "final_address": "5900 Cartier Ave",
    "address_councildis": "D",
    "status": "Assigned to Contractor",
    "contractor": "Metro Disposal",
    "rowid": "885542",
    "final_x": "3677391.86248",
    "final_y": "553991.860376",
    "longitude": "-90.08026636434666",
    "latitude": "30.017409570200122",
    "geocoded_column": {
      "latitude": "30.017409570200122",
      "longitude": "-90.08026636434666"
    }
  },
  {
    "service_request": "2022-885541",
    "request_type": "Trash/Recycling",
    "request_reason": "Illegal Dumping",
    "date_created": "2022-05-23T18:03:05.000",
    "date_modified": "2022-05-23T18:03:05.000",
    "request_status": "Pending",
    "responsible_agency": "Department of Sanitation",
    "final_address": "1719 Audubon St",
    "address_councildis": "A",
    "status": "Pending",
    "rowid": "885541",
    "final_x": "3665528.1833",
    "final_y": "527915.170943",
    "longitude": "-90.11862444361279",
    "latitude": "29.946058849895397",
    "geocoded_column": {
      "latitude": "29.946058849895397",
      "longitude": "-90.11862444361279"
    }
  },
  {
    "service_request": "2022-885540",
    "request_type": "Trash/Recycling",
    "request_reason": "Illegal Dumping",
    "date_created": "2022-05-23T18:01:42.000",
    "date_modified": "2022-05-23T18:01:42.000",
    "request_status": "Pending",
    "responsible_agency": "Department of Sanitation",
    "final_address": "1725 Audubon St",
    "address_councildis": "A",
    "status": "Pending",
    "rowid": "885540",
    "final_x": "3665545.87156",
    "final_y": "527945.816767",
    "longitude": "-90.11856756971358",
    "latitude": "29.946142600417208",
    "geocoded_column": {
      "latitude": "29.946142600417208",
      "longitude": "-90.11856756971358"
    }
  },
  {
    "service_request": "2022-885539",
    "request_type": "Trash/Recycling",
    "request_reason": "Illegal Dumping",
    "date_created": "2022-05-23T18:00:21.000",
    "date_modified": "2022-05-23T18:00:21.000",
    "request_status": "Pending",
    "responsible_agency": "Department of Sanitation",
    "final_address": "1727 Audubon St",
    "address_councildis": "A",
    "status": "Pending",
    "rowid": "885539",
    "final_x": "3665556.77184",
    "final_y": "527965.128255",
    "longitude": "-90.11853250721391",
    "latitude": "29.946195383026556",
    "geocoded_column": {
      "latitude": "29.946195383026556",
      "longitude": "-90.11853250721391"
    }
  },
  {
    "service_request": "2022-885538",
    "request_type": "Trash/Recycling",
    "request_reason": "Request a Large Item Pick Up",
    "date_created": "2022-05-23T18:00:10.000",
    "date_modified": "2022-05-23T18:00:11.000",
    "request_status": "Pending",
    "responsible_agency": "Department of Sanitation",
    "final_address": "3524 Hollygrove St",
    "address_councildis": "A",
    "status": "Assigned to Contractor",
    "contractor": "Richards Disposal",
    "rowid": "885538",
    "final_x": "3665240.88282",
    "final_y": "536743.254408",
    "longitude": "-90.1192362160543",
    "latitude": "29.97034156578034",
    "geocoded_column": {
      "latitude": "29.97034156578034",
      "longitude": "-90.1192362160543"
    }
  },
  {
    "service_request": "2022-885537",
    "request_type": "Trash/Recycling",
    "request_reason": "Missed Trash Pick-Up",
    "date_created": "2022-05-23T17:55:59.000",
    "date_modified": "2022-05-23T17:56:00.000",
    "request_status": "Pending",
    "responsible_agency": "Department of Sanitation",
    "final_address": "620 S Lopez St",
    "address_councildis": "B",
    "status": "Assigned to Contractor",
    "contractor": "Richards Disposal",
    "rowid": "885537",
    "final_x": "3672536.98491",
    "final_y": "534414.609157",
    "longitude": "-90.09627367450074",
    "latitude": "29.963723988239543",
    "geocoded_column": {
      "latitude": "29.963723988239543",
      "longitude": "-90.09627367450074"
    }
  },
  {
    "service_request": "2022-885536",
    "request_type": "Trash/Recycling",
    "request_reason": "Illegal Dumping",
    "date_created": "2022-05-23T17:48:11.000",
    "date_modified": "2022-05-23T17:48:11.000",
    "request_status": "Pending",
    "responsible_agency": "Department of Sanitation",
    "final_address": "HAYNE BLVD & PARIS RD",
    "address_councildis": "E",
    "status": "Pending",
    "rowid": "885536",
    "final_x": "3720262.6",
    "final_y": "575599.98",
    "longitude": "-89.94398591056006",
    "latitude": "30.075464240642027",
    "geocoded_column": {
      "latitude": "30.075464240642027",
      "longitude": "-89.94398591056006"
    }
  },
  {
    "service_request": "2022-885535",
    "request_type": "Trash/Recycling",
    "request_reason": "Request a Large Item Pick Up",
    "date_created": "2022-05-23T17:47:49.000",
    "date_modified": "2022-05-23T17:47:50.000",
    "request_status": "Pending",
    "responsible_agency": "Department of Sanitation",
    "final_address": "4911 S Claiborne Ave",
    "address_councildis": "B",
    "status": "Assigned to Contractor",
    "contractor": "Richards Disposal",
    "rowid": "885535",
    "final_x": "3669103.59246",
    "final_y": "525988.008445",
    "longitude": "-90.10740072258757",
    "latitude": "29.94065507286716",
    "geocoded_column": {
      "latitude": "29.94065507286716",
      "longitude": "-90.10740072258757"
    }
  },
  {
    "service_request": "2022-885534",
    "request_type": "Roads/Drainage",
    "request_reason": "Pothole",
    "date_created": "2022-05-23T17:44:06.000",
    "date_modified": "2022-05-23T17:44:06.000",
    "request_status": "Pending",
    "responsible_agency": "Department of Public Works",
    "final_address": "7301 Hurst St",
    "address_councildis": "A",
    "status": "Pending",
    "rowid": "885534",
    "final_x": "3661983.59603",
    "final_y": "523855.566075",
    "longitude": "-90.12995058531054",
    "latitude": "29.934999071979657",
    "geocoded_column": {
      "latitude": "29.934999071979657",
      "longitude": "-90.12995058531054"
    }
  },
  {
    "service_request": "2022-885533",
    "request_type": "Property Maintenance",
    "request_reason": "Property Maintenance",
    "date_created": "2022-05-23T17:43:22.000",
    "date_modified": "2022-05-23T17:43:22.000",
    "request_status": "Pending",
    "responsible_agency": "Department of Code Enforcement",
    "final_address": "621 St Ferdinand St",
    "address_councildis": "C",
    "status": "Pending",
    "rowid": "885533",
    "final_x": "3687319.8335",
    "final_y": "534642.091398",
    "longitude": "-90.0495829791284",
    "latitude": "29.963902367969354",
    "geocoded_column": {
      "latitude": "29.963902367969354",
      "longitude": "-90.0495829791284"
    }
  },
  {
    "service_request": "2022-885532",
    "request_type": "Property Maintenance",
    "request_reason": "Property Maintenance",
    "date_created": "2022-05-23T17:38:41.000",
    "date_modified": "2022-05-23T17:38:41.000",
    "request_status": "Pending",
    "responsible_agency": "Department of Code Enforcement",
    "final_address": "631 St Ferdinand St",
    "address_councildis": "C",
    "status": "Pending",
    "rowid": "885532",
    "final_x": "3687332.8543",
    "final_y": "534702.855302",
    "longitude": "-90.04953971088256",
    "latitude": "29.964069046478222",
    "geocoded_column": {
      "latitude": "29.964069046478222",
      "longitude": "-90.04953971088256"
    }
  },
  {
    "service_request": "2022-885531",
    "request_type": "Trash/Recycling",
    "request_reason": "Request a Large Item Pick Up",
    "date_created": "2022-05-23T17:37:53.000",
    "date_modified": "2022-05-23T17:37:54.000",
    "request_status": "Pending",
    "responsible_agency": "Department of Sanitation",
    "final_address": "1725 Audubon St, New Orleans, Louisiana, 70118",
    "address_councildis": "A",
    "status": "Assigned to Contractor",
    "contractor": "Richards Disposal",
    "rowid": "885531",
    "final_x": "3665545.87156",
    "final_y": "527945.816767",
    "longitude": "-90.11856756971358",
    "latitude": "29.946142600417208",
    "geocoded_column": {
      "latitude": "29.946142600417208",
      "longitude": "-90.11856756971358"
    }
  },
  {
    "service_request": "2022-885529",
    "request_type": "Roads/Drainage",
    "request_reason": "Street Subsidence (Sinking)",
    "date_created": "2022-05-23T17:29:45.000",
    "date_modified": "2022-05-23T17:29:45.000",
    "request_status": "Pending",
    "responsible_agency": "Department of Public Works",
    "final_address": "2 Westpark Ct",
    "address_councildis": "C",
    "status": "Pending",
    "rowid": "885529",
    "final_x": "3696112.57674",
    "final_y": "521718.718714",
    "longitude": "-90.02228341563978",
    "latitude": "29.92809379111836",
    "geocoded_column": {
      "latitude": "29.92809379111836",
      "longitude": "-90.02228341563978"
    }
  },
  {
    "service_request": "2022-885528",
    "request_type": "Trash/Recycling",
    "request_reason": "Request a Large Item Pick Up",
    "date_created": "2022-05-23T17:27:42.000",
    "date_modified": "2022-05-23T17:27:43.000",
    "request_status": "Pending",
    "responsible_agency": "Department of Sanitation",
    "final_address": "4435 Lafaye St",
    "address_councildis": "D",
    "status": "Assigned to Contractor",
    "contractor": "Metro Disposal",
    "rowid": "885528",
    "final_x": "3687584.19804",
    "final_y": "549222.768467",
    "longitude": "-90.04823173871263",
    "latitude": "30.003985899648974",
    "geocoded_column": {
      "latitude": "30.003985899648974",
      "longitude": "-90.04823173871263"
    }
  },
  {
    "service_request": "2022-885527",
    "request_type": "Trash/Recycling",
    "request_reason": "Request a Large Item Pick Up",
    "date_created": "2022-05-23T17:24:14.000",
    "date_modified": "2022-05-23T17:24:15.000",
    "request_status": "Pending",
    "responsible_agency": "Department of Sanitation",
    "final_address": "2629 Nashville Ave",
    "address_councildis": "A",
    "status": "Assigned to Contractor",
    "contractor": "Richards Disposal",
    "rowid": "885527",
    "final_x": "3667411.7209",
    "final_y": "525814.739197",
    "longitude": "-90.1127480954262",
    "latitude": "29.940228302400936",
    "geocoded_column": {
      "latitude": "29.940228302400936",
      "longitude": "-90.1127480954262"
    }
  },
  {
    "service_request": "2022-885526",
    "request_type": "Property Maintenance",
    "request_reason": "Property Maintenance",
    "date_created": "2022-05-23T17:23:30.000",
    "date_modified": "2022-05-23T17:23:30.000",
    "request_status": "Pending",
    "responsible_agency": "Department of Code Enforcement",
    "final_address": "200 S Claiborne Ave",
    "address_councildis": "B",
    "status": "Pending",
    "rowid": "885526",
    "final_x": "3678244.1668",
    "final_y": "532318.988291",
    "longitude": "-90.07832344046625",
    "latitude": "29.957791084763564",
    "geocoded_column": {
      "latitude": "29.957791084763564",
      "longitude": "-90.07832344046625"
    }
  },
  {
    "service_request": "2022-885525",
    "request_type": "Trash/Recycling",
    "request_reason": "Replace Trash Cart",
    "date_created": "2022-05-23T17:21:49.000",
    "date_modified": "2022-05-23T17:21:50.000",
    "request_status": "Pending",
    "responsible_agency": "Department of Sanitation",
    "final_address": "1426 Jefferson Ave",
    "address_councildis": "A",
    "status": "Assigned to Contractor",
    "contractor": "Richards Disposal",
    "rowid": "885525",
    "final_x": "3667039.37044",
    "final_y": "520545.672376",
    "longitude": "-90.11410067649942",
    "latitude": "29.925750949461484",
    "geocoded_column": {
      "latitude": "29.925750949461484",
      "longitude": "-90.11410067649942"
    }
  },
  {
    "service_request": "2022-885524",
    "request_type": "COVID-19",
    "request_reason": "COVID-19 Business Non-Compliance",
    "date_created": "2022-05-23T17:20:16.000",
    "date_modified": "2022-05-23T17:20:17.000",
    "request_status": "Pending",
    "responsible_agency": "Safety and Permits",
    "final_address": "Monroe St & Earhart Blvd, New Orleans, Louisiana, 70118",
    "status": "Pending",
    "rowid": "885524",
    "longitude": "0.0",
    "latitude": "0.0",
    "geocoded_column": {
      "latitude": "0.0",
      "longitude": "0.0"
    }
  },
  {
    "service_request": "2022-885523",
    "request_type": "Abandoned Vehicles",
    "request_reason": "Abandoned/Junk Vehicles",
    "date_created": "2022-05-23T17:16:20.000",
    "date_modified": "2022-05-23T17:16:20.000",
    "request_status": "Pending",
    "responsible_agency": "Department of Public Works",
    "final_address": "4891 Tchoupitoulas St",
    "address_councildis": "B",
    "status": "Pending",
    "rowid": "885523",
    "final_x": "3668986.07098",
    "final_y": "517265.289461",
    "longitude": "-90.10806623984897",
    "latitude": "29.91667383344089",
    "geocoded_column": {
      "latitude": "29.91667383344089",
      "longitude": "-90.10806623984897"
    }
  },
  {
    "service_request": "2022-885522",
    "request_type": "Trash/Recycling",
    "request_reason": "Order Recycling Cart",
    "date_created": "2022-05-23T17:12:39.000",
    "date_modified": "2022-05-23T17:12:39.000",
    "request_status": "Pending",
    "responsible_agency": "Department of Sanitation",
    "final_address": "1536 Conery St",
    "address_councildis": "B",
    "status": "Pending",
    "rowid": "885522",
    "final_x": "3675796.84923",
    "final_y": "522199.289082",
    "longitude": "-90.0863991180948",
    "latitude": "29.930038728830244",
    "geocoded_column": {
      "latitude": "29.930038728830244",
      "longitude": "-90.0863991180948"
    }
  },
  {
    "service_request": "2022-885521",
    "request_type": "Traffic Signals/Signs/Striping/Streetlights",
    "request_reason": "Street Light Outage/Malfunction",
    "date_created": "2022-05-23T17:11:22.000",
    "date_modified": "2022-05-23T17:11:23.000",
    "request_status": "Pending",
    "responsible_agency": "Department of Public Works",
    "final_address": "1707 Jay St",
    "address_councildis": "D",
    "status": "Pending",
    "contractor": "Royal Engineering",
    "rowid": "885521",
    "final_x": "3678865.67803",
    "final_y": "557217.532251",
    "longitude": "-90.07549781618867",
    "latitude": "30.026234594060973",
    "geocoded_column": {
      "latitude": "30.026234594060973",
      "longitude": "-90.07549781618867"
    }
  },
  {
    "service_request": "2022-885520",
    "request_type": "Traffic Signals/Signs/Striping/Streetlights",
    "request_reason": "Street Light Outage/Malfunction",
    "date_created": "2022-05-23T17:10:58.000",
    "date_modified": "2022-05-23T17:10:59.000",
    "request_status": "Pending",
    "responsible_agency": "Department of Public Works",
    "final_address": "1707 Jay St",
    "address_councildis": "D",
    "status": "Pending",
    "contractor": "Royal Engineering",
    "rowid": "885520",
    "final_x": "3678865.67803",
    "final_y": "557217.532251",
    "longitude": "-90.07549781618867",
    "latitude": "30.026234594060973",
    "geocoded_column": {
      "latitude": "30.026234594060973",
      "longitude": "-90.07549781618867"
    }
  },
  {
    "service_request": "2022-885519",
    "request_type": "Trash/Recycling",
    "request_reason": "Illegal Dumping",
    "date_created": "2022-05-23T17:09:55.000",
    "date_modified": "2022-05-23T17:09:56.000",
    "request_status": "Pending",
    "responsible_agency": "Department of Sanitation",
    "final_address": "416 S Broad St",
    "address_councildis": "B",
    "status": "Pending",
    "rowid": "885519",
    "final_x": "3674590.79611",
    "final_y": "533911.850117",
    "longitude": "-90.08980516471337",
    "latitude": "29.962280441504564",
    "geocoded_column": {
      "latitude": "29.962280441504564",
      "longitude": "-90.08980516471337"
    }
  },
  {
    "service_request": "2022-885518",
    "request_type": "Trash/Recycling",
    "request_reason": "Replace Recycling Cart",
    "date_created": "2022-05-23T17:09:19.000",
    "date_modified": "2022-05-23T17:09:19.000",
    "request_status": "Pending",
    "responsible_agency": "Department of Sanitation",
    "final_address": "6647 Avenue B",
    "address_councildis": "A",
    "status": "Pending",
    "rowid": "885518",
    "final_x": "3665796.6128",
    "final_y": "552398.486358",
    "longitude": "-90.11695630754785",
    "latitude": "30.013371916593645",
    "geocoded_column": {
      "latitude": "30.013371916593645",
      "longitude": "-90.11695630754785"
    }
  },
  {
    "service_request": "2022-885517",
    "request_type": "Property Maintenance",
    "request_reason": "Property Maintenance",
    "date_created": "2022-05-23T17:03:21.000",
    "date_modified": "2022-05-23T17:03:21.000",
    "request_status": "Pending",
    "responsible_agency": "Department of Code Enforcement",
    "final_address": "4657 Clara St",
    "address_councildis": "B",
    "status": "Pending",
    "rowid": "885517",
    "final_x": "3669255.65582",
    "final_y": "525007.268605",
    "longitude": "-90.10695377125919",
    "latitude": "29.937953880608603",
    "geocoded_column": {
      "latitude": "29.937953880608603",
      "longitude": "-90.10695377125919"
    }
  },
  {
    "service_request": "2022-885516",
    "request_type": "Trash/Recycling",
    "request_reason": "Missed Trash Pick-Up",
    "date_created": "2022-05-23T17:02:33.000",
    "date_modified": "2022-05-23T17:02:35.000",
    "request_status": "Pending",
    "responsible_agency": "Department of Sanitation",
    "final_address": "507 River Oaks Dr",
    "address_councildis": "C",
    "status": "Assigned to Contractor",
    "contractor": "Richards Disposal",
    "rowid": "885516",
    "final_x": "3701470.69879",
    "final_y": "521427.024761",
    "longitude": "-90.00537982857233",
    "latitude": "29.927122073279588",
    "geocoded_column": {
      "latitude": "29.927122073279588",
      "longitude": "-90.00537982857233"
    }
  },
  {
    "service_request": "2022-885515",
    "request_type": "Trash/Recycling",
    "request_reason": "Illegal Dumping",
    "date_created": "2022-05-23T17:02:26.000",
    "date_modified": "2022-05-23T17:02:26.000",
    "request_status": "Pending",
    "responsible_agency": "Department of Sanitation",
    "final_address": "4657 Clara St",
    "address_councildis": "B",
    "status": "Pending",
    "rowid": "885515",
    "final_x": "3669255.65582",
    "final_y": "525007.268605",
    "longitude": "-90.10695377125919",
    "latitude": "29.937953880608603",
    "geocoded_column": {
      "latitude": "29.937953880608603",
      "longitude": "-90.10695377125919"
    }
  },
  {
    "service_request": "2022-885514",
    "request_type": "Trash/Recycling",
    "request_reason": "Illegal Dumping",
    "date_created": "2022-05-23T17:01:37.000",
    "date_modified": "2022-05-23T17:01:37.000",
    "request_status": "Pending",
    "responsible_agency": "Department of Sanitation",
    "final_address": "4922 Clara St",
    "address_councildis": "B",
    "status": "Pending",
    "rowid": "885514",
    "final_x": "3669013.27521",
    "final_y": "524911.184444",
    "longitude": "-90.10772223440983",
    "latitude": "29.937696811014987",
    "geocoded_column": {
      "latitude": "29.937696811014987",
      "longitude": "-90.10772223440983"
    }
  },
  {
    "service_request": "2022-885513",
    "request_type": "Property Maintenance",
    "request_reason": "Property Maintenance",
    "date_created": "2022-05-23T17:00:46.000",
    "date_modified": "2022-05-23T17:00:46.000",
    "request_status": "Pending",
    "responsible_agency": "Department of Code Enforcement",
    "final_address": "4922 Clara St",
    "address_councildis": "B",
    "status": "Pending",
    "rowid": "885513",
    "final_x": "3669013.27521",
    "final_y": "524911.184444",
    "longitude": "-90.10772223440983",
    "latitude": "29.937696811014987",
    "geocoded_column": {
      "latitude": "29.937696811014987",
      "longitude": "-90.10772223440983"
    }
  },
  {
    "service_request": "2022-885512",
    "request_type": "Trash/Recycling",
    "request_reason": "Request a Large Item Pick Up",
    "date_created": "2022-05-23T16:59:37.000",
    "date_modified": "2022-05-23T16:59:38.000",
    "request_status": "Pending",
    "responsible_agency": "Department of Sanitation",
    "final_address": "2230 Broadway St, New Orleans, Louisiana, 70118",
    "address_councildis": "A",
    "status": "Assigned to Contractor",
    "contractor": "Richards Disposal",
    "rowid": "885512",
    "final_x": "3666236.18849",
    "final_y": "529694.845761",
    "longitude": "-90.11632934069942",
    "latitude": "29.950931722358888",
    "geocoded_column": {
      "latitude": "29.950931722358888",
      "longitude": "-90.11632934069942"
    }
  },
  {
    "service_request": "2022-885511",
    "request_type": "Trash/Recycling",
    "request_reason": "Request a Large Item Pick Up",
    "date_created": "2022-05-23T16:58:55.000",
    "date_modified": "2022-05-23T16:58:56.000",
    "request_status": "Pending",
    "responsible_agency": "Department of Sanitation",
    "final_address": "1810 Marengo St",
    "address_councildis": "B",
    "status": "Assigned to Contractor",
    "contractor": "Richards Disposal",
    "rowid": "885511",
    "final_x": "3671814.18305",
    "final_y": "521807.871162",
    "longitude": "-90.09898507532803",
    "latitude": "29.929081026634424",
    "geocoded_column": {
      "latitude": "29.929081026634424",
      "longitude": "-90.09898507532803"
    }
  },
  {
    "service_request": "2022-885510",
    "request_type": "Trash/Recycling",
    "request_reason": "Replace Trash Cart",
    "date_created": "2022-05-23T16:55:35.000",
    "date_modified": "2022-05-23T16:55:36.000",
    "request_status": "Pending",
    "responsible_agency": "Department of Sanitation",
    "final_address": "738 English Turn Ln",
    "address_councildis": "C",
    "status": "Assigned to Contractor",
    "contractor": "Richards Disposal",
    "rowid": "885510",
    "final_x": "3720126.79545",
    "final_y": "511539.072944",
    "longitude": "-89.94686578326416",
    "latitude": "29.899326047166955",
    "geocoded_column": {
      "latitude": "29.899326047166955",
      "longitude": "-89.94686578326416"
    }
  },
  {
    "service_request": "2022-885509",
    "request_type": "Property Maintenance",
    "request_reason": "Property Maintenance",
    "date_created": "2022-05-23T16:48:56.000",
    "date_modified": "2022-05-23T16:48:56.000",
    "request_status": "Pending",
    "responsible_agency": "Department of Code Enforcement",
    "final_address": "400 N Galvez St",
    "address_councildis": "B",
    "status": "Pending",
    "rowid": "885509",
    "final_x": "3677786.69314",
    "final_y": "534821.61991",
    "longitude": "-90.07968154996631",
    "latitude": "29.964686244815574",
    "geocoded_column": {
      "latitude": "29.964686244815574",
      "longitude": "-90.07968154996631"
    }
  },
  {
    "service_request": "2022-885508",
    "request_type": "Roads/Drainage",
    "request_reason": "Catch Basin - Clogged",
    "date_created": "2022-05-23T16:40:40.000",
    "date_modified": "2022-05-23T16:40:40.000",
    "request_status": "Pending",
    "responsible_agency": "Department of Public Works",
    "final_address": "1141 Margaret Pl",
    "address_councildis": "B",
    "status": "Pending",
    "rowid": "885508",
    "final_x": "3680147.18504",
    "final_y": "526130.506558",
    "longitude": "-90.0725292781271",
    "latitude": "29.94071738753015",
    "geocoded_column": {
      "latitude": "29.94071738753015",
      "longitude": "-90.0725292781271"
    }
  },
  {
    "service_request": "2022-885507",
    "request_type": "Roads/Drainage",
    "request_reason": "Damaged Sidewalk",
    "date_created": "2022-05-23T16:40:06.000",
    "date_modified": "2022-05-23T16:40:06.000",
    "request_status": "Pending",
    "responsible_agency": "Department of Public Works",
    "final_address": "3726 Milan St",
    "address_councildis": "B",
    "status": "Pending",
    "rowid": "885507",
    "final_x": "3670794.95803",
    "final_y": "528445.014336",
    "longitude": "-90.10197741866344",
    "latitude": "29.947361172244",
    "geocoded_column": {
      "latitude": "29.947361172244",
      "longitude": "-90.10197741866344"
    }
  },
  {
    "service_request": "2022-885506",
    "request_type": "Trash/Recycling",
    "request_reason": "Request a Large Item Pick Up",
    "date_created": "2022-05-23T16:38:06.000",
    "date_modified": "2022-05-23T16:38:07.000",
    "request_status": "Pending",
    "responsible_agency": "Department of Sanitation",
    "final_address": "1204 Chartres St",
    "address_councildis": "C",
    "status": "Assigned to Contractor",
    "contractor": "Empire Services",
    "rowid": "885506",
    "final_x": "3684005.17481",
    "final_y": "533709.341061",
    "longitude": "-90.0600830747842",
    "latitude": "29.96143932040929",
    "geocoded_column": {
      "latitude": "29.96143932040929",
      "longitude": "-90.0600830747842"
    }
  },
  {
    "service_request": "2022-885505",
    "request_type": "Mosquito, Termite & Rodent Control",
    "request_reason": "Rodent Complaint (Rats)",
    "date_created": "2022-05-23T16:37:35.000",
    "date_modified": "2022-05-23T16:37:35.000",
    "request_status": "Pending",
    "responsible_agency": "Mosquito, Termite & Rodent Control Board",
    "final_address": "2621 Ramsey Dr",
    "address_councildis": "C",
    "status": "Pending",
    "rowid": "885505",
    "final_x": "3703073.19358",
    "final_y": "521338.394681",
    "longitude": "-90.0003244577771",
    "latitude": "29.92682720763228",
    "geocoded_column": {
      "latitude": "29.92682720763228",
      "longitude": "-90.0003244577771"
    }
  },
  {
    "service_request": "2022-885504",
    "request_type": "Traffic Signals/Signs/Striping/Streetlights",
    "request_reason": "Traffic Sign Missing/Damaged",
    "date_created": "2022-05-23T16:36:46.000",
    "date_modified": "2022-05-23T16:36:47.000",
    "request_status": "Pending",
    "responsible_agency": "Department of Public Works",
    "final_address": "8803 Olive St",
    "address_councildis": "A",
    "status": "Pending",
    "rowid": "885504",
    "final_x": "3665401.99636",
    "final_y": "535901.590663",
    "longitude": "-90.11875557496711",
    "latitude": "29.9680225742866",
    "geocoded_column": {
      "latitude": "29.9680225742866",
      "longitude": "-90.11875557496711"
    }
  },
  {
    "service_request": "2022-885503",
    "request_type": "Roads/Drainage",
    "request_reason": "Street Subsidence (Sinking)",
    "date_created": "2022-05-23T16:30:24.000",
    "date_modified": "2022-05-23T16:30:24.000",
    "request_status": "Pending",
    "responsible_agency": "Department of Public Works",
    "final_address": "5101 General De Gaulle Dr",
    "address_councildis": "C",
    "status": "Pending",
    "rowid": "885503",
    "final_x": "3702954.03818",
    "final_y": "515940.77426",
    "longitude": "-90.00089873164137",
    "latitude": "29.91198942050332",
    "geocoded_column": {
      "latitude": "29.91198942050332",
      "longitude": "-90.00089873164137"
    }
  },
  {
    "service_request": "2022-885502",
    "request_type": "Trash/Recycling",
    "request_reason": "Repair Trash Cart",
    "date_created": "2022-05-23T16:22:59.000",
    "date_modified": "2022-05-23T16:23:00.000",
    "request_status": "Pending",
    "responsible_agency": "Department of Sanitation",
    "final_address": "943 N Rendon St",
    "address_councildis": "A",
    "status": "Assigned to Contractor",
    "contractor": "Richards Disposal",
    "rowid": "885502",
    "final_x": "3675597.21409",
    "final_y": "539141.537418",
    "longitude": "-90.08644733035209",
    "latitude": "29.97663023481669",
    "geocoded_column": {
      "latitude": "29.97663023481669",
      "longitude": "-90.08644733035209"
    }
  },
  {
    "service_request": "2022-885499",
    "request_type": "Parks & Parkways",
    "request_reason": "Request Tree Service (Right of Way/Public Property)",
    "date_created": "2022-05-23T16:22:48.000",
    "date_modified": "2022-05-23T16:22:49.000",
    "request_status": "Pending",
    "responsible_agency": "Department of Parks & Parkway",
    "final_address": "1719 Milan St",
    "address_councildis": "B",
    "status": "Pending",
    "rowid": "885499",
    "final_x": "3671586.19668",
    "final_y": "521501.907513",
    "longitude": "-90.09971518392118",
    "latitude": "29.92824647592765",
    "geocoded_column": {
      "latitude": "29.92824647592765",
      "longitude": "-90.09971518392118"
    }
  },
  {
    "service_request": "2022-885498",
    "request_type": "Property Maintenance",
    "request_reason": "Property Maintenance",
    "date_created": "2022-05-23T16:22:22.000",
    "date_modified": "2022-05-23T16:22:22.000",
    "request_status": "Pending",
    "responsible_agency": "Department of Code Enforcement",
    "final_address": "3639 Timber Ct",
    "address_councildis": "C",
    "status": "Pending",
    "rowid": "885498",
    "final_x": "3703804.34078",
    "final_y": "511589.69784",
    "longitude": "-89.99837496998525",
    "latitude": "29.89999822573724",
    "geocoded_column": {
      "latitude": "29.89999822573724",
      "longitude": "-89.99837496998525"
    }
  },
  {
    "service_request": "2022-885497",
    "request_type": "Roads/Drainage",
    "request_reason": "Street Subsidence (Sinking)",
    "date_created": "2022-05-23T16:22:06.000",
    "date_modified": "2022-05-23T16:22:06.000",
    "request_status": "Pending",
    "responsible_agency": "Department of Public Works",
    "final_address": "1328 St Denis St",
    "address_councildis": "D",
    "status": "Pending",
    "rowid": "885497",
    "final_x": "3677689.32258",
    "final_y": "545678.122832",
    "longitude": "-90.07961392079702",
    "latitude": "29.99454080664516",
    "geocoded_column": {
      "latitude": "29.99454080664516",
      "longitude": "-90.07961392079702"
    }
  },
  {
    "service_request": "2022-885496",
    "request_type": "Trash/Recycling",
    "request_reason": "Illegal Dumping",
    "date_created": "2022-05-23T16:21:10.000",
    "date_modified": "2022-05-23T20:14:13.000",
    "request_status": "Pending",
    "responsible_agency": "Department of Sanitation",
    "final_address": "MACARTHUR BLVD & HUDSON PL",
    "address_councildis": "C",
    "status": "Pending",
    "rowid": "885496",
    "final_x": "3703180.9",
    "final_y": "519889.78",
    "longitude": "-90.00003766973849",
    "latitude": "29.922840573216806",
    "geocoded_column": {
      "latitude": "29.922840573216806",
      "longitude": "-90.00003766973849"
    }
  },
  {
    "service_request": "2022-885495",
    "request_type": "Property Maintenance",
    "request_reason": "Property Maintenance",
    "date_created": "2022-05-23T16:19:58.000",
    "date_modified": "2022-05-23T16:19:58.000",
    "request_status": "Pending",
    "responsible_agency": "Department of Code Enforcement",
    "final_address": "232 28Th St",
    "address_councildis": "A",
    "status": "Pending",
    "rowid": "885495",
    "final_x": "3665528.8752",
    "final_y": "550170.05538",
    "longitude": "-90.11787690485842",
    "latitude": "30.007252319739372",
    "geocoded_column": {
      "latitude": "30.007252319739372",
      "longitude": "-90.11787690485842"
    }
  },
  {
    "service_request": "2022-885494",
    "request_type": "Trash/Recycling",
    "request_reason": "Replace Trash Cart",
    "date_created": "2022-05-23T16:18:10.000",
    "date_modified": "2022-05-23T16:18:11.000",
    "request_status": "Pending",
    "responsible_agency": "Department of Sanitation",
    "final_address": "5058 Toulon St",
    "address_councildis": "E",
    "status": "Assigned to Contractor",
    "contractor": "Metro Disposal",
    "rowid": "885494",
    "final_x": "3723579.46201",
    "final_y": "561681.083039",
    "longitude": "-89.93403736701926",
    "latitude": "30.037082108904713",
    "geocoded_column": {
      "latitude": "30.037082108904713",
      "longitude": "-89.93403736701926"
    }
  },
  {
    "service_request": "2022-885493",
    "request_type": "Property Maintenance",
    "request_reason": "Property Maintenance",
    "date_created": "2022-05-23T16:16:43.000",
    "date_modified": "2022-05-23T16:16:43.000",
    "request_status": "Pending",
    "responsible_agency": "Department of Code Enforcement",
    "final_address": "1231 Constance St",
    "address_councildis": "B",
    "status": "Pending",
    "rowid": "885493",
    "final_x": "3680902.03304",
    "final_y": "525289.841021",
    "longitude": "-90.0701753527937",
    "latitude": "29.938382977031573",
    "geocoded_column": {
      "latitude": "29.938382977031573",
      "longitude": "-90.0701753527937"
    }
  },
  {
    "service_request": "2022-885492",
    "request_type": "Traffic Signals/Signs/Striping/Streetlights",
    "request_reason": "Street Name Sign Damaged or Missing",
    "date_created": "2022-05-23T16:16:12.000",
    "date_modified": "2022-05-23T16:16:12.000",
    "request_status": "Pending",
    "responsible_agency": "Department of Public Works",
    "final_address": "2258 Mendez St",
    "address_councildis": "D",
    "status": "Pending",
    "rowid": "885492",
    "final_x": "3684252.69954",
    "final_y": "553408.667223",
    "longitude": "-90.05860939489085",
    "latitude": "30.015597916574663",
    "geocoded_column": {
      "latitude": "30.015597916574663",
      "longitude": "-90.05860939489085"
    }
  },
  {
    "service_request": "2022-885491",
    "request_type": "Traffic Signals/Signs/Striping/Streetlights",
    "request_reason": "Traffic Signal Malfunctioning/Damaged",
    "date_created": "2022-05-23T16:16:10.000",
    "date_modified": "2022-05-23T16:16:11.000",
    "request_status": "Pending",
    "responsible_agency": "Department of Public Works",
    "final_address": "CANAL BLVD & ROBERT E LEE BLVD",
    "address_councildis": "A",
    "status": "Pending",
    "rowid": "885491",
    "final_x": "3669092.6",
    "final_y": "554652.58",
    "longitude": "-90.10646644246677",
    "latitude": "30.0194732581145",
    "geocoded_column": {
      "latitude": "30.0194732581145",
      "longitude": "-90.10646644246677"
    }
  },
  {
    "service_request": "2022-885489",
    "request_type": "Roads/Drainage",
    "request_reason": "Debris in Roadway",
    "date_created": "2022-05-23T16:09:15.000",
    "date_modified": "2022-05-23T16:09:15.000",
    "request_status": "Pending",
    "responsible_agency": "Department of Public Works",
    "final_address": "714 Eighth St",
    "address_councildis": "B",
    "status": "Pending",
    "rowid": "885489",
    "final_x": "3676838.47361",
    "final_y": "519047.209975",
    "longitude": "-90.08321944096417",
    "latitude": "29.921340323757583",
    "geocoded_column": {
      "latitude": "29.921340323757583",
      "longitude": "-90.08321944096417"
    }
  },
  {
    "service_request": "2022-885488",
    "request_type": "Trash/Recycling",
    "request_reason": "Missed Trash Pick-Up",
    "date_created": "2022-05-23T16:03:30.000",
    "date_modified": "2022-05-23T16:03:31.000",
    "request_status": "Pending",
    "responsible_agency": "Department of Sanitation",
    "final_address": "3324 Lamarque St",
    "address_councildis": "C",
    "status": "Assigned to Contractor",
    "contractor": "Richards Disposal",
    "rowid": "885488",
    "final_x": "3696579.94621",
    "final_y": "526664.34451",
    "longitude": "-90.02062918696669",
    "latitude": "29.941677847413654",
    "geocoded_column": {
      "latitude": "29.941677847413654",
      "longitude": "-90.02062918696669"
    }
  },
  {
    "service_request": "2022-885487",
    "request_type": "Property Maintenance",
    "request_reason": "Property Maintenance",
    "date_created": "2022-05-23T15:49:16.000",
    "date_modified": "2022-05-23T16:40:11.000",
    "case_close_date": "2022-05-23T11:40:11.000",
    "request_status": "Closed",
    "responsible_agency": "Department of Code Enforcement",
    "final_address": "2834 Josephine St",
    "address_councildis": "B",
    "status": "Referred to Code Enforcement",
    "rowid": "885487",
    "final_x": "3675137.32878",
    "final_y": "527480.710143",
    "longitude": "-90.08829995871812",
    "latitude": "29.94458062796238",
    "geocoded_column": {
      "latitude": "29.94458062796238",
      "longitude": "-90.08829995871812"
    }
  },
  {
    "service_request": "2022-885486",
    "request_type": "Mosquito, Termite & Rodent Control",
    "request_reason": "Mosquito Complaint",
    "date_created": "2022-05-23T15:48:11.000",
    "date_modified": "2022-05-23T15:48:11.000",
    "request_status": "Pending",
    "responsible_agency": "Mosquito, Termite & Rodent Control Board",
    "final_address": "3435 Audubon Ct",
    "address_councildis": "B",
    "status": "Pending",
    "rowid": "885486",
    "final_x": "3669000.56442",
    "final_y": "532945.340868",
    "longitude": "-90.10749100941455",
    "latitude": "29.959788493988952",
    "geocoded_column": {
      "latitude": "29.959788493988952",
      "longitude": "-90.10749100941455"
    }
  },
  {
    "service_request": "2022-885484",
    "request_type": "Abandoned Vehicles",
    "request_reason": "Abandoned/Junk Vehicles",
    "date_created": "2022-05-23T15:42:09.000",
    "date_modified": "2022-05-23T15:42:09.000",
    "request_status": "Pending",
    "responsible_agency": "Department of Public Works",
    "final_address": "Calhoun St & S Rocheblave St, New Orleans, Louisiana, 70125",
    "address_councildis": "A",
    "status": "Pending",
    "rowid": "885484",
    "final_x": "3667420.3",
    "final_y": "528791.08",
    "longitude": "-90.11262090182416",
    "latitude": "29.94841202612613",
    "geocoded_column": {
      "latitude": "29.94841202612613",
      "longitude": "-90.11262090182416"
    }
  },
  {
    "service_request": "2022-885483",
    "request_type": "Trash/Recycling",
    "request_reason": "Request a Large Item Pick Up",
    "date_created": "2022-05-23T15:40:06.000",
    "date_modified": "2022-05-23T15:40:07.000",
    "request_status": "Pending",
    "responsible_agency": "Department of Sanitation",
    "final_address": "2040 Louisa St",
    "address_councildis": "D",
    "status": "Assigned to Contractor",
    "contractor": "Metro Disposal",
    "rowid": "885483",
    "final_x": "3690437.55612",
    "final_y": "539556.846666",
    "longitude": "-90.0395622982569",
    "latitude": "29.977319799622823",
    "geocoded_column": {
      "latitude": "29.977319799622823",
      "longitude": "-90.0395622982569"
    }
  },
  {
    "service_request": "2022-885482",
    "request_type": "Trash/Recycling",
    "request_reason": "Missed Trash Pick-Up",
    "date_created": "2022-05-23T15:39:12.000",
    "date_modified": "2022-05-23T15:39:12.000",
    "request_status": "Pending",
    "responsible_agency": "Department of Sanitation",
    "final_address": "420 S Olympia St, New Orleans, Louisiana, 70119",
    "address_councildis": "A",
    "status": "Assigned to Contractor",
    "contractor": "Richards Disposal",
    "rowid": "885482",
    "final_x": "3668573.26503",
    "final_y": "538459.841353",
    "longitude": "-90.10865421230567",
    "latitude": "29.974964096373775",
    "geocoded_column": {
      "latitude": "29.974964096373775",
      "longitude": "-90.10865421230567"
    }
  },
  {
    "service_request": "2022-885481",
    "request_type": "Health Related Questions",
    "request_reason": "Noise Ordinance Complaint",
    "date_created": "2022-05-23T15:39:04.000",
    "date_modified": "2022-05-23T15:39:04.000",
    "request_status": "Pending",
    "responsible_agency": "Health Department",
    "final_address": "2833 Josephine St, New Orleans, Louisiana, 70113",
    "address_councildis": "B",
    "status": "Pending",
    "rowid": "885481",
    "final_x": "3675199.44968",
    "final_y": "527529.124991",
    "longitude": "-90.08810216330974",
    "latitude": "29.9447118966971",
    "geocoded_column": {
      "latitude": "29.9447118966971",
      "longitude": "-90.08810216330974"
    }
  },
  {
    "service_request": "2022-885480",
    "request_type": "Roads/Drainage",
    "request_reason": "Street Subsidence (Sinking)",
    "date_created": "2022-05-23T15:37:39.000",
    "date_modified": "2022-05-23T15:37:39.000",
    "request_status": "Pending",
    "responsible_agency": "Department of Public Works",
    "final_address": "900 First St",
    "address_councildis": "B",
    "status": "Pending",
    "rowid": "885480",
    "final_x": "3678432.7339",
    "final_y": "520898.473081",
    "longitude": "-90.07812304833",
    "latitude": "29.926382773486498",
    "geocoded_column": {
      "latitude": "29.926382773486498",
      "longitude": "-90.07812304833"
    }
  },
  {
    "service_request": "2022-885479",
    "request_type": "Mosquito, Termite & Rodent Control",
    "request_reason": "Mosquito Complaint",
    "date_created": "2022-05-23T15:37:38.000",
    "date_modified": "2022-05-23T15:37:38.000",
    "request_status": "Pending",
    "responsible_agency": "Mosquito, Termite & Rodent Control Board",
    "final_address": "3522 Audubon Ct",
    "address_councildis": "B",
    "status": "Pending",
    "rowid": "885479",
    "final_x": "3669049.58753",
    "final_y": "533273.528644",
    "longitude": "-90.10732511644376",
    "latitude": "29.96068945968101",
    "geocoded_column": {
      "latitude": "29.96068945968101",
      "longitude": "-90.10732511644376"
    }
  },
  {
    "service_request": "2022-885478",
    "request_type": "Traffic Signals/Signs/Striping/Streetlights",
    "request_reason": "Street Light Outage/Malfunction",
    "date_created": "2022-05-23T15:36:37.000",
    "date_modified": "2022-05-23T15:36:38.000",
    "request_status": "Pending",
    "responsible_agency": "Department of Public Works",
    "final_address": "4441 Annette St",
    "address_councildis": "D",
    "status": "Pending",
    "contractor": "Royal Engineering",
    "rowid": "885478",
    "final_x": "3682163.37845",
    "final_y": "549005.466515",
    "longitude": "-90.06536463741261",
    "latitude": "30.003554451952123",
    "geocoded_column": {
      "latitude": "30.003554451952123",
      "longitude": "-90.06536463741261"
    }
  },
  {
    "service_request": "2022-885477",
    "request_type": "Property Maintenance",
    "request_reason": "Property Maintenance",
    "date_created": "2022-05-23T15:36:21.000",
    "date_modified": "2022-05-23T15:36:21.000",
    "request_status": "Pending",
    "responsible_agency": "Department of Code Enforcement",
    "final_address": "3522 Audubon Ct",
    "address_councildis": "B",
    "status": "Pending",
    "rowid": "885477",
    "final_x": "3669049.58753",
    "final_y": "533273.528644",
    "longitude": "-90.10732511644376",
    "latitude": "29.96068945968101",
    "geocoded_column": {
      "latitude": "29.96068945968101",
      "longitude": "-90.10732511644376"
    }
  },
  {
    "service_request": "2022-885476",
    "request_type": "Traffic Signals/Signs/Striping/Streetlights",
    "request_reason": "Additional signage",
    "date_created": "2022-05-23T15:33:58.000",
    "date_modified": "2022-05-23T15:33:58.000",
    "request_status": "Pending",
    "responsible_agency": "Department of Public Works",
    "final_address": "HICKERSON DR & HAMMOND ST",
    "address_councildis": "E",
    "status": "Pending",
    "rowid": "885476",
    "final_x": "3710264.1",
    "final_y": "556169.18",
    "longitude": "-89.97632276690514",
    "latitude": "30.022366935987087",
    "geocoded_column": {
      "latitude": "30.022366935987087",
      "longitude": "-89.97632276690514"
    }
  },
  {
    "service_request": "2022-885475",
    "request_type": "Roads/Drainage",
    "request_reason": "Street Subsidence (Sinking)",
    "date_created": "2022-05-23T15:32:51.000",
    "date_modified": "2022-05-23T15:32:51.000",
    "request_status": "Pending",
    "responsible_agency": "Department of Public Works",
    "final_address": "WILLOWBROOK DR & MAPLE RIDGE DR",
    "address_councildis": "E",
    "status": "Pending",
    "rowid": "885475",
    "final_x": "3724434.8",
    "final_y": "564190.28",
    "longitude": "-89.9312373174106",
    "latitude": "30.04395261675378",
    "geocoded_column": {
      "latitude": "30.04395261675378",
      "longitude": "-89.9312373174106"
    }
  },
  {
    "service_request": "2022-885474",
    "request_type": "Abandoned Vehicles",
    "request_reason": "Abandoned/Junk Vehicles",
    "date_created": "2022-05-23T15:31:51.000",
    "date_modified": "2022-05-23T15:31:51.000",
    "request_status": "Pending",
    "responsible_agency": "Department of Public Works",
    "final_address": "420 S Olympia St, New Orleans, Louisiana, 70119",
    "address_councildis": "A",
    "status": "Pending",
    "rowid": "885474",
    "final_x": "3668573.26503",
    "final_y": "538459.841353",
    "longitude": "-90.10865421230567",
    "latitude": "29.974964096373775",
    "geocoded_column": {
      "latitude": "29.974964096373775",
      "longitude": "-90.10865421230567"
    }
  },
  {
    "service_request": "2022-885473",
    "request_type": "Trash/Recycling",
    "request_reason": "Missed Trash Pick-Up",
    "date_created": "2022-05-23T15:19:47.000",
    "date_modified": "2022-05-23T15:19:51.000",
    "request_status": "Pending",
    "responsible_agency": "Department of Sanitation",
    "final_address": "3319 S Liberty St Apt D",
    "address_councildis": "B",
    "status": "Assigned to Contractor",
    "contractor": "Richards Disposal",
    "rowid": "885473",
    "final_x": "3673364.16142",
    "final_y": "524054.064124",
    "longitude": "-90.09401539572939",
    "latitude": "29.935211327978635",
    "geocoded_column": {
      "latitude": "29.935211327978635",
      "longitude": "-90.09401539572939"
    }
  },
  {
    "service_request": "2022-885472",
    "request_type": "Trash/Recycling",
    "request_reason": "Dead Animal Pick Up",
    "date_created": "2022-05-23T15:19:16.000",
    "date_modified": "2022-05-23T21:45:37.000",
    "request_status": "Pending",
    "responsible_agency": "Department of Sanitation",
    "final_address": "New Orleans,LA",
    "address_councildis": "A",
    "status": "Assigned to Contractor",
    "contractor": "Richards Disposal",
    "rowid": "885472",
    "final_x": "3666968.28545",
    "final_y": "539351.105141",
    "longitude": "-90.11369320583754",
    "latitude": "29.977461843250683",
    "geocoded_column": {
      "latitude": "29.977461843250683",
      "longitude": "-90.11369320583754"
    }
  },
  {
    "service_request": "2022-885471",
    "request_type": "Trash/Recycling",
    "request_reason": "Request a Large Item Pick Up",
    "date_created": "2022-05-23T15:18:37.000",
    "date_modified": "2022-05-23T15:18:38.000",
    "request_status": "Pending",
    "responsible_agency": "Department of Sanitation",
    "final_address": "3540 Plymouth Pl, New Orleans, Louisiana, 70131",
    "address_councildis": "C",
    "status": "Assigned to Contractor",
    "contractor": "Richards Disposal",
    "rowid": "885471",
    "final_x": "3702833.85188",
    "final_y": "517884.095478",
    "longitude": "-90.00120676054706",
    "latitude": "29.91733673070638",
    "geocoded_column": {
      "latitude": "29.91733673070638",
      "longitude": "-90.00120676054706"
    }
  },
  {
    "service_request": "2022-885470",
    "request_type": "Roads/Drainage",
    "request_reason": "Debris in Roadway",
    "date_created": "2022-05-23T15:16:39.000",
    "date_modified": "2022-05-23T15:16:39.000",
    "request_status": "Pending",
    "responsible_agency": "Department of Public Works",
    "final_address": "1320 Spain St",
    "address_councildis": "C",
    "status": "Pending",
    "rowid": "885470",
    "final_x": "3686029.03644",
    "final_y": "537305.913608",
    "longitude": "-90.05356523315157",
    "latitude": "29.971266654245923",
    "geocoded_column": {
      "latitude": "29.971266654245923",
      "longitude": "-90.05356523315157"
    }
  },
  {
    "service_request": "2022-885469",
    "request_type": "Abandoned Vehicles",
    "request_reason": "Abandoned/Junk Vehicles",
    "date_created": "2022-05-23T15:15:57.000",
    "date_modified": "2022-05-23T15:17:33.000",
    "request_status": "Pending",
    "responsible_agency": "Department of Public Works",
    "final_address": "1417 Numa St",
    "address_councildis": "C",
    "status": "Pending",
    "rowid": "885469",
    "final_x": "3691711.49059",
    "final_y": "526065.859838",
    "longitude": "-90.0360212226312",
    "latitude": "29.94018468204496",
    "geocoded_column": {
      "latitude": "29.94018468204496",
      "longitude": "-90.0360212226312"
    }
  },
  {
    "service_request": "2022-885468",
    "request_type": "Traffic Signals/Signs/Striping/Streetlights",
    "request_reason": "Traffic Signal Malfunctioning/Damaged",
    "date_created": "2022-05-23T15:13:57.000",
    "date_modified": "2022-05-23T15:13:58.000",
    "request_status": "Pending",
    "responsible_agency": "Department of Public Works",
    "final_address": "ST CHARLES AVE & STATE ST",
    "address_councildis": "A",
    "status": "Pending",
    "rowid": "885468",
    "final_x": "3665749.4",
    "final_y": "522436.58",
    "longitude": "-90.11810943646248",
    "latitude": "29.930988026619243",
    "geocoded_column": {
      "latitude": "29.930988026619243",
      "longitude": "-90.11810943646248"
    }
  },
  {
    "service_request": "2022-885467",
    "request_type": "Roads/Drainage",
    "request_reason": "Catch Basin - Clogged",
    "date_created": "2022-05-23T15:13:15.000",
    "date_modified": "2022-05-23T15:13:15.000",
    "request_status": "Pending",
    "responsible_agency": "Department of Public Works",
    "final_address": "4653 Clara St",
    "address_councildis": "B",
    "status": "Pending",
    "rowid": "885467",
    "final_x": "3669291.30823",
    "final_y": "525007.269437",
    "longitude": "-90.10684121321044",
    "latitude": "29.93795283361855",
    "geocoded_column": {
      "latitude": "29.93795283361855",
      "longitude": "-90.10684121321044"
    }
  },
  {
    "service_request": "2022-885466",
    "request_type": "Trash/Recycling",
    "request_reason": "Request a Large Item Pick Up",
    "date_created": "2022-05-23T15:12:06.000",
    "date_modified": "2022-05-23T15:12:07.000",
    "request_status": "Pending",
    "responsible_agency": "Department of Sanitation",
    "final_address": "6025 S Robertson St, New Orleans, Louisiana, 70118",
    "address_councildis": "A",
    "status": "Assigned to Contractor",
    "contractor": "Richards Disposal",
    "rowid": "885466",
    "final_x": "3666318.69991",
    "final_y": "524879.60678",
    "longitude": "-90.11623030720973",
    "latitude": "29.937688957607346",
    "geocoded_column": {
      "latitude": "29.937688957607346",
      "longitude": "-90.11623030720973"
    }
  },
  {
    "service_request": "2022-885465",
    "request_type": "Trash/Recycling",
    "request_reason": "Request a Large Item Pick Up",
    "date_created": "2022-05-23T15:09:28.000",
    "date_modified": "2022-05-23T15:09:29.000",
    "request_status": "Pending",
    "responsible_agency": "Department of Sanitation",
    "final_address": "6025 S Robertson St, New Orleans, Louisiana, 70118",
    "address_councildis": "A",
    "status": "Assigned to Contractor",
    "contractor": "Richards Disposal",
    "rowid": "885465",
    "final_x": "3666318.69991",
    "final_y": "524879.60678",
    "longitude": "-90.11623030720973",
    "latitude": "29.937688957607346",
    "geocoded_column": {
      "latitude": "29.937688957607346",
      "longitude": "-90.11623030720973"
    }
  },
  {
    "service_request": "2022-885464",
    "request_type": "Trash/Recycling",
    "request_reason": "Replace Trash Cart",
    "date_created": "2022-05-23T15:09:27.000",
    "date_modified": "2022-05-23T15:09:28.000",
    "request_status": "Pending",
    "responsible_agency": "Department of Sanitation",
    "final_address": "1602 Jo Ann Pl",
    "address_councildis": "C",
    "status": "Assigned to Contractor",
    "contractor": "Richards Disposal",
    "rowid": "885464",
    "final_x": "3695006.26211",
    "final_y": "525350.558205",
    "longitude": "-90.02564494018188",
    "latitude": "29.93811486651003",
    "geocoded_column": {
      "latitude": "29.93811486651003",
      "longitude": "-90.02564494018188"
    }
  },
  {
    "service_request": "2022-885463",
    "request_type": "Parks & Parkways",
    "request_reason": "Request Tree Service (Right of Way/Public Property)",
    "date_created": "2022-05-23T15:01:12.000",
    "date_modified": "2022-05-23T15:01:13.000",
    "request_status": "Pending",
    "responsible_agency": "Department of Parks & Parkway",
    "final_address": "4027 Baronne St",
    "address_councildis": "B",
    "status": "Pending",
    "rowid": "885463",
    "final_x": "3672010.74715",
    "final_y": "521776.660346",
    "longitude": "-90.09836562148938",
    "latitude": "29.928989383097843",
    "geocoded_column": {
      "latitude": "29.928989383097843",
      "longitude": "-90.09836562148938"
    }
  },
  {
    "service_request": "2022-885460",
    "request_type": "Trash/Recycling",
    "request_reason": "Illegal Dumping",
    "date_created": "2022-05-23T14:59:36.000",
    "date_modified": "2022-05-23T14:59:36.000",
    "request_status": "Pending",
    "responsible_agency": "Department of Sanitation",
    "final_address": "2916 Baudin St",
    "address_councildis": "B",
    "status": "Pending",
    "rowid": "885460",
    "final_x": "3673487.11982",
    "final_y": "534452.089157",
    "longitude": "-90.09327195714557",
    "latitude": "29.963798806138172",
    "geocoded_column": {
      "latitude": "29.963798806138172",
      "longitude": "-90.09327195714557"
    }
  },
  {
    "service_request": "2022-885459",
    "request_type": "Trash/Recycling",
    "request_reason": "Repair Trash Cart",
    "date_created": "2022-05-23T14:57:59.000",
    "date_modified": "2022-05-23T14:58:03.000",
    "request_status": "Pending",
    "responsible_agency": "Department of Sanitation",
    "final_address": "213 S Gayoso St",
    "address_councildis": "B",
    "status": "Assigned to Contractor",
    "contractor": "Richards Disposal",
    "rowid": "885459",
    "final_x": "3673953.33467",
    "final_y": "535477.600326",
    "longitude": "-90.09176460350837",
    "latitude": "29.966604735004406",
    "geocoded_column": {
      "latitude": "29.966604735004406",
      "longitude": "-90.09176460350837"
    }
  },
  {
    "service_request": "2022-885458",
    "request_type": "Trash/Recycling",
    "request_reason": "Replace Trash Cart",
    "date_created": "2022-05-23T14:57:13.000",
    "date_modified": "2022-05-23T14:57:14.000",
    "request_status": "Pending",
    "responsible_agency": "Department of Sanitation",
    "final_address": "816 Solomon Pl",
    "address_councildis": "A",
    "status": "Assigned to Contractor",
    "contractor": "Richards Disposal",
    "rowid": "885458",
    "final_x": "3672541.61339",
    "final_y": "540715.572171",
    "longitude": "-90.09604419962777",
    "latitude": "29.98104936769916",
    "geocoded_column": {
      "latitude": "29.98104936769916",
      "longitude": "-90.09604419962777"
    }
  },
  {
    "service_request": "2022-885457",
    "request_type": "Trash/Recycling",
    "request_reason": "Request a Large Item Pick Up",
    "date_created": "2022-05-23T14:57:08.000",
    "date_modified": "2022-05-23T14:57:09.000",
    "request_status": "Pending",
    "responsible_agency": "Department of Sanitation",
    "final_address": "5329 Dryades St",
    "address_councildis": "B",
    "status": "Assigned to Contractor",
    "contractor": "Richards Disposal",
    "rowid": "885457",
    "final_x": "3667676.80026",
    "final_y": "521969.079098",
    "longitude": "-90.11204060401899",
    "latitude": "29.929646200883727",
    "geocoded_column": {
      "latitude": "29.929646200883727",
      "longitude": "-90.11204060401899"
    }
  },
  {
    "service_request": "2022-885456",
    "request_type": "Traffic Signals/Signs/Striping/Streetlights",
    "request_reason": "Striping/Road Surface Markings",
    "date_created": "2022-05-23T14:55:35.000",
    "date_modified": "2022-05-23T14:55:35.000",
    "request_status": "Pending",
    "responsible_agency": "Department of Public Works",
    "final_address": "1919 Sophie Wright Pl",
    "address_councildis": "B",
    "status": "Pending",
    "rowid": "885456",
    "final_x": "3679524.67522",
    "final_y": "522921.114619",
    "longitude": "-90.07460595731868",
    "latitude": "29.931911439217217",
    "geocoded_column": {
      "latitude": "29.931911439217217",
      "longitude": "-90.07460595731868"
    }
  },
  {
    "service_request": "2022-885455",
    "request_type": "Traffic Signals/Signs/Striping/Streetlights",
    "request_reason": "Additional signage",
    "date_created": "2022-05-23T14:54:52.000",
    "date_modified": "2022-05-23T14:54:53.000",
    "request_status": "Pending",
    "responsible_agency": "Department of Public Works",
    "final_address": "5100 BLK Magazine St",
    "address_councildis": "B",
    "status": "Pending",
    "rowid": "885455",
    "final_x": "3668191.44967",
    "final_y": "518603.931412",
    "longitude": "-90.11052930917874",
    "latitude": "29.920378017918356",
    "geocoded_column": {
      "latitude": "29.920378017918356",
      "longitude": "-90.11052930917874"
    }
  },
  {
    "service_request": "2022-885454",
    "request_type": "Trash/Recycling",
    "request_reason": "Order Trash Cart",
    "date_created": "2022-05-23T14:54:31.000",
    "date_modified": "2022-05-23T14:54:32.000",
    "request_status": "Pending",
    "responsible_agency": "Department of Sanitation",
    "final_address": "6049 Tchoupitoulas St",
    "address_councildis": "A",
    "status": "Assigned to Contractor",
    "contractor": "Richards Disposal",
    "rowid": "885454",
    "final_x": "3663794.11578",
    "final_y": "517700.251638",
    "longitude": "-90.12443977983057",
    "latitude": "29.918021481486193",
    "geocoded_column": {
      "latitude": "29.918021481486193",
      "longitude": "-90.12443977983057"
    }
  },
  {
    "service_request": "2022-885453",
    "request_type": "Roads/Drainage",
    "request_reason": "Damaged Sidewalk",
    "date_created": "2022-05-23T14:53:20.000",
    "date_modified": "2022-05-23T14:57:37.000",
    "request_status": "Pending",
    "responsible_agency": "Department of Public Works",
    "final_address": "New Orleans,LA",
    "address_councildis": "B",
    "rowid": "885453",
    "final_x": "3679591.33845",
    "final_y": "530565.590402",
    "longitude": "-90.07413030510206",
    "latitude": "29.952929191564465",
    "geocoded_column": {
      "latitude": "29.952929191564465",
      "longitude": "-90.07413030510206"
    }
  },
  {
    "service_request": "2022-885452",
    "request_type": "Trash/Recycling",
    "request_reason": "Request a Large Item Pick Up",
    "date_created": "2022-05-23T14:52:46.000",
    "date_modified": "2022-05-23T14:52:47.000",
    "request_status": "Pending",
    "responsible_agency": "Department of Sanitation",
    "final_address": "5331 Magazine St",
    "address_councildis": "B",
    "status": "Assigned to Contractor",
    "contractor": "Richards Disposal",
    "rowid": "885452",
    "final_x": "3667256.96436",
    "final_y": "518747.601015",
    "longitude": "-90.1134742218522",
    "latitude": "29.920800452309216",
    "geocoded_column": {
      "latitude": "29.920800452309216",
      "longitude": "-90.1134742218522"
    }
  },
  {
    "service_request": "2022-885451",
    "request_type": "Trash/Recycling",
    "request_reason": "Replace Trash Cart",
    "date_created": "2022-05-23T14:51:31.000",
    "date_modified": "2022-05-23T14:51:32.000",
    "request_status": "Pending",
    "responsible_agency": "Department of Sanitation",
    "final_address": "1602 Jo Ann Pl",
    "address_councildis": "C",
    "status": "Assigned to Contractor",
    "contractor": "Richards Disposal",
    "rowid": "885451",
    "final_x": "3695006.26211",
    "final_y": "525350.558205",
    "longitude": "-90.02564494018188",
    "latitude": "29.93811486651003",
    "geocoded_column": {
      "latitude": "29.93811486651003",
      "longitude": "-90.02564494018188"
    }
  },
  {
    "service_request": "2022-885450",
    "request_type": "Property Maintenance",
    "request_reason": "Property Maintenance",
    "date_created": "2022-05-23T14:50:57.000",
    "date_modified": "2022-05-23T15:23:21.000",
    "case_close_date": "2022-05-23T10:23:21.000",
    "request_status": "Closed",
    "responsible_agency": "Department of Code Enforcement",
    "final_address": "4553 Piety Dr",
    "address_councildis": "D",
    "status": "Referred to Code Enforcement",
    "rowid": "885450",
    "final_x": "3691759.29968",
    "final_y": "551148.937493",
    "longitude": "-90.0349729625611",
    "latitude": "30.009152741400346",
    "geocoded_column": {
      "latitude": "30.009152741400346",
      "longitude": "-90.0349729625611"
    }
  },
  {
    "service_request": "2022-885449",
    "request_type": "Trash/Recycling",
    "request_reason": "Order Trash Cart",
    "date_created": "2022-05-23T14:50:45.000",
    "date_modified": "2022-05-23T14:50:46.000",
    "request_status": "Pending",
    "responsible_agency": "Department of Sanitation",
    "final_address": "932 Washington Ave",
    "address_councildis": "B",
    "status": "Assigned to Contractor",
    "contractor": "Richards Disposal",
    "rowid": "885449",
    "final_x": "3677260.01768",
    "final_y": "520395.03372",
    "longitude": "-90.08184234357267",
    "latitude": "29.925033750251856",
    "geocoded_column": {
      "latitude": "29.925033750251856",
      "longitude": "-90.08184234357267"
    }
  },
  {
    "service_request": "2022-885448",
    "request_type": "Trash/Recycling",
    "request_reason": "Request a Large Item Pick Up",
    "date_created": "2022-05-23T14:50:33.000",
    "date_modified": "2022-05-23T14:50:34.000",
    "request_status": "Pending",
    "responsible_agency": "Department of Sanitation",
    "final_address": "2407 Chippewa St, New Orleans, Louisiana, 70130",
    "status": "Assigned to Contractor",
    "rowid": "885448",
    "longitude": "0.0",
    "latitude": "0.0",
    "geocoded_column": {
      "latitude": "0.0",
      "longitude": "0.0"
    }
  },
  {
    "service_request": "2022-885447",
    "request_type": "Abandoned Vehicles",
    "request_reason": "Abandoned/Junk Vehicles",
    "date_created": "2022-05-23T14:48:02.000",
    "date_modified": "2022-05-23T14:48:02.000",
    "request_status": "Pending",
    "responsible_agency": "Department of Public Works",
    "final_address": "2916 Baudin St",
    "address_councildis": "B",
    "status": "Pending",
    "rowid": "885447",
    "final_x": "3673487.11982",
    "final_y": "534452.089157",
    "longitude": "-90.09327195714557",
    "latitude": "29.963798806138172",
    "geocoded_column": {
      "latitude": "29.963798806138172",
      "longitude": "-90.09327195714557"
    }
  },
  {
    "service_request": "2022-885446",
    "request_type": "Trash/Recycling",
    "request_reason": "MIssed Recycling Pick-Up",
    "date_created": "2022-05-23T14:47:22.000",
    "date_modified": "2022-05-23T14:47:23.000",
    "request_status": "Pending",
    "responsible_agency": "Department of Sanitation",
    "final_address": "1256 Leboeuf St",
    "address_councildis": "C",
    "status": "Assigned to Contractor",
    "contractor": "Richards Disposal",
    "rowid": "885446",
    "final_x": "3689757.25193",
    "final_y": "526671.122686",
    "longitude": "-90.04216950542569",
    "latitude": "29.941909642437555",
    "geocoded_column": {
      "latitude": "29.941909642437555",
      "longitude": "-90.04216950542569"
    }
  },
  {
    "service_request": "2022-885445",
    "request_type": "Property Maintenance",
    "request_reason": "Property Maintenance",
    "date_created": "2022-05-23T14:46:03.000",
    "date_modified": "2022-05-23T15:26:58.000",
    "case_close_date": "2022-05-23T10:26:58.000",
    "request_status": "Closed",
    "responsible_agency": "Department of Code Enforcement",
    "final_address": "1432 Touro St",
    "address_councildis": "C",
    "status": "Referred to Code Enforcement",
    "rowid": "885445",
    "final_x": "3684097.95157",
    "final_y": "537611.196104",
    "longitude": "-90.05965314158549",
    "latitude": "29.972165238059002",
    "geocoded_column": {
      "latitude": "29.972165238059002",
      "longitude": "-90.05965314158549"
    }
  },
  {
    "service_request": "2022-885444",
    "request_type": "Mosquito, Termite & Rodent Control",
    "request_reason": "Rodent Complaint (Rats)",
    "date_created": "2022-05-23T14:45:36.000",
    "date_modified": "2022-05-23T14:45:37.000",
    "request_status": "Pending",
    "responsible_agency": "Mosquito, Termite & Rodent Control Board",
    "final_address": "4754 Ray Ave",
    "address_councildis": "E",
    "status": "Pending",
    "rowid": "885444",
    "final_x": "3698664.93015",
    "final_y": "554528.595672",
    "longitude": "-90.01303283798244",
    "latitude": "30.018228563891284",
    "geocoded_column": {
      "latitude": "30.018228563891284",
      "longitude": "-90.01303283798244"
    }
  },
  {
    "service_request": "2022-885441",
    "request_type": "Trash/Recycling",
    "request_reason": "Missed Trash Pick-Up",
    "date_created": "2022-05-23T14:41:24.000",
    "date_modified": "2022-05-23T14:41:25.000",
    "request_status": "Pending",
    "responsible_agency": "Department of Sanitation",
    "final_address": "2708 S Carrollton Ave",
    "address_councildis": "A",
    "status": "Assigned to Contractor",
    "contractor": "Richards Disposal",
    "rowid": "885441",
    "final_x": "3665652.67418",
    "final_y": "532454.124164",
    "longitude": "-90.11807938984224",
    "latitude": "29.958535867283196",
    "geocoded_column": {
      "latitude": "29.958535867283196",
      "longitude": "-90.11807938984224"
    }
  },
  {
    "service_request": "2022-885440",
    "request_type": "Abandoned Vehicles",
    "request_reason": "Abandoned/Junk Vehicles",
    "date_created": "2022-05-23T14:37:04.000",
    "date_modified": "2022-05-23T14:37:04.000",
    "request_status": "Pending",
    "responsible_agency": "Department of Public Works",
    "final_address": "2916 Baudin St",
    "address_councildis": "B",
    "status": "Pending",
    "rowid": "885440",
    "final_x": "3673487.11982",
    "final_y": "534452.089157",
    "longitude": "-90.09327195714557",
    "latitude": "29.963798806138172",
    "geocoded_column": {
      "latitude": "29.963798806138172",
      "longitude": "-90.09327195714557"
    }
  },
  {
    "service_request": "2022-885439",
    "request_type": "Roads/Drainage",
    "request_reason": "Damaged Sidewalk",
    "date_created": "2022-05-23T14:36:47.000",
    "date_modified": "2022-05-23T14:36:47.000",
    "request_status": "Pending",
    "responsible_agency": "Department of Public Works",
    "final_address": "1718 Elysian Fields Ave",
    "address_councildis": "D",
    "status": "Pending",
    "rowid": "885439",
    "final_x": "3684720.35177",
    "final_y": "538672.053833",
    "longitude": "-90.05765020069266",
    "latitude": "29.97506318881185",
    "geocoded_column": {
      "latitude": "29.97506318881185",
      "longitude": "-90.05765020069266"
    }
  },
  {
    "service_request": "2022-885436",
    "request_type": "Parks & Parkways",
    "request_reason": "Request Tree Service (Right of Way/Public Property)",
    "date_created": "2022-05-23T14:36:42.000",
    "date_modified": "2022-05-23T14:36:43.000",
    "request_status": "Pending",
    "responsible_agency": "Department of Parks & Parkway",
    "final_address": "2 Westpark Ct",
    "address_councildis": "C",
    "status": "Pending",
    "rowid": "885436",
    "final_x": "3696112.57674",
    "final_y": "521718.718714",
    "longitude": "-90.02228341563978",
    "latitude": "29.92809379111836",
    "geocoded_column": {
      "latitude": "29.92809379111836",
      "longitude": "-90.02228341563978"
    }
  },
  {
    "service_request": "2022-885435",
    "request_type": "Trash/Recycling",
    "request_reason": "Repair Trash Cart",
    "date_created": "2022-05-23T14:34:16.000",
    "date_modified": "2022-05-23T14:34:16.000",
    "request_status": "Pending",
    "responsible_agency": "Department of Sanitation",
    "final_address": "8722 Pear St, New Orleans, Louisiana, 70118",
    "address_councildis": "A",
    "status": "Assigned to Contractor",
    "contractor": "Richards Disposal",
    "rowid": "885435",
    "final_x": "3667387.93428",
    "final_y": "537773.86772",
    "longitude": "-90.11242088773186",
    "latitude": "29.973112680310237",
    "geocoded_column": {
      "latitude": "29.973112680310237",
      "longitude": "-90.11242088773186"
    }
  },
  {
    "service_request": "2022-885434",
    "request_type": "Trash/Recycling",
    "request_reason": "Missed Trash Pick-Up",
    "date_created": "2022-05-23T14:31:18.000",
    "date_modified": "2022-05-23T14:31:18.000",
    "request_status": "Pending",
    "responsible_agency": "Department of Sanitation",
    "final_address": "5866 General Diaz St",
    "address_councildis": "A",
    "status": "Assigned to Contractor",
    "contractor": "Metro Disposal",
    "rowid": "885434",
    "final_x": "3669335.28161",
    "final_y": "546384.964112",
    "longitude": "-90.10597946021254",
    "latitude": "29.996733064338535",
    "geocoded_column": {
      "latitude": "29.996733064338535",
      "longitude": "-90.10597946021254"
    }
  },
  {
    "service_request": "2022-885433",
    "request_type": "Trash/Recycling",
    "request_reason": "Illegal Dumping",
    "date_created": "2022-05-23T14:30:56.000",
    "date_modified": "2022-05-23T14:30:57.000",
    "request_status": "Pending",
    "responsible_agency": "Department of Sanitation",
    "final_address": "8010 Trapier Ave",
    "address_councildis": "E",
    "status": "Pending",
    "rowid": "885433",
    "final_x": "3705933.59518",
    "final_y": "564614.909601",
    "longitude": "-89.98969306482903",
    "latitude": "30.04572967978005",
    "geocoded_column": {
      "latitude": "30.04572967978005",
      "longitude": "-89.98969306482903"
    }
  },