[
  {
    "service_request": "2025-1192329",
    "request_type": "Streetlights",
    "request_reason": "Streetlight Outage/Malfunction",
    "date_created": "2025-05-14T22:24:29.000",
    "date_modified": "2025-05-14T22:24:31.000",
    "request_status": "Pending",
    "responsible_agency": "Department of Public Works",
    "final_address": "101 Allen Toussaint Blvd",
    "address_councildis": "D",
    "status": "Pending",
    "contractor": "Legacy Professional Services",
    "rowid": "1192329",
    "final_x": "3667078.52308",
    "final_y": "555294.448409",
    "longitude": "-90.11280867210165",
    "latitude": "30.02129731128112",
    "geocoded_column": {
      "latitude": "30.02129731128112",
      "longitude": "-90.11280867210165"
    }
  },
  {
    "service_request": "2025-1192328",
    "request_type": "Streetlights",
    "request_reason": "Streetlight Outage/Malfunction",
    "date_created": "2025-05-14T22:22:22.000",
    "date_modified": "2025-05-14T22:22:26.000",
    "request_status": "Pending",
    "responsible_agency": "Department of Public Works",
    "final_address": "82 Dove St",
    "address_councildis": "D",
    "status": "Pending",
    "contractor": "Legacy Professional Services",
    "rowid": "1192328",
    "final_x": "3673507.62568",
    "final_y": "555484.653913",
    "longitude": "-90.0924879434875",
    "latitude": "30.021630441877818",
    "geocoded_column": {
      "latitude": "30.021630441877818",
      "longitude": "-90.0924879434875"
    }
  },
  {
    "service_request": "2025-1192327",
    "request_type": "Trash/Recycling",
    "request_reason": "Request a Large Item Pick Up",
    "date_created": "2025-05-14T21:53:20.000",
    "date_modified": "2025-05-14T21:53:23.000",
    "request_status": "Pending",
    "responsible_agency": "Department of Sanitation",
    "final_address": "909 Third St",
    "address_councildis": "B",
    "status": "Assigned to Contractor",
    "contractor": "IV Waste",
    "rowid": "1192327",
    "final_x": "3677954.2756",
    "final_y": "520646.945145",
    "longitude": "-90.07964209468751",
    "latitude": "29.925705556570616",
    "geocoded_column": {
      "latitude": "29.925705556570616",
      "longitude": "-90.07964209468751"
    }
  },
  {
    "service_request": "2025-1192326",
    "request_type": "General Services",
    "request_reason": "General Service Request",
    "date_created": "2025-05-14T21:47:42.000",
    "date_modified": "2025-05-14T21:47:44.000",
    "request_status": "Pending",
    "responsible_agency": "Orleans Parish Communication District",
    "final_address": "3318 Fern St",
    "address_councildis": "B",
    "status": "Pending",
    "rowid": "1192326",
    "final_x": "3667663.39233",
    "final_y": "533537.551301",
    "longitude": "-90.11169357574082",
    "latitude": "29.961456144532686",
    "geocoded_column": {
      "latitude": "29.961456144532686",
      "longitude": "-90.11169357574082"
    }
  },
  {
    "service_request": "2025-1192325",
    "request_type": "Abandoned Vehicles",
    "request_reason": "Abandoned/Junk Vehicles",
    "date_created": "2025-05-14T21:22:57.000",
    "date_modified": "2025-05-14T21:23:01.000",
    "request_status": "Pending",
    "responsible_agency": "Department of Public Works",
    "final_address": "1735 Urquhart St",
    "address_councildis": "C",
    "status": "Pending",
    "rowid": "1192325",
    "final_x": "3683385.99663",
    "final_y": "536940.908616",
    "longitude": "-90.061925100226",
    "latitude": "29.97034392112823",
    "geocoded_column": {
      "latitude": "29.97034392112823",
      "longitude": "-90.061925100226"
    }
  },
  {
    "service_request": "2025-1192324",
    "request_type": "Trash/Recycling",
    "request_reason": "Repair Trash Cart",
    "date_created": "2025-05-14T20:59:20.000",
    "date_modified": "2025-05-14T20:59:22.000",
    "request_status": "Pending",
    "responsible_agency": "Department of Sanitation",
    "final_address": "519 Soniat St",
    "address_councildis": "B",
    "status": "Assigned to Contractor",
    "contractor": "IV Waste",
    "rowid": "1192324",
    "final_x": "3668348.70196",
    "final_y": "517400.826165",
    "longitude": "-90.11007347844095",
    "latitude": "29.91706524185671",
    "geocoded_column": {
      "latitude": "29.91706524185671",
      "longitude": "-90.11007347844095"
    }
  },
  {
    "service_request": "2025-1192323",
    "request_type": "Streetlights",
    "request_reason": "Streetlight Outage/Malfunction",
    "date_created": "2025-05-14T20:42:08.000",
    "date_modified": "2025-05-14T20:42:10.000",
    "request_status": "Pending",
    "responsible_agency": "Department of Public Works",
    "final_address": "CONTI ST & N SCOTT ST",
    "address_councildis": "A",
    "status": "Pending",
    "contractor": "Legacy Professional Services",
    "rowid": "1192323",
    "final_x": "3672480.3",
    "final_y": "538750.18",
    "longitude": "-90.0963048712725",
    "latitude": "29.97564702894575",
    "geocoded_column": {
      "latitude": "29.97564702894575",
      "longitude": "-90.0963048712725"
    }
  },
  {
    "service_request": "2025-1192322",
    "request_type": "Street and Traffic Signs",
    "request_reason": "Street Name Sign Damaged or Missing",
    "date_created": "2025-05-14T20:37:18.000",
    "date_modified": "2025-05-14T20:37:23.000",
    "request_status": "Pending",
    "responsible_agency": "Department of Public Works",
    "final_address": "CONTI ST & N SCOTT ST",
    "address_councildis": "A",
    "status": "Pending",
    "rowid": "1192322",
    "final_x": "3672480.3",
    "final_y": "538750.18",
    "longitude": "-90.0963048712725",
    "latitude": "29.97564702894575",
    "geocoded_column": {
      "latitude": "29.97564702894575",
      "longitude": "-90.0963048712725"
    }
  },
  {
    "service_request": "2025-1192321",
    "request_type": "Streetlights",
    "request_reason": "Streetlight Outage/Malfunction",
    "date_created": "2025-05-14T20:28:40.000",
    "date_modified": "2025-05-14T20:28:42.000",
    "request_status": "Pending",
    "responsible_agency": "Department of Public Works",
    "final_address": "5630 Norland Ave",
    "address_councildis": "C",
    "status": "Pending",
    "contractor": "Legacy Professional Services",
    "rowid": "1192321",
    "final_x": "3704458.58942",
    "final_y": "520723.878201",
    "longitude": "-89.99597380830137",
    "latitude": "29.92509311216322",
    "geocoded_column": {
      "latitude": "29.92509311216322",
      "longitude": "-89.99597380830137"
    }
  },
  {
    "service_request": "2025-1192320",
    "request_type": "Trash/Recycling",
    "request_reason": "Request a Large Item Pick Up",
    "date_created": "2025-05-14T20:25:17.000",
    "date_modified": "2025-05-14T20:25:19.000",
    "request_status": "Pending",
    "responsible_agency": "Department of Sanitation",
    "final_address": "12 Marlborough Gate Pl",
    "address_councildis": "B",
    "status": "Assigned to Contractor",
    "contractor": "IV Waste",
    "rowid": "1192320",
    "final_x": "3668859.14823",
    "final_y": "523689.053115",
    "longitude": "-90.1082500786226",
    "latitude": "29.934340874743356",
    "geocoded_column": {
      "latitude": "29.934340874743356",
      "longitude": "-90.1082500786226"
    }
  },
  {
    "service_request": "2025-1192319",
    "request_type": "Drainage",
    "request_reason": "Street Flooding",
    "date_created": "2025-05-14T20:00:09.000",
    "date_modified": "2025-05-14T20:00:12.000",
    "request_status": "Pending",
    "responsible_agency": "Sewerage & Water Board",
    "final_address": "2300 St Claude Ave",
    "address_councildis": "C",
    "status": "Pending",
    "rowid": "1192319",
    "final_x": "3685972.92796",
    "final_y": "536198.830855",
    "longitude": "-90.05378147430721",
    "latitude": "29.96822428536932",
    "geocoded_column": {
      "latitude": "29.96822428536932",
      "longitude": "-90.05378147430721"
    }
  },
  {
    "service_request": "2025-1192318",
    "request_type": "Trash/Recycling",
    "request_reason": "Request a Large Item Pick Up",
    "date_created": "2025-05-14T19:55:00.000",
    "date_modified": "2025-05-14T19:55:02.000",
    "request_status": "Pending",
    "responsible_agency": "Department of Sanitation",
    "final_address": "3236 Sabine St",
    "address_councildis": "C",
    "status": "Assigned to Contractor",
    "contractor": "Richards Disposal",
    "rowid": "1192318",
    "final_x": "3695079.22742",
    "final_y": "517872.247158",
    "longitude": "-90.02568402005211",
    "latitude": "29.917549766596093",
    "geocoded_column": {
      "latitude": "29.917549766596093",
      "longitude": "-90.02568402005211"
    }
  },
  {
    "service_request": "2025-1192317",
    "request_type": "Street and Traffic Signs",
    "request_reason": "Traffic or Parking Sign Damaged or Missing",
    "date_created": "2025-05-14T19:45:17.000",
    "date_modified": "2025-05-14T19:45:20.000",
    "request_status": "Pending",
    "responsible_agency": "Department of Public Works",
    "final_address": "4123 Dryades St",
    "address_councildis": "B",
    "status": "Pending",
    "rowid": "1192317",
    "final_x": "3671638.1346",
    "final_y": "522077.67385",
    "longitude": "-90.0995316561235",
    "latitude": "29.929828110853617",
    "geocoded_column": {
      "latitude": "29.929828110853617",
      "longitude": "-90.0995316561235"
    }
  },
  {
    "service_request": "2025-1192316",
    "request_type": "Abandoned Vehicles",
    "request_reason": "Abandoned/Junk Vehicles",
    "date_created": "2025-05-14T19:39:50.000",
    "date_modified": "2025-05-14T19:39:53.000",
    "request_status": "Pending",
    "responsible_agency": "Department of Public Works",
    "final_address": "3400 BLK Cleveland Ave",
    "address_councildis": "B",
    "status": "Pending",
    "rowid": "1192316",
    "final_x": "3672745.12823",
    "final_y": "536555.038554",
    "longitude": "-90.09554336064902",
    "latitude": "29.96960326904166",
    "geocoded_column": {
      "latitude": "29.96960326904166",
      "longitude": "-90.09554336064902"
    }
  },
  {
    "service_request": "2025-1192315",
    "request_type": "Healthy Homes",
    "request_reason": "Healthy Homes",
    "date_created": "2025-05-14T19:25:13.000",
    "date_modified": "2025-05-14T19:25:15.000",
    "request_status": "Pending",
    "responsible_agency": "Department of Code Enforcement",
    "final_address": "4516 Annette St",
    "address_councildis": "D",
    "status": "Pending",
    "rowid": "1192315",
    "final_x": "3682057.37775",
    "final_y": "549209.544275",
    "longitude": "-90.06569237796626",
    "latitude": "30.00411881738482",
    "geocoded_column": {
      "latitude": "30.00411881738482",
      "longitude": "-90.06569237796626"
    }
  },
  {
    "service_request": "2025-1192314",
    "request_type": "Drainage",
    "request_reason": "Ditch and Culvert Maintenance",
    "date_created": "2025-05-14T19:16:01.000",
    "date_modified": "2025-05-14T19:16:02.000",
    "request_status": "Pending",
    "responsible_agency": "Department of Public Works",
    "final_address": "6434 Orleans Ave",
    "address_councildis": "A",
    "status": "Pending",
    "rowid": "1192314",
    "final_x": "3671121.61729",
    "final_y": "550139.872084",
    "longitude": "-90.10020885892095",
    "latitude": "30.00700501707106",
    "geocoded_column": {
      "latitude": "30.00700501707106",
      "longitude": "-90.10020885892095"
    }
  },
  {
    "service_request": "2025-1192313",
    "request_type": "Trash/Recycling",
    "request_reason": "Damaged Caused By Contractor",
    "date_created": "2025-05-14T18:42:44.000",
    "date_modified": "2025-05-14T18:42:46.000",
    "request_status": "Pending",
    "responsible_agency": "Department of Sanitation",
    "final_address": "5415 N Miro St",
    "address_councildis": "E",
    "status": "Assigned to Contractor",
    "contractor": "Waste Pro",
    "rowid": "1192313",
    "final_x": "3698430.7082",
    "final_y": "538087.691465",
    "longitude": "-90.01437084287208",
    "latitude": "29.97302957410166",
    "geocoded_column": {
      "latitude": "29.97302957410166",
      "longitude": "-90.01437084287208"
    }
  },
  {
    "service_request": "2025-1192312",
    "request_type": "Abandoned Vehicles",
    "request_reason": "Abandoned/Junk Vehicles",
    "date_created": "2025-05-14T18:41:15.000",
    "date_modified": "2025-05-14T18:41:18.000",
    "request_status": "Pending",
    "responsible_agency": "Department of Public Works",
    "final_address": "1509 Gordon St",
    "address_councildis": "E",
    "status": "Pending",
    "rowid": "1192312",
    "final_x": "3699791.80528",
    "final_y": "534933.782342",
    "longitude": "-90.01018727991112",
    "latitude": "29.96431430885462",
    "geocoded_column": {
      "latitude": "29.96431430885462",
      "longitude": "-90.01018727991112"
    }
  },
  {
    "service_request": "2025-1192311",
    "request_type": "Abandoned Vehicles",
    "request_reason": "Abandoned/Junk Vehicles",
    "date_created": "2025-05-14T18:39:21.000",
    "date_modified": "2025-05-14T18:39:23.000",
    "request_status": "Pending",
    "responsible_agency": "Department of Public Works",
    "final_address": "1509 Gordon St",
    "address_councildis": "E",
    "status": "Pending",
    "rowid": "1192311",
    "final_x": "3699791.80528",
    "final_y": "534933.782342",
    "longitude": "-90.01018727991112",
    "latitude": "29.96431430885462",
    "geocoded_column": {
      "latitude": "29.96431430885462",
      "longitude": "-90.01018727991112"
    }
  },
  {
    "service_request": "2025-1192310",
    "request_type": "Trash/Recycling",
    "request_reason": "Request a Large Item Pick Up",
    "date_created": "2025-05-14T18:36:03.000",
    "date_modified": "2025-05-14T18:36:04.000",
    "request_status": "Pending",
    "responsible_agency": "Department of Sanitation",
    "final_address": "4509 Reynes St",
    "address_councildis": "E",
    "status": "Assigned to Contractor",
    "contractor": "Waste Pro",
    "rowid": "1192310",
    "final_x": "3699314.24343",
    "final_y": "553693.838167",
    "longitude": "-90.01101170104297",
    "latitude": "30.01591270953928",
    "geocoded_column": {
      "latitude": "30.01591270953928",
      "longitude": "-90.01101170104297"
    }
  },
  {
    "service_request": "2025-1192309",
    "request_type": "Streetlights",
    "request_reason": "Streetlight Knocked Down/Leaning",
    "date_created": "2025-05-14T18:35:37.000",
    "date_modified": "2025-05-14T18:35:39.000",
    "request_status": "Pending",
    "responsible_agency": "Department of Public Works",
    "final_address": "8549 Fordham Ct",
    "address_councildis": "E",
    "status": "Pending",
    "contractor": "Legacy Professional Services",
    "rowid": "1192309",
    "final_x": "3705127.11742",
    "final_y": "560495.786462",
    "longitude": "-89.9923942657572",
    "latitude": "30.034429696158455",
    "geocoded_column": {
      "latitude": "30.034429696158455",
      "longitude": "-89.9923942657572"
    }
  },
  {
    "service_request": "2025-1192308",
    "request_type": "Abandoned Vehicles",
    "request_reason": "Abandoned/Junk Vehicles",
    "date_created": "2025-05-14T18:26:43.000",
    "date_modified": "2025-05-14T18:26:45.000",
    "request_status": "Pending",
    "responsible_agency": "Department of Public Works",
    "final_address": "1504 Owens Blvd",
    "address_councildis": "D",
    "status": "Pending",
    "rowid": "1192308",
    "final_x": "3678854.80283",
    "final_y": "548948.154899",
    "longitude": "-90.07581894952646",
    "latitude": "30.00349712089146",
    "geocoded_column": {
      "latitude": "30.00349712089146",
      "longitude": "-90.07581894952646"
    }
  },
  {
    "service_request": "2025-1192307",
    "request_type": "Trash/Recycling",
    "request_reason": "Order Trash Cart",
    "date_created": "2025-05-14T18:23:08.000",
    "date_modified": "2025-05-14T18:23:11.000",
    "request_status": "Pending",
    "responsible_agency": "Department of Sanitation",
    "final_address": "5624 Catina St",
    "address_councildis": "A",
    "status": "Assigned to Contractor",
    "contractor": "IV Waste",
    "rowid": "1192307",
    "final_x": "3666578.68033",
    "final_y": "544903.824783",
    "longitude": "-90.11473720481835",
    "latitude": "29.99274133944329",
    "geocoded_column": {
      "latitude": "29.99274133944329",
      "longitude": "-90.11473720481835"
    }
  },
  {
    "service_request": "2025-1192306",
    "request_type": "Trash/Recycling",
    "request_reason": "Illegal Dumping",
    "date_created": "2025-05-14T18:22:05.000",
    "date_modified": "2025-05-14T18:22:07.000",
    "request_status": "Pending",
    "responsible_agency": "Department of Sanitation",
    "final_address": "7000 BLK Wright Rd",
    "address_councildis": "E",
    "status": "Pending",
    "rowid": "1192306",
    "final_x": "3712434.99898",
    "final_y": "563796.605462",
    "longitude": "-89.96917639903549",
    "latitude": "30.043268448091705",
    "geocoded_column": {
      "latitude": "30.043268448091705",
      "longitude": "-89.96917639903549"
    }
  },
  {
    "service_request": "2025-1192305",
    "request_type": "Abandoned Vehicles",
    "request_reason": "Abandoned/Junk Vehicles",
    "date_created": "2025-05-14T18:20:24.000",
    "date_modified": "2025-05-14T18:20:27.000",
    "request_status": "Pending",
    "responsible_agency": "Department of Public Works",
    "final_address": "1504 Owens Blvd",
    "address_councildis": "D",
    "status": "Pending",
    "rowid": "1192305",
    "final_x": "3678854.80283",
    "final_y": "548948.154899",
    "longitude": "-90.07581894952646",
    "latitude": "30.00349712089146",
    "geocoded_column": {
      "latitude": "30.00349712089146",
      "longitude": "-90.07581894952646"
    }
  },
  {
    "service_request": "2025-1192304",
    "request_type": "Street and Traffic Signs",
    "request_reason": "Street Name Sign Damaged or Missing",
    "date_created": "2025-05-14T18:19:18.000",
    "date_modified": "2025-05-14T18:19:20.000",
    "request_status": "Pending",
    "responsible_agency": "Department of Public Works",
    "final_address": "N SOLOMON ST & ORLEANS AVE",
    "address_councildis": "A",
    "status": "Pending",
    "rowid": "1192304",
    "final_x": "3672065.5",
    "final_y": "540670.68",
    "longitude": "-90.09754951174217",
    "latitude": "29.98094005725615",
    "geocoded_column": {
      "latitude": "29.98094005725615",
      "longitude": "-90.09754951174217"
    }
  },
  {
    "service_request": "2025-1192303",
    "request_type": "Street and Traffic Signs",
    "request_reason": "Street Name Sign Damaged or Missing",
    "date_created": "2025-05-14T18:17:37.000",
    "date_modified": "2025-05-14T18:17:39.000",
    "request_status": "Pending",
    "responsible_agency": "Department of Public Works",
    "final_address": "ORLEANS AVE & N ROCHEBLAVE ST",
    "address_councildis": "D",
    "status": "Pending",
    "rowid": "1192303",
    "final_x": "3677594.3",
    "final_y": "536428.28",
    "longitude": "-90.08023362786292",
    "latitude": "29.96910979989068",
    "geocoded_column": {
      "latitude": "29.96910979989068",
      "longitude": "-90.08023362786292"
    }
  },
  {
    "service_request": "2025-1192302",
    "request_type": "Street and Traffic Signs",
    "request_reason": "Street Name Sign Damaged or Missing",
    "date_created": "2025-05-14T18:16:24.000",
    "date_modified": "2025-05-14T18:16:26.000",
    "request_status": "Pending",
    "responsible_agency": "Department of Public Works",
    "final_address": "ORLEANS AVE & N DORGENOIS ST",
    "address_councildis": "D",
    "status": "Pending",
    "rowid": "1192302",
    "final_x": "3677203.4",
    "final_y": "536662.78",
    "longitude": "-90.08146002747709",
    "latitude": "29.969766343697415",
    "geocoded_column": {
      "latitude": "29.969766343697415",
      "longitude": "-90.08146002747709"
    }
  },
  {
    "service_request": "2025-1192301",
    "request_type": "Street and Traffic Signs",
    "request_reason": "Street Name Sign Damaged or Missing",
    "date_created": "2025-05-14T18:10:03.000",
    "date_modified": "2025-05-14T18:10:05.000",
    "request_status": "Pending",
    "responsible_agency": "Department of Public Works",
    "final_address": "N CLAIBORNE AVE & MANDEVILLE ST",
    "address_councildis": "D",
    "status": "Pending",
    "rowid": "1192301",
    "final_x": "3685635.8",
    "final_y": "538210.08",
    "longitude": "-90.05477526385536",
    "latitude": "29.973764866665686",
    "geocoded_column": {
      "latitude": "29.973764866665686",
      "longitude": "-90.05477526385536"
    }
  },
  {
    "service_request": "2025-1192300",
    "request_type": "Property Maintenance",
    "request_reason": "Property Maintenance",
    "date_created": "2025-05-14T18:05:50.000",
    "date_modified": "2025-05-14T18:05:52.000",
    "request_status": "Pending",
    "responsible_agency": "Department of Code Enforcement",
    "final_address": "1731 Gallier St",
    "address_councildis": "D",
    "status": "Pending",
    "rowid": "1192300",
    "final_x": "3691127.36553",
    "final_y": "538118.418889",
    "longitude": "-90.0374350398013",
    "latitude": "29.973343199768408",
    "geocoded_column": {
      "latitude": "29.973343199768408",
      "longitude": "-90.0374350398013"
    }
  },
  {
    "service_request": "2025-1192299",
    "request_type": "Street and Traffic Signs",
    "request_reason": "Street Name Sign Damaged or Missing",
    "date_created": "2025-05-14T18:03:30.000",
    "date_modified": "2025-05-14T18:03:32.000",
    "request_status": "Pending",
    "responsible_agency": "Department of Public Works",
    "final_address": "GALLIER ST & S BUNNY FRIEND ST",
    "address_councildis": "D",
    "status": "Pending",
    "rowid": "1192299",
    "final_x": "3691152.1",
    "final_y": "538437.18",
    "longitude": "-90.03734553728876",
    "latitude": "29.974218910650876",
    "geocoded_column": {
      "latitude": "29.974218910650876",
      "longitude": "-90.03734553728876"
    }
  },
  {
    "service_request": "2025-1192298",
    "request_type": "Street and Traffic Signs",
    "request_reason": "Street Name Sign Damaged or Missing",
    "date_created": "2025-05-14T18:00:42.000",
    "date_modified": "2025-05-14T18:00:44.000",
    "request_status": "Pending",
    "responsible_agency": "Department of Public Works",
    "final_address": "N JOHNSON ST & GALLIER ST",
    "address_councildis": "D",
    "status": "Pending",
    "rowid": "1192298",
    "final_x": "3691303.3",
    "final_y": "539027.38",
    "longitude": "-90.03684692383516",
    "latitude": "29.97583704798749",
    "geocoded_column": {
      "latitude": "29.97583704798749",
      "longitude": "-90.03684692383516"
    }
  },
  {
    "service_request": "2025-1192297",
    "request_type": "Street and Traffic Signs",
    "request_reason": "Street Name Sign Damaged or Missing",
    "date_created": "2025-05-14T17:59:51.000",
    "date_modified": "2025-05-14T17:59:52.000",
    "request_status": "Pending",
    "responsible_agency": "Department of Public Works",
    "final_address": "N JOHNSON ST & PIETY ST",
    "address_councildis": "D",
    "status": "Pending",
    "rowid": "1192297",
    "final_x": "3690681.9",
    "final_y": "539180.58",
    "longitude": "-90.03880400803625",
    "latitude": "29.976277611691316",
    "geocoded_column": {
      "latitude": "29.976277611691316",
      "longitude": "-90.03880400803625"
    }
  },
  {
    "service_request": "2025-1192296",
    "request_type": "Trash/Recycling",
    "request_reason": "Request a Large Item Pick Up",
    "date_created": "2025-05-14T17:55:20.000",
    "date_modified": "2025-05-14T17:55:22.000",
    "request_status": "Pending",
    "responsible_agency": "Department of Sanitation",
    "final_address": "1328 Holiday Pl",
    "address_councildis": "C",
    "status": "Assigned to Contractor",
    "contractor": "Richards Disposal",
    "rowid": "1192296",
    "final_x": "3699064.90596",
    "final_y": "526381.149566",
    "longitude": "-90.0127940176996",
    "latitude": "29.940820647833323",
    "geocoded_column": {
      "latitude": "29.940820647833323",
      "longitude": "-90.0127940176996"
    }
  },
  {
    "service_request": "2025-1192295",
    "request_type": "Street and Traffic Signs",
    "request_reason": "Street Name Sign Damaged or Missing",
    "date_created": "2025-05-14T17:53:27.000",
    "date_modified": "2025-05-14T17:53:29.000",
    "request_status": "Pending",
    "responsible_agency": "Department of Public Works",
    "final_address": "N JOHNSON ST & GALLIER ST",
    "address_councildis": "D",
    "status": "Pending",
    "rowid": "1192295",
    "final_x": "3691303.3",
    "final_y": "539027.38",
    "longitude": "-90.03684692383516",
    "latitude": "29.97583704798749",
    "geocoded_column": {
      "latitude": "29.97583704798749",
      "longitude": "-90.03684692383516"
    }
  },
  {
    "service_request": "2025-1192294",
    "request_type": "Trash/Recycling",
    "request_reason": "Request a Large Item Pick Up",
    "date_created": "2025-05-14T17:51:17.000",
    "date_modified": "2025-05-14T17:51:20.000",
    "request_status": "Pending",
    "responsible_agency": "Department of Sanitation",
    "final_address": "7001 Barrington Ct",
    "address_councildis": "E",
    "status": "Assigned to Contractor",
    "contractor": "Waste Pro",
    "rowid": "1192294",
    "final_x": "3714170.8341",
    "final_y": "565019.787426",
    "longitude": "-89.96364428284669",
    "latitude": "30.046574766039882",
    "geocoded_column": {
      "latitude": "30.046574766039882",
      "longitude": "-89.96364428284669"
    }
  },
  {
    "service_request": "2025-1192293",
    "request_type": "Roads and Streets",
    "request_reason": "Sidewalk Damaged or Missing",
    "date_created": "2025-05-14T17:44:43.000",
    "date_modified": "2025-05-14T17:44:45.000",
    "request_status": "Pending",
    "responsible_agency": "Department of Public Works",
    "final_address": "4614 Bienville Ave",
    "address_councildis": "A",
    "status": "Pending",
    "rowid": "1192293",
    "final_x": "3669760.54932",
    "final_y": "540267.365515",
    "longitude": "-90.1048432500348",
    "latitude": "29.979899230999617",
    "geocoded_column": {
      "latitude": "29.979899230999617",
      "longitude": "-90.1048432500348"
    }
  },
  {
    "service_request": "2025-1192292",
    "request_type": "Roads and Streets",
    "request_reason": "Pothole",
    "date_created": "2025-05-14T17:42:42.000",
    "date_modified": "2025-05-14T17:42:44.000",
    "request_status": "Pending",
    "responsible_agency": "Department of Public Works",
    "final_address": "220 S St Patrick St",
    "address_councildis": "A",
    "status": "Pending",
    "rowid": "1192292",
    "final_x": "3668761.08289",
    "final_y": "539315.531914",
    "longitude": "-90.10803213454084",
    "latitude": "29.977311436311158",
    "geocoded_column": {
      "latitude": "29.977311436311158",
      "longitude": "-90.10803213454084"
    }
  },
  {
    "service_request": "2025-1192291",
    "request_type": "Street and Traffic Signs",
    "request_reason": "Street Name Sign Damaged or Missing",
    "date_created": "2025-05-14T17:39:42.000",
    "date_modified": "2025-05-14T17:39:44.000",
    "request_status": "Pending",
    "responsible_agency": "Department of Public Works",
    "final_address": "ELYSIAN FIELDS AVE & DAUPHINE ST",
    "address_councildis": "C",
    "status": "Pending",
    "rowid": "1192291",
    "final_x": "3685045.4",
    "final_y": "535225.08",
    "longitude": "-90.05674490239838",
    "latitude": "29.965575255261587",
    "geocoded_column": {
      "latitude": "29.965575255261587",
      "longitude": "-90.05674490239838"
    }
  },
  {
    "service_request": "2025-1192290",
    "request_type": "Street and Traffic Signs",
    "request_reason": "Street Name Sign Damaged or Missing",
    "date_created": "2025-05-14T17:38:11.000",
    "date_modified": "2025-05-14T17:38:12.000",
    "request_status": "Pending",
    "responsible_agency": "Department of Public Works",
    "final_address": "ROYAL ST & ELYSIAN FIELDS AVE",
    "address_councildis": "C",
    "status": "Pending",
    "rowid": "1192290",
    "final_x": "3685165.7",
    "final_y": "534872.88",
    "longitude": "-90.05637739565954",
    "latitude": "29.964603141247608",
    "geocoded_column": {
      "latitude": "29.964603141247608",
      "longitude": "-90.05637739565954"
    }
  },
  {
    "service_request": "2025-1192289",
    "request_type": "Trash/Recycling",
    "request_reason": "Return Trash Cart",
    "date_created": "2025-05-14T17:36:36.000",
    "date_modified": "2025-05-14T17:36:38.000",
    "request_status": "Pending",
    "responsible_agency": "Department of Sanitation",
    "final_address": "618 Peniston St",
    "address_councildis": "B",
    "status": "Assigned to Contractor",
    "contractor": "IV Waste",
    "rowid": "1192289",
    "final_x": "3673555.60347",
    "final_y": "518208.731126",
    "longitude": "-90.09361066933421",
    "latitude": "29.91913284954132",
    "geocoded_column": {
      "latitude": "29.91913284954132",
      "longitude": "-90.09361066933421"
    }
  },
  {
    "service_request": "2025-1192288",
    "request_type": "Trash/Recycling",
    "request_reason": "Order Trash Cart",
    "date_created": "2025-05-14T17:18:42.000",
    "date_modified": "2025-05-14T17:18:45.000",
    "request_status": "Pending",
    "responsible_agency": "Department of Sanitation",
    "final_address": "1939 Upperline St",
    "address_councildis": "B",
    "status": "Assigned to Contractor",
    "contractor": "IV Waste",
    "rowid": "1192288",
    "final_x": "3669149.93748",
    "final_y": "522100.136506",
    "longitude": "-90.10738573127077",
    "latitude": "29.92996331090935",
    "geocoded_column": {
      "latitude": "29.92996331090935",
      "longitude": "-90.10738573127077"
    }
  },
  {
    "service_request": "2025-1192287",
    "request_type": "Trash/Recycling",
    "request_reason": "Repair Trash Cart",
    "date_created": "2025-05-14T17:13:05.000",
    "date_modified": "2025-05-14T17:13:07.000",
    "request_status": "Pending",
    "responsible_agency": "Department of Sanitation",
    "final_address": "727 Elmira Ave",
    "address_councildis": "C",
    "status": "Assigned to Contractor",
    "contractor": "Richards Disposal",
    "rowid": "1192287",
    "final_x": "3688115.31011",
    "final_y": "528844.922496",
    "longitude": "-90.04727641674866",
    "latitude": "29.947937623114125",
    "geocoded_column": {
      "latitude": "29.947937623114125",
      "longitude": "-90.04727641674866"
    }
  },
  {
    "service_request": "2025-1192286",
    "request_type": "Parks & Parkways",
    "request_reason": "Request Tree Service (Right of Way/Public Property)",
    "date_created": "2025-05-14T17:02:53.000",
    "date_modified": "2025-05-14T17:02:55.000",
    "request_status": "Pending",
    "responsible_agency": "Department of Parks & Parkway",
    "final_address": "44 Neron Pl",
    "address_councildis": "A",
    "status": "Pending",
    "rowid": "1192286",
    "final_x": "3665403.34516",
    "final_y": "530408.729666",
    "longitude": "-90.11893516100587",
    "latitude": "29.952918967827237",
    "geocoded_column": {
      "latitude": "29.952918967827237",
      "longitude": "-90.11893516100587"
    }
  },
  {
    "service_request": "2025-1192285",
    "request_type": "Abandoned Vehicles",
    "request_reason": "Abandoned/Junk Vehicles",
    "date_created": "2025-05-14T16:57:29.000",
    "date_modified": "2025-05-14T16:57:30.000",
    "request_status": "Pending",
    "responsible_agency": "Department of Public Works",
    "final_address": "227 S Olympia St",
    "address_councildis": "A",
    "status": "Pending",
    "rowid": "1192285",
    "final_x": "3668973.4265",
    "final_y": "539111.710474",
    "longitude": "-90.10736836872894",
    "latitude": "29.976744750752307",
    "geocoded_column": {
      "latitude": "29.976744750752307",
      "longitude": "-90.10736836872894"
    }
  },
  {
    "service_request": "2025-1192284",
    "request_type": "Drainage",
    "request_reason": "Catch Basin Clogged",
    "date_created": "2025-05-14T16:56:23.000",
    "date_modified": "2025-05-14T16:56:26.000",
    "request_status": "Pending",
    "responsible_agency": "Sewerage & Water Board",
    "final_address": "961 Emerald St",
    "address_councildis": "D",
    "status": "Pending",
    "rowid": "1192284",
    "final_x": "3671166.00878",
    "final_y": "554903.983704",
    "longitude": "-90.09990659770511",
    "latitude": "30.020103322865896",
    "geocoded_column": {
      "latitude": "30.020103322865896",
      "longitude": "-90.09990659770511"
    }
  },
  {
    "service_request": "2025-1192283",
    "request_type": "Trash/Recycling",
    "request_reason": "Request a Large Item Pick Up",
    "date_created": "2025-05-14T16:52:50.000",
    "date_modified": "2025-05-14T16:52:52.000",
    "request_status": "Pending",
    "responsible_agency": "Department of Sanitation",
    "final_address": "5619 Dauphine St",
    "address_councildis": "E",
    "status": "Assigned to Contractor",
    "contractor": "Waste Pro",
    "rowid": "1192283",
    "final_x": "3697925.1896",
    "final_y": "532613.362692",
    "longitude": "-90.01616610005334",
    "latitude": "29.9579931147466",
    "geocoded_column": {
      "latitude": "29.9579931147466",
      "longitude": "-90.01616610005334"
    }
  },
  {
    "service_request": "2025-1192282",
    "request_type": "Street and Traffic Signs",
    "request_reason": "Additional Signage Request",
    "date_created": "2025-05-14T16:52:39.000",
    "date_modified": "2025-05-14T16:52:41.000",
    "request_status": "Pending",
    "responsible_agency": "Department of Public Works",
    "final_address": "3600 BLK Cambronne St",
    "address_councildis": "A",
    "status": "Pending",
    "rowid": "1192282",
    "final_x": "3667038.15572",
    "final_y": "535546.98578",
    "longitude": "-90.11360042627737",
    "latitude": "29.96699973943839",
    "geocoded_column": {
      "latitude": "29.96699973943839",
      "longitude": "-90.11360042627737"
    }
  },
  {
    "service_request": "2025-1192281",
    "request_type": "Trash/Recycling",
    "request_reason": "Order Recycling Cart",
    "date_created": "2025-05-14T16:51:00.000",
    "date_modified": "2025-05-14T16:51:01.000",
    "request_status": "Pending",
    "responsible_agency": "Department of Sanitation",
    "final_address": "2528 Marengo St",
    "address_councildis": "B",
    "status": "Pending",
    "rowid": "1192281",
    "final_x": "3671565.93742",
    "final_y": "524387.417468",
    "longitude": "-90.09968106819686",
    "latitude": "29.936181298362843",
    "geocoded_column": {
      "latitude": "29.936181298362843",
      "longitude": "-90.09968106819686"
    }
  },
  {
    "service_request": "2025-1192280",
    "request_type": "Drainage",
    "request_reason": "Catch Basin Clogged",
    "date_created": "2025-05-14T16:50:26.000",
    "date_modified": "2025-05-14T16:50:28.000",
    "request_status": "Pending",
    "responsible_agency": "Sewerage & Water Board",
    "final_address": "130 N Norman C Francis Prkwy",
    "address_councildis": "B",
    "status": "Pending",
    "rowid": "1192280",
    "final_x": "3673539.07726",
    "final_y": "536921.283336",
    "longitude": "-90.09302347686717",
    "latitude": "29.970586711715363",
    "geocoded_column": {
      "latitude": "29.970586711715363",
      "longitude": "-90.09302347686717"
    }
  },
  {
    "service_request": "2025-1192279",
    "request_type": "Trash/Recycling",
    "request_reason": "Illegal Dumping",
    "date_created": "2025-05-14T16:41:13.000",
    "date_modified": "2025-05-14T16:41:16.000",
    "request_status": "Pending",
    "responsible_agency": "Department of Sanitation",
    "final_address": "1848 Gentilly Blvd",
    "address_councildis": "D",
    "status": "Pending",
    "rowid": "1192279",
    "final_x": "3678915.9773",
    "final_y": "542698.901901",
    "longitude": "-90.07584235043339",
    "latitude": "29.98631203304439",
    "geocoded_column": {
      "latitude": "29.98631203304439",
      "longitude": "-90.07584235043339"
    }
  },
  {
    "service_request": "2025-1192278",
    "request_type": "Property Maintenance",
    "request_reason": "Property Maintenance",
    "date_created": "2025-05-14T16:29:03.000",
    "date_modified": "2025-05-14T16:29:04.000",
    "request_status": "Pending",
    "responsible_agency": "Department of Code Enforcement",
    "final_address": "3014 St Peter St",
    "address_councildis": "A",
    "status": "Pending",
    "rowid": "1192278",
    "final_x": "3675523.20686",
    "final_y": "537664.0978",
    "longitude": "-90.08673183371553",
    "latitude": "29.972569994735473",
    "geocoded_column": {
      "latitude": "29.972569994735473",
      "longitude": "-90.08673183371553"
    }
  },
  {
    "service_request": "2025-1192277",
    "request_type": "Utility Poles",
    "request_reason": "Utility Pole Leaning",
    "date_created": "2025-05-14T16:28:40.000",
    "date_modified": "2025-05-14T16:28:42.000",
    "request_status": "Pending",
    "responsible_agency": "Utility Company Collective",
    "final_address": "S PETERS ST & POYDRAS ST",
    "address_councildis": "B",
    "status": "Pending",
    "rowid": "1192277",
    "final_x": "3682211.4",
    "final_y": "528963.98",
    "longitude": "-90.06591325216971",
    "latitude": "29.94844587359478",
    "geocoded_column": {
      "latitude": "29.94844587359478",
      "longitude": "-90.06591325216971"
    }
  },
  {
    "service_request": "2025-1192276",
    "request_type": "Trash/Recycling",
    "request_reason": "Repair Trash Cart",
    "date_created": "2025-05-14T16:26:24.000",
    "date_modified": "2025-05-14T16:26:26.000",
    "request_status": "Pending",
    "responsible_agency": "Department of Sanitation",
    "final_address": "7019 Walmsley Ave",
    "address_councildis": "B",
    "status": "Assigned to Contractor",
    "contractor": "IV Waste",
    "rowid": "1192276",
    "final_x": "3667794.65453",
    "final_y": "530918.704258",
    "longitude": "-90.11136726381842",
    "latitude": "29.954251327339595",
    "geocoded_column": {
      "latitude": "29.954251327339595",
      "longitude": "-90.11136726381842"
    }
  },
  {
    "service_request": "2025-1192275",
    "request_type": "Streetlights",
    "request_reason": "Streetlight Outage/Malfunction",
    "date_created": "2025-05-14T16:26:00.000",
    "date_modified": "2025-05-14T16:26:02.000",
    "request_status": "Pending",
    "responsible_agency": "Department of Public Works",
    "final_address": "7500 BLK Garnet St",
    "address_councildis": "D",
    "status": "Pending",
    "contractor": "Legacy Professional Services",
    "rowid": "1192275",
    "final_x": "3667410.35379",
    "final_y": "556589.227488",
    "longitude": "-90.11171655815102",
    "latitude": "30.02484777069104",
    "geocoded_column": {
      "latitude": "30.02484777069104",
      "longitude": "-90.11171655815102"
    }
  },
  {
    "service_request": "2025-1192274",
    "request_type": "Road Striping",
    "request_reason": "Crosswalks",
    "date_created": "2025-05-14T16:16:10.000",
    "date_modified": "2025-05-14T16:16:12.000",
    "request_status": "Pending",
    "responsible_agency": "Department of Public Works",
    "final_address": "2201 St Claude Ave",
    "address_councildis": "C",
    "status": "Pending",
    "rowid": "1192274",
    "final_x": "3685109.86908",
    "final_y": "536421.562503",
    "longitude": "-90.05649920810876",
    "latitude": "29.968863192253185",
    "geocoded_column": {
      "latitude": "29.968863192253185",
      "longitude": "-90.05649920810876"
    }
  },
  {
    "service_request": "2025-1192273",
    "request_type": "Trash/Recycling",
    "request_reason": "Request a Large Item Pick Up",
    "date_created": "2025-05-14T16:14:16.000",
    "date_modified": "2025-05-14T16:14:19.000",
    "request_status": "Pending",
    "responsible_agency": "Department of Sanitation",
    "final_address": "4701 Charlmark Dr",
    "address_councildis": "E",
    "status": "Assigned to Contractor",
    "contractor": "Waste Pro",
    "rowid": "1192273",
    "final_x": "3711541.12158",
    "final_y": "555758.265561",
    "longitude": "-89.97230315212138",
    "latitude": "30.021195436261326",
    "geocoded_column": {
      "latitude": "30.021195436261326",
      "longitude": "-89.97230315212138"
    }
  },
  {
    "service_request": "2025-1192272",
    "request_type": "Trash/Recycling",
    "request_reason": "Request a Large Item Pick Up",
    "date_created": "2025-05-14T16:13:44.000",
    "date_modified": "2025-05-14T16:13:47.000",
    "request_status": "Pending",
    "responsible_agency": "Department of Sanitation",
    "final_address": "2320 S Derbigny St",
    "address_councildis": "B",
    "status": "Assigned to Contractor",
    "contractor": "IV Waste",
    "rowid": "1192272",
    "final_x": "3674201.32705",
    "final_y": "527833.818751",
    "longitude": "-90.09124311117878",
    "latitude": "29.94557949217335",
    "geocoded_column": {
      "latitude": "29.94557949217335",
      "longitude": "-90.09124311117878"
    }
  },
  {
    "service_request": "2025-1192271",
    "request_type": "Roads and Streets",
    "request_reason": "Pothole",
    "date_created": "2025-05-14T16:07:38.000",
    "date_modified": "2025-05-14T16:07:39.000",
    "request_status": "Pending",
    "responsible_agency": "Department of Public Works",
    "final_address": "4375 Michoud Blvd",
    "address_councildis": "E",
    "status": "Pending",
    "rowid": "1192271",
    "final_x": "3726155.6039",
    "final_y": "557964.126043",
    "longitude": "-89.92604057121105",
    "latitude": "30.0267752484903",
    "geocoded_column": {
      "latitude": "30.0267752484903",
      "longitude": "-89.92604057121105"
    }
  },
  {
    "service_request": "2025-1192270",
    "request_type": "Street and Traffic Signs",
    "request_reason": "Street Name Sign Damaged or Missing",
    "date_created": "2025-05-14T16:07:12.000",
    "date_modified": "2025-05-14T16:07:14.000",
    "request_status": "Pending",
    "responsible_agency": "Department of Public Works",
    "final_address": "1740 Desire St",
    "address_councildis": "D",
    "status": "Pending",
    "rowid": "1192270",
    "final_x": "3690780.2342",
    "final_y": "538269.954889",
    "longitude": "-90.03852593970919",
    "latitude": "29.973770660452793",
    "geocoded_column": {
      "latitude": "29.973770660452793",
      "longitude": "-90.03852593970919"
    }
  },
  {
    "service_request": "2025-1192269",
    "request_type": "Roads and Streets",
    "request_reason": "Street Subsidence (Sinking)",
    "date_created": "2025-05-14T16:05:28.000",
    "date_modified": "2025-05-14T16:05:29.000",
    "request_status": "Pending",
    "responsible_agency": "Department of Public Works",
    "final_address": "3600 BLK Martin Luther King, Jr. Blvd",
    "address_councildis": "B",
    "status": "Pending",
    "rowid": "1192269",
    "final_x": "3673158.80883",
    "final_y": "529385.367854",
    "longitude": "-90.09448172325008",
    "latitude": "29.94987677391241",
    "geocoded_column": {
      "latitude": "29.94987677391241",
      "longitude": "-90.09448172325008"
    }
  },
  {
    "service_request": "2025-1192268",
    "request_type": "Abandoned Vehicles",
    "request_reason": "Abandoned/Junk Vehicles",
    "date_created": "2025-05-14T16:05:00.000",
    "date_modified": "2025-05-14T16:05:01.000",
    "request_status": "Pending",
    "responsible_agency": "Department of Public Works",
    "final_address": "1826 Third St",
    "address_councildis": "B",
    "status": "Pending",
    "rowid": "1192268",
    "final_x": "3675876.17531",
    "final_y": "523669.133115",
    "longitude": "-90.08609819201435",
    "latitude": "29.934077947364862",
    "geocoded_column": {
      "latitude": "29.934077947364862",
      "longitude": "-90.08609819201435"
    }
  },
  {
    "service_request": "2025-1192267",
    "request_type": "Trash/Recycling",
    "request_reason": "Repair Trash Cart",
    "date_created": "2025-05-14T16:00:38.000",
    "date_modified": "2025-05-14T16:00:40.000",
    "request_status": "Pending",
    "responsible_agency": "Department of Sanitation",
    "final_address": "3039 Lafitte Ave",
    "address_councildis": "A",
    "status": "Assigned to Contractor",
    "contractor": "IV Waste",
    "rowid": "1192267",
    "final_x": "3675099.78741",
    "final_y": "537322.230856",
    "longitude": "-90.0880808038098",
    "latitude": "29.971642636556542",
    "geocoded_column": {
      "latitude": "29.971642636556542",
      "longitude": "-90.0880808038098"
    }
  },
  {
    "service_request": "2025-1192266",
    "request_type": "Trash/Recycling",
    "request_reason": "Illegal Dumping",
    "date_created": "2025-05-14T16:00:33.000",
    "date_modified": "2025-05-14T16:00:48.000",
    "request_status": "Pending",
    "responsible_agency": "Department of Sanitation",
    "final_address": "2500 BLK N Roman St",
    "address_councildis": "D",
    "status": "Pending",
    "rowid": "1192266",
    "final_x": "3687177.3884",
    "final_y": "539072.837981",
    "longitude": "-90.04987608315602",
    "latitude": "29.97608975983534",
    "geocoded_column": {
      "latitude": "29.97608975983534",
      "longitude": "-90.04987608315602"
    }
  },
  {
    "service_request": "2025-1192265",
    "request_type": "Trash/Recycling",
    "request_reason": "Order Second Trash Cart",
    "date_created": "2025-05-14T15:56:59.000",
    "date_modified": "2025-05-14T15:57:01.000",
    "request_status": "Pending",
    "responsible_agency": "Department of Sanitation",
    "final_address": "4121 Magazine St",
    "address_councildis": "B",
    "status": "Assigned to Contractor",
    "contractor": "IV Waste",
    "rowid": "1192265",
    "final_x": "3671961.82324",
    "final_y": "518922.095735",
    "longitude": "-90.09861716739871",
    "latitude": "29.92114169347312",
    "geocoded_column": {
      "latitude": "29.92114169347312",
      "longitude": "-90.09861716739871"
    }
  },
  {
    "service_request": "2025-1192264",
    "request_type": "Trash/Recycling",
    "request_reason": "Illegal Dumping",
    "date_created": "2025-05-14T15:56:03.000",
    "date_modified": "2025-05-14T15:56:05.000",
    "request_status": "Pending",
    "responsible_agency": "Department of Sanitation",
    "final_address": "3800 BLK Peoples Ave",
    "address_councildis": "D",
    "status": "Pending",
    "rowid": "1192264",
    "final_x": "3688451.27726",
    "final_y": "547472.873018",
    "longitude": "-90.04555462167482",
    "latitude": "29.999147555572144",
    "geocoded_column": {
      "latitude": "29.999147555572144",
      "longitude": "-90.04555462167482"
    }
  },
  {
    "service_request": "2025-1192263",
    "request_type": "Drainage",
    "request_reason": "Street Flooding",
    "date_created": "2025-05-14T15:55:34.000",
    "date_modified": "2025-05-14T15:55:37.000",
    "request_status": "Pending",
    "responsible_agency": "Sewerage & Water Board",
    "final_address": "526 Passera Ct",
    "address_councildis": "A",
    "status": "Pending",
    "rowid": "1192263",
    "final_x": "3670659.17716",
    "final_y": "540864.206283",
    "longitude": "-90.10198474816178",
    "latitude": "29.98151381810455",
    "geocoded_column": {
      "latitude": "29.98151381810455",
      "longitude": "-90.10198474816178"
    }
  },
  {
    "service_request": "2025-1192262",
    "request_type": "Trash/Recycling",
    "request_reason": "Order Trash Cart",
    "date_created": "2025-05-14T15:55:08.000",
    "date_modified": "2025-05-14T15:55:10.000",
    "request_status": "Pending",
    "responsible_agency": "Department of Sanitation",
    "final_address": "2624 Myrtle St",
    "address_councildis": "D",
    "status": "Assigned to Contractor",
    "contractor": "IV Waste",
    "rowid": "1192262",
    "final_x": "3687377.82217",
    "final_y": "546047.230416",
    "longitude": "-90.04899616096351",
    "latitude": "29.995260681489604",
    "geocoded_column": {
      "latitude": "29.995260681489604",
      "longitude": "-90.04899616096351"
    }
  },
  {
    "service_request": "2025-1192261",
    "request_type": "Trash/Recycling",
    "request_reason": "Request a Large Item Pick Up",
    "date_created": "2025-05-14T15:54:33.000",
    "date_modified": "2025-05-14T15:54:38.000",
    "request_status": "Pending",
    "responsible_agency": "Department of Sanitation",
    "final_address": "307 S Olympia St",
    "address_councildis": "A",
    "status": "Assigned to Contractor",
    "contractor": "IV Waste",
    "rowid": "1192261",
    "final_x": "3668829.3099",
    "final_y": "538940.521994",
    "longitude": "-90.10782931795029",
    "latitude": "29.976278279126632",
    "geocoded_column": {
      "latitude": "29.976278279126632",
      "longitude": "-90.10782931795029"
    }
  },
  {
    "service_request": "2025-1192260",
    "request_type": "Trash/Recycling",
    "request_reason": "Request a Large Item Pick Up",
    "date_created": "2025-05-14T15:51:13.000",
    "date_modified": "2025-05-14T16:16:57.000",
    "request_status": "Pending",
    "responsible_agency": "Department of Sanitation",
    "final_address": "2711 N Tonti St",
    "address_councildis": "D",
    "status": "Assigned to Contractor",
    "contractor": "IV Waste",
    "rowid": "1192260",
    "final_x": "3688032.63555",
    "final_y": "541028.863371",
    "longitude": "-90.04710562475329",
    "latitude": "29.981441769360366",
    "geocoded_column": {
      "latitude": "29.981441769360366",
      "longitude": "-90.04710562475329"
    }
  },
  {
    "service_request": "2025-1192259",
    "request_type": "Roads and Streets",
    "request_reason": "Debris in Driving Lanes",
    "date_created": "2025-05-14T15:51:12.000",
    "date_modified": "2025-05-14T15:51:14.000",
    "request_status": "Pending",
    "responsible_agency": "Department of Public Works",
    "final_address": "7718 Coolidge Ct",
    "address_councildis": "B",
    "status": "Pending",
    "rowid": "1192259",
    "final_x": "3668289.03578",
    "final_y": "533427.853764",
    "longitude": "-90.10972159375976",
    "latitude": "29.96113615661968",
    "geocoded_column": {
      "latitude": "29.96113615661968",
      "longitude": "-90.10972159375976"
    }
  },
  {
    "service_request": "2025-1192258",
    "request_type": "Trash/Recycling",
    "request_reason": "Request a Large Item Pick Up",
    "date_created": "2025-05-14T15:49:35.000",
    "date_modified": "2025-05-14T16:13:14.000",
    "request_status": "Pending",
    "responsible_agency": "Department of Sanitation",
    "final_address": "1917 Burgundy St",
    "address_councildis": "C",
    "status": "Assigned to Contractor",
    "contractor": "IV Waste",
    "rowid": "1192258",
    "final_x": "3684073.93525",
    "final_y": "535546.447878",
    "longitude": "-90.05980146394658",
    "latitude": "29.96648863015125",
    "geocoded_column": {
      "latitude": "29.96648863015125",
      "longitude": "-90.05980146394658"
    }
  },
  {
    "service_request": "2025-1192257",
    "request_type": "Street and Traffic Signs",
    "request_reason": "Additional Signage Request",
    "date_created": "2025-05-14T15:47:07.000",
    "date_modified": "2025-05-14T15:47:09.000",
    "request_status": "Pending",
    "responsible_agency": "Department of Public Works",
    "final_address": "2100 BLK S Johnson St",
    "address_councildis": "B",
    "status": "Pending",
    "rowid": "1192257",
    "final_x": "3673795.53721",
    "final_y": "528806.861793",
    "longitude": "-90.09249105480207",
    "latitude": "29.9482671288625",
    "geocoded_column": {
      "latitude": "29.9482671288625",
      "longitude": "-90.09249105480207"
    }
  },
  {
    "service_request": "2025-1192256",
    "request_type": "Trash/Recycling",
    "request_reason": "Order Second Trash Cart",
    "date_created": "2025-05-14T15:46:27.000",
    "date_modified": "2025-05-14T15:46:30.000",
    "request_status": "Pending",
    "responsible_agency": "Department of Sanitation",
    "final_address": "3604 Victoria St",
    "address_councildis": "E",
    "status": "Assigned to Contractor",
    "contractor": "Waste Pro",
    "rowid": "1192256",
    "final_x": "3696543.72042",
    "final_y": "550306.660436",
    "longitude": "-90.0198879412026",
    "latitude": "30.00668686102188",
    "geocoded_column": {
      "latitude": "30.00668686102188",
      "longitude": "-90.0198879412026"
    }
  },
  {
    "service_request": "2025-1192255",
    "request_type": "Streetlights",
    "request_reason": "Streetlight Outage/Malfunction",
    "date_created": "2025-05-14T15:42:27.000",
    "date_modified": "2025-05-14T15:42:28.000",
    "request_status": "Pending",
    "responsible_agency": "Department of Public Works",
    "final_address": "3401 River Oaks Dr",
    "address_councildis": "C",
    "status": "Pending",
    "contractor": "Legacy Professional Services",
    "rowid": "1192255",
    "final_x": "3701359.94935",
    "final_y": "518663.246647",
    "longitude": "-90.00583051068091",
    "latitude": "29.919526163552817",
    "geocoded_column": {
      "latitude": "29.919526163552817",
      "longitude": "-90.00583051068091"
    }
  },
  {
    "service_request": "2025-1192254",
    "request_type": "Parks & Parkways",
    "request_reason": "Request Tree Service (Right of Way/Public Property)",
    "date_created": "2025-05-14T15:40:20.000",
    "date_modified": "2025-05-14T15:40:22.000",
    "request_status": "Pending",
    "responsible_agency": "Department of Parks & Parkway",
    "final_address": "2100 BLK S Johnson St",
    "address_councildis": "B",
    "status": "Pending",
    "rowid": "1192254",
    "final_x": "3673795.53721",
    "final_y": "528806.861793",
    "longitude": "-90.09249105480207",
    "latitude": "29.9482671288625",
    "geocoded_column": {
      "latitude": "29.9482671288625",
      "longitude": "-90.09249105480207"
    }
  },
  {
    "service_request": "2025-1192253",
    "request_type": "Roads and Streets",
    "request_reason": "Sidewalk Damaged or Missing",
    "date_created": "2025-05-14T15:39:13.000",
    "date_modified": "2025-05-14T15:39:15.000",
    "request_status": "Pending",
    "responsible_agency": "Department of Public Works",
    "final_address": "6448 Vicksburg St",
    "address_councildis": "A",
    "status": "Pending",
    "rowid": "1192253",
    "final_x": "3669066.0601",
    "final_y": "550426.42626",
    "longitude": "-90.10669324851517",
    "latitude": "30.00785360657787",
    "geocoded_column": {
      "latitude": "30.00785360657787",
      "longitude": "-90.10669324851517"
    }
  },
  {
    "service_request": "2025-1192252",
    "request_type": "Abandoned Vehicles",
    "request_reason": "Abandoned/Junk Vehicles",
    "date_created": "2025-05-14T15:38:07.000",
    "date_modified": "2025-05-14T15:38:53.000",
    "request_status": "Pending",
    "responsible_agency": "Department of Public Works",
    "final_address": "6866 Milne Blvd",
    "address_councildis": "A",
    "status": "Pending",
    "rowid": "1192252",
    "final_x": "3667489.80506",
    "final_y": "553291.347543",
    "longitude": "-90.11157661617497",
    "latitude": "30.015777439482186",
    "geocoded_column": {
      "latitude": "30.015777439482186",
      "longitude": "-90.11157661617497"
    }
  },
  {
    "service_request": "2025-1192251",
    "request_type": "Abandoned Vehicles",
    "request_reason": "Abandoned/Junk Vehicles",
    "date_created": "2025-05-14T15:35:44.000",
    "date_modified": "2025-05-14T15:35:47.000",
    "request_status": "Pending",
    "responsible_agency": "Department of Public Works",
    "final_address": "3700 Orleans Ave",
    "address_councildis": "A",
    "status": "Pending",
    "rowid": "1192251",
    "final_x": "3673513.17089",
    "final_y": "539031.870922",
    "longitude": "-90.09303314266045",
    "latitude": "29.976390882081823",
    "geocoded_column": {
      "latitude": "29.976390882081823",
      "longitude": "-90.09303314266045"
    }
  },
  {
    "service_request": "2025-1192250",
    "request_type": "Trash/Recycling",
    "request_reason": "Request a Large Item Pick Up",
    "date_created": "2025-05-14T15:32:49.000",
    "date_modified": "2025-05-14T15:32:50.000",
    "request_status": "Pending",
    "responsible_agency": "Department of Sanitation",
    "final_address": "2919 General Taylor St",
    "address_councildis": "B",
    "status": "Assigned to Contractor",
    "contractor": "IV Waste",
    "rowid": "1192250",
    "final_x": "3671562.67355",
    "final_y": "525728.621437",
    "longitude": "-90.09964578391192",
    "latitude": "29.93986927094079",
    "geocoded_column": {
      "latitude": "29.93986927094079",
      "longitude": "-90.09964578391192"
    }
  },
  {
    "service_request": "2025-1192249",
    "request_type": "Drainage",
    "request_reason": "Catch Basin Clogged",
    "date_created": "2025-05-14T15:29:30.000",
    "date_modified": "2025-05-14T15:29:32.000",
    "request_status": "Pending",
    "responsible_agency": "Sewerage & Water Board",
    "final_address": "524 Passera Ct",
    "address_councildis": "A",
    "status": "Pending",
    "rowid": "1192249",
    "final_x": "3670643.04923",
    "final_y": "540842.299531",
    "longitude": "-90.10203643128871",
    "latitude": "29.981454058538585",
    "geocoded_column": {
      "latitude": "29.981454058538585",
      "longitude": "-90.10203643128871"
    }
  },
  {
    "service_request": "2025-1192248",
    "request_type": "Property Maintenance",
    "request_reason": "Property Maintenance",
    "date_created": "2025-05-14T15:29:26.000",
    "date_modified": "2025-05-14T15:29:28.000",
    "request_status": "Pending",
    "responsible_agency": "Department of Code Enforcement",
    "final_address": "3801 Octavia St",
    "address_councildis": "A",
    "status": "Pending",
    "rowid": "1192248",
    "final_x": "3668815.86087",
    "final_y": "529363.450433",
    "longitude": "-90.10819519943391",
    "latitude": "29.9499449036107",
    "geocoded_column": {
      "latitude": "29.9499449036107",
      "longitude": "-90.10819519943391"
    }
  },
  {
    "service_request": "2025-1192247",
    "request_type": "Trash/Recycling",
    "request_reason": "Request a Large Item Pick Up",
    "date_created": "2025-05-14T15:22:41.000",
    "date_modified": "2025-05-14T15:22:44.000",
    "request_status": "Pending",
    "responsible_agency": "Department of Sanitation",
    "final_address": "5944 Carlisle Ct",
    "address_councildis": "C",
    "status": "Assigned to Contractor",
    "contractor": "Richards Disposal",
    "rowid": "1192247",
    "final_x": "3705854.74679",
    "final_y": "516537.718581",
    "longitude": "-89.99172134579389",
    "latitude": "29.913537744685012",
    "geocoded_column": {
      "latitude": "29.913537744685012",
      "longitude": "-89.99172134579389"
    }
  },
  {
    "service_request": "2025-1192246",
    "request_type": "Trash/Recycling",
    "request_reason": "Repair Trash Cart",
    "date_created": "2025-05-14T15:21:58.000",
    "date_modified": "2025-05-14T15:22:00.000",
    "request_status": "Pending",
    "responsible_agency": "Department of Sanitation",
    "final_address": "5143 Eastern St",
    "address_councildis": "D",
    "status": "Assigned to Contractor",
    "contractor": "IV Waste",
    "rowid": "1192246",
    "final_x": "3687946.33455",
    "final_y": "552020.20271",
    "longitude": "-90.04698847668728",
    "latitude": "30.011666648090177",
    "geocoded_column": {
      "latitude": "30.011666648090177",
      "longitude": "-90.04698847668728"
    }
  },
  {
    "service_request": "2025-1192245",
    "request_type": "Trash/Recycling",
    "request_reason": "Request a Large Item Pick Up",
    "date_created": "2025-05-14T15:19:53.000",
    "date_modified": "2025-05-14T15:19:56.000",
    "request_status": "Pending",
    "responsible_agency": "Department of Sanitation",
    "final_address": "4523 Owens Blvd",
    "address_councildis": "D",
    "status": "Assigned to Contractor",
    "contractor": "IV Waste",
    "rowid": "1192245",
    "final_x": "3676582.99925",
    "final_y": "548947.942931",
    "longitude": "-90.08299595228179",
    "latitude": "30.00356489693718",
    "geocoded_column": {
      "latitude": "30.00356489693718",
      "longitude": "-90.08299595228179"
    }
  },
  {
    "service_request": "2025-1192244",
    "request_type": "Health Related Request",
    "request_reason": "Homeless Encampment Complaint",
    "date_created": "2025-05-14T15:13:16.000",
    "date_modified": "2025-05-14T15:13:17.000",
    "request_status": "Pending",
    "responsible_agency": "Health Department",
    "final_address": "3520 Bienville Ave",
    "address_councildis": "B",
    "status": "Pending",
    "rowid": "1192244",
    "final_x": "3673107.57102",
    "final_y": "537703.694664",
    "longitude": "-90.09435950889592",
    "latitude": "29.97275091417176",
    "geocoded_column": {
      "latitude": "29.97275091417176",
      "longitude": "-90.09435950889592"
    }
  },
  {
    "service_request": "2025-1192243",
    "request_type": "Drainage",
    "request_reason": "Street Flooding",
    "date_created": "2025-05-14T15:11:46.000",
    "date_modified": "2025-05-14T15:11:48.000",
    "request_status": "Pending",
    "responsible_agency": "Sewerage & Water Board",
    "final_address": "500 BLK N Murat St",
    "address_councildis": "A",
    "status": "Pending",
    "rowid": "1192243",
    "final_x": "3670692.56573",
    "final_y": "540701.943646",
    "longitude": "-90.10188479922817",
    "latitude": "29.98106666445059",
    "geocoded_column": {
      "latitude": "29.98106666445059",
      "longitude": "-90.10188479922817"
    }
  },
  {
    "service_request": "2025-1192242",
    "request_type": "Abandoned Vehicles",
    "request_reason": "Abandoned/Junk Vehicles",
    "date_created": "2025-05-14T15:11:27.000",
    "date_modified": "2025-05-14T15:11:29.000",
    "request_status": "Pending",
    "responsible_agency": "Department of Public Works",
    "final_address": "4821 Dauphine St",
    "address_councildis": "E",
    "status": "Pending",
    "rowid": "1192242",
    "final_x": "3694913.31613",
    "final_y": "533352.691908",
    "longitude": "-90.02565006043292",
    "latitude": "29.96012086515784",
    "geocoded_column": {
      "latitude": "29.96012086515784",
      "longitude": "-90.02565006043292"
    }
  },
  {
    "service_request": "2025-1192241",
    "request_type": "Trash/Recycling",
    "request_reason": "Request a Large Item Pick Up",
    "date_created": "2025-05-14T15:07:30.000",
    "date_modified": "2025-05-14T15:07:32.000",
    "request_status": "Pending",
    "responsible_agency": "Department of Sanitation",
    "final_address": "5518 Durham Dr",
    "address_councildis": "C",
    "status": "Assigned to Contractor",
    "contractor": "Richards Disposal",
    "rowid": "1192241",
    "final_x": "3704438.76087",
    "final_y": "518824.329399",
    "longitude": "-89.99610637800961",
    "latitude": "29.919870647712727",
    "geocoded_column": {
      "latitude": "29.919870647712727",
      "longitude": "-89.99610637800961"
    }
  },
  {
    "service_request": "2025-1192240",
    "request_type": "Trash/Recycling",
    "request_reason": "Request a Large Item Pick Up",
    "date_created": "2025-05-14T15:07:18.000",
    "date_modified": "2025-05-14T15:07:21.000",
    "request_status": "Pending",
    "responsible_agency": "Department of Sanitation",
    "final_address": "2612 Lepage St",
    "address_councildis": "A",
    "status": "Assigned to Contractor",
    "contractor": "IV Waste",
    "rowid": "1192240",
    "final_x": "3678365.98466",
    "final_y": "539503.867914",
    "longitude": "-90.07769015565779",
    "latitude": "29.97754338291392",
    "geocoded_column": {
      "latitude": "29.97754338291392",
      "longitude": "-90.07769015565779"
    }
  },
  {
    "service_request": "2025-1192239",
    "request_type": "Streetlights",
    "request_reason": "Streetlight Outage/Malfunction",
    "date_created": "2025-05-14T15:06:09.000",
    "date_modified": "2025-05-14T15:06:10.000",
    "request_status": "Pending",
    "responsible_agency": "Department of Public Works",
    "final_address": "319 N Murat St",
    "address_councildis": "A",
    "status": "Pending",
    "contractor": "Legacy Professional Services",
    "rowid": "1192239",
    "final_x": "3670282.56782",
    "final_y": "540223.669963",
    "longitude": "-90.10319597762414",
    "latitude": "29.979763683687846",
    "geocoded_column": {
      "latitude": "29.979763683687846",
      "longitude": "-90.10319597762414"
    }
  },
  {
    "service_request": "2025-1192238",
    "request_type": "Trash/Recycling",
    "request_reason": "Repair Recycling Cart",
    "date_created": "2025-05-14T15:06:05.000",
    "date_modified": "2025-05-14T15:06:07.000",
    "request_status": "Pending",
    "responsible_agency": "Department of Sanitation",
    "final_address": "15 Glacier Ct",
    "address_councildis": "C",
    "status": "Pending",
    "rowid": "1192238",
    "final_x": "3699955.14167",
    "final_y": "516083.780852",
    "longitude": "-90.01035876815719",
    "latitude": "29.912478187535275",
    "geocoded_column": {
      "latitude": "29.912478187535275",
      "longitude": "-90.01035876815719"
    }
  },
  {
    "service_request": "2025-1192237",
    "request_type": "Property Maintenance",
    "request_reason": "Property Maintenance",
    "date_created": "2025-05-14T15:00:42.000",
    "date_modified": "2025-05-14T15:46:07.000",
    "case_close_date": "2025-05-14T10:46:05.000",
    "request_status": "Closed",
    "responsible_agency": "Department of Code Enforcement",
    "final_address": "1124 Lesseps St",
    "address_councildis": "C",
    "status": "Referred to Code Enforcement",
    "rowid": "1192237",
    "final_x": "3692703.42147",
    "final_y": "535356.388934",
    "longitude": "-90.03255657854241",
    "latitude": "29.965699489842045",
    "geocoded_column": {
      "latitude": "29.965699489842045",
      "longitude": "-90.03255657854241"
    }
  },
  {
    "service_request": "2025-1192236",
    "request_type": "Alley Ways",
    "request_reason": "Alley Way Regrading",
    "date_created": "2025-05-14T14:57:01.000",
    "date_modified": "2025-05-14T14:57:03.000",
    "request_status": "Pending",
    "responsible_agency": "Department of Public Works",
    "final_address": "6400 BLK Colbert St",
    "address_councildis": "A",
    "status": "Pending",
    "rowid": "1192236",
    "final_x": "3667696.42015",
    "final_y": "550470.36571",
    "longitude": "-90.1110188825423",
    "latitude": "30.008014669487473",
    "geocoded_column": {
      "latitude": "30.008014669487473",
      "longitude": "-90.1110188825423"
    }
  },
  {
    "service_request": "2025-1192235",
    "request_type": "General Services",
    "request_reason": "General Service Request",
    "date_created": "2025-05-14T14:54:11.000",
    "date_modified": "2025-05-14T14:54:13.000",
    "request_status": "Pending",
    "responsible_agency": "Orleans Parish Communication District",
    "final_address": "5900 BLK Laurel St",
    "address_councildis": "A",
    "status": "Pending",
    "rowid": "1192235",
    "final_x": "3664831.25068",
    "final_y": "518107.233258",
    "longitude": "-90.12115250665221",
    "latitude": "29.91911042611226",
    "geocoded_column": {
      "latitude": "29.91911042611226",
      "longitude": "-90.12115250665221"
    }
  },
  {
    "service_request": "2025-1192234",
    "request_type": "Street and Traffic Signs",
    "request_reason": "New Disabled Parking Sign Request ",
    "date_created": "2025-05-14T14:51:47.000",
    "date_modified": "2025-05-14T14:51:49.000",
    "request_status": "Pending",
    "responsible_agency": "Department of Public Works",
    "final_address": "1437 Arts St",
    "address_councildis": "C",
    "status": "Pending",
    "rowid": "1192234",
    "final_x": "3687124.22684",
    "final_y": "537889.906889",
    "longitude": "-90.05008582303334",
    "latitude": "29.972838752039756",
    "geocoded_column": {
      "latitude": "29.972838752039756",
      "longitude": "-90.05008582303334"
    }
  },
  {
    "service_request": "2025-1192233",
    "request_type": "Roads and Streets",
    "request_reason": "Sidewalk Damaged or Missing",
    "date_created": "2025-05-14T14:51:15.000",
    "date_modified": "2025-05-14T14:51:17.000",
    "request_status": "Pending",
    "responsible_agency": "Department of Public Works",
    "final_address": "4334 Canal St",
    "address_councildis": "A",
    "status": "Pending",
    "rowid": "1192233",
    "final_x": "3669995.23066",
    "final_y": "539039.98369",
    "longitude": "-90.10414361323797",
    "latitude": "29.976517425993556",
    "geocoded_column": {
      "latitude": "29.976517425993556",
      "longitude": "-90.10414361323797"
    }
  },
  {
    "service_request": "2025-1192232",
    "request_type": "Property Maintenance",
    "request_reason": "Property Maintenance",
    "date_created": "2025-05-14T14:45:40.000",
    "date_modified": "2025-05-14T15:01:14.000",
    "case_close_date": "2025-05-14T10:01:12.000",
    "request_status": "Closed",
    "responsible_agency": "Department of Code Enforcement",
    "final_address": "5516 Dauphine St",
    "address_councildis": "E",
    "status": "Referred to Code Enforcement",
    "rowid": "1192232",
    "final_x": "3697555.75952",
    "final_y": "532620.609668",
    "longitude": "-90.01733238695968",
    "latitude": "29.958024713093863",
    "geocoded_column": {
      "latitude": "29.958024713093863",
      "longitude": "-90.01733238695968"
    }
  },
  {
    "service_request": "2025-1192231",
    "request_type": "Trash/Recycling",
    "request_reason": "Request a Large Item Pick Up",
    "date_created": "2025-05-14T14:44:58.000",
    "date_modified": "2025-05-14T16:05:32.000",
    "request_status": "Pending",
    "responsible_agency": "Department of Sanitation",
    "final_address": "2223 General Pershing St",
    "address_councildis": "B",
    "status": "Assigned to Contractor",
    "contractor": "IV Waste",
    "rowid": "1192231",
    "final_x": "3671048.97486",
    "final_y": "523235.469051",
    "longitude": "-90.10135223928197",
    "latitude": "29.933029105879992",
    "geocoded_column": {
      "latitude": "29.933029105879992",
      "longitude": "-90.10135223928197"
    }
  },
  {
    "service_request": "2025-1192230",
    "request_type": "Trash/Recycling",
    "request_reason": "Request a Large Item Pick Up",
    "date_created": "2025-05-14T14:43:45.000",
    "date_modified": "2025-05-14T14:43:48.000",
    "request_status": "Pending",
    "responsible_agency": "Department of Sanitation",
    "final_address": "7501 E Oak Ridge Ct",
    "address_councildis": "E",
    "status": "Assigned to Contractor",
    "contractor": "Waste Pro",
    "rowid": "1192230",
    "final_x": "3713946.69931",
    "final_y": "567948.791781",
    "longitude": "-89.96424205070028",
    "latitude": "30.05463569891443",
    "geocoded_column": {
      "latitude": "30.05463569891443",
      "longitude": "-89.96424205070028"
    }
  },
  {
    "service_request": "2025-1192229",
    "request_type": "Trash/Recycling",
    "request_reason": "Request a Large Item Pick Up",
    "date_created": "2025-05-14T14:42:34.000",
    "date_modified": "2025-05-14T14:42:36.000",
    "request_status": "Pending",
    "responsible_agency": "Department of Sanitation",
    "final_address": "5850 Winchester Park Dr",
    "address_councildis": "E",
    "status": "Assigned to Contractor",
    "contractor": "Waste Pro",
    "rowid": "1192229",
    "final_x": "3714908.80293",
    "final_y": "562407.465887",
    "longitude": "-89.9614107936493",
    "latitude": "30.039367663776883",
    "geocoded_column": {
      "latitude": "30.039367663776883",
      "longitude": "-89.9614107936493"
    }
  },
  {
    "service_request": "2025-1192228",
    "request_type": "Street and Traffic Signs",
    "request_reason": "Additional Signage Request",
    "date_created": "2025-05-14T14:41:59.000",
    "date_modified": "2025-05-14T14:42:02.000",
    "request_status": "Pending",
    "responsible_agency": "Department of Public Works",
    "final_address": "1012 Kerlerec St",
    "address_councildis": "C",
    "status": "Pending",
    "rowid": "1192228",
    "final_x": "3683290.72245",
    "final_y": "535408.154566",
    "longitude": "-90.06227968184156",
    "latitude": "29.966132283564317",
    "geocoded_column": {
      "latitude": "29.966132283564317",
      "longitude": "-90.06227968184156"
    }
  },
  {
    "service_request": "2025-1192227",
    "request_type": "Trash/Recycling",
    "request_reason": "Request a Large Item Pick Up",
    "date_created": "2025-05-14T14:39:34.000",
    "date_modified": "2025-05-14T14:39:35.000",
    "request_status": "Pending",
    "responsible_agency": "Department of Sanitation",
    "final_address": "4408 Canal St",
    "address_councildis": "A",
    "status": "Assigned to Contractor",
    "contractor": "IV Waste",
    "rowid": "1192227",
    "final_x": "3669866.79015",
    "final_y": "539170.72449",
    "longitude": "-90.10454484058863",
    "latitude": "29.976880706974313",
    "geocoded_column": {
      "latitude": "29.976880706974313",
      "longitude": "-90.10454484058863"
    }
  },
  {
    "service_request": "2025-1192226",
    "request_type": "Trash/Recycling",
    "request_reason": "Request a Large Item Pick Up",
    "date_created": "2025-05-14T14:25:21.000",
    "date_modified": "2025-05-14T16:03:08.000",
    "request_status": "Pending",
    "responsible_agency": "Department of Sanitation",
    "final_address": "920 Jena St",
    "address_councildis": "B",
    "status": "Assigned to Contractor",
    "contractor": "IV Waste",
    "rowid": "1192226",
    "final_x": "3670575.67124",
    "final_y": "518927.914359",
    "longitude": "-90.10299244412109",
    "latitude": "29.92119869110157",
    "geocoded_column": {
      "latitude": "29.92119869110157",
      "longitude": "-90.10299244412109"
    }
  },
  {
    "service_request": "2025-1192225",
    "request_type": "Trash/Recycling",
    "request_reason": "Request a Large Item Pick Up",
    "date_created": "2025-05-14T14:24:20.000",
    "date_modified": "2025-05-14T14:24:22.000",
    "request_status": "Pending",
    "responsible_agency": "Department of Sanitation",
    "final_address": "7809 Duke Ct",
    "address_councildis": "E",
    "status": "Assigned to Contractor",
    "contractor": "Waste Pro",
    "rowid": "1192225",
    "final_x": "3700152.04413",
    "final_y": "561189.964446",
    "longitude": "-90.00809071714623",
    "latitude": "30.036497565047505",
    "geocoded_column": {
      "latitude": "30.036497565047505",
      "longitude": "-90.00809071714623"
    }
  },
  {
    "service_request": "2025-1192224",
    "request_type": "Safety & Permits",
    "request_reason": "Zoning Enforcement",
    "date_created": "2025-05-14T14:23:32.000",
    "date_modified": "2025-05-14T14:23:33.000",
    "request_status": "Pending",
    "responsible_agency": "Safety and Permits",
    "final_address": "3436 S Liberty St",
    "address_councildis": "B",
    "status": "Pending",
    "rowid": "1192224",
    "final_x": "3672917.60731",
    "final_y": "523675.839611",
    "longitude": "-90.09543806874913",
    "latitude": "29.934184606106093",
    "geocoded_column": {
      "latitude": "29.934184606106093",
      "longitude": "-90.09543806874913"
    }
  },
  {
    "service_request": "2025-1192223",
    "request_type": "Abandoned Vehicles",
    "request_reason": "Abandoned/Junk Vehicles",
    "date_created": "2025-05-14T14:22:40.000",
    "date_modified": "2025-05-14T14:25:39.000",
    "request_status": "Pending",
    "responsible_agency": "Department of Public Works",
    "final_address": "HARMONY ST & ST CHARLES AVE",
    "address_councildis": "B",
    "status": "Pending",
    "rowid": "1192223",
    "final_x": "3674880.6",
    "final_y": "521808.88",
    "longitude": "-90.08930494982839",
    "latitude": "29.928992615151138",
    "geocoded_column": {
      "latitude": "29.928992615151138",
      "longitude": "-90.08930494982839"
    }
  },
  {
    "service_request": "2025-1192222",
    "request_type": "Trash/Recycling",
    "request_reason": "Order Recycling Cart",
    "date_created": "2025-05-14T14:21:35.000",
    "date_modified": "2025-05-14T14:21:37.000",
    "request_status": "Pending",
    "responsible_agency": "Department of Sanitation",
    "final_address": "983 N Carrollton Ave",
    "address_councildis": "A",
    "status": "Pending",
    "rowid": "1192222",
    "final_x": "3673506.54171",
    "final_y": "541126.792588",
    "longitude": "-90.09298245837843",
    "latitude": "29.982151397909092",
    "geocoded_column": {
      "latitude": "29.982151397909092",
      "longitude": "-90.09298245837843"
    }
  },
  {
    "service_request": "2025-1192221",
    "request_type": "Trash/Recycling",
    "request_reason": "Request a Large Item Pick Up",
    "date_created": "2025-05-14T14:19:18.000",
    "date_modified": "2025-05-14T15:58:00.000",
    "request_status": "Pending",
    "responsible_agency": "Department of Sanitation",
    "final_address": "2209 S Lopez St",
    "address_councildis": "A",
    "status": "Assigned to Contractor",
    "contractor": "IV Waste",
    "rowid": "1192221",
    "final_x": "3668970.46196",
    "final_y": "529105.9792",
    "longitude": "-90.10771574609977",
    "latitude": "29.949232395674844",
    "geocoded_column": {
      "latitude": "29.949232395674844",
      "longitude": "-90.10771574609977"
    }
  },
  {
    "service_request": "2025-1192220",
    "request_type": "Trash/Recycling",
    "request_reason": "Repair Trash Cart",
    "date_created": "2025-05-14T14:16:38.000",
    "date_modified": "2025-05-14T14:16:41.000",
    "request_status": "Pending",
    "responsible_agency": "Department of Sanitation",
    "final_address": "1415 Pine St",
    "address_councildis": "A",
    "status": "Assigned to Contractor",
    "contractor": "IV Waste",
    "rowid": "1192220",
    "final_x": "3664450.03386",
    "final_y": "527297.867711",
    "longitude": "-90.12204914790452",
    "latitude": "29.944392847611393",
    "geocoded_column": {
      "latitude": "29.944392847611393",
      "longitude": "-90.12204914790452"
    }
  },
  {
    "service_request": "2025-1192219",
    "request_type": "Trash/Recycling",
    "request_reason": "Missed Trash Pick-Up",
    "date_created": "2025-05-14T14:02:27.000",
    "date_modified": "2025-05-14T14:05:29.000",
    "case_close_date": "2025-05-14T09:05:26.000",
    "request_status": "Closed",
    "responsible_agency": "Department of Sanitation",
    "final_address": "0 BLK Acadiana Pl",
    "address_councildis": "E",
    "status": "Invalid Request",
    "contractor": "Waste Pro",
    "contractor_action": "Invalid",
    "rowid": "1192219",
    "final_x": "3725131.4083",
    "final_y": "564393.680055",
    "longitude": "-89.92902788187175",
    "latitude": "30.04448842646984",
    "geocoded_column": {
      "latitude": "30.04448842646984",
      "longitude": "-89.92902788187175"
    }
  },
  {
    "service_request": "2025-1192218",
    "request_type": "Property Maintenance",
    "request_reason": "Property Maintenance",
    "date_created": "2025-05-14T14:01:14.000",
    "date_modified": "2025-05-14T14:01:17.000",
    "request_status": "Pending",
    "responsible_agency": "Department of Code Enforcement",
    "final_address": "3220 Eagle St",
    "address_councildis": "A",
    "status": "Pending",
    "rowid": "1192218",
    "final_x": "3665010.60685",
    "final_y": "535443.04007",
    "longitude": "-90.12000693657741",
    "latitude": "29.966773113236734",
    "geocoded_column": {
      "latitude": "29.966773113236734",
      "longitude": "-90.12000693657741"
    }
  },
  {
    "service_request": "2025-1192217",
    "request_type": "Trash/Recycling",
    "request_reason": "Request a Large Item Pick Up",
    "date_created": "2025-05-14T13:59:14.000",
    "date_modified": "2025-05-14T13:59:19.000",
    "request_status": "Pending",
    "responsible_agency": "Department of Sanitation",
    "final_address": "4658 Galahad Dr",
    "address_councildis": "E",
    "status": "Assigned to Contractor",
    "contractor": "Waste Pro",
    "rowid": "1192217",
    "final_x": "3707199.46936",
    "final_y": "554857.55132",
    "longitude": "-89.98605490072747",
    "latitude": "30.018859905561634",
    "geocoded_column": {
      "latitude": "30.018859905561634",
      "longitude": "-89.98605490072747"
    }
  },
  {
    "service_request": "2025-1192216",
    "request_type": "Roads and Streets",
    "request_reason": "Debris in Driving Lanes",
    "date_created": "2025-05-14T13:54:37.000",
    "date_modified": "2025-05-14T13:54:39.000",
    "request_status": "Pending",
    "responsible_agency": "Department of Public Works",
    "final_address": "84 Yosemite Dr",
    "address_councildis": "C",
    "status": "Pending",
    "rowid": "1192216",
    "final_x": "3699469.64804",
    "final_y": "515930.704116",
    "longitude": "-90.01189668399347",
    "latitude": "29.912072682593276",
    "geocoded_column": {
      "latitude": "29.912072682593276",
      "longitude": "-90.01189668399347"
    }
  },
  {
    "service_request": "2025-1192215",
    "request_type": "Trash/Recycling",
    "request_reason": "Missed Trash Pick-Up",
    "date_created": "2025-05-14T13:53:35.000",
    "date_modified": "2025-05-14T13:53:37.000",
    "request_status": "Pending",
    "responsible_agency": "Department of Sanitation",
    "final_address": "4420 Longfellow Dr",
    "address_councildis": "E",
    "status": "Assigned to Contractor",
    "contractor": "Waste Pro",
    "rowid": "1192215",
    "final_x": "3709719.63326",
    "final_y": "554190.373784",
    "longitude": "-89.9781170834316",
    "latitude": "30.01694370897143",
    "geocoded_column": {
      "latitude": "30.01694370897143",
      "longitude": "-89.9781170834316"
    }
  },
  {
    "service_request": "2025-1192214",
    "request_type": "Trash/Recycling",
    "request_reason": "Request a Large Item Pick Up",
    "date_created": "2025-05-14T13:52:29.000",
    "date_modified": "2025-05-14T13:52:31.000",
    "request_status": "Pending",
    "responsible_agency": "Department of Sanitation",
    "final_address": "5311 Painters St",
    "address_councildis": "D",
    "status": "Assigned to Contractor",
    "contractor": "IV Waste",
    "rowid": "1192214",
    "final_x": "3686155.13359",
    "final_y": "552336.770582",
    "longitude": "-90.05263643879887",
    "latitude": "30.012592263054707",
    "geocoded_column": {
      "latitude": "30.012592263054707",
      "longitude": "-90.05263643879887"
    }
  },
  {
    "service_request": "2025-1192213",
    "request_type": "Trash/Recycling",
    "request_reason": "Request a Large Item Pick Up",
    "date_created": "2025-05-14T13:51:46.000",
    "date_modified": "2025-05-14T13:51:48.000",
    "request_status": "Pending",
    "responsible_agency": "Department of Sanitation",
    "final_address": "4520 Shalimar Dr",
    "address_councildis": "D",
    "status": "Assigned to Contractor",
    "contractor": "Waste Pro",
    "rowid": "1192213",
    "final_x": "3697213.27856",
    "final_y": "553089.870999",
    "longitude": "-90.0176716841174",
    "latitude": "30.014318526421114",
    "geocoded_column": {
      "latitude": "30.014318526421114",
      "longitude": "-90.0176716841174"
    }
  },
  {
    "service_request": "2025-1192212",
    "request_type": "Trash/Recycling",
    "request_reason": "Request a Large Item Pick Up",
    "date_created": "2025-05-14T13:50:52.000",
    "date_modified": "2025-05-14T13:50:54.000",
    "request_status": "Pending",
    "responsible_agency": "Department of Sanitation",
    "final_address": "7716 Keats St",
    "address_councildis": "E",
    "status": "Assigned to Contractor",
    "contractor": "Waste Pro",
    "rowid": "1192212",
    "final_x": "3696136.9464",
    "final_y": "559334.985757",
    "longitude": "-90.02084632927904",
    "latitude": "30.031524160460304",
    "geocoded_column": {
      "latitude": "30.031524160460304",
      "longitude": "-90.02084632927904"
    }
  },
  {
    "service_request": "2025-1192211",
    "request_type": "Street and Traffic Signs",
    "request_reason": "Street Name Sign Damaged or Missing",
    "date_created": "2025-05-14T13:49:27.000",
    "date_modified": "2025-05-14T13:49:29.000",
    "request_status": "Pending",
    "responsible_agency": "Department of Public Works",
    "final_address": "CARTIER AVE & MENDEZ ST",
    "address_councildis": "D",
    "status": "Pending",
    "rowid": "1192211",
    "final_x": "3677565.5",
    "final_y": "552995.68",
    "longitude": "-90.07975217381272",
    "latitude": "30.01466521100408",
    "geocoded_column": {
      "latitude": "30.01466521100408",
      "longitude": "-90.07975217381272"
    }
  },
  {
    "service_request": "2025-1192210",
    "request_type": "Property Maintenance",
    "request_reason": "Property Maintenance",
    "date_created": "2025-05-14T13:32:51.000",
    "date_modified": "2025-05-14T14:21:20.000",
    "case_close_date": "2025-05-14T09:21:19.000",
    "request_status": "Closed",
    "responsible_agency": "Department of Code Enforcement",
    "final_address": "1458 N Miro St",
    "address_councildis": "D",
    "status": "Referred to Code Enforcement",
    "rowid": "1192210",
    "final_x": "3679913.79355",
    "final_y": "538254.892169",
    "longitude": "-90.07284504731298",
    "latitude": "29.974062402863176",
    "geocoded_column": {
      "latitude": "29.974062402863176",
      "longitude": "-90.07284504731298"
    }
  },
  {
    "service_request": "2025-1192209",
    "request_type": "Roads and Streets",
    "request_reason": "Pothole",
    "date_created": "2025-05-14T13:31:37.000",
    "date_modified": "2025-05-14T13:31:38.000",
    "request_status": "Pending",
    "responsible_agency": "Department of Public Works",
    "final_address": "18 W Park Pl",
    "address_councildis": "A",
    "status": "Pending",
    "rowid": "1192209",
    "final_x": "3670117.60206",
    "final_y": "543765.082126",
    "longitude": "-90.10359696627691",
    "latitude": "29.98950622741276",
    "geocoded_column": {
      "latitude": "29.98950622741276",
      "longitude": "-90.10359696627691"
    }
  },
  {
    "service_request": "2025-1192208",
    "request_type": "Abandoned Vehicles",
    "request_reason": "Abandoned/Junk Vehicles",
    "date_created": "2025-05-14T13:31:13.000",
    "date_modified": "2025-05-14T13:32:49.000",
    "request_status": "Pending",
    "responsible_agency": "Department of Public Works",
    "final_address": "6595 Coveview Ct",
    "address_councildis": "E",
    "status": "Pending",
    "rowid": "1192208",
    "final_x": "3699000.4897",
    "final_y": "555821.967065",
    "longitude": "-90.01192547468308",
    "latitude": "30.021774207324132",
    "geocoded_column": {
      "latitude": "30.021774207324132",
      "longitude": "-90.01192547468308"
    }
  },
  {
    "service_request": "2025-1192207",
    "request_type": "Trash/Recycling",
    "request_reason": "Request a Large Item Pick Up",
    "date_created": "2025-05-14T13:30:52.000",
    "date_modified": "2025-05-14T13:30:54.000",
    "request_status": "Pending",
    "responsible_agency": "Department of Sanitation",
    "final_address": "1466 Murl St",
    "address_councildis": "C",
    "status": "Assigned to Contractor",
    "contractor": "Richards Disposal",
    "rowid": "1192207",
    "final_x": "3695451.78371",
    "final_y": "525933.020541",
    "longitude": "-90.02421738629891",
    "latitude": "29.939702448942903",
    "geocoded_column": {
      "latitude": "29.939702448942903",
      "longitude": "-90.02421738629891"
    }
  },
  {
    "service_request": "2025-1192206",
    "request_type": "Trash/Recycling",
    "request_reason": "Request a Large Item Pick Up",
    "date_created": "2025-05-14T13:29:29.000",
    "date_modified": "2025-05-14T13:29:31.000",
    "request_status": "Pending",
    "responsible_agency": "Department of Sanitation",
    "final_address": "3214 Annunciation St",
    "address_councildis": "B",
    "status": "Assigned to Contractor",
    "contractor": "IV Waste",
    "rowid": "1192206",
    "final_x": "3676206.04955",
    "final_y": "518923.787063",
    "longitude": "-90.0852199706331",
    "latitude": "29.921019907444926",
    "geocoded_column": {
      "latitude": "29.921019907444926",
      "longitude": "-90.0852199706331"
    }
  },
  {
    "service_request": "2025-1192205",
    "request_type": "Trash/Recycling",
    "request_reason": "Request a Large Item Pick Up",
    "date_created": "2025-05-14T13:29:03.000",
    "date_modified": "2025-05-14T13:29:05.000",
    "request_status": "Pending",
    "responsible_agency": "Department of Sanitation",
    "final_address": "915 Lowerline St",
    "address_councildis": "A",
    "status": "Assigned to Contractor",
    "contractor": "IV Waste",
    "rowid": "1192205",
    "final_x": "3663194.65741",
    "final_y": "526033.772862",
    "longitude": "-90.12605480368654",
    "latitude": "29.940953420906855",
    "geocoded_column": {
      "latitude": "29.940953420906855",
      "longitude": "-90.12605480368654"
    }
  },
  {
    "service_request": "2025-1192204",
    "request_type": "Trash/Recycling",
    "request_reason": "Request a Large Item Pick Up",
    "date_created": "2025-05-14T13:27:37.000",
    "date_modified": "2025-05-14T13:28:26.000",
    "request_status": "Pending",
    "responsible_agency": "Department of Sanitation",
    "final_address": "2729 Edna St",
    "address_councildis": "D",
    "status": "Assigned to Contractor",
    "contractor": "IV Waste",
    "rowid": "1192204",
    "final_x": "3689619.9638",
    "final_y": "545327.968975",
    "longitude": "-90.04193909236174",
    "latitude": "29.993213679326495",
    "geocoded_column": {
      "latitude": "29.993213679326495",
      "longitude": "-90.04193909236174"
    }
  },
  {
    "service_request": "2025-1192203",
    "request_type": "Trash/Recycling",
    "request_reason": "Request a Large Item Pick Up",
    "date_created": "2025-05-14T13:27:34.000",
    "date_modified": "2025-05-14T13:27:36.000",
    "request_status": "Pending",
    "responsible_agency": "Department of Sanitation",
    "final_address": "3549 Red Oak Ct",
    "address_councildis": "C",
    "status": "Assigned to Contractor",
    "contractor": "Richards Disposal",
    "rowid": "1192203",
    "final_x": "3703142.61726",
    "final_y": "513537.32517",
    "longitude": "-90.00039177653711",
    "latitude": "29.905374723175758",
    "geocoded_column": {
      "latitude": "29.905374723175758",
      "longitude": "-90.00039177653711"
    }
  },
  {
    "service_request": "2025-1192202",
    "request_type": "Trash/Recycling",
    "request_reason": "Request a Large Item Pick Up",
    "date_created": "2025-05-14T13:15:05.000",
    "date_modified": "2025-05-14T13:15:07.000",
    "request_status": "Pending",
    "responsible_agency": "Department of Sanitation",
    "final_address": "216 Bermuda St",
    "address_councildis": "C",
    "status": "Assigned to Contractor",
    "contractor": "Richards Disposal",
    "rowid": "1192202",
    "final_x": "3686164.25052",
    "final_y": "530988.794562",
    "longitude": "-90.05336106625528",
    "latitude": "29.953892607864447",
    "geocoded_column": {
      "latitude": "29.953892607864447",
      "longitude": "-90.05336106625528"
    }
  },
  {
    "service_request": "2025-1192201",
    "request_type": "Trash/Recycling",
    "request_reason": "Request a Large Item Pick Up",
    "date_created": "2025-05-14T13:13:33.000",
    "date_modified": "2025-05-14T13:13:34.000",
    "request_status": "Pending",
    "responsible_agency": "Department of Sanitation",
    "final_address": "8041 Wave Dr",
    "address_councildis": "E",
    "status": "Assigned to Contractor",
    "contractor": "Waste Pro",
    "rowid": "1192201",
    "final_x": "3714065.3964",
    "final_y": "570122.969447",
    "longitude": "-89.96378474204845",
    "latitude": "30.060609893722436",
    "geocoded_column": {
      "latitude": "30.060609893722436",
      "longitude": "-89.96378474204845"
    }
  },
  {
    "service_request": "2025-1192200",
    "request_type": "Roads and Streets",
    "request_reason": "Pothole",
    "date_created": "2025-05-14T13:12:16.000",
    "date_modified": "2025-05-14T13:39:48.000",
    "request_status": "Pending",
    "responsible_agency": "Department of Public Works",
    "final_address": "7310 Sardonyx St",
    "address_councildis": "D",
    "status": "Assigned to Contractor",
    "rowid": "1192200",
    "final_x": "3669508.51329",
    "final_y": "555629.360793",
    "longitude": "-90.10511921001164",
    "latitude": "30.022146806191035",
    "geocoded_column": {
      "latitude": "30.022146806191035",
      "longitude": "-90.10511921001164"
    }
  },
  {
    "service_request": "2025-1192199",
    "request_type": "Trash/Recycling",
    "request_reason": "Illegal Dumping",
    "date_created": "2025-05-14T13:10:11.000",
    "date_modified": "2025-05-14T13:10:14.000",
    "request_status": "Pending",
    "responsible_agency": "Department of Sanitation",
    "final_address": "3223 Third St",
    "address_councildis": "B",
    "status": "Pending",
    "rowid": "1192199",
    "final_x": "3673216.45371",
    "final_y": "527804.632959",
    "longitude": "-90.09435367953864",
    "latitude": "29.945528559596557",
    "geocoded_column": {
      "latitude": "29.945528559596557",
      "longitude": "-90.09435367953864"
    }
  },
  {
    "service_request": "2025-1192198",
    "request_type": "Trash/Recycling",
    "request_reason": "Replace Trash Cart",
    "date_created": "2025-05-14T13:09:03.000",
    "date_modified": "2025-05-14T13:09:04.000",
    "request_status": "Pending",
    "responsible_agency": "Department of Sanitation",
    "final_address": "801 Carondelet St",
    "address_councildis": "B",
    "status": "Assigned to Contractor",
    "contractor": "IV Waste",
    "rowid": "1192198",
    "final_x": "3679948.12296",
    "final_y": "528079.049279",
    "longitude": "-90.07309009028124",
    "latitude": "29.946081251945472",
    "geocoded_column": {
      "latitude": "29.946081251945472",
      "longitude": "-90.07309009028124"
    }
  },
  {
    "service_request": "2025-1192197",
    "request_type": "Trash/Recycling",
    "request_reason": "Repair Trash Cart",
    "date_created": "2025-05-14T13:08:55.000",
    "date_modified": "2025-05-14T13:08:56.000",
    "request_status": "Pending",
    "responsible_agency": "Department of Sanitation",
    "final_address": "32 Park Timbers Dr",
    "address_councildis": "C",
    "status": "Assigned to Contractor",
    "contractor": "Richards Disposal",
    "rowid": "1192197",
    "final_x": "3699279.65744",
    "final_y": "517497.80447",
    "longitude": "-90.0124393230512",
    "latitude": "29.91638770036931",
    "geocoded_column": {
      "latitude": "29.91638770036931",
      "longitude": "-90.0124393230512"
    }
  },
  {
    "service_request": "2025-1192196",
    "request_type": "Trash/Recycling",
    "request_reason": "Missed Trash Pick-Up",
    "date_created": "2025-05-14T13:08:39.000",
    "date_modified": "2025-05-14T14:57:51.000",
    "case_close_date": "2025-05-14T09:57:50.000",
    "request_status": "Closed",
    "responsible_agency": "Department of Sanitation",
    "final_address": "4210 Ulloa St",
    "address_councildis": "A",
    "status": "Invalid Request",
    "contractor": "IV Waste",
    "contractor_action": "Invalid",
    "rowid": "1192196",
    "final_x": "3669048.07994",
    "final_y": "536906.353224",
    "longitude": "-90.10720712159522",
    "latitude": "29.97067856272226",
    "geocoded_column": {
      "latitude": "29.97067856272226",
      "longitude": "-90.10720712159522"
    }
  },
  {
    "service_request": "2025-1192195",
    "request_type": "Street and Traffic Signs",
    "request_reason": "Traffic or Parking Sign Damaged or Missing",
    "date_created": "2025-05-14T13:07:56.000",
    "date_modified": "2025-05-14T13:07:58.000",
    "request_status": "Pending",
    "responsible_agency": "Department of Public Works",
    "final_address": "3528 Chestnut St",
    "address_councildis": "B",
    "status": "Pending",
    "rowid": "1192195",
    "final_x": "3674013.07944",
    "final_y": "519935.42668",
    "longitude": "-90.09210760878854",
    "latitude": "29.923867091507656",
    "geocoded_column": {
      "latitude": "29.923867091507656",
      "longitude": "-90.09210760878854"
    }
  },
  {
    "service_request": "2025-1192194",
    "request_type": "Abandoned Vehicles",
    "request_reason": "Abandoned/Junk Vehicles",
    "date_created": "2025-05-14T13:04:16.000",
    "date_modified": "2025-05-14T13:04:19.000",
    "request_status": "Pending",
    "responsible_agency": "Department of Public Works",
    "final_address": "1335 Atlantic Ave",
    "address_councildis": "C",
    "status": "Pending",
    "rowid": "1192194",
    "final_x": "3688596.60015",
    "final_y": "526442.147198",
    "longitude": "-90.04584203931907",
    "latitude": "29.94131594822395",
    "geocoded_column": {
      "latitude": "29.94131594822395",
      "longitude": "-90.04584203931907"
    }
  },
  {
    "service_request": "2025-1192193",
    "request_type": "Abandoned Vehicles",
    "request_reason": "Abandoned/Junk Vehicles",
    "date_created": "2025-05-14T13:01:23.000",
    "date_modified": "2025-05-14T13:01:25.000",
    "request_status": "Pending",
    "responsible_agency": "Department of Public Works",
    "final_address": "1335 Atlantic Ave",
    "address_councildis": "C",
    "status": "Pending",
    "rowid": "1192193",
    "final_x": "3688596.60015",
    "final_y": "526442.147198",
    "longitude": "-90.04584203931907",
    "latitude": "29.94131594822395",
    "geocoded_column": {
      "latitude": "29.94131594822395",
      "longitude": "-90.04584203931907"
    }
  },
  {
    "service_request": "2025-1192192",
    "request_type": "Abandoned Vehicles",
    "request_reason": "Abandoned/Junk Vehicles",
    "date_created": "2025-05-14T13:00:00.000",
    "date_modified": "2025-05-14T13:00:03.000",
    "request_status": "Pending",
    "responsible_agency": "Department of Public Works",
    "final_address": "1335 Atlantic Ave",
    "address_councildis": "C",
    "status": "Pending",
    "rowid": "1192192",
    "final_x": "3688596.60015",
    "final_y": "526442.147198",
    "longitude": "-90.04584203931907",
    "latitude": "29.94131594822395",
    "geocoded_column": {
      "latitude": "29.94131594822395",
      "longitude": "-90.04584203931907"
    }
  },
  {
    "service_request": "2025-1192191",
    "request_type": "Abandoned Vehicles",
    "request_reason": "Abandoned/Junk Vehicles",
    "date_created": "2025-05-14T12:59:14.000",
    "date_modified": "2025-05-14T12:59:17.000",
    "request_status": "Pending",
    "responsible_agency": "Department of Public Works",
    "final_address": "1335 Atlantic Ave",
    "address_councildis": "C",
    "status": "Pending",
    "rowid": "1192191",
    "final_x": "3688596.60015",
    "final_y": "526442.147198",
    "longitude": "-90.04584203931907",
    "latitude": "29.94131594822395",
    "geocoded_column": {
      "latitude": "29.94131594822395",
      "longitude": "-90.04584203931907"
    }
  },