[
  {
    "service_request": "2022-917677",
    "request_type": "Mosquito, Termite & Rodent Control",
    "request_reason": "Non-Rodent Complaint (Mice, Possums, Snakes)",
    "date_created": "2022-09-09T01:44:56.000",
    "date_modified": "2022-09-09T01:44:56.000",
    "request_status": "Pending",
    "responsible_agency": "Mosquito, Termite & Rodent Control Board",
    "final_address": "6701 Fleur-De-Lis Dr",
    "address_councildis": "A",
    "status": "Pending",
    "rowid": "917677",
    "final_x": "3665511.41952",
    "final_y": "552721.306838",
    "longitude": "-90.11784655209321",
    "latitude": "30.01426788145598",
    "geocoded_column": {
      "latitude": "30.01426788145598",
      "longitude": "-90.11784655209321"
    }
  },
  {
    "service_request": "2022-917676",
    "request_type": "Trash/Recycling",
    "request_reason": "Request a Large Item Pick Up",
    "date_created": "2022-09-09T01:42:28.000",
    "date_modified": "2022-09-09T01:42:28.000",
    "request_status": "Pending",
    "responsible_agency": "Department of Sanitation",
    "final_address": "5015 St Claude Ave",
    "address_councildis": "E",
    "status": "Assigned to Contractor",
    "contractor": "Metro Disposal",
    "rowid": "917676",
    "final_x": "3696113.05085",
    "final_y": "534351.361221",
    "longitude": "-90.02182547915295",
    "latitude": "29.962829149857008",
    "geocoded_column": {
      "latitude": "29.962829149857008",
      "longitude": "-90.02182547915295"
    }
  },
  {
    "service_request": "2022-917673",
    "request_type": "Trash/Recycling",
    "request_reason": "Missed Trash Pick-Up",
    "date_created": "2022-09-08T23:55:26.000",
    "date_modified": "2022-09-08T23:55:27.000",
    "request_status": "Pending",
    "responsible_agency": "Department of Sanitation",
    "final_address": "1241 Louisa St",
    "address_councildis": "C",
    "status": "Assigned to Contractor",
    "contractor": "Metro Disposal",
    "rowid": "917673",
    "final_x": "3689769.20848",
    "final_y": "536543.812295",
    "longitude": "-90.04178041706983",
    "latitude": "29.96905575152679",
    "geocoded_column": {
      "latitude": "29.96905575152679",
      "longitude": "-90.04178041706983"
    }
  },
  {
    "service_request": "2022-917672",
    "request_type": "Trash/Recycling",
    "request_reason": "Replace Trash Cart",
    "date_created": "2022-09-08T22:58:41.000",
    "date_modified": "2022-09-08T22:58:41.000",
    "request_status": "Pending",
    "responsible_agency": "Department of Sanitation",
    "final_address": "7938 Edward St",
    "address_councildis": "E",
    "status": "Assigned to Contractor",
    "contractor": "Metro Disposal",
    "rowid": "917672",
    "final_x": "3700515.55268",
    "final_y": "561861.346783",
    "longitude": "-90.0069174025866",
    "latitude": "30.03833203985176",
    "geocoded_column": {
      "latitude": "30.03833203985176",
      "longitude": "-90.0069174025866"
    }
  },
  {
    "service_request": "2022-917671",
    "request_type": "Roads/Drainage",
    "request_reason": "Catch Basin - Broken/Damage",
    "date_created": "2022-09-08T22:07:56.000",
    "date_modified": "2022-09-08T22:07:56.000",
    "request_status": "Pending",
    "responsible_agency": "Department of Public Works",
    "final_address": "5733 St Anthony Ave",
    "address_councildis": "D",
    "status": "Pending",
    "rowid": "917671",
    "final_x": "3682194.69404",
    "final_y": "554182.029784",
    "longitude": "-90.06508470030492",
    "latitude": "30.01778717364291",
    "geocoded_column": {
      "latitude": "30.01778717364291",
      "longitude": "-90.06508470030492"
    }
  },
  {
    "service_request": "2022-917670",
    "request_type": "Trash/Recycling",
    "request_reason": "Illegal Dumping",
    "date_created": "2022-09-08T21:58:39.000",
    "date_modified": "2022-09-08T21:58:39.000",
    "request_status": "Pending",
    "responsible_agency": "Department of Sanitation",
    "final_address": "6090 Bullard Ave",
    "address_councildis": "E",
    "status": "Pending",
    "rowid": "917670",
    "final_x": "3715239.41432",
    "final_y": "564292.826913",
    "longitude": "-89.96029457885659",
    "latitude": "30.044540755023633",
    "geocoded_column": {
      "latitude": "30.044540755023633",
      "longitude": "-89.96029457885659"
    }
  },
  {
    "service_request": "2022-917669",
    "request_type": "Property Maintenance",
    "request_reason": "Property Maintenance",
    "date_created": "2022-09-08T21:50:54.000",
    "date_modified": "2022-09-08T21:50:54.000",
    "request_status": "Pending",
    "responsible_agency": "Department of Code Enforcement",
    "final_address": "5701 Bullard Ave",
    "address_councildis": "E",
    "status": "Pending",
    "rowid": "917669",
    "final_x": "3716983.38597",
    "final_y": "562443.001631",
    "longitude": "-89.95485322485179",
    "latitude": "30.039396911398153",
    "geocoded_column": {
      "latitude": "30.039396911398153",
      "longitude": "-89.95485322485179"
    }
  },
  {
    "service_request": "2022-917668",
    "request_type": "Abandoned Vehicles",
    "request_reason": "Abandoned/Junk Vehicles",
    "date_created": "2022-09-08T21:48:28.000",
    "date_modified": "2022-09-08T21:48:28.000",
    "request_status": "Pending",
    "responsible_agency": "Department of Public Works",
    "final_address": "7300 Bullard Ave",
    "address_councildis": "E",
    "status": "Pending",
    "rowid": "917668",
    "final_x": "3714000.42603",
    "final_y": "565991.244195",
    "longitude": "-89.96414616814278",
    "latitude": "30.049251477133662",
    "geocoded_column": {
      "latitude": "30.049251477133662",
      "longitude": "-89.96414616814278"
    }
  },
  {
    "service_request": "2022-917667",
    "request_type": "Trash/Recycling",
    "request_reason": "Missed Trash Pick-Up",
    "date_created": "2022-09-08T21:47:22.000",
    "date_modified": "2022-09-08T21:47:22.000",
    "request_status": "Pending",
    "responsible_agency": "Department of Sanitation",
    "final_address": "722 Alvar St",
    "address_councildis": "C",
    "status": "Assigned to Contractor",
    "contractor": "Metro Disposal",
    "rowid": "917667",
    "final_x": "3691130.01712",
    "final_y": "534088.827269",
    "longitude": "-90.03757057926335",
    "latitude": "29.962263158864836",
    "geocoded_column": {
      "latitude": "29.962263158864836",
      "longitude": "-90.03757057926335"
    }
  },
  {
    "service_request": "2022-917666",
    "request_type": "Traffic Signals/Signs/Striping/Streetlights",
    "request_reason": "Street Light Outage/Malfunction",
    "date_created": "2022-09-08T21:44:58.000",
    "date_modified": "2022-09-08T21:44:59.000",
    "request_status": "Pending",
    "responsible_agency": "Department of Public Works",
    "final_address": "7500 Jonlee Dr",
    "address_councildis": "E",
    "status": "Pending",
    "contractor": "Legacy Professional Services",
    "rowid": "917666",
    "final_x": "3717487.51224",
    "final_y": "569870.57783",
    "longitude": "-89.95297728110366",
    "latitude": "30.059803012119666",
    "geocoded_column": {
      "latitude": "30.059803012119666",
      "longitude": "-89.95297728110366"
    }
  },
  {
    "service_request": "2022-917665",
    "request_type": "Trash/Recycling",
    "request_reason": "Illegal Dumping",
    "date_created": "2022-09-08T21:42:48.000",
    "date_modified": "2022-09-08T21:42:48.000",
    "request_status": "Pending",
    "responsible_agency": "Department of Sanitation",
    "final_address": "7506 Tricia Ct",
    "address_councildis": "E",
    "status": "Pending",
    "rowid": "917665",
    "final_x": "3718104.90111",
    "final_y": "570475.937511",
    "longitude": "-89.95100268946385",
    "latitude": "30.061447034740496",
    "geocoded_column": {
      "latitude": "30.061447034740496",
      "longitude": "-89.95100268946385"
    }
  },
  {
    "service_request": "2022-917664",
    "request_type": "Abandoned Vehicles",
    "request_reason": "Abandoned/Junk Vehicles",
    "date_created": "2022-09-08T21:34:54.000",
    "date_modified": "2022-09-08T21:34:54.000",
    "request_status": "Pending",
    "responsible_agency": "Department of Public Works",
    "final_address": "733 Tchoupitoulas St",
    "address_councildis": "B",
    "status": "Pending",
    "rowid": "917664",
    "final_x": "3681700.76623",
    "final_y": "527900.233215",
    "longitude": "-90.06756263693588",
    "latitude": "29.945536448011435",
    "geocoded_column": {
      "latitude": "29.945536448011435",
      "longitude": "-90.06756263693588"
    }
  },
  {
    "service_request": "2022-917663",
    "request_type": "Trash/Recycling",
    "request_reason": "Missed Trash Pick-Up",
    "date_created": "2022-09-08T21:32:09.000",
    "date_modified": "2022-09-08T21:32:10.000",
    "request_status": "Pending",
    "responsible_agency": "Department of Sanitation",
    "final_address": "7809 Mayo Rd",
    "address_councildis": "E",
    "status": "Assigned to Contractor",
    "contractor": "Metro Disposal",
    "rowid": "917663",
    "final_x": "3700680.38749",
    "final_y": "561372.604702",
    "longitude": "-90.00641437106806",
    "latitude": "30.036982942049587",
    "geocoded_column": {
      "latitude": "30.036982942049587",
      "longitude": "-90.00641437106806"
    }
  },
  {
    "service_request": "2022-917662",
    "request_type": "Trash/Recycling",
    "request_reason": "Missed Trash Pick-Up",
    "date_created": "2022-09-08T21:27:45.000",
    "date_modified": "2022-09-08T21:27:46.000",
    "request_status": "Pending",
    "responsible_agency": "Department of Sanitation",
    "final_address": "1011 N Rocheblave St",
    "address_councildis": "D",
    "status": "Assigned to Contractor",
    "contractor": "Richards Disposal",
    "rowid": "917662",
    "final_x": "3678265.95432",
    "final_y": "537367.602952",
    "longitude": "-90.07807999836189",
    "latitude": "29.97167240253669",
    "geocoded_column": {
      "latitude": "29.97167240253669",
      "longitude": "-90.07807999836189"
    }
  },
  {
    "service_request": "2022-917661",
    "request_type": "Trash/Recycling",
    "request_reason": "Replace Trash Cart",
    "date_created": "2022-09-08T21:23:34.000",
    "date_modified": "2022-09-08T21:23:35.000",
    "request_status": "Pending",
    "responsible_agency": "Department of Sanitation",
    "final_address": "2507 St Philip St",
    "address_councildis": "D",
    "status": "Assigned to Contractor",
    "contractor": "Richards Disposal",
    "rowid": "917661",
    "final_x": "3678167.35899",
    "final_y": "537304.889992",
    "longitude": "-90.07839354662946",
    "latitude": "29.971502932914195",
    "geocoded_column": {
      "latitude": "29.971502932914195",
      "longitude": "-90.07839354662946"
    }
  },
  {
    "service_request": "2022-917659",
    "request_type": "Trash/Recycling",
    "request_reason": "Missed Trash Pick-Up",
    "date_created": "2022-09-08T20:52:21.000",
    "date_modified": "2022-09-08T20:52:22.000",
    "request_status": "Pending",
    "responsible_agency": "Department of Sanitation",
    "final_address": "1345 Lesseps St",
    "address_councildis": "D",
    "status": "Assigned to Contractor",
    "contractor": "Metro Disposal",
    "rowid": "917659",
    "final_x": "3693003.47939",
    "final_y": "536145.427143",
    "longitude": "-90.03158070285227",
    "latitude": "29.967859696630697",
    "geocoded_column": {
      "latitude": "29.967859696630697",
      "longitude": "-90.03158070285227"
    }
  },
  {
    "service_request": "2022-917658",
    "request_type": "Trash/Recycling",
    "request_reason": "Return Recycling Cart",
    "date_created": "2022-09-08T20:42:09.000",
    "date_modified": "2022-09-08T20:42:09.000",
    "request_status": "Pending",
    "responsible_agency": "Department of Sanitation",
    "final_address": "801 Jena St",
    "address_councildis": "B",
    "status": "Pending",
    "rowid": "917658",
    "final_x": "3670728.44955",
    "final_y": "518413.313014",
    "longitude": "-90.10252763792063",
    "latitude": "29.91977918908989",
    "geocoded_column": {
      "latitude": "29.91977918908989",
      "longitude": "-90.10252763792063"
    }
  },
  {
    "service_request": "2022-917657",
    "request_type": "Trash/Recycling",
    "request_reason": "Missed Trash Pick-Up",
    "date_created": "2022-09-08T20:07:43.000",
    "date_modified": "2022-09-08T20:07:44.000",
    "request_status": "Pending",
    "responsible_agency": "Department of Sanitation",
    "final_address": "7500 Block of Hickman Ave, New Orleans, Louisiana, 70127",
    "status": "Assigned to Contractor",
    "rowid": "917657",
    "longitude": "0.0",
    "latitude": "0.0",
    "geocoded_column": {
      "latitude": "0.0",
      "longitude": "0.0"
    }
  },
  {
    "service_request": "2022-917656",
    "request_type": "Trash/Recycling",
    "request_reason": "Replace Recycling Cart",
    "date_created": "2022-09-08T19:57:07.000",
    "date_modified": "2022-09-08T19:57:07.000",
    "request_status": "Pending",
    "responsible_agency": "Department of Sanitation",
    "final_address": "7715 Panola St",
    "address_councildis": "A",
    "status": "Pending",
    "rowid": "917656",
    "final_x": "3665136.77543",
    "final_y": "529869.627201",
    "longitude": "-90.11979490222309",
    "latitude": "29.95144437657975",
    "geocoded_column": {
      "latitude": "29.95144437657975",
      "longitude": "-90.11979490222309"
    }
  },
  {
    "service_request": "2022-917655",
    "request_type": "Trash/Recycling",
    "request_reason": "Missed Trash Pick-Up",
    "date_created": "2022-09-08T19:47:06.000",
    "date_modified": "2022-09-08T19:47:07.000",
    "request_status": "Pending",
    "responsible_agency": "Department of Sanitation",
    "final_address": "550 Philip St",
    "address_councildis": "B",
    "status": "Assigned to Contractor",
    "contractor": "Richards Disposal",
    "rowid": "917655",
    "final_x": "3679645.58824",
    "final_y": "520350.031352",
    "longitude": "-90.07431343130152",
    "latitude": "29.924838149324717",
    "geocoded_column": {
      "latitude": "29.924838149324717",
      "longitude": "-90.07431343130152"
    }
  },
  {
    "service_request": "2022-917654",
    "request_type": "Safety & Permits",
    "request_reason": "Construction permit",
    "date_created": "2022-09-08T19:46:26.000",
    "date_modified": "2022-09-08T19:46:26.000",
    "request_status": "Pending",
    "responsible_agency": "Department of Code Enforcement",
    "status": "Pending",
    "rowid": "917654",
    "longitude": "0.0",
    "latitude": "0.0",
    "geocoded_column": {
      "latitude": "0.0",
      "longitude": "0.0"
    }
  },
  {
    "service_request": "2022-917653",
    "request_type": "Health Related Questions",
    "request_reason": "Noise Ordinance Complaint",
    "date_created": "2022-09-08T19:43:03.000",
    "date_modified": "2022-09-08T19:43:03.000",
    "request_status": "Pending",
    "responsible_agency": "Health Department",
    "final_address": "5723 Eads St.",
    "address_councildis": "D",
    "status": "Pending",
    "rowid": "917653",
    "final_x": "3686889.31714",
    "final_y": "554345.936536",
    "longitude": "-90.05024574799342",
    "latitude": "30.01809414620427",
    "geocoded_column": {
      "latitude": "30.01809414620427",
      "longitude": "-90.05024574799342"
    }
  },
  {
    "service_request": "2022-917652",
    "request_type": "Trash/Recycling",
    "request_reason": "Replace Trash Cart",
    "date_created": "2022-09-08T19:27:24.000",
    "date_modified": "2022-09-08T19:27:25.000",
    "request_status": "Pending",
    "responsible_agency": "Department of Sanitation",
    "final_address": "New Orleans,LA",
    "status": "Assigned to Contractor",
    "rowid": "917652",
    "longitude": "0.0",
    "latitude": "0.0",
    "geocoded_column": {
      "latitude": "0.0",
      "longitude": "0.0"
    }
  },
  {
    "service_request": "2022-917651",
    "request_type": "Trash/Recycling",
    "request_reason": "Request a Large Item Pick Up",
    "date_created": "2022-09-08T19:21:11.000",
    "date_modified": "2022-09-08T19:21:12.000",
    "request_status": "Pending",
    "responsible_agency": "Department of Sanitation",
    "final_address": "3407 Napoleon Ave",
    "address_councildis": "B",
    "status": "Assigned to Contractor",
    "contractor": "Richards Disposal",
    "rowid": "917651",
    "final_x": "3670297.1371",
    "final_y": "527348.538495",
    "longitude": "-90.10358638905268",
    "latitude": "29.9443609219593",
    "geocoded_column": {
      "latitude": "29.9443609219593",
      "longitude": "-90.10358638905268"
    }
  },
  {
    "service_request": "2022-917650",
    "request_type": "Trash/Recycling",
    "request_reason": "Missed Trash Pick-Up",
    "date_created": "2022-09-08T19:20:32.000",
    "date_modified": "2022-09-08T19:20:32.000",
    "request_status": "Pending",
    "responsible_agency": "Department of Sanitation",
    "final_address": "3120 Camp St",
    "address_councildis": "B",
    "status": "Assigned to Contractor",
    "contractor": "Richards Disposal",
    "rowid": "917650",
    "final_x": "3675742.05153",
    "final_y": "520380.38028",
    "longitude": "-90.08663457968987",
    "latitude": "29.925038958379158",
    "geocoded_column": {
      "latitude": "29.925038958379158",
      "longitude": "-90.08663457968987"
    }
  },
  {
    "service_request": "2022-917649",
    "request_type": "Traffic Signals/Signs/Striping/Streetlights",
    "request_reason": "Traffic Sign Missing/Damaged",
    "date_created": "2022-09-08T19:12:50.000",
    "date_modified": "2022-09-08T19:12:50.000",
    "request_status": "Pending",
    "responsible_agency": "Department of Public Works",
    "final_address": "6700 Cindy Pl",
    "address_councildis": "E",
    "status": "Pending",
    "rowid": "917649",
    "final_x": "3707199.446",
    "final_y": "558627.075036",
    "longitude": "-89.98591491844806",
    "latitude": "30.02922462809095",
    "geocoded_column": {
      "latitude": "30.02922462809095",
      "longitude": "-89.98591491844806"
    }
  },
  {
    "service_request": "2022-917648",
    "request_type": "Trash/Recycling",
    "request_reason": "Missed Trash Pick-Up",
    "date_created": "2022-09-08T18:49:18.000",
    "date_modified": "2022-09-08T18:49:19.000",
    "request_status": "Pending",
    "responsible_agency": "Department of Sanitation",
    "final_address": "3117 N Villere St",
    "address_councildis": "C",
    "status": "Assigned to Contractor",
    "contractor": "Metro Disposal",
    "rowid": "917648",
    "final_x": "3689429.97321",
    "final_y": "537103.568072",
    "longitude": "-90.04283183289137",
    "latitude": "29.97060539285459",
    "geocoded_column": {
      "latitude": "29.97060539285459",
      "longitude": "-90.04283183289137"
    }
  },
  {
    "service_request": "2022-917647",
    "request_type": "Trash/Recycling",
    "request_reason": "Missed Trash Pick-Up",
    "date_created": "2022-09-08T18:45:03.000",
    "date_modified": "2022-09-08T18:45:04.000",
    "request_status": "Pending",
    "responsible_agency": "Department of Sanitation",
    "final_address": "1314 Pauline St",
    "address_councildis": "D",
    "status": "Assigned to Contractor",
    "contractor": "Metro Disposal",
    "rowid": "917647",
    "final_x": "3691394.50435",
    "final_y": "536335.275847",
    "longitude": "-90.03665509241793",
    "latitude": "29.968431876642164",
    "geocoded_column": {
      "latitude": "29.968431876642164",
      "longitude": "-90.03665509241793"
    }
  },
  {
    "service_request": "2022-917645",
    "request_type": "Property Maintenance",
    "request_reason": "Property Maintenance",
    "date_created": "2022-09-08T18:29:31.000",
    "date_modified": "2022-09-08T18:29:31.000",
    "request_status": "Pending",
    "responsible_agency": "Department of Code Enforcement",
    "final_address": "4673 Read Blvd",
    "address_councildis": "E",
    "status": "Pending",
    "rowid": "917645",
    "final_x": "3712901.97637",
    "final_y": "555844.908697",
    "longitude": "-89.96800001556353",
    "latitude": "30.021389154955834",
    "geocoded_column": {
      "latitude": "30.021389154955834",
      "longitude": "-89.96800001556353"
    }
  },
  {
    "service_request": "2022-917644",
    "request_type": "Trash/Recycling",
    "request_reason": "Request a Large Item Pick Up",
    "date_created": "2022-09-08T18:28:54.000",
    "date_modified": "2022-09-08T18:28:54.000",
    "request_status": "Pending",
    "responsible_agency": "Department of Sanitation",
    "final_address": "5710 Norland Ave",
    "address_councildis": "C",
    "status": "Assigned to Contractor",
    "contractor": "Richards Disposal",
    "rowid": "917644",
    "final_x": "3704688.11652",
    "final_y": "520638.356345",
    "longitude": "-89.9952524234325",
    "latitude": "29.924850588694593",
    "geocoded_column": {
      "latitude": "29.924850588694593",
      "longitude": "-89.9952524234325"
    }
  },
  {
    "service_request": "2022-917643",
    "request_type": "Roads/Drainage",
    "request_reason": "Street Flooding / Drainage",
    "date_created": "2022-09-08T18:25:29.000",
    "date_modified": "2022-09-08T18:25:29.000",
    "request_status": "Pending",
    "responsible_agency": "Department of Public Works",
    "final_address": "6316 Lafaye St",
    "address_councildis": "D",
    "status": "Pending",
    "rowid": "917643",
    "final_x": "3686982.30767",
    "final_y": "556581.574042",
    "longitude": "-90.04987281228256",
    "latitude": "30.02423845712832",
    "geocoded_column": {
      "latitude": "30.02423845712832",
      "longitude": "-90.04987281228256"
    }
  },
  {
    "service_request": "2022-917642",
    "request_type": "Property Maintenance",
    "request_reason": "Property Maintenance",
    "date_created": "2022-09-08T18:25:05.000",
    "date_modified": "2022-09-08T18:25:05.000",
    "request_status": "Pending",
    "responsible_agency": "Department of Code Enforcement",
    "final_address": "4673 Read Blvd",
    "address_councildis": "E",
    "status": "Pending",
    "rowid": "917642",
    "final_x": "3712901.97637",
    "final_y": "555844.908697",
    "longitude": "-89.96800001556353",
    "latitude": "30.021389154955834",
    "geocoded_column": {
      "latitude": "30.021389154955834",
      "longitude": "-89.96800001556353"
    }
  },
  {
    "service_request": "2022-917641",
    "request_type": "Trash/Recycling",
    "request_reason": "Missed Trash Pick-Up",
    "date_created": "2022-09-08T18:24:23.000",
    "date_modified": "2022-09-08T18:24:24.000",
    "request_status": "Pending",
    "responsible_agency": "Department of Sanitation",
    "final_address": "7500 Vanderkloot Ave",
    "address_councildis": "E",
    "status": "Assigned to Contractor",
    "contractor": "Metro Disposal",
    "rowid": "917641",
    "final_x": "3706032.03934",
    "final_y": "562747.179552",
    "longitude": "-89.98945116667767",
    "latitude": "30.040590989361235",
    "geocoded_column": {
      "latitude": "30.040590989361235",
      "longitude": "-89.98945116667767"
    }
  },
  {
    "service_request": "2022-917640",
    "request_type": "Trash/Recycling",
    "request_reason": "Missed Trash Pick-Up",
    "date_created": "2022-09-08T18:23:25.000",
    "date_modified": "2022-09-08T18:23:26.000",
    "request_status": "Pending",
    "responsible_agency": "Department of Sanitation",
    "final_address": "7416 Ebbtide Dr",
    "address_councildis": "E",
    "status": "Assigned to Contractor",
    "contractor": "Metro Disposal",
    "rowid": "917640",
    "final_x": "3702373.52714",
    "final_y": "560825.026654",
    "longitude": "-90.00108383511044",
    "latitude": "30.035423295570673",
    "geocoded_column": {
      "latitude": "30.035423295570673",
      "longitude": "-90.00108383511044"
    }
  },
  {
    "service_request": "2022-917638",
    "request_type": "Abandoned Vehicles",
    "request_reason": "Abandoned/Junk Vehicles",
    "date_created": "2022-09-08T18:16:23.000",
    "date_modified": "2022-09-08T18:16:23.000",
    "request_status": "Pending",
    "responsible_agency": "Department of Public Works",
    "final_address": "329 S Scott St, New Orleans, Louisiana, 70119",
    "address_councildis": "A",
    "status": "Pending",
    "rowid": "917638",
    "final_x": "3671087.98273",
    "final_y": "536979.448328",
    "longitude": "-90.1007623641937",
    "latitude": "29.970819371517806",
    "geocoded_column": {
      "latitude": "29.970819371517806",
      "longitude": "-90.1007623641937"
    }
  },
  {
    "service_request": "2022-917635",
    "request_type": "Trash/Recycling",
    "request_reason": "Request a Large Item Pick Up",
    "date_created": "2022-09-08T18:12:04.000",
    "date_modified": "2022-09-08T18:12:05.000",
    "request_status": "Pending",
    "responsible_agency": "Department of Sanitation",
    "final_address": "1561 N Roman St, New Orleans, Louisiana, 70116",
    "address_councildis": "D",
    "status": "Assigned to Contractor",
    "contractor": "Metro Disposal",
    "rowid": "917635",
    "final_x": "3681448.28885",
    "final_y": "538061.599241",
    "longitude": "-90.06800550659365",
    "latitude": "29.973484409985602",
    "geocoded_column": {
      "latitude": "29.973484409985602",
      "longitude": "-90.06800550659365"
    }
  },
  {
    "service_request": "2022-917634",
    "request_type": "Trash/Recycling",
    "request_reason": "Request a Large Item Pick Up",
    "date_created": "2022-09-08T18:09:43.000",
    "date_modified": "2022-09-08T18:09:44.000",
    "request_status": "Pending",
    "responsible_agency": "Department of Sanitation",
    "final_address": "727 Wagner St",
    "address_councildis": "C",
    "status": "Assigned to Contractor",
    "contractor": "Richards Disposal",
    "rowid": "917634",
    "final_x": "3690490.19792",
    "final_y": "528738.741184",
    "longitude": "-90.03978175484028",
    "latitude": "29.94757215499732",
    "geocoded_column": {
      "latitude": "29.94757215499732",
      "longitude": "-90.03978175484028"
    }
  },
  {
    "service_request": "2022-917633",
    "request_type": "Trash/Recycling",
    "request_reason": "Missed Trash Pick-Up",
    "date_created": "2022-09-08T18:07:25.000",
    "date_modified": "2022-09-08T18:07:26.000",
    "request_status": "Pending",
    "responsible_agency": "Department of Sanitation",
    "final_address": "818 Bartholomew St",
    "address_councildis": "C",
    "status": "Assigned to Contractor",
    "contractor": "Metro Disposal",
    "rowid": "917633",
    "final_x": "3691517.80656",
    "final_y": "534323.757701",
    "longitude": "-90.03633760403893",
    "latitude": "29.96289707154333",
    "geocoded_column": {
      "latitude": "29.96289707154333",
      "longitude": "-90.03633760403893"
    }
  },
  {
    "service_request": "2022-917632",
    "request_type": "Property Maintenance",
    "request_reason": "Property Maintenance",
    "date_created": "2022-09-08T18:05:45.000",
    "date_modified": "2022-09-08T18:05:45.000",
    "request_status": "Pending",
    "responsible_agency": "Department of Code Enforcement",
    "final_address": "739 Elysian Fields Ave",
    "address_councildis": "C",
    "status": "Pending",
    "rowid": "917632",
    "final_x": "3685181.88207",
    "final_y": "535195.604102",
    "longitude": "-90.05631493582123",
    "latitude": "29.965490025029638",
    "geocoded_column": {
      "latitude": "29.965490025029638",
      "longitude": "-90.05631493582123"
    }
  },
  {
    "service_request": "2022-917631",
    "request_type": "Trash/Recycling",
    "request_reason": "Missed Trash Pick-Up",
    "date_created": "2022-09-08T18:03:15.000",
    "date_modified": "2022-09-08T18:03:16.000",
    "request_status": "Pending",
    "responsible_agency": "Department of Sanitation",
    "final_address": "7000 Boston Dr",
    "address_councildis": "E",
    "status": "Assigned to Contractor",
    "contractor": "Metro Disposal",
    "rowid": "917631",
    "final_x": "3706446.19684",
    "final_y": "560516.831838",
    "longitude": "-89.98822504571027",
    "latitude": "30.034445051456853",
    "geocoded_column": {
      "latitude": "30.034445051456853",
      "longitude": "-89.98822504571027"
    }
  },
  {
    "service_request": "2022-917630",
    "request_type": "Trash/Recycling",
    "request_reason": "Order Recycling Cart",
    "date_created": "2022-09-08T17:59:55.000",
    "date_modified": "2022-09-08T17:59:55.000",
    "request_status": "Pending",
    "responsible_agency": "Department of Sanitation",
    "final_address": "1200 Independence St",
    "address_councildis": "D",
    "status": "Pending",
    "rowid": "917630",
    "final_x": "3691021.9606",
    "final_y": "535915.560135",
    "longitude": "-90.03784658555348",
    "latitude": "29.967289393030683",
    "geocoded_column": {
      "latitude": "29.967289393030683",
      "longitude": "-90.03784658555348"
    }
  },
  {
    "service_request": "2022-917629",
    "request_type": "Safety & Permits",
    "request_reason": "Short term Rental (Enforcement)",
    "date_created": "2022-09-08T17:46:30.000",
    "date_modified": "2022-09-08T17:46:30.000",
    "request_status": "Pending",
    "responsible_agency": "Safety and Permits",
    "final_address": "4015 Ulloa St",
    "address_councildis": "A",
    "status": "Pending",
    "rowid": "917629",
    "final_x": "3669964.54945",
    "final_y": "536293.755335",
    "longitude": "-90.1043335432278",
    "latitude": "29.96896712653616",
    "geocoded_column": {
      "latitude": "29.96896712653616",
      "longitude": "-90.1043335432278"
    }
  },
  {
    "service_request": "2022-917628",
    "request_type": "Property Maintenance",
    "request_reason": "Property Maintenance",
    "date_created": "2022-09-08T17:44:59.000",
    "date_modified": "2022-09-08T17:44:59.000",
    "request_status": "Pending",
    "responsible_agency": "Department of Code Enforcement",
    "final_address": "6415 N Robertson St",
    "address_councildis": "E",
    "status": "Pending",
    "rowid": "917628",
    "final_x": "3701144.15498",
    "final_y": "534311.479365",
    "longitude": "-90.00593946379801",
    "latitude": "29.962560190903687",
    "geocoded_column": {
      "latitude": "29.962560190903687",
      "longitude": "-90.00593946379801"
    }
  },
  {
    "service_request": "2022-917627",
    "request_type": "Property Maintenance",
    "request_reason": "Property Maintenance",
    "date_created": "2022-09-08T17:44:28.000",
    "date_modified": "2022-09-08T17:45:46.000",
    "request_status": "Pending",
    "responsible_agency": "Department of Code Enforcement",
    "final_address": "6419 N Robertson St",
    "address_councildis": "E",
    "status": "Pending",
    "rowid": "917627",
    "final_x": "3701191.87389",
    "final_y": "534291.507653",
    "longitude": "-90.00578950571537",
    "latitude": "29.962503755770825",
    "geocoded_column": {
      "latitude": "29.962503755770825",
      "longitude": "-90.00578950571537"
    }
  },
  {
    "service_request": "2022-917626",
    "request_type": "Roads/Drainage",
    "request_reason": "Catch Basin - Clogged",
    "date_created": "2022-09-08T17:44:12.000",
    "date_modified": "2022-09-08T17:44:12.000",
    "request_status": "Pending",
    "responsible_agency": "Department of Public Works",
    "final_address": "1500 BLK Chippewa St",
    "address_councildis": "B",
    "status": "Pending",
    "rowid": "917626",
    "final_x": "3681360.36264",
    "final_y": "523367.761779",
    "longitude": "-90.06879532998134",
    "latitude": "29.93308399556683",
    "geocoded_column": {
      "latitude": "29.93308399556683",
      "longitude": "-90.06879532998134"
    }
  },
  {
    "service_request": "2022-917625",
    "request_type": "Trash/Recycling",
    "request_reason": "MIssed Recycling Pick-Up",
    "date_created": "2022-09-08T17:43:55.000",
    "date_modified": "2022-09-08T17:43:55.000",
    "request_status": "Pending",
    "responsible_agency": "Department of Sanitation",
    "final_address": "3802 State Street Dr",
    "address_councildis": "A",
    "status": "Assigned to Contractor",
    "contractor": "Richards Disposal",
    "rowid": "917625",
    "final_x": "3667983.10484",
    "final_y": "529462.759873",
    "longitude": "-90.11082126017182",
    "latitude": "29.950242428610746",
    "geocoded_column": {
      "latitude": "29.950242428610746",
      "longitude": "-90.11082126017182"
    }
  },
  {
    "service_request": "2022-917624",
    "request_type": "Property Maintenance",
    "request_reason": "Property Maintenance",
    "date_created": "2022-09-08T17:43:21.000",
    "date_modified": "2022-09-08T17:43:21.000",
    "request_status": "Pending",
    "responsible_agency": "Department of Code Enforcement",
    "final_address": "6414 N Robertson St",
    "address_councildis": "E",
    "status": "Pending",
    "rowid": "917624",
    "final_x": "3701133.95889",
    "final_y": "534248.421893",
    "longitude": "-90.00597396814986",
    "latitude": "29.962387130243364",
    "geocoded_column": {
      "latitude": "29.962387130243364",
      "longitude": "-90.00597396814986"
    }
  },
  {
    "service_request": "2022-917623",
    "request_type": "Trash/Recycling",
    "request_reason": "Missed Trash Pick-Up",
    "date_created": "2022-09-08T17:41:10.000",
    "date_modified": "2022-09-08T17:41:10.000",
    "request_status": "Pending",
    "responsible_agency": "Department of Sanitation",
    "final_address": "2129 Laurel St",
    "address_councildis": "B",
    "status": "Assigned to Contractor",
    "contractor": "Richards Disposal",
    "rowid": "917623",
    "final_x": "3679355.41237",
    "final_y": "521572.098425",
    "longitude": "-90.07518706318035",
    "latitude": "29.928207198526273",
    "geocoded_column": {
      "latitude": "29.928207198526273",
      "longitude": "-90.07518706318035"
    }
  },
  {
    "service_request": "2022-917622",
    "request_type": "Abandoned Vehicles",
    "request_reason": "Abandoned/Junk Vehicles",
    "date_created": "2022-09-08T17:36:30.000",
    "date_modified": "2022-09-08T17:36:30.000",
    "request_status": "Pending",
    "responsible_agency": "Department of Public Works",
    "final_address": "2434 Valence St",
    "address_councildis": "B",
    "status": "Pending",
    "rowid": "917622",
    "final_x": "3669375.44724",
    "final_y": "523867.319292",
    "longitude": "-90.10661410794569",
    "latitude": "29.934815861037908",
    "geocoded_column": {
      "latitude": "29.934815861037908",
      "longitude": "-90.10661410794569"
    }
  },
  {
    "service_request": "2022-917621",
    "request_type": "Abandoned Vehicles",
    "request_reason": "Abandoned/Junk Vehicles",
    "date_created": "2022-09-08T17:35:24.000",
    "date_modified": "2022-09-08T17:35:24.000",
    "request_status": "Pending",
    "responsible_agency": "Department of Public Works",
    "final_address": "2426 Valence St",
    "address_councildis": "B",
    "status": "Pending",
    "rowid": "917621",
    "final_x": "3669380.49236",
    "final_y": "523807.896827",
    "longitude": "-90.10660018892456",
    "latitude": "29.934652319835834",
    "geocoded_column": {
      "latitude": "29.934652319835834",
      "longitude": "-90.10660018892456"
    }
  },
  {
    "service_request": "2022-917620",
    "request_type": "Roads/Drainage",
    "request_reason": "Pothole",
    "date_created": "2022-09-08T17:28:19.000",
    "date_modified": "2022-09-08T17:28:19.000",
    "request_status": "Pending",
    "responsible_agency": "Department of Public Works",
    "final_address": "6001 Bullard Ave",
    "address_councildis": "E",
    "status": "Pending",
    "rowid": "917620",
    "final_x": "3716552.55148",
    "final_y": "564356.781025",
    "longitude": "-89.95614208134184",
    "latitude": "30.044673272013434",
    "geocoded_column": {
      "latitude": "30.044673272013434",
      "longitude": "-89.95614208134184"
    }
  },
  {
    "service_request": "2022-917619",
    "request_type": "Trash/Recycling",
    "request_reason": "Replace Trash Cart",
    "date_created": "2022-09-08T17:24:00.000",
    "date_modified": "2022-09-08T17:24:01.000",
    "request_status": "Pending",
    "responsible_agency": "Department of Sanitation",
    "final_address": "8721 Aberdeen Rd",
    "address_councildis": "E",
    "status": "Assigned to Contractor",
    "contractor": "Metro Disposal",
    "rowid": "917619",
    "final_x": "3704685.75185",
    "final_y": "562367.240223",
    "longitude": "-89.99371988976154",
    "latitude": "30.03958965314262",
    "geocoded_column": {
      "latitude": "30.03958965314262",
      "longitude": "-89.99371988976154"
    }
  },
  {
    "service_request": "2022-917618",
    "request_type": "Trash/Recycling",
    "request_reason": "Replace Trash Cart",
    "date_created": "2022-09-08T17:22:35.000",
    "date_modified": "2022-09-08T17:22:36.000",
    "request_status": "Pending",
    "responsible_agency": "Department of Sanitation",
    "final_address": "8721 Aberdeen Rd",
    "address_councildis": "E",
    "status": "Assigned to Contractor",
    "contractor": "Metro Disposal",
    "rowid": "917618",
    "final_x": "3704685.75185",
    "final_y": "562367.240223",
    "longitude": "-89.99371988976154",
    "latitude": "30.03958965314262",
    "geocoded_column": {
      "latitude": "30.03958965314262",
      "longitude": "-89.99371988976154"
    }
  },
  {
    "service_request": "2022-917617",
    "request_type": "Trash/Recycling",
    "request_reason": "Missed Trash Pick-Up",
    "date_created": "2022-09-08T17:19:26.000",
    "date_modified": "2022-09-08T17:19:26.000",
    "request_status": "Pending",
    "responsible_agency": "Department of Sanitation",
    "final_address": "1719 Toledano St",
    "address_councildis": "B",
    "status": "Assigned to Contractor",
    "contractor": "Richards Disposal",
    "rowid": "917617",
    "final_x": "3674403.64788",
    "final_y": "522246.697082",
    "longitude": "-90.09079560780958",
    "latitude": "29.930210700280217",
    "geocoded_column": {
      "latitude": "29.930210700280217",
      "longitude": "-90.09079560780958"
    }
  },
  {
    "service_request": "2022-917616",
    "request_type": "Trash/Recycling",
    "request_reason": "Request a Large Item Pick Up",
    "date_created": "2022-09-08T17:19:05.000",
    "date_modified": "2022-09-08T17:19:06.000",
    "request_status": "Pending",
    "responsible_agency": "Department of Sanitation",
    "final_address": "4934 Sandalwood St",
    "address_councildis": "E",
    "status": "Assigned to Contractor",
    "contractor": "Metro Disposal",
    "rowid": "917616",
    "final_x": "3712035.66539",
    "final_y": "557324.259419",
    "longitude": "-89.9706817048853",
    "latitude": "30.025485141915752",
    "geocoded_column": {
      "latitude": "30.025485141915752",
      "longitude": "-89.9706817048853"
    }
  },
  {
    "service_request": "2022-917615",
    "request_type": "Trash/Recycling",
    "request_reason": "Missed Trash Pick-Up",
    "date_created": "2022-09-08T17:17:42.000",
    "date_modified": "2022-09-08T17:17:42.000",
    "request_status": "Pending",
    "responsible_agency": "Department of Sanitation",
    "final_address": "7517 Mayo Blvd, New Orleans, Louisiana, 70126",
    "status": "Assigned to Contractor",
    "rowid": "917615",
    "longitude": "0.0",
    "latitude": "0.0",
    "geocoded_column": {
      "latitude": "0.0",
      "longitude": "0.0"
    }
  },
  {
    "service_request": "2022-917614",
    "request_type": "Trash/Recycling",
    "request_reason": "Missed Trash Pick-Up",
    "date_created": "2022-09-08T17:16:43.000",
    "date_modified": "2022-09-08T17:16:44.000",
    "request_status": "Pending",
    "responsible_agency": "Department of Sanitation",
    "final_address": "7517 Mayo Rd",
    "address_councildis": "E",
    "status": "Assigned to Contractor",
    "contractor": "Metro Disposal",
    "rowid": "917614",
    "final_x": "3700992.47556",
    "final_y": "560554.536734",
    "longitude": "-90.00545807048017",
    "latitude": "30.034723632592225",
    "geocoded_column": {
      "latitude": "30.034723632592225",
      "longitude": "-90.00545807048017"
    }
  },
  {
    "service_request": "2022-917613",
    "request_type": "Trash/Recycling",
    "request_reason": "Replace Trash Cart",
    "date_created": "2022-09-08T17:14:53.000",
    "date_modified": "2022-09-08T17:14:53.000",
    "request_status": "Pending",
    "responsible_agency": "Department of Sanitation",
    "final_address": "1027 Lowerline St",
    "address_councildis": "A",
    "status": "Assigned to Contractor",
    "contractor": "Richards Disposal",
    "rowid": "917613",
    "final_x": "3663445.5641",
    "final_y": "526404.908926",
    "longitude": "-90.12525028849525",
    "latitude": "29.94196665526646",
    "geocoded_column": {
      "latitude": "29.94196665526646",
      "longitude": "-90.12525028849525"
    }
  },
  {
    "service_request": "2022-917612",
    "request_type": "Trash/Recycling",
    "request_reason": "Order Recycling Cart",
    "date_created": "2022-09-08T17:13:57.000",
    "date_modified": "2022-09-08T17:13:57.000",
    "request_status": "Pending",
    "responsible_agency": "Department of Sanitation",
    "final_address": "2830 Third St",
    "address_councildis": "B",
    "status": "Pending",
    "rowid": "917612",
    "final_x": "3673917.21019",
    "final_y": "526606.926654",
    "longitude": "-90.09218212134677",
    "latitude": "29.942214407268917",
    "geocoded_column": {
      "latitude": "29.942214407268917",
      "longitude": "-90.09218212134677"
    }
  },
  {
    "service_request": "2022-917611",
    "request_type": "Trash/Recycling",
    "request_reason": "Missed Trash Pick-Up",
    "date_created": "2022-09-08T17:13:30.000",
    "date_modified": "2022-09-08T17:13:31.000",
    "request_status": "Pending",
    "responsible_agency": "Department of Sanitation",
    "final_address": "440 Millaudon St",
    "address_councildis": "A",
    "status": "Assigned to Contractor",
    "contractor": "Richards Disposal",
    "rowid": "917611",
    "final_x": "3662047.29587",
    "final_y": "524917.913468",
    "longitude": "-90.12971425500784",
    "latitude": "29.93791835189131",
    "geocoded_column": {
      "latitude": "29.93791835189131",
      "longitude": "-90.12971425500784"
    }
  },
  {
    "service_request": "2022-917610",
    "request_type": "Trash/Recycling",
    "request_reason": "Missed Trash Pick-Up",
    "date_created": "2022-09-08T17:10:08.000",
    "date_modified": "2022-09-08T17:10:10.000",
    "request_status": "Pending",
    "responsible_agency": "Department of Sanitation",
    "final_address": "902 Jackson Ave",
    "address_councildis": "B",
    "status": "Assigned to Contractor",
    "contractor": "Richards Disposal",
    "rowid": "917610",
    "final_x": "3679231.64923",
    "final_y": "521484.270393",
    "longitude": "-90.0755807990971",
    "latitude": "29.927969436201504",
    "geocoded_column": {
      "latitude": "29.927969436201504",
      "longitude": "-90.0755807990971"
    }
  },
  {
    "service_request": "2022-917609",
    "request_type": "Traffic Signals/Signs/Striping/Streetlights",
    "request_reason": "Street Light Outage/Malfunction",
    "date_created": "2022-09-08T17:04:00.000",
    "date_modified": "2022-09-08T17:04:05.000",
    "request_status": "Pending",
    "responsible_agency": "Department of Public Works",
    "final_address": "7522 W Laverne St",
    "address_councildis": "D",
    "status": "Pending",
    "contractor": "Legacy Professional Services",
    "rowid": "917609",
    "final_x": "3695184.33584",
    "final_y": "558410.232668",
    "longitude": "-90.02389000390387",
    "latitude": "30.029011410769257",
    "geocoded_column": {
      "latitude": "30.029011410769257",
      "longitude": "-90.02389000390387"
    }
  },
  {
    "service_request": "2022-917608",
    "request_type": "Traffic Signals/Signs/Striping/Streetlights",
    "request_reason": "Street Light Outage/Malfunction",
    "date_created": "2022-09-08T17:00:42.000",
    "date_modified": "2022-09-08T17:00:42.000",
    "request_status": "Pending",
    "responsible_agency": "Department of Public Works",
    "final_address": "2226 Fourth St",
    "address_councildis": "B",
    "status": "Pending",
    "contractor": "Legacy Professional Services",
    "rowid": "917608",
    "final_x": "3674852.52968",
    "final_y": "524657.323452",
    "longitude": "-90.0892959366329",
    "latitude": "29.936825746486512",
    "geocoded_column": {
      "latitude": "29.936825746486512",
      "longitude": "-90.0892959366329"
    }
  },
  {
    "service_request": "2022-917607",
    "request_type": "Roads/Drainage",
    "request_reason": "Street Flooding / Drainage",
    "date_created": "2022-09-08T16:55:37.000",
    "date_modified": "2022-09-08T16:55:37.000",
    "request_status": "Pending",
    "responsible_agency": "Department of Public Works",
    "final_address": "316 Millaudon St",
    "address_councildis": "A",
    "status": "Pending",
    "rowid": "917607",
    "final_x": "3661522.46976",
    "final_y": "524272.029308",
    "longitude": "-90.13139257319253",
    "latitude": "29.93615752271255",
    "geocoded_column": {
      "latitude": "29.93615752271255",
      "longitude": "-90.13139257319253"
    }
  },
  {
    "service_request": "2022-917606",
    "request_type": "Property Maintenance",
    "request_reason": "Property Maintenance",
    "date_created": "2022-09-08T16:54:20.000",
    "date_modified": "2022-09-08T16:55:09.000",
    "request_status": "Pending",
    "responsible_agency": "Department of Code Enforcement",
    "final_address": "1400 BLK Congress St",
    "address_councildis": "C",
    "status": "Pending",
    "rowid": "917606",
    "final_x": "3691041.10246",
    "final_y": "536872.99133",
    "longitude": "-90.03775194848686",
    "latitude": "29.969921396465146",
    "geocoded_column": {
      "latitude": "29.969921396465146",
      "longitude": "-90.03775194848686"
    }
  },
  {
    "service_request": "2022-917605",
    "request_type": "Roads/Drainage",
    "request_reason": "Pothole",
    "date_created": "2022-09-08T16:50:16.000",
    "date_modified": "2022-09-08T16:50:16.000",
    "request_status": "Pending",
    "responsible_agency": "Department of Public Works",
    "final_address": "3718 Toledano St",
    "address_councildis": "B",
    "status": "Pending",
    "rowid": "917605",
    "final_x": "3671421.63611",
    "final_y": "528944.059456",
    "longitude": "-90.09998179146129",
    "latitude": "29.948714850220647",
    "geocoded_column": {
      "latitude": "29.948714850220647",
      "longitude": "-90.09998179146129"
    }
  },
  {
    "service_request": "2022-917604",
    "request_type": "Trash/Recycling",
    "request_reason": "Missed Trash Pick-Up",
    "date_created": "2022-09-08T16:48:52.000",
    "date_modified": "2022-09-08T16:49:54.000",
    "request_status": "Pending",
    "responsible_agency": "Department of Sanitation",
    "final_address": "800 BLK Mazant St",
    "address_councildis": "C",
    "status": "Assigned to Contractor",
    "contractor": "Metro Disposal",
    "rowid": "917604",
    "final_x": "3691865.34294",
    "final_y": "534262.449964",
    "longitude": "-90.03524232543657",
    "latitude": "29.962717675532257",
    "geocoded_column": {
      "latitude": "29.962717675532257",
      "longitude": "-90.03524232543657"
    }
  },
  {
    "service_request": "2022-917603",
    "request_type": "Trash/Recycling",
    "request_reason": "Missed Trash Pick-Up",
    "date_created": "2022-09-08T16:48:35.000",
    "date_modified": "2022-09-08T16:48:36.000",
    "request_status": "Pending",
    "responsible_agency": "Department of Sanitation",
    "final_address": "2615 Magazine St",
    "address_councildis": "B",
    "status": "Assigned to Contractor",
    "contractor": "Richards Disposal",
    "rowid": "917603",
    "final_x": "3677405.89666",
    "final_y": "521117.626169",
    "longitude": "-90.08135692787272",
    "latitude": "29.927016262978352",
    "geocoded_column": {
      "latitude": "29.927016262978352",
      "longitude": "-90.08135692787272"
    }
  },
  {
    "service_request": "2022-917602",
    "request_type": "Trash/Recycling",
    "request_reason": "Replace Trash Cart",
    "date_created": "2022-09-08T16:45:58.000",
    "date_modified": "2022-09-08T16:46:00.000",
    "request_status": "Pending",
    "responsible_agency": "Department of Sanitation",
    "final_address": "21 Audubon Pl",
    "address_councildis": "A",
    "status": "Assigned to Contractor",
    "contractor": "Richards Disposal",
    "rowid": "917602",
    "final_x": "3664373.1865",
    "final_y": "525061.114877",
    "longitude": "-90.12236641301351",
    "latitude": "29.938244725948756",
    "geocoded_column": {
      "latitude": "29.938244725948756",
      "longitude": "-90.12236641301351"
    }
  },
  {
    "service_request": "2022-917601",
    "request_type": "Trash/Recycling",
    "request_reason": "Missed Trash Pick-Up",
    "date_created": "2022-09-08T16:44:09.000",
    "date_modified": "2022-09-08T16:44:09.000",
    "request_status": "Pending",
    "responsible_agency": "Department of Sanitation",
    "final_address": "1669 Chippewa St",
    "address_councildis": "B",
    "status": "Assigned to Contractor",
    "contractor": "Richards Disposal",
    "rowid": "917601",
    "final_x": "3680944.06626",
    "final_y": "522304.192058",
    "longitude": "-90.0701465629236",
    "latitude": "29.93017215549153",
    "geocoded_column": {
      "latitude": "29.93017215549153",
      "longitude": "-90.0701465629236"
    }
  },
  {
    "service_request": "2022-917600",
    "request_type": "EMS",
    "request_reason": "EMS Complaint",
    "date_created": "2022-09-08T16:43:21.000",
    "date_modified": "2022-09-08T16:43:22.000",
    "request_status": "Pending",
    "responsible_agency": "Emergency Medical Services",
    "final_address": "300 BLK Bourbon St",
    "address_councildis": "C",
    "status": "Pending",
    "rowid": "917600",
    "final_x": "3681489.24033",
    "final_y": "531659.947623",
    "longitude": "-90.06809941719105",
    "latitude": "29.9558808179842",
    "geocoded_column": {
      "latitude": "29.9558808179842",
      "longitude": "-90.06809941719105"
    }
  },
  {
    "service_request": "2022-917599",
    "request_type": "Traffic Signals/Signs/Striping/Streetlights",
    "request_reason": "Street Light Outage/Malfunction",
    "date_created": "2022-09-08T16:37:26.000",
    "date_modified": "2022-09-08T16:37:27.000",
    "request_status": "Pending",
    "responsible_agency": "Department of Public Works",
    "final_address": "7825 Bass St",
    "address_councildis": "E",
    "status": "Pending",
    "contractor": "Legacy Professional Services",
    "rowid": "917599",
    "final_x": "3719950.86694",
    "final_y": "573882.428778",
    "longitude": "-89.9450372118941",
    "latitude": "30.07075209190991",
    "geocoded_column": {
      "latitude": "30.07075209190991",
      "longitude": "-89.9450372118941"
    }
  },
  {
    "service_request": "2022-917598",
    "request_type": "Abandoned Vehicles",
    "request_reason": "Abandoned/Junk Vehicles",
    "date_created": "2022-09-08T16:35:30.000",
    "date_modified": "2022-09-08T16:35:30.000",
    "request_status": "Pending",
    "responsible_agency": "Department of Public Works",
    "final_address": "N WHITE ST & MAUREPAS ST",
    "address_councildis": "A",
    "status": "Pending",
    "rowid": "917598",
    "final_x": "3677723.7",
    "final_y": "540709.48",
    "longitude": "-90.07967704827139",
    "latitude": "29.980877737239293",
    "geocoded_column": {
      "latitude": "29.980877737239293",
      "longitude": "-90.07967704827139"
    }
  },
  {
    "service_request": "2022-917597",
    "request_type": "Trash/Recycling",
    "request_reason": "Missed Trash Pick-Up",
    "date_created": "2022-09-08T16:35:30.000",
    "date_modified": "2022-09-08T16:35:30.000",
    "request_status": "Pending",
    "responsible_agency": "Department of Sanitation",
    "final_address": "800 BLK Touro St",
    "address_councildis": "C",
    "status": "Assigned to Contractor",
    "contractor": "Metro Disposal",
    "rowid": "917597",
    "final_x": "3684304.80688",
    "final_y": "535342.517685",
    "longitude": "-90.0590795371169",
    "latitude": "29.96592083496315",
    "geocoded_column": {
      "latitude": "29.96592083496315",
      "longitude": "-90.0590795371169"
    }
  },
  {
    "service_request": "2022-917596",
    "request_type": "Roads/Drainage",
    "request_reason": "Street Subsidence (Sinking)",
    "date_created": "2022-09-08T16:31:14.000",
    "date_modified": "2022-09-08T16:31:14.000",
    "request_status": "Pending",
    "responsible_agency": "Department of Public Works",
    "final_address": "1831 Governor Nicholls St",
    "address_councildis": "D",
    "status": "Pending",
    "rowid": "917596",
    "final_x": "3680397.05845",
    "final_y": "536486.976519",
    "longitude": "-90.07138028012072",
    "latitude": "29.96918661726015",
    "geocoded_column": {
      "latitude": "29.96918661726015",
      "longitude": "-90.07138028012072"
    }
  },
  {
    "service_request": "2022-917595",
    "request_type": "Trash/Recycling",
    "request_reason": "Missed Trash Pick-Up",
    "date_created": "2022-09-08T16:29:39.000",
    "date_modified": "2022-09-08T16:29:39.000",
    "request_status": "Pending",
    "responsible_agency": "Department of Sanitation",
    "final_address": "7524 Devine Ave",
    "address_councildis": "E",
    "status": "Assigned to Contractor",
    "contractor": "Metro Disposal",
    "rowid": "917595",
    "final_x": "3705731.49617",
    "final_y": "562779.225504",
    "longitude": "-89.99039978884545",
    "latitude": "30.04068879169362",
    "geocoded_column": {
      "latitude": "30.04068879169362",
      "longitude": "-89.99039978884545"
    }
  },
  {
    "service_request": "2022-917594",
    "request_type": "Trash/Recycling",
    "request_reason": "Replace Recycling Cart",
    "date_created": "2022-09-08T16:28:40.000",
    "date_modified": "2022-09-08T16:28:40.000",
    "request_status": "Pending",
    "responsible_agency": "Department of Sanitation",
    "final_address": "2015 Broadway St, New Orleans, Louisiana, 70118",
    "address_councildis": "A",
    "status": "Pending",
    "rowid": "917594",
    "final_x": "3665865.84788",
    "final_y": "528921.091968",
    "longitude": "-90.11752461726748",
    "latitude": "29.948814960589814",
    "geocoded_column": {
      "latitude": "29.948814960589814",
      "longitude": "-90.11752461726748"
    }
  },
  {
    "service_request": "2022-917593",
    "request_type": "Trash/Recycling",
    "request_reason": "Replace Trash Cart",
    "date_created": "2022-09-08T16:25:51.000",
    "date_modified": "2022-09-08T16:25:51.000",
    "request_status": "Pending",
    "responsible_agency": "Department of Sanitation",
    "final_address": "2015 Broadway St, New Orleans, Louisiana, 70118",
    "address_councildis": "A",
    "status": "Assigned to Contractor",
    "contractor": "Richards Disposal",
    "rowid": "917593",
    "final_x": "3665865.84788",
    "final_y": "528921.091968",
    "longitude": "-90.11752461726748",
    "latitude": "29.948814960589814",
    "geocoded_column": {
      "latitude": "29.948814960589814",
      "longitude": "-90.11752461726748"
    }
  },
  {
    "service_request": "2022-917592",
    "request_type": "Abandoned Vehicles",
    "request_reason": "Abandoned/Junk Vehicles",
    "date_created": "2022-09-08T16:24:25.000",
    "date_modified": "2022-09-08T16:25:46.000",
    "request_status": "Pending",
    "responsible_agency": "Department of Public Works",
    "final_address": "JACKSON BARRACKS & DELERY ST & DOUGLASS ST",
    "address_councildis": "E",
    "status": "Pending",
    "rowid": "917592",
    "final_x": "3699606.5",
    "final_y": "530878.18",
    "longitude": "-90.01092026343063",
    "latitude": "29.95316872790163",
    "geocoded_column": {
      "latitude": "29.95316872790163",
      "longitude": "-90.01092026343063"
    }
  },
  {
    "service_request": "2022-917591",
    "request_type": "Trash/Recycling",
    "request_reason": "Request a Large Item Pick Up",
    "date_created": "2022-09-08T16:20:38.000",
    "date_modified": "2022-09-08T16:20:39.000",
    "request_status": "Pending",
    "responsible_agency": "Department of Sanitation",
    "final_address": "1024 Fourth St",
    "address_councildis": "B",
    "status": "Assigned to Contractor",
    "contractor": "Richards Disposal",
    "rowid": "917591",
    "final_x": "3677373.71701",
    "final_y": "520855.896057",
    "longitude": "-90.08146753732505",
    "latitude": "29.92629755697452",
    "geocoded_column": {
      "latitude": "29.92629755697452",
      "longitude": "-90.08146753732505"
    }
  },
  {
    "service_request": "2022-917590",
    "request_type": "Trash/Recycling",
    "request_reason": "Replace Trash Cart",
    "date_created": "2022-09-08T16:19:54.000",
    "date_modified": "2022-09-08T16:19:55.000",
    "request_status": "Pending",
    "responsible_agency": "Department of Sanitation",
    "final_address": "1827 Jackson Ave, New Orleans, Louisiana, 70113",
    "address_councildis": "B",
    "status": "Assigned to Contractor",
    "contractor": "Richards Disposal",
    "rowid": "917590",
    "final_x": "3676931.91221",
    "final_y": "524739.0375",
    "longitude": "-90.08272840340027",
    "latitude": "29.93698819341559",
    "geocoded_column": {
      "latitude": "29.93698819341559",
      "longitude": "-90.08272840340027"
    }
  },
  {
    "service_request": "2022-917589",
    "request_type": "Trash/Recycling",
    "request_reason": "Request a Large Item Pick Up",
    "date_created": "2022-09-08T16:18:26.000",
    "date_modified": "2022-09-08T16:18:27.000",
    "request_status": "Pending",
    "responsible_agency": "Department of Sanitation",
    "final_address": "5935 Saint Roch Ave, New Orleans, Louisiana, 70122",
    "status": "Assigned to Contractor",
    "rowid": "917589",
    "longitude": "0.0",
    "latitude": "0.0",
    "geocoded_column": {
      "latitude": "0.0",
      "longitude": "0.0"
    }
  },
  {
    "service_request": "2022-917588",
    "request_type": "Roads/Drainage",
    "request_reason": "Pothole",
    "date_created": "2022-09-08T16:17:42.000",
    "date_modified": "2022-09-08T16:17:42.000",
    "request_status": "Pending",
    "responsible_agency": "Department of Public Works",
    "final_address": "1931 Eagle St",
    "address_councildis": "A",
    "status": "Pending",
    "rowid": "917588",
    "final_x": "3662003.11987",
    "final_y": "532039.863619",
    "longitude": "-90.12961751995729",
    "latitude": "29.957502710075374",
    "geocoded_column": {
      "latitude": "29.957502710075374",
      "longitude": "-90.12961751995729"
    }
  },
  {
    "service_request": "2022-917587",
    "request_type": "Trash/Recycling",
    "request_reason": "Replace Trash Cart",
    "date_created": "2022-09-08T16:17:20.000",
    "date_modified": "2022-09-08T16:17:20.000",
    "request_status": "Pending",
    "responsible_agency": "Department of Sanitation",
    "final_address": "1827 Jackson Ave, New Orleans, Louisiana, 70113",
    "address_councildis": "B",
    "status": "Assigned to Contractor",
    "contractor": "Richards Disposal",
    "rowid": "917587",
    "final_x": "3676931.91221",
    "final_y": "524739.0375",
    "longitude": "-90.08272840340027",
    "latitude": "29.93698819341559",
    "geocoded_column": {
      "latitude": "29.93698819341559",
      "longitude": "-90.08272840340027"
    }
  },
  {
    "service_request": "2022-917586",
    "request_type": "Trash/Recycling",
    "request_reason": "Repair Trash Cart",
    "date_created": "2022-09-08T16:13:21.000",
    "date_modified": "2022-09-08T16:13:21.000",
    "request_status": "Pending",
    "responsible_agency": "Department of Sanitation",
    "final_address": "2233 Jefferson Ave",
    "address_councildis": "B",
    "status": "Assigned to Contractor",
    "contractor": "Richards Disposal",
    "rowid": "917586",
    "final_x": "3667962.32218",
    "final_y": "523905.758332",
    "longitude": "-90.11107404406737",
    "latitude": "29.934963079430577",
    "geocoded_column": {
      "latitude": "29.934963079430577",
      "longitude": "-90.11107404406737"
    }
  },
  {
    "service_request": "2022-917585",
    "request_type": "Trash/Recycling",
    "request_reason": "Request a Large Item Pick Up",
    "date_created": "2022-09-08T16:13:09.000",
    "date_modified": "2022-09-08T16:13:10.000",
    "request_status": "Pending",
    "responsible_agency": "Department of Sanitation",
    "final_address": "5919 Saint Roch Ave, New Orleans, Louisiana, 70122",
    "status": "Assigned to Contractor",
    "rowid": "917585",
    "longitude": "0.0",
    "latitude": "0.0",
    "geocoded_column": {
      "latitude": "0.0",
      "longitude": "0.0"
    }
  },
  {
    "service_request": "2022-917584",
    "request_type": "Trash/Recycling",
    "request_reason": "Request a Large Item Pick Up",
    "date_created": "2022-09-08T16:09:06.000",
    "date_modified": "2022-09-08T16:09:06.000",
    "request_status": "Pending",
    "responsible_agency": "Department of Sanitation",
    "final_address": "5230 Bundy Rd",
    "address_councildis": "E",
    "status": "Assigned to Contractor",
    "contractor": "Metro Disposal",
    "rowid": "917584",
    "final_x": "3708651.47064",
    "final_y": "557554.375387",
    "longitude": "-89.98136659472259",
    "latitude": "30.026228096199436",
    "geocoded_column": {
      "latitude": "30.026228096199436",
      "longitude": "-89.98136659472259"
    }
  },
  {
    "service_request": "2022-917583",
    "request_type": "Property Maintenance",
    "request_reason": "Property Maintenance",
    "date_created": "2022-09-08T16:09:01.000",
    "date_modified": "2022-09-08T16:09:01.000",
    "request_status": "Pending",
    "responsible_agency": "Department of Code Enforcement",
    "final_address": "2081 Hope St",
    "address_councildis": "D",
    "status": "Pending",
    "rowid": "917583",
    "final_x": "3683203.70293",
    "final_y": "542130.569101",
    "longitude": "-90.06231900370038",
    "latitude": "29.984619235984905",
    "geocoded_column": {
      "latitude": "29.984619235984905",
      "longitude": "-90.06231900370038"
    }
  },
  {
    "service_request": "2022-917582",
    "request_type": "Roads/Drainage",
    "request_reason": "Damaged Sidewalk",
    "date_created": "2022-09-08T15:56:33.000",
    "date_modified": "2022-09-08T15:56:33.000",
    "request_status": "Pending",
    "responsible_agency": "Department of Public Works",
    "final_address": "2000 St Philip St",
    "address_councildis": "D",
    "status": "Pending",
    "rowid": "917582",
    "final_x": "3679551.93237",
    "final_y": "536140.933639",
    "longitude": "-90.07406125995627",
    "latitude": "29.968260683709104",
    "geocoded_column": {
      "latitude": "29.968260683709104",
      "longitude": "-90.07406125995627"
    }
  },
  {
    "service_request": "2022-917581",
    "request_type": "Abandoned Vehicles",
    "request_reason": "Abandoned/Junk Vehicles",
    "date_created": "2022-09-08T15:51:57.000",
    "date_modified": "2022-09-08T15:51:57.000",
    "request_status": "Pending",
    "responsible_agency": "Department of Public Works",
    "final_address": "2081 Hope St",
    "address_councildis": "D",
    "status": "Pending",
    "rowid": "917581",
    "final_x": "3683203.70293",
    "final_y": "542130.569101",
    "longitude": "-90.06231900370038",
    "latitude": "29.984619235984905",
    "geocoded_column": {
      "latitude": "29.984619235984905",
      "longitude": "-90.06231900370038"
    }
  },
  {
    "service_request": "2022-917580",
    "request_type": "Trash/Recycling",
    "request_reason": "Repair Trash Cart",
    "date_created": "2022-09-08T15:50:30.000",
    "date_modified": "2022-09-08T15:50:31.000",
    "request_status": "Pending",
    "responsible_agency": "Department of Sanitation",
    "final_address": "2429 Halsey Ave",
    "address_councildis": "C",
    "status": "Assigned to Contractor",
    "contractor": "Richards Disposal",
    "rowid": "917580",
    "final_x": "3697627.38135",
    "final_y": "522133.088826",
    "longitude": "-90.01748652697556",
    "latitude": "29.929185422375124",
    "geocoded_column": {
      "latitude": "29.929185422375124",
      "longitude": "-90.01748652697556"
    }
  },
  {
    "service_request": "2022-917579",
    "request_type": "Trash/Recycling",
    "request_reason": "Missed Trash Pick-Up",
    "date_created": "2022-09-08T15:47:37.000",
    "date_modified": "2022-09-08T15:47:38.000",
    "request_status": "Pending",
    "responsible_agency": "Department of Sanitation",
    "final_address": "2406 Jena St",
    "address_councildis": "B",
    "status": "Assigned to Contractor",
    "contractor": "Richards Disposal",
    "rowid": "917579",
    "final_x": "3670110.44455",
    "final_y": "523755.263227",
    "longitude": "-90.10429752008308",
    "latitude": "29.9344860859236",
    "geocoded_column": {
      "latitude": "29.9344860859236",
      "longitude": "-90.10429752008308"
    }
  },
  {
    "service_request": "2022-917578",
    "request_type": "Trash/Recycling",
    "request_reason": "Missed Trash Pick-Up",
    "date_created": "2022-09-08T15:47:19.000",
    "date_modified": "2022-09-08T15:47:19.000",
    "request_status": "Pending",
    "responsible_agency": "Department of Sanitation",
    "final_address": "2404 Jena St",
    "address_councildis": "B",
    "status": "Assigned to Contractor",
    "contractor": "Richards Disposal",
    "rowid": "917578",
    "final_x": "3670112.26209",
    "final_y": "523737.684539",
    "longitude": "-90.10429237738977",
    "latitude": "29.93443769658357",
    "geocoded_column": {
      "latitude": "29.93443769658357",
      "longitude": "-90.10429237738977"
    }
  },
  {
    "service_request": "2022-917577",
    "request_type": "Trash/Recycling",
    "request_reason": "MIssed Recycling Pick-Up",
    "date_created": "2022-09-08T15:39:13.000",
    "date_modified": "2022-09-08T15:39:14.000",
    "request_status": "Pending",
    "responsible_agency": "Department of Sanitation",
    "final_address": "1451 Second St",
    "address_councildis": "B",
    "status": "Assigned to Contractor",
    "contractor": "Richards Disposal",
    "rowid": "917577",
    "final_x": "3677092.96418",
    "final_y": "522605.842938",
    "longitude": "-90.08229348240076",
    "latitude": "29.931117772489646",
    "geocoded_column": {
      "latitude": "29.931117772489646",
      "longitude": "-90.08229348240076"
    }
  },
  {
    "service_request": "2022-917576",
    "request_type": "Trash/Recycling",
    "request_reason": "Replace Trash Cart",
    "date_created": "2022-09-08T15:37:04.000",
    "date_modified": "2022-09-08T15:37:04.000",
    "request_status": "Pending",
    "responsible_agency": "Department of Sanitation",
    "final_address": "824 Eighth St",
    "address_councildis": "B",
    "status": "Assigned to Contractor",
    "contractor": "Richards Disposal",
    "rowid": "917576",
    "final_x": "3676575.11131",
    "final_y": "519450.253815",
    "longitude": "-90.08403688940926",
    "latitude": "29.922456462282046",
    "geocoded_column": {
      "latitude": "29.922456462282046",
      "longitude": "-90.08403688940926"
    }
  },
  {
    "service_request": "2022-917575",
    "request_type": "Abandoned Vehicles",
    "request_reason": "Abandoned/Junk Vehicles",
    "date_created": "2022-09-08T15:33:44.000",
    "date_modified": "2022-09-08T15:35:11.000",
    "request_status": "Pending",
    "responsible_agency": "Department of Public Works",
    "final_address": "PANOLA ST & PINE ST",
    "address_councildis": "A",
    "status": "Pending",
    "rowid": "917575",
    "final_x": "3665697.2",
    "final_y": "529309.08",
    "longitude": "-90.11804412007923",
    "latitude": "29.949886721399242",
    "geocoded_column": {
      "latitude": "29.949886721399242",
      "longitude": "-90.11804412007923"
    }
  },
  {
    "service_request": "2022-917574",
    "request_type": "Trash/Recycling",
    "request_reason": "Missed Trash Pick-Up",
    "date_created": "2022-09-08T15:31:34.000",
    "date_modified": "2022-09-08T15:31:35.000",
    "request_status": "Pending",
    "responsible_agency": "Department of Sanitation",
    "final_address": "1018 Josephine St",
    "address_councildis": "B",
    "status": "Assigned to Contractor",
    "contractor": "Richards Disposal",
    "rowid": "917574",
    "final_x": "3679253.04303",
    "final_y": "522126.895994",
    "longitude": "-90.07549099469816",
    "latitude": "29.92973580054483",
    "geocoded_column": {
      "latitude": "29.92973580054483",
      "longitude": "-90.07549099469816"
    }
  },
  {
    "service_request": "2022-917573",
    "request_type": "Trash/Recycling",
    "request_reason": "Missed Trash Pick-Up",
    "date_created": "2022-09-08T15:28:16.000",
    "date_modified": "2022-09-08T15:28:17.000",
    "request_status": "Pending",
    "responsible_agency": "Department of Sanitation",
    "final_address": "2332 Jena St",
    "address_councildis": "B",
    "status": "Assigned to Contractor",
    "contractor": "Richards Disposal",
    "rowid": "917573",
    "final_x": "3670127.00372",
    "final_y": "523588.781819",
    "longitude": "-90.1042508806497",
    "latitude": "29.93402782722486",
    "geocoded_column": {
      "latitude": "29.93402782722486",
      "longitude": "-90.1042508806497"
    }
  },
  {
    "service_request": "2022-917572",
    "request_type": "Trash/Recycling",
    "request_reason": "Request a Large Item Pick Up",
    "date_created": "2022-09-08T15:27:53.000",
    "date_modified": "2022-09-08T15:27:54.000",
    "request_status": "Pending",
    "responsible_agency": "Department of Sanitation",
    "final_address": "1018 Josephine St",
    "address_councildis": "B",
    "status": "Assigned to Contractor",
    "contractor": "Richards Disposal",
    "rowid": "917572",
    "final_x": "3679253.04303",
    "final_y": "522126.895994",
    "longitude": "-90.07549099469816",
    "latitude": "29.92973580054483",
    "geocoded_column": {
      "latitude": "29.92973580054483",
      "longitude": "-90.07549099469816"
    }
  },
  {
    "service_request": "2022-917571",
    "request_type": "Trash/Recycling",
    "request_reason": "Order Trash Cart",
    "date_created": "2022-09-08T15:27:37.000",
    "date_modified": "2022-09-08T15:27:38.000",
    "request_status": "Pending",
    "responsible_agency": "Department of Sanitation",
    "final_address": "4607 Dryades St",
    "address_councildis": "B",
    "status": "Assigned to Contractor",
    "contractor": "Richards Disposal",
    "rowid": "917571",
    "final_x": "3669911.87329",
    "final_y": "521892.866938",
    "longitude": "-90.1049874353544",
    "latitude": "29.929370948463387",
    "geocoded_column": {
      "latitude": "29.929370948463387",
      "longitude": "-90.1049874353544"
    }
  },
  {
    "service_request": "2022-917570",
    "request_type": "Trash/Recycling",
    "request_reason": "Order Trash Cart",
    "date_created": "2022-09-08T15:27:24.000",
    "date_modified": "2022-09-08T15:27:25.000",
    "request_status": "Pending",
    "responsible_agency": "Department of Sanitation",
    "final_address": "4605 Dryades St",
    "address_councildis": "B",
    "status": "Assigned to Contractor",
    "contractor": "Richards Disposal",
    "rowid": "917570",
    "final_x": "3669924.49729",
    "final_y": "521893.456058",
    "longitude": "-90.10494756369302",
    "latitude": "29.929372196235903",
    "geocoded_column": {
      "latitude": "29.929372196235903",
      "longitude": "-90.10494756369302"
    }
  },
  {
    "service_request": "2022-917568",
    "request_type": "Roads/Drainage",
    "request_reason": "Pothole",
    "date_created": "2022-09-08T15:23:32.000",
    "date_modified": "2022-09-08T15:23:32.000",
    "request_status": "Pending",
    "responsible_agency": "Department of Public Works",
    "final_address": "6572 General Diaz St",
    "address_councildis": "A",
    "status": "Pending",
    "rowid": "917568",
    "final_x": "3669824.12212",
    "final_y": "551217.093973",
    "longitude": "-90.10427150458375",
    "latitude": "30.010005329549813",
    "geocoded_column": {
      "latitude": "30.010005329549813",
      "longitude": "-90.10427150458375"
    }
  },
  {
    "service_request": "2022-917567",
    "request_type": "Roads/Drainage",
    "request_reason": "Leaking Hydrant",
    "date_created": "2022-09-08T15:22:42.000",
    "date_modified": "2022-09-08T15:22:43.000",
    "request_status": "Pending",
    "responsible_agency": "Department of Public Works",
    "final_address": "SHERWOOD FOREST DR & CITY PARK AVE",
    "address_councildis": "A",
    "status": "Pending",
    "rowid": "917567",
    "final_x": "3673232.0",
    "final_y": "541493.48",
    "longitude": "-90.0938370669972",
    "latitude": "29.9831678312731",
    "geocoded_column": {
      "latitude": "29.9831678312731",
      "longitude": "-90.0938370669972"
    }
  },
  {
    "service_request": "2022-917566",
    "request_type": "Trash/Recycling",
    "request_reason": "Repair Trash Cart",
    "date_created": "2022-09-08T15:21:25.000",
    "date_modified": "2022-09-08T15:32:33.000",
    "request_status": "Pending",
    "responsible_agency": "Department of Sanitation",
    "final_address": "New Orleans,LA",
    "address_councildis": "C",
    "status": "Assigned to Contractor",
    "contractor": "Richards Disposal",
    "rowid": "917566",
    "final_x": "3703346.04612",
    "final_y": "516540.206709",
    "longitude": "-89.9996394390543",
    "latitude": "29.913625114539208",
    "geocoded_column": {
      "latitude": "29.913625114539208",
      "longitude": "-89.9996394390543"
    }
  },
  {
    "service_request": "2022-917564",
    "request_type": "Trash/Recycling",
    "request_reason": "Dead Animal Pick Up",
    "date_created": "2022-09-08T15:14:16.000",
    "date_modified": "2022-09-08T15:14:17.000",
    "request_status": "Pending",
    "responsible_agency": "Department of Sanitation",
    "final_address": "13342 Dwyer Blvd",
    "address_councildis": "E",
    "status": "Assigned to Contractor",
    "contractor": "Metro Disposal",
    "rowid": "917564",
    "final_x": "3725341.86169",
    "final_y": "561653.079903",
    "longitude": "-89.92846895750064",
    "latitude": "30.03694581583312",
    "geocoded_column": {
      "latitude": "30.03694581583312",
      "longitude": "-89.92846895750064"
    }
  },
  {
    "service_request": "2022-917563",
    "request_type": "Parks & Parkways",
    "request_reason": "Request Tree Service (Right of Way/Public Property)",
    "date_created": "2022-09-08T15:14:03.000",
    "date_modified": "2022-09-08T15:14:04.000",
    "request_status": "Pending",
    "responsible_agency": "Department of Parks & Parkway",
    "final_address": "3011 Royal St",
    "address_councildis": "C",
    "status": "Pending",
    "rowid": "917563",
    "final_x": "3688182.0918",
    "final_y": "534650.194758",
    "longitude": "-90.04685976871461",
    "latitude": "29.9638980585104",
    "geocoded_column": {
      "latitude": "29.9638980585104",
      "longitude": "-90.04685976871461"
    }
  },
  {
    "service_request": "2022-917562",
    "request_type": "Roads/Drainage",
    "request_reason": "Catch Basin - Clogged",
    "date_created": "2022-09-08T15:10:17.000",
    "date_modified": "2022-09-08T15:11:28.000",
    "request_status": "Pending",
    "responsible_agency": "Department of Public Works",
    "final_address": "6236 Cambridge St",
    "address_councildis": "C",
    "status": "Pending",
    "rowid": "917562",
    "final_x": "3707224.48286",
    "final_y": "518462.159862",
    "longitude": "-89.98732671610117",
    "latitude": "29.91878512152172",
    "geocoded_column": {
      "latitude": "29.91878512152172",
      "longitude": "-89.98732671610117"
    }
  },
  {
    "service_request": "2022-917561",
    "request_type": "Roads/Drainage",
    "request_reason": "Accessibility Ramps, Curbs and Sidewalk Repair",
    "date_created": "2022-09-08T15:08:58.000",
    "date_modified": "2022-09-08T15:08:58.000",
    "request_status": "Pending",
    "responsible_agency": "Department of Public Works",
    "final_address": "2816 St Louis St",
    "address_councildis": "B",
    "status": "Pending",
    "rowid": "917561",
    "final_x": "3675616.76885",
    "final_y": "536601.182023",
    "longitude": "-90.08647287608022",
    "latitude": "29.96964453884213",
    "geocoded_column": {
      "latitude": "29.96964453884213",
      "longitude": "-90.08647287608022"
    }
  },
  {
    "service_request": "2022-917558",
    "request_type": "Abandoned Vehicles",
    "request_reason": "Abandoned/Junk Vehicles",
    "date_created": "2022-09-08T15:00:39.000",
    "date_modified": "2022-09-08T15:00:39.000",
    "request_status": "Pending",
    "responsible_agency": "Department of Public Works",
    "final_address": "ST ANTHONY AVE & ROBERT E LEE BLVD",
    "address_councildis": "D",
    "status": "Pending",
    "rowid": "917558",
    "final_x": "3681973.2",
    "final_y": "555645.28",
    "longitude": "-90.06573338912385",
    "latitude": "30.021817315420137",
    "geocoded_column": {
      "latitude": "30.021817315420137",
      "longitude": "-90.06573338912385"
    }
  },
  {
    "service_request": "2022-917557",
    "request_type": "Trash/Recycling",
    "request_reason": "Replace Trash Cart",
    "date_created": "2022-09-08T14:56:41.000",
    "date_modified": "2022-09-08T14:56:42.000",
    "request_status": "Pending",
    "responsible_agency": "Department of Sanitation",
    "final_address": "2830 Palmer Ave",
    "address_councildis": "A",
    "status": "Assigned to Contractor",
    "contractor": "Richards Disposal",
    "rowid": "917557",
    "final_x": "3666876.62861",
    "final_y": "527031.252222",
    "longitude": "-90.11439661456257",
    "latitude": "29.94358898377266",
    "geocoded_column": {
      "latitude": "29.94358898377266",
      "longitude": "-90.11439661456257"
    }
  },
  {
    "service_request": "2022-917556",
    "request_type": "Trash/Recycling",
    "request_reason": "Replace Trash Cart",
    "date_created": "2022-09-08T14:54:18.000",
    "date_modified": "2022-09-08T14:54:19.000",
    "request_status": "Pending",
    "responsible_agency": "Department of Sanitation",
    "final_address": "206 26th St, New Orleans, Louisiana, 70124",
    "address_councildis": "A",
    "status": "Assigned to Contractor",
    "contractor": "Metro Disposal",
    "rowid": "917556",
    "final_x": "3665686.7984",
    "final_y": "549857.638036",
    "longitude": "-90.11738845351508",
    "latitude": "30.006388673319364",
    "geocoded_column": {
      "latitude": "30.006388673319364",
      "longitude": "-90.11738845351508"
    }
  },
  {
    "service_request": "2022-917555",
    "request_type": "Trash/Recycling",
    "request_reason": "Missed Trash Pick-Up",
    "date_created": "2022-09-08T14:50:06.000",
    "date_modified": "2022-09-08T14:50:06.000",
    "request_status": "Pending",
    "responsible_agency": "Department of Sanitation",
    "final_address": "1418 Terpsichore St, New Orleans, Louisiana, 70130",
    "address_councildis": "B",
    "status": "Assigned to Contractor",
    "contractor": "Richards Disposal",
    "rowid": "917555",
    "final_x": "3679652.62811",
    "final_y": "524811.706748",
    "longitude": "-90.07413643524752",
    "latitude": "29.937106078755804",
    "geocoded_column": {
      "latitude": "29.937106078755804",
      "longitude": "-90.07413643524752"
    }
  },
  {
    "service_request": "2022-917554",
    "request_type": "Roads/Drainage",
    "request_reason": "Road Shoulder Repair",
    "date_created": "2022-09-08T14:49:08.000",
    "date_modified": "2022-09-08T14:52:39.000",
    "request_status": "Pending",
    "responsible_agency": "Department of Public Works",
    "final_address": "44 Gordon Dr",
    "address_councildis": "D",
    "status": "Pending",
    "rowid": "917554",
    "final_x": "3689740.29334",
    "final_y": "544104.417102",
    "longitude": "-90.04160256347366",
    "latitude": "29.989845623180916",
    "geocoded_column": {
      "latitude": "29.989845623180916",
      "longitude": "-90.04160256347366"
    }
  },
  {
    "service_request": "2022-917553",
    "request_type": "Abandoned Vehicles",
    "request_reason": "Abandoned/Junk Vehicles",
    "date_created": "2022-09-08T14:48:07.000",
    "date_modified": "2022-09-08T14:48:07.000",
    "request_status": "Pending",
    "responsible_agency": "Department of Public Works",
    "final_address": "ARTS ST & ROBERT E LEE BLVD",
    "address_councildis": "D",
    "status": "Pending",
    "rowid": "917553",
    "final_x": "3685638.7",
    "final_y": "555925.58",
    "longitude": "-90.05414149816319",
    "latitude": "30.022476029561613",
    "geocoded_column": {
      "latitude": "30.022476029561613",
      "longitude": "-90.05414149816319"
    }
  },
  {
    "service_request": "2022-917552",
    "request_type": "Roads/Drainage",
    "request_reason": "Street Flooding / Drainage",
    "date_created": "2022-09-08T14:45:17.000",
    "date_modified": "2022-09-08T14:45:17.000",
    "request_status": "Pending",
    "responsible_agency": "Department of Public Works",
    "final_address": "709 S Solomon St",
    "address_councildis": "A",
    "status": "Pending",
    "rowid": "917552",
    "final_x": "3669083.78689",
    "final_y": "536799.765128",
    "longitude": "-90.10709795677099",
    "latitude": "29.970384430472834",
    "geocoded_column": {
      "latitude": "29.970384430472834",
      "longitude": "-90.10709795677099"
    }
  },
  {
    "service_request": "2022-917551",
    "request_type": "Roads/Drainage",
    "request_reason": "Service Cut",
    "date_created": "2022-09-08T14:44:35.000",
    "date_modified": "2022-09-08T14:44:35.000",
    "request_status": "Pending",
    "responsible_agency": "Department of Public Works",
    "final_address": "1500 BLK Tricou St",
    "address_councildis": "E",
    "status": "Pending",
    "rowid": "917551",
    "final_x": "3700767.34285",
    "final_y": "534609.144152",
    "longitude": "-90.00711849755784",
    "latitude": "29.96339065966858",
    "geocoded_column": {
      "latitude": "29.96339065966858",
      "longitude": "-90.00711849755784"
    }
  },
  {
    "service_request": "2022-917550",
    "request_type": "Abandoned Vehicles",
    "request_reason": "Abandoned/Junk Vehicles",
    "date_created": "2022-09-08T14:44:05.000",
    "date_modified": "2022-09-08T14:44:05.000",
    "request_status": "Pending",
    "responsible_agency": "Department of Public Works",
    "final_address": "500 S Norman C Francis Prkwy",
    "address_councildis": "B",
    "status": "Pending",
    "rowid": "917550",
    "final_x": "3672321.93287",
    "final_y": "535319.025094",
    "longitude": "-90.09692197070544",
    "latitude": "29.966217211138765",
    "geocoded_column": {
      "latitude": "29.966217211138765",
      "longitude": "-90.09692197070544"
    }
  },
  {
    "service_request": "2022-917549",
    "request_type": "Property Maintenance",
    "request_reason": "Property Maintenance",
    "date_created": "2022-09-08T14:44:01.000",
    "date_modified": "2022-09-08T14:44:01.000",
    "request_status": "Pending",
    "responsible_agency": "Department of Code Enforcement",
    "final_address": "2629 General Collins Ave",
    "address_councildis": "C",
    "status": "Pending",
    "rowid": "917549",
    "final_x": "3698344.67075",
    "final_y": "521458.985017",
    "longitude": "-90.01524667474509",
    "latitude": "29.927309199504176",
    "geocoded_column": {
      "latitude": "29.927309199504176",
      "longitude": "-90.01524667474509"
    }
  },
  {
    "service_request": "2022-917548",
    "request_type": "Trash/Recycling",
    "request_reason": "Request a Large Item Pick Up",
    "date_created": "2022-09-08T14:37:42.000",
    "date_modified": "2022-09-08T14:37:43.000",
    "request_status": "Pending",
    "responsible_agency": "Department of Sanitation",
    "final_address": "706 Eleonore St",
    "address_councildis": "A",
    "status": "Assigned to Contractor",
    "contractor": "Richards Disposal",
    "rowid": "917548",
    "final_x": "3665129.79636",
    "final_y": "518815.950647",
    "longitude": "-90.12018646188162",
    "latitude": "29.92105048966512",
    "geocoded_column": {
      "latitude": "29.92105048966512",
      "longitude": "-90.12018646188162"
    }
  },
  {
    "service_request": "2022-917547",
    "request_type": "Trash/Recycling",
    "request_reason": "Order Trash Cart",
    "date_created": "2022-09-08T14:31:41.000",
    "date_modified": "2022-09-08T14:31:41.000",
    "request_status": "Pending",
    "responsible_agency": "Department of Sanitation",
    "final_address": "3255 Kabel Dr, New Orleans, Louisiana, 70131",
    "address_councildis": "C",
    "status": "Assigned to Contractor",
    "contractor": "Richards Disposal",
    "rowid": "917547",
    "final_x": "3700508.29098",
    "final_y": "519145.968823",
    "longitude": "-90.00850113712526",
    "latitude": "29.920880587270062",
    "geocoded_column": {
      "latitude": "29.920880587270062",
      "longitude": "-90.00850113712526"
    }
  },
  {
    "service_request": "2022-917546",
    "request_type": "Roads/Drainage",
    "request_reason": "Catch Basin - Clogged",
    "date_created": "2022-09-08T14:31:32.000",
    "date_modified": "2022-09-08T14:31:33.000",
    "request_status": "Pending",
    "responsible_agency": "Department of Public Works",
    "final_address": "2405 St Bernard Ave",
    "address_councildis": "D",
    "status": "Pending",
    "rowid": "917546",
    "final_x": "3680714.94677",
    "final_y": "540852.781067",
    "longitude": "-90.07022438020554",
    "latitude": "29.98118143819112",
    "geocoded_column": {
      "latitude": "29.98118143819112",
      "longitude": "-90.07022438020554"
    }
  },
  {
    "service_request": "2022-917545",
    "request_type": "Trash/Recycling",
    "request_reason": "Repair Trash Cart",
    "date_created": "2022-09-08T14:30:49.000",
    "date_modified": "2022-09-08T14:30:49.000",
    "request_status": "Pending",
    "responsible_agency": "Department of Sanitation",
    "final_address": "4334 Macarthur Blvd",
    "address_councildis": "C",
    "status": "Assigned to Contractor",
    "contractor": "Richards Disposal",
    "rowid": "917545",
    "final_x": "3699818.3633",
    "final_y": "520471.197432",
    "longitude": "-90.01063062289457",
    "latitude": "29.924546427985838",
    "geocoded_column": {
      "latitude": "29.924546427985838",
      "longitude": "-90.01063062289457"
    }
  },
  {
    "service_request": "2022-917544",
    "request_type": "Roads/Drainage",
    "request_reason": "Street Subsidence (Sinking)",
    "date_created": "2022-09-08T14:30:21.000",
    "date_modified": "2022-09-08T14:30:21.000",
    "request_status": "Pending",
    "responsible_agency": "Department of Public Works",
    "final_address": "1719 Governor Nicholls St",
    "address_councildis": "D",
    "status": "Pending",
    "rowid": "917544",
    "final_x": "3680710.69365",
    "final_y": "536232.121479",
    "longitude": "-90.07039866865539",
    "latitude": "29.96847635195616",
    "geocoded_column": {
      "latitude": "29.96847635195616",
      "longitude": "-90.07039866865539"
    }
  },
  {
    "service_request": "2022-917543",
    "request_type": "Trash/Recycling",
    "request_reason": "Order Trash Cart",
    "date_created": "2022-09-08T14:29:41.000",
    "date_modified": "2022-09-08T14:29:42.000",
    "request_status": "Pending",
    "responsible_agency": "Department of Sanitation",
    "final_address": "2334 Barracks St",
    "address_councildis": "D",
    "status": "Assigned to Contractor",
    "contractor": "Richards Disposal",
    "rowid": "917543",
    "final_x": "3679171.2052",
    "final_y": "537795.174024",
    "longitude": "-90.07520625200519",
    "latitude": "29.972820776902832",
    "geocoded_column": {
      "latitude": "29.972820776902832",
      "longitude": "-90.07520625200519"
    }
  },
  {
    "service_request": "2022-917542",
    "request_type": "Roads/Drainage",
    "request_reason": "Street Subsidence (Sinking)",
    "date_created": "2022-09-08T14:29:35.000",
    "date_modified": "2022-09-08T14:29:35.000",
    "request_status": "Pending",
    "responsible_agency": "Department of Public Works",
    "final_address": "3820 Burgundy St",
    "address_councildis": "C",
    "status": "Pending",
    "rowid": "917542",
    "final_x": "3691196.23792",
    "final_y": "534582.114757",
    "longitude": "-90.03734384591219",
    "latitude": "29.963617467471078",
    "geocoded_column": {
      "latitude": "29.963617467471078",
      "longitude": "-90.03734384591219"
    }
  },
  {
    "service_request": "2022-917541",
    "request_type": "Mosquito, Termite & Rodent Control",
    "request_reason": "Rodent Complaint (Rats)",
    "date_created": "2022-09-08T14:29:05.000",
    "date_modified": "2022-09-08T14:29:05.000",
    "request_status": "Pending",
    "responsible_agency": "Mosquito, Termite & Rodent Control Board",
    "final_address": "2405 St Bernard Ave",
    "address_councildis": "D",
    "status": "Pending",
    "rowid": "917541",
    "final_x": "3680714.94677",
    "final_y": "540852.781067",
    "longitude": "-90.07022438020554",
    "latitude": "29.98118143819112",
    "geocoded_column": {
      "latitude": "29.98118143819112",
      "longitude": "-90.07022438020554"
    }
  },
  {
    "service_request": "2022-917540",
    "request_type": "Trash/Recycling",
    "request_reason": "Replace Trash Cart",
    "date_created": "2022-09-08T14:28:23.000",
    "date_modified": "2022-09-08T14:28:23.000",
    "case_close_date": "2021-08-12T19:00:00.000",
    "request_status": "Pending",
    "responsible_agency": "Department of Sanitation",
    "final_address": "4328 Banks St",
    "address_councildis": "A",
    "status": "Assigned to Contractor",
    "contractor": "Richards Disposal",
    "rowid": "917540",
    "final_x": "3669316.4882",
    "final_y": "538091.784329",
    "longitude": "-90.10631936398417",
    "latitude": "29.973930200272235",
    "geocoded_column": {
      "latitude": "29.973930200272235",
      "longitude": "-90.10631936398417"
    }
  },
  {
    "service_request": "2022-917539",
    "request_type": "Trash/Recycling",
    "request_reason": "Missed Trash Pick-Up",
    "date_created": "2022-09-08T14:28:19.000",
    "date_modified": "2022-09-08T14:28:20.000",
    "request_status": "Pending",
    "responsible_agency": "Department of Sanitation",
    "final_address": "11318 Hayne Blvd, New Orleans, Louisiana, 70128",
    "address_councildis": "E",
    "status": "Assigned to Contractor",
    "contractor": "Metro Disposal",
    "rowid": "917539",
    "final_x": "3710557.97733",
    "final_y": "567657.591972",
    "longitude": "-89.97496386070794",
    "latitude": "30.05394591311336",
    "geocoded_column": {
      "latitude": "30.05394591311336",
      "longitude": "-89.97496386070794"
    }
  },
  {
    "service_request": "2022-917538",
    "request_type": "Property Maintenance",
    "request_reason": "Property Maintenance",
    "date_created": "2022-09-08T14:27:32.000",
    "date_modified": "2022-09-08T14:27:33.000",
    "request_status": "Pending",
    "responsible_agency": "Department of Code Enforcement",
    "final_address": "2405 St Bernard Ave",
    "address_councildis": "D",
    "status": "Pending",
    "rowid": "917538",
    "final_x": "3680714.94677",
    "final_y": "540852.781067",
    "longitude": "-90.07022438020554",
    "latitude": "29.98118143819112",
    "geocoded_column": {
      "latitude": "29.98118143819112",
      "longitude": "-90.07022438020554"
    }
  },
  {
    "service_request": "2022-917537",
    "request_type": "Trash/Recycling",
    "request_reason": "Replace Trash Cart",
    "date_created": "2022-09-08T14:27:09.000",
    "date_modified": "2022-09-08T14:27:10.000",
    "case_close_date": "2021-08-12T19:00:00.000",
    "request_status": "Pending",
    "responsible_agency": "Department of Sanitation",
    "final_address": "4330 Banks St",
    "address_councildis": "A",
    "status": "Assigned to Contractor",
    "contractor": "Richards Disposal",
    "rowid": "917537",
    "final_x": "3669306.82695",
    "final_y": "538098.685129",
    "longitude": "-90.10634964308268",
    "latitude": "29.97394945961898",
    "geocoded_column": {
      "latitude": "29.97394945961898",
      "longitude": "-90.10634964308268"
    }
  },
  {
    "service_request": "2022-917536",
    "request_type": "Trash/Recycling",
    "request_reason": "Missed Trash Pick-Up",
    "date_created": "2022-09-08T14:23:23.000",
    "date_modified": "2022-09-08T14:23:24.000",
    "request_status": "Pending",
    "responsible_agency": "Department of Sanitation",
    "final_address": "3805 Octavia St",
    "address_councildis": "A",
    "status": "Assigned to Contractor",
    "contractor": "Richards Disposal",
    "rowid": "917536",
    "final_x": "3668826.2827",
    "final_y": "529392.729665",
    "longitude": "-90.1081613042878",
    "latitude": "29.950025105536138",
    "geocoded_column": {
      "latitude": "29.950025105536138",
      "longitude": "-90.1081613042878"
    }
  },
  {
    "service_request": "2022-917535",
    "request_type": "Trash/Recycling",
    "request_reason": "Missed Trash Pick-Up",
    "date_created": "2022-09-08T14:20:43.000",
    "date_modified": "2022-09-08T14:20:44.000",
    "request_status": "Pending",
    "responsible_agency": "Department of Sanitation",
    "final_address": "8033 Wales St",
    "address_councildis": "E",
    "status": "Assigned to Contractor",
    "contractor": "Metro Disposal",
    "rowid": "917535",
    "final_x": "3702000.56445",
    "final_y": "562299.600095",
    "longitude": "-90.00220831851539",
    "latitude": "30.03948971417866",
    "geocoded_column": {
      "latitude": "30.03948971417866",
      "longitude": "-90.00220831851539"
    }
  },
  {
    "service_request": "2022-917534",
    "request_type": "Trash/Recycling",
    "request_reason": "Repair Trash Cart",
    "date_created": "2022-09-08T14:15:47.000",
    "date_modified": "2022-09-08T14:15:48.000",
    "request_status": "Pending",
    "responsible_agency": "Department of Sanitation",
    "final_address": "814 Robert E Lee Blvd",
    "address_councildis": "A",
    "status": "Assigned to Contractor",
    "contractor": "Metro Disposal",
    "rowid": "917534",
    "final_x": "3670010.10804",
    "final_y": "554481.35868",
    "longitude": "-90.10357322220192",
    "latitude": "30.01897541634226",
    "geocoded_column": {
      "latitude": "30.01897541634226",
      "longitude": "-90.10357322220192"
    }
  },
  {
    "service_request": "2022-917533",
    "request_type": "Trash/Recycling",
    "request_reason": "Request a Large Item Pick Up",
    "date_created": "2022-09-08T14:11:45.000",
    "date_modified": "2022-09-08T14:11:46.000",
    "request_status": "Pending",
    "responsible_agency": "Department of Sanitation",
    "final_address": "3910 Macarthur Blvd",
    "address_councildis": "C",
    "status": "Assigned to Contractor",
    "contractor": "Richards Disposal",
    "rowid": "917533",
    "final_x": "3698056.31261",
    "final_y": "520543.271608",
    "longitude": "-90.01619017175753",
    "latitude": "29.924800418711634",
    "geocoded_column": {
      "latitude": "29.924800418711634",
      "longitude": "-90.01619017175753"
    }
  },
  {
    "service_request": "2022-917532",
    "request_type": "Trash/Recycling",
    "request_reason": "Missed Trash Pick-Up",
    "date_created": "2022-09-08T14:07:59.000",
    "date_modified": "2022-09-08T14:07:59.000",
    "request_status": "Pending",
    "responsible_agency": "Department of Sanitation",
    "final_address": "1015 Louisiana Ave",
    "address_councildis": "B",
    "status": "Assigned to Contractor",
    "contractor": "Richards Disposal",
    "rowid": "917532",
    "final_x": "3675199.70267",
    "final_y": "519448.536567",
    "longitude": "-90.08837856136961",
    "latitude": "29.922492902670886",
    "geocoded_column": {
      "latitude": "29.922492902670886",
      "longitude": "-90.08837856136961"
    }
  },
  {
    "service_request": "2022-917531",
    "request_type": "Trash/Recycling",
    "request_reason": "Request a Large Item Pick Up",
    "date_created": "2022-09-08T14:07:39.000",
    "date_modified": "2022-09-08T14:07:40.000",
    "request_status": "Pending",
    "responsible_agency": "Department of Sanitation",
    "final_address": "913 Sixth St",
    "address_councildis": "B",
    "status": "Assigned to Contractor",
    "contractor": "Richards Disposal",
    "rowid": "917531",
    "final_x": "3677004.27054",
    "final_y": "520044.89132",
    "longitude": "-90.082661719131",
    "latitude": "29.924078650191127",
    "geocoded_column": {
      "latitude": "29.924078650191127",
      "longitude": "-90.082661719131"
    }
  },
  {
    "service_request": "2022-917530",
    "request_type": "Trash/Recycling",
    "request_reason": "Missed Trash Pick-Up",
    "date_created": "2022-09-08T14:05:52.000",
    "date_modified": "2022-09-08T14:05:53.000",
    "request_status": "Pending",
    "responsible_agency": "Department of Sanitation",
    "final_address": "7870 Means Ave",
    "address_councildis": "E",
    "status": "Assigned to Contractor",
    "contractor": "Metro Disposal",
    "rowid": "917530",
    "final_x": "3707632.08472",
    "final_y": "565412.901218",
    "longitude": "-89.98429534772455",
    "latitude": "30.04786896413671",
    "geocoded_column": {
      "latitude": "30.04786896413671",
      "longitude": "-89.98429534772455"
    }
  },
  {
    "service_request": "2022-917529",
    "request_type": "Trash/Recycling",
    "request_reason": "Missed Trash Pick-Up",
    "date_created": "2022-09-08T13:52:47.000",
    "date_modified": "2022-09-08T13:52:48.000",
    "request_status": "Pending",
    "responsible_agency": "Department of Sanitation",
    "final_address": "4035 Hollygrove St",
    "address_councildis": "A",
    "status": "Assigned to Contractor",
    "contractor": "Richards Disposal",
    "rowid": "917529",
    "final_x": "3666530.16449",
    "final_y": "538054.469641",
    "longitude": "-90.11512048259218",
    "latitude": "29.973909345051958",
    "geocoded_column": {
      "latitude": "29.973909345051958",
      "longitude": "-90.11512048259218"
    }
  },
  {
    "service_request": "2022-917528",
    "request_type": "Property Maintenance",
    "request_reason": "Property Maintenance",
    "date_created": "2022-09-08T13:51:58.000",
    "date_modified": "2022-09-08T14:16:29.000",
    "case_close_date": "2022-09-08T09:16:29.000",
    "request_status": "Closed",
    "responsible_agency": "Department of Code Enforcement",
    "final_address": "8702 Pear St",
    "address_councildis": "A",
    "status": "Referred to Code Enforcement",
    "rowid": "917528",
    "final_x": "3667471.3426",
    "final_y": "537677.25268",
    "longitude": "-90.11216071877062",
    "latitude": "29.972844577287944",
    "geocoded_column": {
      "latitude": "29.972844577287944",
      "longitude": "-90.11216071877062"
    }
  },