[
  {
    "service_request": "2022-931531",
    "request_type": "Traffic Signals/Signs/Striping/Streetlights",
    "request_reason": "Street Light Outage/Malfunction",
    "date_created": "2022-10-26T01:28:57.000",
    "date_modified": "2022-10-26T01:28:58.000",
    "request_status": "Pending",
    "responsible_agency": "Department of Public Works",
    "final_address": "3548 Pin Oak Ave",
    "address_councildis": "C",
    "status": "Pending",
    "contractor": "Legacy Professional Services",
    "rowid": "931531",
    "final_x": "3703561.99921",
    "final_y": "515018.192435",
    "longitude": "-89.999013769562",
    "latitude": "29.909433182545833",
    "geocoded_column": {
      "latitude": "29.909433182545833",
      "longitude": "-89.999013769562"
    }
  },
  {
    "service_request": "2022-931530",
    "request_type": "Traffic Signals/Signs/Striping/Streetlights",
    "request_reason": "Street Light Outage/Malfunction",
    "date_created": "2022-10-26T01:25:32.000",
    "date_modified": "2022-10-26T01:25:33.000",
    "request_status": "Pending",
    "responsible_agency": "Department of Public Works",
    "final_address": "3516 Pin Oak Ave",
    "address_councildis": "C",
    "status": "Pending",
    "contractor": "Legacy Professional Services",
    "rowid": "931530",
    "final_x": "3703274.13393",
    "final_y": "515060.458995",
    "longitude": "-89.99992076590476",
    "latitude": "29.909558615380657",
    "geocoded_column": {
      "latitude": "29.909558615380657",
      "longitude": "-89.99992076590476"
    }
  },
  {
    "service_request": "2022-931529",
    "request_type": "Trash/Recycling",
    "request_reason": "MIssed Recycling Pick-Up",
    "date_created": "2022-10-26T01:23:36.000",
    "date_modified": "2022-10-26T01:23:36.000",
    "request_status": "Pending",
    "responsible_agency": "Department of Sanitation",
    "final_address": "413 S Norman C Francis Prkwy",
    "address_councildis": "B",
    "status": "Assigned to Contractor",
    "contractor": "Richards Disposal",
    "rowid": "931529",
    "final_x": "3672287.74043",
    "final_y": "535754.989063",
    "longitude": "-90.09701509516098",
    "latitude": "29.967416980080156",
    "geocoded_column": {
      "latitude": "29.967416980080156",
      "longitude": "-90.09701509516098"
    }
  },
  {
    "service_request": "2022-931528",
    "request_type": "Traffic Signals/Signs/Striping/Streetlights",
    "request_reason": "Street Light Outage/Malfunction",
    "date_created": "2022-10-26T01:14:09.000",
    "date_modified": "2022-10-26T01:14:09.000",
    "request_status": "Pending",
    "responsible_agency": "Department of Public Works",
    "final_address": "3755 Red Oak Ct",
    "address_councildis": "C",
    "status": "Pending",
    "contractor": "Legacy Professional Services",
    "rowid": "931528",
    "final_x": "3703626.77188",
    "final_y": "514055.89285",
    "longitude": "-89.99884470891139",
    "latitude": "29.90678511255242",
    "geocoded_column": {
      "latitude": "29.90678511255242",
      "longitude": "-89.99884470891139"
    }
  },
  {
    "service_request": "2022-931527",
    "request_type": "Traffic Signals/Signs/Striping/Streetlights",
    "request_reason": "Street Light Outage/Malfunction",
    "date_created": "2022-10-26T01:10:53.000",
    "date_modified": "2022-10-26T01:10:53.000",
    "request_status": "Pending",
    "responsible_agency": "Department of Public Works",
    "final_address": "4048 Tall Timbers Dr",
    "address_councildis": "C",
    "status": "Pending",
    "contractor": "Legacy Professional Services",
    "rowid": "931527",
    "final_x": "3704212.85335",
    "final_y": "513559.046322",
    "longitude": "-89.9970132796119",
    "latitude": "29.90540017235641",
    "geocoded_column": {
      "latitude": "29.90540017235641",
      "longitude": "-89.9970132796119"
    }
  },
  {
    "service_request": "2022-931526",
    "request_type": "Traffic Signals/Signs/Striping/Streetlights",
    "request_reason": "Traffic Signal Malfunctioning/Damaged",
    "date_created": "2022-10-26T00:16:58.000",
    "date_modified": "2022-10-26T00:16:59.000",
    "request_status": "Pending",
    "responsible_agency": "Department of Public Works",
    "final_address": "CANAL ST & N NORMAN C FRANCIS PKWY & S NORMAN C FRANCIS PKWY",
    "address_councildis": "B",
    "status": "Pending",
    "rowid": "931526",
    "final_x": "3673171.0",
    "final_y": "536825.08",
    "longitude": "-90.09418919581252",
    "latitude": "29.97033313521366",
    "geocoded_column": {
      "latitude": "29.97033313521366",
      "longitude": "-90.09418919581252"
    }
  },
  {
    "service_request": "2022-931525",
    "request_type": "Traffic Signals/Signs/Striping/Streetlights",
    "request_reason": "Street Light Knocked Down/Leaning",
    "date_created": "2022-10-25T23:18:03.000",
    "date_modified": "2022-10-25T23:18:03.000",
    "request_status": "Pending",
    "responsible_agency": "Department of Public Works",
    "final_address": "1133 Allen Toussaint Blvd",
    "address_councildis": "D",
    "status": "Pending",
    "contractor": "Legacy Professional Services",
    "rowid": "931525",
    "final_x": "3675011.42881",
    "final_y": "554949.503256",
    "longitude": "-90.08775470097441",
    "latitude": "30.020114107271404",
    "geocoded_column": {
      "latitude": "30.020114107271404",
      "longitude": "-90.08775470097441"
    }
  },
  {
    "service_request": "2022-931524",
    "request_type": "Trash/Recycling",
    "request_reason": "Missed Trash Pick-Up",
    "date_created": "2022-10-25T23:06:04.000",
    "date_modified": "2022-10-25T23:06:05.000",
    "request_status": "Pending",
    "responsible_agency": "Department of Sanitation",
    "final_address": "4020 Camp St",
    "address_councildis": "B",
    "status": "Assigned to Contractor",
    "contractor": "Richards Disposal",
    "rowid": "931524",
    "final_x": "3672329.72443",
    "final_y": "519227.943799",
    "longitude": "-90.09744545234194",
    "latitude": "29.92197177222624",
    "geocoded_column": {
      "latitude": "29.92197177222624",
      "longitude": "-90.09744545234194"
    }
  },
  {
    "service_request": "2022-931523",
    "request_type": "Trash/Recycling",
    "request_reason": "MIssed Recycling Pick-Up",
    "date_created": "2022-10-25T22:57:53.000",
    "date_modified": "2022-10-25T22:57:53.000",
    "request_status": "Pending",
    "responsible_agency": "Department of Sanitation",
    "final_address": "3365 Esplanade Ave",
    "address_councildis": "A",
    "status": "Assigned to Contractor",
    "contractor": "Metro Disposal",
    "rowid": "931523",
    "final_x": "3675653.80981",
    "final_y": "540985.697867",
    "longitude": "-90.08620519053935",
    "latitude": "29.981699348986343",
    "geocoded_column": {
      "latitude": "29.981699348986343",
      "longitude": "-90.08620519053935"
    }
  },
  {
    "service_request": "2022-931522",
    "request_type": "Health Related Questions",
    "request_reason": "Noise Ordinance Complaint",
    "date_created": "2022-10-25T22:37:53.000",
    "date_modified": "2022-10-25T22:37:53.000",
    "request_status": "Pending",
    "responsible_agency": "Health Department",
    "final_address": "1200 St Bernard Ave",
    "address_councildis": "C",
    "status": "Pending",
    "rowid": "931522",
    "final_x": "3683033.3165",
    "final_y": "536132.891847",
    "longitude": "-90.06306719052876",
    "latitude": "29.96813290984115",
    "geocoded_column": {
      "latitude": "29.96813290984115",
      "longitude": "-90.06306719052876"
    }
  },
  {
    "service_request": "2022-931521",
    "request_type": "Trash/Recycling",
    "request_reason": "Missed Trash Pick-Up",
    "date_created": "2022-10-25T22:32:25.000",
    "date_modified": "2022-10-25T22:32:26.000",
    "request_status": "Pending",
    "responsible_agency": "Department of Sanitation",
    "final_address": "1219 Jefferson Ave",
    "address_councildis": "B",
    "status": "Assigned to Contractor",
    "contractor": "Richards Disposal",
    "rowid": "931521",
    "final_x": "3667122.21313",
    "final_y": "519981.939512",
    "longitude": "-90.11385810506765",
    "latitude": "29.924198438138536",
    "geocoded_column": {
      "latitude": "29.924198438138536",
      "longitude": "-90.11385810506765"
    }
  },
  {
    "service_request": "2022-931520",
    "request_type": "Trash/Recycling",
    "request_reason": "Order Trash Cart",
    "date_created": "2022-10-25T22:02:35.000",
    "date_modified": "2022-10-25T22:02:36.000",
    "request_status": "Pending",
    "responsible_agency": "Department of Sanitation",
    "final_address": "6674 Avenue A",
    "address_councildis": "A",
    "status": "Assigned to Contractor",
    "contractor": "Metro Disposal",
    "rowid": "931520",
    "final_x": "3666006.68039",
    "final_y": "552594.535702",
    "longitude": "-90.11628602315967",
    "latitude": "30.013904850309306",
    "geocoded_column": {
      "latitude": "30.013904850309306",
      "longitude": "-90.11628602315967"
    }
  },
  {
    "service_request": "2022-931519",
    "request_type": "Trash/Recycling",
    "request_reason": "Replace Trash Cart",
    "date_created": "2022-10-25T21:53:14.000",
    "date_modified": "2022-10-25T21:53:15.000",
    "request_status": "Pending",
    "responsible_agency": "Department of Sanitation",
    "final_address": "4510 Elba St",
    "address_councildis": "B",
    "status": "Assigned to Contractor",
    "contractor": "Richards Disposal",
    "rowid": "931519",
    "final_x": "3669407.86228",
    "final_y": "530578.33805",
    "longitude": "-90.10628489235796",
    "latitude": "29.95326802865502",
    "geocoded_column": {
      "latitude": "29.95326802865502",
      "longitude": "-90.10628489235796"
    }
  },
  {
    "service_request": "2022-931518",
    "request_type": "Traffic Signals/Signs/Striping/Streetlights",
    "request_reason": "Street Light Outage/Malfunction",
    "date_created": "2022-10-25T21:53:00.000",
    "date_modified": "2022-10-25T21:53:00.000",
    "request_status": "Pending",
    "responsible_agency": "Department of Public Works",
    "final_address": "307 S Olympia St",
    "address_councildis": "A",
    "status": "Pending",
    "contractor": "Legacy Professional Services",
    "rowid": "931518",
    "final_x": "3668829.3099",
    "final_y": "538940.521994",
    "longitude": "-90.10782931795029",
    "latitude": "29.976278279126632",
    "geocoded_column": {
      "latitude": "29.976278279126632",
      "longitude": "-90.10782931795029"
    }
  },
  {
    "service_request": "2022-931517",
    "request_type": "Trash/Recycling",
    "request_reason": "Request a Large Item Pick Up",
    "date_created": "2022-10-25T21:49:29.000",
    "date_modified": "2022-10-25T21:49:30.000",
    "request_status": "Pending",
    "responsible_agency": "Department of Sanitation",
    "final_address": "4512 Elba St",
    "address_councildis": "B",
    "status": "Assigned to Contractor",
    "contractor": "Richards Disposal",
    "rowid": "931517",
    "final_x": "3669394.56423",
    "final_y": "530586.260034",
    "longitude": "-90.1063266141357",
    "latitude": "29.953290203070353",
    "geocoded_column": {
      "latitude": "29.953290203070353",
      "longitude": "-90.1063266141357"
    }
  },
  {
    "service_request": "2022-931516",
    "request_type": "Abandoned Vehicles",
    "request_reason": "Abandoned/Junk Vehicles",
    "date_created": "2022-10-25T21:44:26.000",
    "date_modified": "2022-10-25T21:44:26.000",
    "request_status": "Pending",
    "responsible_agency": "Department of Public Works",
    "final_address": "4440 Pauger St",
    "address_councildis": "D",
    "status": "Pending",
    "rowid": "931516",
    "final_x": "3682793.29724",
    "final_y": "549064.857747",
    "longitude": "-90.06337254503332",
    "latitude": "30.003698574838577",
    "geocoded_column": {
      "latitude": "30.003698574838577",
      "longitude": "-90.06337254503332"
    }
  },
  {
    "service_request": "2022-931515",
    "request_type": "Trash/Recycling",
    "request_reason": "MIssed Recycling Pick-Up",
    "date_created": "2022-10-25T20:49:25.000",
    "date_modified": "2022-10-25T20:49:25.000",
    "request_status": "Pending",
    "responsible_agency": "Department of Sanitation",
    "final_address": "428 S Bernadotte St",
    "address_councildis": "A",
    "status": "Assigned to Contractor",
    "contractor": "Richards Disposal",
    "rowid": "931515",
    "final_x": "3667953.85025",
    "final_y": "538871.206281",
    "longitude": "-90.11059662548136",
    "latitude": "29.976113400903962",
    "geocoded_column": {
      "latitude": "29.976113400903962",
      "longitude": "-90.11059662548136"
    }
  },
  {
    "service_request": "2022-931514",
    "request_type": "Trash/Recycling",
    "request_reason": "Missed Trash Pick-Up",
    "date_created": "2022-10-25T20:47:25.000",
    "date_modified": "2022-10-25T20:47:26.000",
    "request_status": "Pending",
    "responsible_agency": "Department of Sanitation",
    "final_address": "2364 N Claiborne Ave",
    "address_councildis": "C",
    "status": "Assigned to Contractor",
    "contractor": "Metro Disposal",
    "rowid": "931514",
    "final_x": "3686167.36905",
    "final_y": "538211.360969",
    "longitude": "-90.05309641124656",
    "latitude": "29.97375206892363",
    "geocoded_column": {
      "latitude": "29.97375206892363",
      "longitude": "-90.05309641124656"
    }
  },
  {
    "service_request": "2022-931513",
    "request_type": "Trash/Recycling",
    "request_reason": "Missed Trash Pick-Up",
    "date_created": "2022-10-25T20:46:48.000",
    "date_modified": "2022-10-25T20:46:49.000",
    "request_status": "Pending",
    "responsible_agency": "Department of Sanitation",
    "final_address": "2362 N Claiborne Ave",
    "address_councildis": "C",
    "status": "Assigned to Contractor",
    "contractor": "Metro Disposal",
    "rowid": "931513",
    "final_x": "3686156.119",
    "final_y": "538210.110985",
    "longitude": "-90.053131985384",
    "latitude": "29.973748977520344",
    "geocoded_column": {
      "latitude": "29.973748977520344",
      "longitude": "-90.053131985384"
    }
  },
  {
    "service_request": "2022-931512",
    "request_type": "Trash/Recycling",
    "request_reason": "Missed Trash Pick-Up",
    "date_created": "2022-10-25T20:46:20.000",
    "date_modified": "2022-10-25T20:46:21.000",
    "request_status": "Pending",
    "responsible_agency": "Department of Sanitation",
    "final_address": "2347 N Claiborne Ave",
    "address_councildis": "D",
    "status": "Assigned to Contractor",
    "contractor": "Metro Disposal",
    "rowid": "931512",
    "final_x": "3686060.05225",
    "final_y": "538277.770057",
    "longitude": "-90.05343299762539",
    "latitude": "29.973937967176425",
    "geocoded_column": {
      "latitude": "29.973937967176425",
      "longitude": "-90.05343299762539"
    }
  },
  {
    "service_request": "2022-931511",
    "request_type": "Trash/Recycling",
    "request_reason": "Missed Trash Pick-Up",
    "date_created": "2022-10-25T20:45:47.000",
    "date_modified": "2022-10-25T20:45:47.000",
    "request_status": "Pending",
    "responsible_agency": "Department of Sanitation",
    "final_address": "2345 N Claiborne Ave",
    "address_councildis": "D",
    "status": "Assigned to Contractor",
    "contractor": "Metro Disposal",
    "rowid": "931511",
    "final_x": "3686031.36354",
    "final_y": "538271.316553",
    "longitude": "-90.0535238304416",
    "latitude": "29.973921103400723",
    "geocoded_column": {
      "latitude": "29.973921103400723",
      "longitude": "-90.0535238304416"
    }
  },
  {
    "service_request": "2022-931510",
    "request_type": "Trash/Recycling",
    "request_reason": "Missed Trash Pick-Up",
    "date_created": "2022-10-25T20:45:19.000",
    "date_modified": "2022-10-25T20:45:20.000",
    "request_status": "Pending",
    "responsible_agency": "Department of Sanitation",
    "final_address": "2343 N Claiborne Ave",
    "address_councildis": "D",
    "status": "Assigned to Contractor",
    "contractor": "Metro Disposal",
    "rowid": "931510",
    "final_x": "3686014.57513",
    "final_y": "538270.117385",
    "longitude": "-90.05357689417272",
    "latitude": "29.97391832169293",
    "geocoded_column": {
      "latitude": "29.97391832169293",
      "longitude": "-90.05357689417272"
    }
  },
  {
    "service_request": "2022-931509",
    "request_type": "Roads/Drainage",
    "request_reason": "Damaged Sidewalk",
    "date_created": "2022-10-25T20:41:23.000",
    "date_modified": "2022-10-25T20:41:23.000",
    "request_status": "Pending",
    "responsible_agency": "Department of Public Works",
    "final_address": "3021 Jena St",
    "address_councildis": "B",
    "status": "Pending",
    "rowid": "931509",
    "final_x": "3669966.7906",
    "final_y": "526093.56499",
    "longitude": "-90.10467187796287",
    "latitude": "29.940919896787673",
    "geocoded_column": {
      "latitude": "29.940919896787673",
      "longitude": "-90.10467187796287"
    }
  },
  {
    "service_request": "2022-931507",
    "request_type": "Roads/Drainage",
    "request_reason": "Damaged Sidewalk",
    "date_created": "2022-10-25T20:30:12.000",
    "date_modified": "2022-10-25T20:30:12.000",
    "request_status": "Pending",
    "responsible_agency": "Department of Public Works",
    "final_address": "832 Baronne St",
    "address_councildis": "B",
    "status": "Pending",
    "rowid": "931507",
    "final_x": "3679585.41531",
    "final_y": "527948.985983",
    "longitude": "-90.07423979469107",
    "latitude": "29.945734585316202",
    "geocoded_column": {
      "latitude": "29.945734585316202",
      "longitude": "-90.07423979469107"
    }
  },
  {
    "service_request": "2022-931506",
    "request_type": "Trash/Recycling",
    "request_reason": "MIssed Recycling Pick-Up",
    "date_created": "2022-10-25T20:29:55.000",
    "date_modified": "2022-10-25T20:29:55.000",
    "request_status": "Pending",
    "responsible_agency": "Department of Sanitation",
    "final_address": "1321 Sere St",
    "address_councildis": "D",
    "status": "Assigned to Contractor",
    "contractor": "Metro Disposal",
    "rowid": "931506",
    "final_x": "3677635.33966",
    "final_y": "545386.768848",
    "longitude": "-90.0797945147756",
    "latitude": "29.9937413095196",
    "geocoded_column": {
      "latitude": "29.9937413095196",
      "longitude": "-90.0797945147756"
    }
  },
  {
    "service_request": "2022-931505",
    "request_type": "Trash/Recycling",
    "request_reason": "Missed Trash Pick-Up",
    "date_created": "2022-10-25T20:02:44.000",
    "date_modified": "2022-10-25T20:02:45.000",
    "request_status": "Pending",
    "responsible_agency": "Department of Sanitation",
    "final_address": "1709 Prytania St",
    "address_councildis": "B",
    "status": "Assigned to Contractor",
    "contractor": "Richards Disposal",
    "rowid": "931505",
    "final_x": "3679224.59707",
    "final_y": "524657.101948",
    "longitude": "-90.07549311217129",
    "latitude": "29.936693893441053",
    "geocoded_column": {
      "latitude": "29.936693893441053",
      "longitude": "-90.07549311217129"
    }
  },
  {
    "service_request": "2022-931504",
    "request_type": "Taxi Issues",
    "request_reason": "Taxi Lost & Found Item",
    "date_created": "2022-10-25T19:53:32.000",
    "date_modified": "2022-10-25T19:53:33.000",
    "request_status": "Pending",
    "responsible_agency": "Ground Transportation Bureau",
    "final_address": "0 BLK Port of New Orleans Pl",
    "address_councildis": "C",
    "status": "Pending",
    "rowid": "931504",
    "final_x": "3683260.5442",
    "final_y": "528097.486244",
    "longitude": "-90.06263101075427",
    "latitude": "29.946031357573034",
    "geocoded_column": {
      "latitude": "29.946031357573034",
      "longitude": "-90.06263101075427"
    }
  },
  {
    "service_request": "2022-931503",
    "request_type": "Trash/Recycling",
    "request_reason": "Missed Trash Pick-Up",
    "date_created": "2022-10-25T19:47:58.000",
    "date_modified": "2022-10-25T19:47:58.000",
    "request_status": "Pending",
    "responsible_agency": "Department of Sanitation",
    "final_address": "2026 St Claude Ave",
    "address_councildis": "C",
    "status": "Assigned to Contractor",
    "contractor": "Metro Disposal",
    "rowid": "931503",
    "final_x": "3684466.55548",
    "final_y": "536191.268615",
    "longitude": "-90.05853892099302",
    "latitude": "29.96824965933815",
    "geocoded_column": {
      "latitude": "29.96824965933815",
      "longitude": "-90.05853892099302"
    }
  },
  {
    "service_request": "2022-931502",
    "request_type": "Trash/Recycling",
    "request_reason": "Missed Trash Pick-Up",
    "date_created": "2022-10-25T19:43:15.000",
    "date_modified": "2022-10-25T19:43:16.000",
    "request_status": "Pending",
    "responsible_agency": "Department of Sanitation",
    "final_address": "9 Blanc Pl",
    "address_councildis": "B",
    "status": "Assigned to Contractor",
    "contractor": "Richards Disposal",
    "rowid": "931502",
    "final_x": "3667874.285",
    "final_y": "520921.573625",
    "longitude": "-90.111452440078",
    "latitude": "29.92676010442122",
    "geocoded_column": {
      "latitude": "29.92676010442122",
      "longitude": "-90.111452440078"
    }
  },
  {
    "service_request": "2022-931501",
    "request_type": "Trash/Recycling",
    "request_reason": "MIssed Recycling Pick-Up",
    "date_created": "2022-10-25T19:38:32.000",
    "date_modified": "2022-10-25T19:38:33.000",
    "request_status": "Pending",
    "responsible_agency": "Department of Sanitation",
    "final_address": "3026 Baudin St",
    "address_councildis": "B",
    "status": "Assigned to Contractor",
    "contractor": "Richards Disposal",
    "rowid": "931501",
    "final_x": "3673179.7524",
    "final_y": "534691.69031",
    "longitude": "-90.09423441309634",
    "latitude": "29.964466771858454",
    "geocoded_column": {
      "latitude": "29.964466771858454",
      "longitude": "-90.09423441309634"
    }
  },
  {
    "service_request": "2022-931500",
    "request_type": "Property Maintenance",
    "request_reason": "Property Maintenance",
    "date_created": "2022-10-25T19:38:25.000",
    "date_modified": "2022-10-25T19:38:25.000",
    "request_status": "Pending",
    "responsible_agency": "Department of Code Enforcement",
    "final_address": "3711 Clara St",
    "address_councildis": "B",
    "status": "Pending",
    "rowid": "931500",
    "final_x": "3671971.77543",
    "final_y": "525357.090813",
    "longitude": "-90.09836682907198",
    "latitude": "29.93883556481152",
    "geocoded_column": {
      "latitude": "29.93883556481152",
      "longitude": "-90.09836682907198"
    }
  },
  {
    "service_request": "2022-931499",
    "request_type": "Property Maintenance",
    "request_reason": "Property Maintenance",
    "date_created": "2022-10-25T19:37:52.000",
    "date_modified": "2022-10-25T19:37:53.000",
    "request_status": "Pending",
    "responsible_agency": "Department of Code Enforcement",
    "final_address": "3417 Clara St",
    "address_councildis": "B",
    "status": "Pending",
    "rowid": "931499",
    "final_x": "3672288.69889",
    "final_y": "525461.054589",
    "longitude": "-90.0973627234373",
    "latitude": "29.939112035402673",
    "geocoded_column": {
      "latitude": "29.939112035402673",
      "longitude": "-90.0973627234373"
    }
  },
  {
    "service_request": "2022-931498",
    "request_type": "Trash/Recycling",
    "request_reason": "Replace Trash Cart",
    "date_created": "2022-10-25T19:36:41.000",
    "date_modified": "2022-10-25T19:36:42.000",
    "request_status": "Pending",
    "responsible_agency": "Department of Sanitation",
    "final_address": "2921 Cambronne St",
    "address_councildis": "A",
    "status": "Assigned to Contractor",
    "contractor": "Richards Disposal",
    "rowid": "931498",
    "final_x": "3665419.6825",
    "final_y": "533711.928005",
    "longitude": "-90.11877301888309",
    "latitude": "29.96200120815115",
    "geocoded_column": {
      "latitude": "29.96200120815115",
      "longitude": "-90.11877301888309"
    }
  },
  {
    "service_request": "2022-931496",
    "request_type": "Property Maintenance",
    "request_reason": "Property Maintenance",
    "date_created": "2022-10-25T19:14:07.000",
    "date_modified": "2022-10-25T19:14:07.000",
    "request_status": "Pending",
    "responsible_agency": "Department of Code Enforcement",
    "final_address": "5286 Tullis Dr",
    "address_councildis": "C",
    "status": "Pending",
    "rowid": "931496",
    "final_x": "3703317.54225",
    "final_y": "511985.530352",
    "longitude": "-89.99989670140417",
    "latitude": "29.901102216971132",
    "geocoded_column": {
      "latitude": "29.901102216971132",
      "longitude": "-89.99989670140417"
    }
  },
  {
    "service_request": "2022-931495",
    "request_type": "Property Maintenance",
    "request_reason": "Property Maintenance",
    "date_created": "2022-10-25T19:12:22.000",
    "date_modified": "2022-10-25T19:12:22.000",
    "request_status": "Pending",
    "responsible_agency": "Department of Code Enforcement",
    "final_address": "5286 Tullis Dr",
    "address_councildis": "C",
    "status": "Pending",
    "rowid": "931495",
    "final_x": "3703317.54225",
    "final_y": "511985.530352",
    "longitude": "-89.99989670140417",
    "latitude": "29.901102216971132",
    "geocoded_column": {
      "latitude": "29.901102216971132",
      "longitude": "-89.99989670140417"
    }
  },
  {
    "service_request": "2022-931494",
    "request_type": "Property Maintenance",
    "request_reason": "Property Maintenance",
    "date_created": "2022-10-25T19:11:05.000",
    "date_modified": "2022-10-25T19:11:05.000",
    "request_status": "Pending",
    "responsible_agency": "Department of Code Enforcement",
    "final_address": "5286 Tullis Dr",
    "address_councildis": "C",
    "status": "Pending",
    "rowid": "931494",
    "final_x": "3703317.54225",
    "final_y": "511985.530352",
    "longitude": "-89.99989670140417",
    "latitude": "29.901102216971132",
    "geocoded_column": {
      "latitude": "29.901102216971132",
      "longitude": "-89.99989670140417"
    }
  },
  {
    "service_request": "2022-931493",
    "request_type": "Safety & Permits",
    "request_reason": "Licenses & Permits",
    "date_created": "2022-10-25T19:01:58.000",
    "date_modified": "2022-10-25T19:01:58.000",
    "request_status": "Pending",
    "responsible_agency": "Safety and Permits",
    "final_address": "5410 S Rocheblave St",
    "address_councildis": "A",
    "status": "Pending",
    "rowid": "931493",
    "final_x": "3668753.08378",
    "final_y": "528274.508224",
    "longitude": "-90.10843017188698",
    "latitude": "29.946952512900616",
    "geocoded_column": {
      "latitude": "29.946952512900616",
      "longitude": "-90.10843017188698"
    }
  },
  {
    "service_request": "2022-931491",
    "request_type": "Abandoned Vehicles",
    "request_reason": "Abandoned/Junk Vehicles",
    "date_created": "2022-10-25T18:56:10.000",
    "date_modified": "2022-10-25T18:56:10.000",
    "request_status": "Pending",
    "responsible_agency": "Department of Public Works",
    "final_address": "1006 Mazant St, New Orleans, Louisiana, 70117",
    "address_councildis": "C",
    "status": "Pending",
    "rowid": "931491",
    "final_x": "3691984.97347",
    "final_y": "534877.750662",
    "longitude": "-90.03484253054923",
    "latitude": "29.96440580938134",
    "geocoded_column": {
      "latitude": "29.96440580938134",
      "longitude": "-90.03484253054923"
    }
  },
  {
    "service_request": "2022-931490",
    "request_type": "Trash/Recycling",
    "request_reason": "Missed Trash Pick-Up",
    "date_created": "2022-10-25T18:48:33.000",
    "date_modified": "2022-10-25T18:48:33.000",
    "request_status": "Pending",
    "responsible_agency": "Department of Sanitation",
    "final_address": "5214 Coliseum St",
    "address_councildis": "B",
    "status": "Assigned to Contractor",
    "contractor": "Richards Disposal",
    "rowid": "931490",
    "final_x": "3667917.61178",
    "final_y": "519585.271992",
    "longitude": "-90.11136065488955",
    "latitude": "29.92308442751501",
    "geocoded_column": {
      "latitude": "29.92308442751501",
      "longitude": "-90.11136065488955"
    }
  },
  {
    "service_request": "2022-931488",
    "request_type": "Trash/Recycling",
    "request_reason": "Order Trash Cart",
    "date_created": "2022-10-25T18:45:34.000",
    "date_modified": "2022-10-25T18:45:34.000",
    "request_status": "Pending",
    "responsible_agency": "Department of Sanitation",
    "final_address": "2857 N Dorgenois St",
    "address_councildis": "D",
    "status": "Assigned to Contractor",
    "contractor": "Metro Disposal",
    "rowid": "931488",
    "final_x": "3688604.09686",
    "final_y": "541747.655052",
    "longitude": "-90.04527517113023",
    "latitude": "29.983400540080922",
    "geocoded_column": {
      "latitude": "29.983400540080922",
      "longitude": "-90.04527517113023"
    }
  },
  {
    "service_request": "2022-931487",
    "request_type": "Trash/Recycling",
    "request_reason": "Order Recycling Cart",
    "date_created": "2022-10-25T18:44:09.000",
    "date_modified": "2022-10-25T18:44:09.000",
    "request_status": "Pending",
    "responsible_agency": "Department of Sanitation",
    "final_address": "915 Franklin Ave",
    "address_councildis": "C",
    "status": "Pending",
    "rowid": "931487",
    "final_x": "3686985.40169",
    "final_y": "535799.561223",
    "longitude": "-90.0505981621494",
    "latitude": "29.967095305933835",
    "geocoded_column": {
      "latitude": "29.967095305933835",
      "longitude": "-90.0505981621494"
    }
  },
  {
    "service_request": "2022-931486",
    "request_type": "Traffic Signals/Signs/Striping/Streetlights",
    "request_reason": "Street Light Outage/Malfunction",
    "date_created": "2022-10-25T18:41:06.000",
    "date_modified": "2022-10-25T18:41:06.000",
    "request_status": "Pending",
    "responsible_agency": "Department of Public Works",
    "final_address": "9237 Dwyer Rd",
    "address_councildis": "E",
    "status": "Pending",
    "contractor": "Legacy Professional Services",
    "rowid": "931486",
    "final_x": "3708873.44484",
    "final_y": "557158.238555",
    "longitude": "-89.98067996620327",
    "latitude": "30.025131671823132",
    "geocoded_column": {
      "latitude": "30.025131671823132",
      "longitude": "-89.98067996620327"
    }
  },
  {
    "service_request": "2022-931485",
    "request_type": "Trash/Recycling",
    "request_reason": "Missed Trash Pick-Up",
    "date_created": "2022-10-25T18:40:55.000",
    "date_modified": "2022-10-25T18:40:56.000",
    "request_status": "Pending",
    "responsible_agency": "Department of Sanitation",
    "final_address": "700 Block of Jefferson Ave, New Orleans, Louisiana, 70115",
    "status": "Assigned to Contractor",
    "rowid": "931485",
    "longitude": "0.0",
    "latitude": "0.0",
    "geocoded_column": {
      "latitude": "0.0",
      "longitude": "0.0"
    }
  },
  {
    "service_request": "2022-931484",
    "request_type": "Traffic Signals/Signs/Striping/Streetlights",
    "request_reason": "Street Light Outage/Malfunction",
    "date_created": "2022-10-25T18:37:58.000",
    "date_modified": "2022-10-25T18:37:58.000",
    "request_status": "Pending",
    "responsible_agency": "Department of Public Works",
    "final_address": "4800 Bundy Rd",
    "address_councildis": "E",
    "status": "Pending",
    "contractor": "Legacy Professional Services",
    "rowid": "931484",
    "final_x": "3709233.68811",
    "final_y": "556121.882394",
    "longitude": "-89.97958035322632",
    "latitude": "30.022270399744436",
    "geocoded_column": {
      "latitude": "30.022270399744436",
      "longitude": "-89.97958035322632"
    }
  },
  {
    "service_request": "2022-931483",
    "request_type": "Traffic Signals/Signs/Striping/Streetlights",
    "request_reason": "Street Light Outage/Malfunction",
    "date_created": "2022-10-25T18:35:39.000",
    "date_modified": "2022-10-25T18:35:40.000",
    "request_status": "Pending",
    "responsible_agency": "Department of Public Works",
    "final_address": "9325 Hammond St",
    "address_councildis": "E",
    "status": "Pending",
    "contractor": "Legacy Professional Services",
    "rowid": "931483",
    "final_x": "3709825.46891",
    "final_y": "556192.746778",
    "longitude": "-89.97770784031816",
    "latitude": "30.022446011533383",
    "geocoded_column": {
      "latitude": "30.022446011533383",
      "longitude": "-89.97770784031816"
    }
  },
  {
    "service_request": "2022-931482",
    "request_type": "Trash/Recycling",
    "request_reason": "Illegal Dumping",
    "date_created": "2022-10-25T18:27:12.000",
    "date_modified": "2022-10-25T18:27:13.000",
    "request_status": "Pending",
    "responsible_agency": "Department of Sanitation",
    "final_address": "BARRACKS ST & DAUPHINE ST",
    "address_councildis": "C",
    "status": "Pending",
    "rowid": "931482",
    "final_x": "3683300.2",
    "final_y": "534639.08",
    "longitude": "-90.06227669325922",
    "latitude": "29.964017304220093",
    "geocoded_column": {
      "latitude": "29.964017304220093",
      "longitude": "-90.06227669325922"
    }
  },
  {
    "service_request": "2022-931481",
    "request_type": "Trash/Recycling",
    "request_reason": "Missed Trash Pick-Up",
    "date_created": "2022-10-25T18:27:09.000",
    "date_modified": "2022-10-25T18:27:10.000",
    "request_status": "Pending",
    "responsible_agency": "Department of Sanitation",
    "final_address": "121 S Genois St",
    "address_councildis": "B",
    "status": "Assigned to Contractor",
    "contractor": "Richards Disposal",
    "rowid": "931481",
    "final_x": "3672416.89627",
    "final_y": "537028.742856",
    "longitude": "-90.09656380046604",
    "latitude": "29.97091554150588",
    "geocoded_column": {
      "latitude": "29.97091554150588",
      "longitude": "-90.09656380046604"
    }
  },
  {
    "service_request": "2022-931480",
    "request_type": "Trash/Recycling",
    "request_reason": "Repair Trash Cart",
    "date_created": "2022-10-25T18:22:43.000",
    "date_modified": "2022-10-25T18:22:44.000",
    "request_status": "Pending",
    "responsible_agency": "Department of Sanitation",
    "final_address": "4569 Desire Dr",
    "address_councildis": "D",
    "status": "Assigned to Contractor",
    "contractor": "Metro Disposal",
    "rowid": "931480",
    "final_x": "3691976.6024",
    "final_y": "551384.139221",
    "longitude": "-90.03427800797856",
    "latitude": "30.009792687006",
    "geocoded_column": {
      "latitude": "30.009792687006",
      "longitude": "-90.03427800797856"
    }
  },
  {
    "service_request": "2022-931479",
    "request_type": "Trash/Recycling",
    "request_reason": "Dead Animal Pick Up",
    "date_created": "2022-10-25T18:22:06.000",
    "date_modified": "2022-10-25T18:22:07.000",
    "request_status": "Pending",
    "responsible_agency": "Department of Sanitation",
    "final_address": "2212 Easter Ln",
    "address_councildis": "C",
    "status": "Assigned to Contractor",
    "contractor": "Richards Disposal",
    "rowid": "931479",
    "final_x": "3699373.23786",
    "final_y": "523063.711547",
    "longitude": "-90.0119413494678",
    "latitude": "29.931689070635876",
    "geocoded_column": {
      "latitude": "29.931689070635876",
      "longitude": "-90.0119413494678"
    }
  },
  {
    "service_request": "2022-931478",
    "request_type": "Roads/Drainage",
    "request_reason": "Street Flooding / Drainage",
    "date_created": "2022-10-25T18:15:53.000",
    "date_modified": "2022-10-25T18:15:53.000",
    "request_status": "Pending",
    "responsible_agency": "Department of Public Works",
    "final_address": "1220 Kentucky St",
    "address_councildis": "D",
    "status": "Pending",
    "rowid": "931478",
    "final_x": "3693371.87683",
    "final_y": "535459.909702",
    "longitude": "-90.03044191338068",
    "latitude": "29.965963252942615",
    "geocoded_column": {
      "latitude": "29.965963252942615",
      "longitude": "-90.03044191338068"
    }
  },
  {
    "service_request": "2022-931477",
    "request_type": "Trash/Recycling",
    "request_reason": "Replace Trash Cart",
    "date_created": "2022-10-25T18:06:55.000",
    "date_modified": "2022-10-25T18:06:55.000",
    "request_status": "Pending",
    "responsible_agency": "Department of Sanitation",
    "final_address": "1745 Port St",
    "address_councildis": "D",
    "status": "Assigned to Contractor",
    "contractor": "Metro Disposal",
    "rowid": "931477",
    "final_x": "3688098.66345",
    "final_y": "538958.782154",
    "longitude": "-90.04697047974808",
    "latitude": "29.97574774012161",
    "geocoded_column": {
      "latitude": "29.97574774012161",
      "longitude": "-90.04697047974808"
    }
  },
  {
    "service_request": "2022-931476",
    "request_type": "Trash/Recycling",
    "request_reason": "MIssed Recycling Pick-Up",
    "date_created": "2022-10-25T18:05:35.000",
    "date_modified": "2022-10-25T18:05:36.000",
    "request_status": "Pending",
    "responsible_agency": "Department of Sanitation",
    "final_address": "1525 Dufossat St",
    "address_councildis": "B",
    "status": "Assigned to Contractor",
    "contractor": "Richards Disposal",
    "rowid": "931476",
    "final_x": "3668161.69364",
    "final_y": "520678.110521",
    "longitude": "-90.11055336688219",
    "latitude": "29.926082227758133",
    "geocoded_column": {
      "latitude": "29.926082227758133",
      "longitude": "-90.11055336688219"
    }
  },
  {
    "service_request": "2022-931475",
    "request_type": "Trash/Recycling",
    "request_reason": "Missed Trash Pick-Up",
    "date_created": "2022-10-25T18:03:00.000",
    "date_modified": "2022-10-25T18:03:01.000",
    "request_status": "Pending",
    "responsible_agency": "Department of Sanitation",
    "final_address": "2123 Valence St",
    "address_councildis": "B",
    "status": "Assigned to Contractor",
    "contractor": "Richards Disposal",
    "rowid": "931475",
    "final_x": "3669641.09633",
    "final_y": "522735.249658",
    "longitude": "-90.10581374208682",
    "latitude": "29.931695210191492",
    "geocoded_column": {
      "latitude": "29.931695210191492",
      "longitude": "-90.10581374208682"
    }
  },
  {
    "service_request": "2022-931474",
    "request_type": "Trash/Recycling",
    "request_reason": "Repair Trash Cart",
    "date_created": "2022-10-25T17:59:26.000",
    "date_modified": "2022-10-25T17:59:26.000",
    "request_status": "Pending",
    "responsible_agency": "Department of Sanitation",
    "final_address": "2217 N Galvez St",
    "address_councildis": "D",
    "status": "Assigned to Contractor",
    "contractor": "Metro Disposal",
    "rowid": "931474",
    "final_x": "3684950.86396",
    "final_y": "540038.065995",
    "longitude": "-90.05687412461373",
    "latitude": "29.978812185083807",
    "geocoded_column": {
      "latitude": "29.978812185083807",
      "longitude": "-90.05687412461373"
    }
  },
  {
    "service_request": "2022-931473",
    "request_type": "Trash/Recycling",
    "request_reason": "Missed Trash Pick-Up",
    "date_created": "2022-10-25T17:58:26.000",
    "date_modified": "2022-10-25T17:58:27.000",
    "request_status": "Pending",
    "responsible_agency": "Department of Sanitation",
    "final_address": "4310 Prytania St",
    "address_councildis": "B",
    "status": "Assigned to Contractor",
    "contractor": "Richards Disposal",
    "rowid": "931473",
    "final_x": "3671190.07572",
    "final_y": "520270.633528",
    "longitude": "-90.10100745516552",
    "latitude": "29.924872586759847",
    "geocoded_column": {
      "latitude": "29.924872586759847",
      "longitude": "-90.10100745516552"
    }
  },
  {
    "service_request": "2022-931472",
    "request_type": "Trash/Recycling",
    "request_reason": "Replace Trash Cart",
    "date_created": "2022-10-25T17:58:19.000",
    "date_modified": "2022-10-25T17:58:20.000",
    "request_status": "Pending",
    "responsible_agency": "Department of Sanitation",
    "final_address": "318 Pacific Ave",
    "address_councildis": "C",
    "status": "Assigned to Contractor",
    "contractor": "Richards Disposal",
    "rowid": "931472",
    "final_x": "3688575.67459",
    "final_y": "530566.442178",
    "longitude": "-90.04576178724184",
    "latitude": "29.952656996118225",
    "geocoded_column": {
      "latitude": "29.952656996118225",
      "longitude": "-90.04576178724184"
    }
  },
  {
    "service_request": "2022-931471",
    "request_type": "Trash/Recycling",
    "request_reason": "Request a Large Item Pick Up",
    "date_created": "2022-10-25T17:49:25.000",
    "date_modified": "2022-10-25T17:49:26.000",
    "request_status": "Pending",
    "responsible_agency": "Department of Sanitation",
    "final_address": "422 Lowerline St",
    "address_councildis": "A",
    "status": "Assigned to Contractor",
    "contractor": "Richards Disposal",
    "rowid": "931471",
    "final_x": "3661738.88851",
    "final_y": "524097.462332",
    "longitude": "-90.1307151137995",
    "latitude": "29.935671274687156",
    "geocoded_column": {
      "latitude": "29.935671274687156",
      "longitude": "-90.1307151137995"
    }
  },
  {
    "service_request": "2022-931470",
    "request_type": "Trash/Recycling",
    "request_reason": "Repair Trash Cart",
    "date_created": "2022-10-25T17:49:22.000",
    "date_modified": "2022-10-25T17:49:23.000",
    "request_status": "Pending",
    "responsible_agency": "Department of Sanitation",
    "final_address": "2533 Carondelet St",
    "address_councildis": "B",
    "status": "Assigned to Contractor",
    "contractor": "Richards Disposal",
    "rowid": "931470",
    "final_x": "3676241.72987",
    "final_y": "523251.765179",
    "longitude": "-90.0849585042002",
    "latitude": "29.93291937573761",
    "geocoded_column": {
      "latitude": "29.93291937573761",
      "longitude": "-90.0849585042002"
    }
  },
  {
    "service_request": "2022-931469",
    "request_type": "Trash/Recycling",
    "request_reason": "Illegal Dumping",
    "date_created": "2022-10-25T17:46:09.000",
    "date_modified": "2022-10-25T17:46:09.000",
    "request_status": "Pending",
    "responsible_agency": "Department of Sanitation",
    "final_address": "2330 S Derbigny St",
    "address_councildis": "B",
    "status": "Pending",
    "rowid": "931469",
    "final_x": "3674159.71752",
    "final_y": "527782.771135",
    "longitude": "-90.0913762331745",
    "latitude": "29.94544036819871",
    "geocoded_column": {
      "latitude": "29.94544036819871",
      "longitude": "-90.0913762331745"
    }
  },
  {
    "service_request": "2022-931468",
    "request_type": "Abandoned Vehicles",
    "request_reason": "Abandoned/Junk Vehicles",
    "date_created": "2022-10-25T17:46:07.000",
    "date_modified": "2022-10-25T17:46:07.000",
    "request_status": "Pending",
    "responsible_agency": "Department of Public Works",
    "final_address": "1415 Harmony St",
    "address_councildis": "B",
    "status": "Pending",
    "rowid": "931468",
    "final_x": "3675288.58664",
    "final_y": "521064.420473",
    "longitude": "-90.08804255629256",
    "latitude": "29.92693340651666",
    "geocoded_column": {
      "latitude": "29.92693340651666",
      "longitude": "-90.08804255629256"
    }
  },
  {
    "service_request": "2022-931467",
    "request_type": "Trash/Recycling",
    "request_reason": "Missed Trash Pick-Up",
    "date_created": "2022-10-25T17:45:20.000",
    "date_modified": "2022-10-25T17:45:21.000",
    "request_status": "Pending",
    "responsible_agency": "Department of Sanitation",
    "final_address": "1515 Jefferson Ave",
    "address_councildis": "B",
    "status": "Assigned to Contractor",
    "contractor": "Richards Disposal",
    "rowid": "931467",
    "final_x": "3667248.21767",
    "final_y": "520687.835257",
    "longitude": "-90.11343662860484",
    "latitude": "29.926135740304627",
    "geocoded_column": {
      "latitude": "29.926135740304627",
      "longitude": "-90.11343662860484"
    }
  },
  {
    "service_request": "2022-931466",
    "request_type": "Trash/Recycling",
    "request_reason": "Order Recycling Cart",
    "date_created": "2022-10-25T17:43:14.000",
    "date_modified": "2022-10-25T17:43:15.000",
    "request_status": "Pending",
    "responsible_agency": "Department of Sanitation",
    "final_address": "627 N Murat St",
    "address_councildis": "A",
    "status": "Pending",
    "rowid": "931466",
    "final_x": "3670908.44532",
    "final_y": "541038.762956",
    "longitude": "-90.1011915132952",
    "latitude": "29.981986421638663",
    "geocoded_column": {
      "latitude": "29.981986421638663",
      "longitude": "-90.1011915132952"
    }
  },
  {
    "service_request": "2022-931465",
    "request_type": "Trash/Recycling",
    "request_reason": "MIssed Recycling Pick-Up",
    "date_created": "2022-10-25T17:42:32.000",
    "date_modified": "2022-10-25T17:42:32.000",
    "request_status": "Pending",
    "responsible_agency": "Department of Sanitation",
    "final_address": "1515 Jefferson Ave",
    "address_councildis": "B",
    "status": "Assigned to Contractor",
    "contractor": "Richards Disposal",
    "rowid": "931465",
    "final_x": "3667248.21767",
    "final_y": "520687.835257",
    "longitude": "-90.11343662860484",
    "latitude": "29.926135740304627",
    "geocoded_column": {
      "latitude": "29.926135740304627",
      "longitude": "-90.11343662860484"
    }
  },
  {
    "service_request": "2022-931464",
    "request_type": "Trash/Recycling",
    "request_reason": "Repair Recycling Cart",
    "date_created": "2022-10-25T17:42:10.000",
    "date_modified": "2022-10-25T17:42:12.000",
    "request_status": "Pending",
    "responsible_agency": "Department of Sanitation",
    "final_address": "625 N Murat St",
    "address_councildis": "A",
    "status": "Pending",
    "rowid": "931464",
    "final_x": "3670894.35329",
    "final_y": "541018.469323",
    "longitude": "-90.10123671199857",
    "latitude": "29.981931037721754",
    "geocoded_column": {
      "latitude": "29.981931037721754",
      "longitude": "-90.10123671199857"
    }
  },
  {
    "service_request": "2022-931463",
    "request_type": "Trash/Recycling",
    "request_reason": "Missed Trash Pick-Up",
    "date_created": "2022-10-25T17:40:33.000",
    "date_modified": "2022-10-25T17:40:34.000",
    "request_status": "Pending",
    "responsible_agency": "Department of Sanitation",
    "final_address": "1413 Baronne St",
    "address_councildis": "B",
    "status": "Assigned to Contractor",
    "contractor": "Richards Disposal",
    "rowid": "931463",
    "final_x": "3678478.61474",
    "final_y": "526209.513982",
    "longitude": "-90.07779451012631",
    "latitude": "29.94098500968541",
    "geocoded_column": {
      "latitude": "29.94098500968541",
      "longitude": "-90.07779451012631"
    }
  },
  {
    "service_request": "2022-931462",
    "request_type": "Abandoned Vehicles",
    "request_reason": "Abandoned/Junk Vehicles",
    "date_created": "2022-10-25T17:38:52.000",
    "date_modified": "2022-10-25T17:38:52.000",
    "request_status": "Pending",
    "responsible_agency": "Department of Public Works",
    "final_address": "1828 Marigny St",
    "address_councildis": "D",
    "status": "Pending",
    "rowid": "931462",
    "final_x": "3685088.02965",
    "final_y": "539138.95713",
    "longitude": "-90.0564725486153",
    "latitude": "29.976335748851298",
    "geocoded_column": {
      "latitude": "29.976335748851298",
      "longitude": "-90.0564725486153"
    }
  },
  {
    "service_request": "2022-931461",
    "request_type": "Property Maintenance",
    "request_reason": "Property Maintenance",
    "date_created": "2022-10-25T17:38:22.000",
    "date_modified": "2022-10-25T17:38:22.000",
    "request_status": "Pending",
    "responsible_agency": "Department of Code Enforcement",
    "final_address": "13123 N Interstate 10 Service Rd",
    "address_councildis": "E",
    "status": "Pending",
    "rowid": "931461",
    "final_x": "3718298.12172",
    "final_y": "567913.663269",
    "longitude": "-89.9504896729805",
    "latitude": "30.054395433243684",
    "geocoded_column": {
      "latitude": "30.054395433243684",
      "longitude": "-89.9504896729805"
    }
  },
  {
    "service_request": "2022-931460",
    "request_type": "Trash/Recycling",
    "request_reason": "Missed Trash Pick-Up",
    "date_created": "2022-10-25T17:31:02.000",
    "date_modified": "2022-10-25T17:31:03.000",
    "request_status": "Pending",
    "responsible_agency": "Department of Sanitation",
    "final_address": "2131 Marengo St",
    "address_councildis": "B",
    "status": "Assigned to Contractor",
    "contractor": "Richards Disposal",
    "rowid": "931460",
    "final_x": "3671805.91463",
    "final_y": "523036.669371",
    "longitude": "-90.09896938955197",
    "latitude": "29.932460071129636",
    "geocoded_column": {
      "latitude": "29.932460071129636",
      "longitude": "-90.09896938955197"
    }
  },
  {
    "service_request": "2022-931459",
    "request_type": "Trash/Recycling",
    "request_reason": "Order Trash Cart",
    "date_created": "2022-10-25T17:29:27.000",
    "date_modified": "2022-10-25T17:29:27.000",
    "request_status": "Pending",
    "responsible_agency": "Department of Sanitation",
    "final_address": "4855 N Derbigny St",
    "address_councildis": "E",
    "status": "Assigned to Contractor",
    "contractor": "Metro Disposal",
    "rowid": "931459",
    "final_x": "3696164.36432",
    "final_y": "536647.869063",
    "longitude": "-90.02158041732737",
    "latitude": "29.96914211463701",
    "geocoded_column": {
      "latitude": "29.96914211463701",
      "longitude": "-90.02158041732737"
    }
  },
  {
    "service_request": "2022-931458",
    "request_type": "Trash/Recycling",
    "request_reason": "Repair Trash Cart",
    "date_created": "2022-10-25T17:26:39.000",
    "date_modified": "2022-10-25T17:26:40.000",
    "case_close_date": "2022-09-21T19:00:00.000",
    "request_status": "Pending",
    "responsible_agency": "Department of Sanitation",
    "final_address": "6464 Canal Blvd",
    "address_councildis": "A",
    "status": "Assigned to Contractor",
    "contractor": "Metro Disposal",
    "rowid": "931458",
    "final_x": "3668612.18145",
    "final_y": "550567.877716",
    "longitude": "-90.10812241228263",
    "latitude": "30.00825590088546",
    "geocoded_column": {
      "latitude": "30.00825590088546",
      "longitude": "-90.10812241228263"
    }
  },
  {
    "service_request": "2022-931457",
    "request_type": "Trash/Recycling",
    "request_reason": "Replace Trash Cart",
    "date_created": "2022-10-25T17:25:38.000",
    "date_modified": "2022-10-25T17:25:39.000",
    "request_status": "Pending",
    "responsible_agency": "Department of Sanitation",
    "final_address": "2013 Burgundy St",
    "address_councildis": "C",
    "status": "Assigned to Contractor",
    "contractor": "Metro Disposal",
    "rowid": "931457",
    "final_x": "3684418.37852",
    "final_y": "535561.401734",
    "longitude": "-90.05871319272495",
    "latitude": "29.96651921713916",
    "geocoded_column": {
      "latitude": "29.96651921713916",
      "longitude": "-90.05871319272495"
    }
  },
  {
    "service_request": "2022-931456",
    "request_type": "Trash/Recycling",
    "request_reason": "MIssed Recycling Pick-Up",
    "date_created": "2022-10-25T17:20:45.000",
    "date_modified": "2022-10-25T17:20:46.000",
    "request_status": "Pending",
    "responsible_agency": "Department of Sanitation",
    "final_address": "200 N Norman C Francis Pkwy, New Orleans, Louisiana, 70119",
    "status": "Assigned to Contractor",
    "rowid": "931456",
    "longitude": "0.0",
    "latitude": "0.0",
    "geocoded_column": {
      "latitude": "0.0",
      "longitude": "0.0"
    }
  },
  {
    "service_request": "2022-931455",
    "request_type": "Trash/Recycling",
    "request_reason": "Missed Trash Pick-Up",
    "date_created": "2022-10-25T17:14:46.000",
    "date_modified": "2022-10-25T17:14:46.000",
    "request_status": "Pending",
    "responsible_agency": "Department of Sanitation",
    "final_address": "1942 Wilton Dr",
    "address_councildis": "D",
    "status": "Assigned to Contractor",
    "contractor": "Metro Disposal",
    "rowid": "931455",
    "final_x": "3681807.66671",
    "final_y": "550993.684885",
    "longitude": "-90.06641893940545",
    "latitude": "30.009032155400305",
    "geocoded_column": {
      "latitude": "30.009032155400305",
      "longitude": "-90.06641893940545"
    }
  },
  {
    "service_request": "2022-931454",
    "request_type": "Trash/Recycling",
    "request_reason": "Missed Trash Pick-Up",
    "date_created": "2022-10-25T17:14:34.000",
    "date_modified": "2022-10-25T17:14:35.000",
    "request_status": "Pending",
    "responsible_agency": "Department of Sanitation",
    "final_address": "312 S Genois St",
    "address_councildis": "B",
    "status": "Assigned to Contractor",
    "contractor": "Richards Disposal",
    "rowid": "931454",
    "final_x": "3672061.14561",
    "final_y": "536426.030791",
    "longitude": "-90.09770783487232",
    "latitude": "29.969268839802982",
    "geocoded_column": {
      "latitude": "29.969268839802982",
      "longitude": "-90.09770783487232"
    }
  },
  {
    "service_request": "2022-931453",
    "request_type": "Trash/Recycling",
    "request_reason": "Repair Trash Cart",
    "date_created": "2022-10-25T17:11:45.000",
    "date_modified": "2022-10-25T17:11:46.000",
    "request_status": "Pending",
    "responsible_agency": "Department of Sanitation",
    "final_address": "2348 Port St",
    "address_councildis": "D",
    "status": "Assigned to Contractor",
    "contractor": "Metro Disposal",
    "rowid": "931453",
    "final_x": "3688621.42166",
    "final_y": "541255.70926",
    "longitude": "-90.04523791776677",
    "latitude": "29.9820473287005",
    "geocoded_column": {
      "latitude": "29.9820473287005",
      "longitude": "-90.04523791776677"
    }
  },
  {
    "service_request": "2022-931452",
    "request_type": "Parks & Parkways",
    "request_reason": "Request Tree Service (Right of Way/Public Property)",
    "date_created": "2022-10-25T17:10:55.000",
    "date_modified": "2022-10-25T17:11:38.000",
    "request_status": "Pending",
    "responsible_agency": "Department of Parks & Parkway",
    "final_address": "3701 Pauger St",
    "address_councildis": "D",
    "status": "Pending",
    "rowid": "931452",
    "final_x": "3683363.98556",
    "final_y": "543627.14523",
    "longitude": "-90.06176028456521",
    "latitude": "29.98872940240564",
    "geocoded_column": {
      "latitude": "29.98872940240564",
      "longitude": "-90.06176028456521"
    }
  },
  {
    "service_request": "2022-931451",
    "request_type": "Trash/Recycling",
    "request_reason": "Repair Trash Cart",
    "date_created": "2022-10-25T17:04:01.000",
    "date_modified": "2022-10-25T17:04:02.000",
    "request_status": "Pending",
    "responsible_agency": "Department of Sanitation",
    "final_address": "2221 Feliciana St",
    "address_councildis": "D",
    "status": "Assigned to Contractor",
    "contractor": "Metro Disposal",
    "rowid": "931451",
    "final_x": "3689887.996",
    "final_y": "540376.406539",
    "longitude": "-90.04126879753908",
    "latitude": "29.979590348568717",
    "geocoded_column": {
      "latitude": "29.979590348568717",
      "longitude": "-90.04126879753908"
    }
  },
  {
    "service_request": "2022-931450",
    "request_type": "Trash/Recycling",
    "request_reason": "Missed Trash Pick-Up",
    "date_created": "2022-10-25T17:00:40.000",
    "date_modified": "2022-10-25T17:00:41.000",
    "request_status": "Pending",
    "responsible_agency": "Department of Sanitation",
    "final_address": "2736 Palmyra St",
    "address_councildis": "B",
    "status": "Assigned to Contractor",
    "contractor": "Richards Disposal",
    "rowid": "931450",
    "final_x": "3674548.05748",
    "final_y": "534618.990662",
    "longitude": "-90.08991589519147",
    "latitude": "29.964226115469565",
    "geocoded_column": {
      "latitude": "29.964226115469565",
      "longitude": "-90.08991589519147"
    }
  },
  {
    "service_request": "2022-931449",
    "request_type": "Trash/Recycling",
    "request_reason": "Missed Trash Pick-Up",
    "date_created": "2022-10-25T17:00:37.000",
    "date_modified": "2022-10-25T17:00:38.000",
    "request_status": "Pending",
    "responsible_agency": "Department of Sanitation",
    "final_address": "2736 Palmyra St",
    "address_councildis": "B",
    "status": "Assigned to Contractor",
    "contractor": "Richards Disposal",
    "rowid": "931449",
    "final_x": "3674548.05748",
    "final_y": "534618.990662",
    "longitude": "-90.08991589519147",
    "latitude": "29.964226115469565",
    "geocoded_column": {
      "latitude": "29.964226115469565",
      "longitude": "-90.08991589519147"
    }
  },
  {
    "service_request": "2022-931448",
    "request_type": "Trash/Recycling",
    "request_reason": "Missed Trash Pick-Up",
    "date_created": "2022-10-25T16:56:31.000",
    "date_modified": "2022-10-25T16:56:32.000",
    "request_status": "Pending",
    "responsible_agency": "Department of Sanitation",
    "final_address": "336 Elmira Ave",
    "address_councildis": "C",
    "status": "Assigned to Contractor",
    "contractor": "Richards Disposal",
    "rowid": "931448",
    "final_x": "3688273.51228",
    "final_y": "530449.455874",
    "longitude": "-90.0467200249357",
    "latitude": "29.952344656652205",
    "geocoded_column": {
      "latitude": "29.952344656652205",
      "longitude": "-90.0467200249357"
    }
  },
  {
    "service_request": "2022-931447",
    "request_type": "Trash/Recycling",
    "request_reason": "Request a Large Item Pick Up",
    "date_created": "2022-10-25T16:55:23.000",
    "date_modified": "2022-10-25T16:55:24.000",
    "request_status": "Pending",
    "responsible_agency": "Department of Sanitation",
    "final_address": "614 Esplanade Ave",
    "address_councildis": "C",
    "status": "Assigned to Contractor",
    "contractor": "Empire Services",
    "rowid": "931447",
    "final_x": "3684193.25231",
    "final_y": "534226.798277",
    "longitude": "-90.05947099322388",
    "latitude": "29.962856401929088",
    "geocoded_column": {
      "latitude": "29.962856401929088",
      "longitude": "-90.05947099322388"
    }
  },
  {
    "service_request": "2022-931446",
    "request_type": "Trash/Recycling",
    "request_reason": "Missed Trash Pick-Up",
    "date_created": "2022-10-25T16:53:20.000",
    "date_modified": "2022-10-25T16:53:20.000",
    "request_status": "Pending",
    "responsible_agency": "Department of Sanitation",
    "final_address": "5016 Camp St",
    "address_councildis": "B",
    "status": "Assigned to Contractor",
    "contractor": "Richards Disposal",
    "rowid": "931446",
    "final_x": "3668488.54574",
    "final_y": "518889.686903",
    "longitude": "-90.10958188050783",
    "latitude": "29.92115503410525",
    "geocoded_column": {
      "latitude": "29.92115503410525",
      "longitude": "-90.10958188050783"
    }
  },
  {
    "service_request": "2022-931445",
    "request_type": "Trash/Recycling",
    "request_reason": "Missed Trash Pick-Up",
    "date_created": "2022-10-25T16:52:53.000",
    "date_modified": "2022-10-25T16:52:53.000",
    "request_status": "Pending",
    "responsible_agency": "Department of Sanitation",
    "final_address": "1770 Rousselin Dr",
    "address_councildis": "D",
    "status": "Assigned to Contractor",
    "contractor": "Metro Disposal",
    "rowid": "931445",
    "final_x": "3680208.38735",
    "final_y": "540989.107531",
    "longitude": "-90.07181958327556",
    "latitude": "29.98157163289038",
    "geocoded_column": {
      "latitude": "29.98157163289038",
      "longitude": "-90.07181958327556"
    }
  },
  {
    "service_request": "2022-931444",
    "request_type": "Property Maintenance",
    "request_reason": "Property Maintenance",
    "date_created": "2022-10-25T16:52:51.000",
    "date_modified": "2022-10-25T16:52:51.000",
    "request_status": "Pending",
    "responsible_agency": "Department of Code Enforcement",
    "final_address": "6219 Perlita Dr",
    "address_councildis": "D",
    "status": "Pending",
    "rowid": "931444",
    "final_x": "3678563.95042",
    "final_y": "555718.918937",
    "longitude": "-90.07650318062396",
    "latitude": "30.02212305819984",
    "geocoded_column": {
      "latitude": "30.02212305819984",
      "longitude": "-90.07650318062396"
    }
  },
  {
    "service_request": "2022-931443",
    "request_type": "Trash/Recycling",
    "request_reason": "Replace Trash Cart",
    "date_created": "2022-10-25T16:49:05.000",
    "date_modified": "2022-10-25T16:49:06.000",
    "request_status": "Pending",
    "responsible_agency": "Department of Sanitation",
    "final_address": "4618 Cardenas Dr, New Orleans, Louisiana, 70127",
    "address_councildis": "E",
    "status": "Assigned to Contractor",
    "contractor": "Metro Disposal",
    "rowid": "931443",
    "final_x": "3713682.30047",
    "final_y": "555661.887833",
    "longitude": "-89.965541335007",
    "latitude": "30.020860330598527",
    "geocoded_column": {
      "latitude": "30.020860330598527",
      "longitude": "-89.965541335007"
    }
  },
  {
    "service_request": "2022-931442",
    "request_type": "Trash/Recycling",
    "request_reason": "Replace Trash Cart",
    "date_created": "2022-10-25T16:44:52.000",
    "date_modified": "2022-10-25T16:44:53.000",
    "request_status": "Pending",
    "responsible_agency": "Department of Sanitation",
    "final_address": "3107 Dauphine St",
    "address_councildis": "C",
    "status": "Assigned to Contractor",
    "contractor": "Metro Disposal",
    "rowid": "931442",
    "final_x": "3688790.84483",
    "final_y": "534868.82887",
    "longitude": "-90.04492962637875",
    "latitude": "29.96448041905066",
    "geocoded_column": {
      "latitude": "29.96448041905066",
      "longitude": "-90.04492962637875"
    }
  },
  {
    "service_request": "2022-931441",
    "request_type": "Traffic Signals/Signs/Striping/Streetlights",
    "request_reason": "Street Light Outage/Malfunction",
    "date_created": "2022-10-25T16:41:53.000",
    "date_modified": "2022-10-25T16:41:54.000",
    "request_status": "Pending",
    "responsible_agency": "Department of Public Works",
    "final_address": "3600 Preston Pl",
    "address_councildis": "C",
    "status": "Pending",
    "contractor": "Legacy Professional Services",
    "rowid": "931441",
    "final_x": "3708545.11793",
    "final_y": "517644.805046",
    "longitude": "-89.98318859750133",
    "latitude": "29.91649495802153",
    "geocoded_column": {
      "latitude": "29.91649495802153",
      "longitude": "-89.98318859750133"
    }
  },
  {
    "service_request": "2022-931440",
    "request_type": "Trash/Recycling",
    "request_reason": "Missed Trash Pick-Up",
    "date_created": "2022-10-25T16:40:03.000",
    "date_modified": "2022-10-25T16:40:04.000",
    "request_status": "Pending",
    "responsible_agency": "Department of Sanitation",
    "final_address": "3913 Camp St",
    "address_councildis": "B",
    "status": "Assigned to Contractor",
    "contractor": "Richards Disposal",
    "rowid": "931440",
    "final_x": "3672896.65736",
    "final_y": "519375.807479",
    "longitude": "-90.0956508385322",
    "latitude": "29.922361524014786",
    "geocoded_column": {
      "latitude": "29.922361524014786",
      "longitude": "-90.0956508385322"
    }
  },
  {
    "service_request": "2022-931439",
    "request_type": "Trash/Recycling",
    "request_reason": "Missed Trash Pick-Up",
    "date_created": "2022-10-25T16:36:34.000",
    "date_modified": "2022-10-25T16:36:35.000",
    "request_status": "Pending",
    "responsible_agency": "Department of Sanitation",
    "final_address": "1015 Louisiana Ave",
    "address_councildis": "B",
    "status": "Assigned to Contractor",
    "contractor": "Richards Disposal",
    "rowid": "931439",
    "final_x": "3675199.70267",
    "final_y": "519448.536567",
    "longitude": "-90.08837856136961",
    "latitude": "29.922492902670886",
    "geocoded_column": {
      "latitude": "29.922492902670886",
      "longitude": "-90.08837856136961"
    }
  },
  {
    "service_request": "2022-931438",
    "request_type": "Trash/Recycling",
    "request_reason": "Missed Trash Pick-Up",
    "date_created": "2022-10-25T16:36:08.000",
    "date_modified": "2022-10-25T16:36:09.000",
    "request_status": "Pending",
    "responsible_agency": "Department of Sanitation",
    "final_address": "300 BLK S Genois St",
    "address_councildis": "B",
    "status": "Assigned to Contractor",
    "contractor": "Richards Disposal",
    "rowid": "931438",
    "final_x": "3671998.5933",
    "final_y": "536407.328876",
    "longitude": "-90.09790601703168",
    "latitude": "29.969219270431264",
    "geocoded_column": {
      "latitude": "29.969219270431264",
      "longitude": "-90.09790601703168"
    }
  },
  {
    "service_request": "2022-931437",
    "request_type": "Roads/Drainage",
    "request_reason": "Damaged Sidewalk",
    "date_created": "2022-10-25T16:34:56.000",
    "date_modified": "2022-10-25T16:34:56.000",
    "request_status": "Pending",
    "responsible_agency": "Department of Public Works",
    "final_address": "4144 St Peter St",
    "address_councildis": "A",
    "status": "Pending",
    "rowid": "931437",
    "final_x": "3672194.66446",
    "final_y": "540161.296267",
    "longitude": "-90.09715890900165",
    "latitude": "29.979535594759742",
    "geocoded_column": {
      "latitude": "29.979535594759742",
      "longitude": "-90.09715890900165"
    }
  },
  {
    "service_request": "2022-931436",
    "request_type": "Trash/Recycling",
    "request_reason": "Return Trash Cart",
    "date_created": "2022-10-25T16:33:23.000",
    "date_modified": "2022-10-25T16:33:24.000",
    "request_status": "Pending",
    "responsible_agency": "Department of Sanitation",
    "final_address": "5822 Franklin Ave",
    "address_councildis": "D",
    "status": "Assigned to Contractor",
    "contractor": "Metro Disposal",
    "rowid": "931436",
    "final_x": "3686372.12476",
    "final_y": "554632.945944",
    "longitude": "-90.05186973499667",
    "latitude": "30.01889923029072",
    "geocoded_column": {
      "latitude": "30.01889923029072",
      "longitude": "-90.05186973499667"
    }
  },
  {
    "service_request": "2022-931435",
    "request_type": "Trash/Recycling",
    "request_reason": "MIssed Recycling Pick-Up",
    "date_created": "2022-10-25T16:32:18.000",
    "date_modified": "2022-10-25T16:32:19.000",
    "request_status": "Pending",
    "responsible_agency": "Department of Sanitation",
    "final_address": "3128 College Ct",
    "address_councildis": "B",
    "status": "Assigned to Contractor",
    "contractor": "Richards Disposal",
    "rowid": "931435",
    "final_x": "3668502.07534",
    "final_y": "531947.800515",
    "longitude": "-90.10909878641118",
    "latitude": "29.95706024107593",
    "geocoded_column": {
      "latitude": "29.95706024107593",
      "longitude": "-90.10909878641118"
    }
  },
  {
    "service_request": "2022-931434",
    "request_type": "Trash/Recycling",
    "request_reason": "Request a Large Item Pick Up",
    "date_created": "2022-10-25T16:30:31.000",
    "date_modified": "2022-10-25T16:30:32.000",
    "request_status": "Pending",
    "responsible_agency": "Department of Sanitation",
    "final_address": "4921 Lennox Blvd",
    "address_councildis": "C",
    "status": "Assigned to Contractor",
    "contractor": "Richards Disposal",
    "rowid": "931434",
    "final_x": "3700601.16605",
    "final_y": "512173.992497",
    "longitude": "-90.00846243285214",
    "latitude": "29.901707065138208",
    "geocoded_column": {
      "latitude": "29.901707065138208",
      "longitude": "-90.00846243285214"
    }
  },
  {
    "service_request": "2022-931433",
    "request_type": "Trash/Recycling",
    "request_reason": "Repair Trash Cart",
    "date_created": "2022-10-25T16:29:33.000",
    "date_modified": "2022-10-25T16:29:33.000",
    "request_status": "Pending",
    "responsible_agency": "Department of Sanitation",
    "final_address": "1300 Louisiana Ave",
    "address_councildis": "B",
    "status": "Assigned to Contractor",
    "contractor": "Richards Disposal",
    "rowid": "931433",
    "final_x": "3674645.09505",
    "final_y": "520316.452408",
    "longitude": "-90.09009951071553",
    "latitude": "29.92489594944705",
    "geocoded_column": {
      "latitude": "29.92489594944705",
      "longitude": "-90.09009951071553"
    }
  },
  {
    "service_request": "2022-931432",
    "request_type": "Trash/Recycling",
    "request_reason": "Request a Large Item Pick Up",
    "date_created": "2022-10-25T16:26:18.000",
    "date_modified": "2022-10-25T16:26:19.000",
    "request_status": "Pending",
    "responsible_agency": "Department of Sanitation",
    "final_address": "2048 St Denis St",
    "address_councildis": "D",
    "status": "Assigned to Contractor",
    "contractor": "Metro Disposal",
    "rowid": "931432",
    "final_x": "3683141.943",
    "final_y": "546098.738896",
    "longitude": "-90.06237505303609",
    "latitude": "29.995532180869247",
    "geocoded_column": {
      "latitude": "29.995532180869247",
      "longitude": "-90.06237505303609"
    }
  },
  {
    "service_request": "2022-931431",
    "request_type": "Trash/Recycling",
    "request_reason": "Illegal Dumping",
    "date_created": "2022-10-25T16:24:30.000",
    "date_modified": "2022-10-25T16:24:31.000",
    "request_status": "Pending",
    "responsible_agency": "Department of Code Enforcement",
    "final_address": "FRANKLIN AVE & N GALVEZ ST",
    "address_councildis": "D",
    "status": "Pending",
    "rowid": "931431",
    "final_x": "3687667.3",
    "final_y": "540216.38",
    "longitude": "-90.04828829942392",
    "latitude": "29.97921899891152",
    "geocoded_column": {
      "latitude": "29.97921899891152",
      "longitude": "-90.04828829942392"
    }
  },
  {
    "service_request": "2022-931430",
    "request_type": "Roads/Drainage",
    "request_reason": "Catch Basin - Broken/Damage",
    "date_created": "2022-10-25T16:23:43.000",
    "date_modified": "2022-10-25T16:23:43.000",
    "request_status": "Pending",
    "responsible_agency": "Department of Public Works",
    "final_address": "1 Wren St",
    "address_councildis": "D",
    "status": "Pending",
    "rowid": "931430",
    "final_x": "3672079.4018",
    "final_y": "555816.796441",
    "longitude": "-90.09698943676159",
    "latitude": "30.022586164411496",
    "geocoded_column": {
      "latitude": "30.022586164411496",
      "longitude": "-90.09698943676159"
    }
  },
  {
    "service_request": "2022-931429",
    "request_type": "Trash/Recycling",
    "request_reason": "Replace Trash Cart",
    "date_created": "2022-10-25T16:17:33.000",
    "date_modified": "2022-10-25T16:17:34.000",
    "request_status": "Pending",
    "responsible_agency": "Department of Sanitation",
    "final_address": "2604 N Rampart St",
    "address_councildis": "C",
    "status": "Assigned to Contractor",
    "contractor": "Metro Disposal",
    "rowid": "931429",
    "final_x": "3687066.96329",
    "final_y": "535988.410183",
    "longitude": "-90.05033391292517",
    "latitude": "29.96761206393447",
    "geocoded_column": {
      "latitude": "29.96761206393447",
      "longitude": "-90.05033391292517"
    }
  },
  {
    "service_request": "2022-931428",
    "request_type": "Trash/Recycling",
    "request_reason": "Order Recycling Cart",
    "date_created": "2022-10-25T16:17:00.000",
    "date_modified": "2022-10-25T16:17:00.000",
    "request_status": "Pending",
    "responsible_agency": "Department of Sanitation",
    "final_address": "1378 Annette St",
    "address_councildis": "C",
    "status": "Pending",
    "rowid": "931428",
    "final_x": "3683033.14312",
    "final_y": "537174.593352",
    "longitude": "-90.06303126741315",
    "latitude": "29.970997234000194",
    "geocoded_column": {
      "latitude": "29.970997234000194",
      "longitude": "-90.06303126741315"
    }
  },
  {
    "service_request": "2022-931427",
    "request_type": "Trash/Recycling",
    "request_reason": "Missed Trash Pick-Up",
    "date_created": "2022-10-25T16:16:40.000",
    "date_modified": "2022-10-25T16:16:41.000",
    "request_status": "Pending",
    "responsible_agency": "Department of Sanitation",
    "final_address": "2722 Upperline St",
    "address_councildis": "B",
    "status": "Assigned to Contractor",
    "contractor": "Richards Disposal",
    "rowid": "931427",
    "final_x": "3669151.62183",
    "final_y": "524815.945532",
    "longitude": "-90.10728867942048",
    "latitude": "29.937430865056115",
    "geocoded_column": {
      "latitude": "29.937430865056115",
      "longitude": "-90.10728867942048"
    }
  },
  {
    "service_request": "2022-931426",
    "request_type": "Trash/Recycling",
    "request_reason": "MIssed Recycling Pick-Up",
    "date_created": "2022-10-25T16:15:42.000",
    "date_modified": "2022-10-25T16:15:43.000",
    "request_status": "Pending",
    "responsible_agency": "Department of Sanitation",
    "final_address": "4130 Canal St",
    "address_councildis": "A",
    "status": "Assigned to Contractor",
    "contractor": "Richards Disposal",
    "rowid": "931426",
    "final_x": "3670780.98535",
    "final_y": "538399.754121",
    "longitude": "-90.1016836885314",
    "latitude": "29.974733810586464",
    "geocoded_column": {
      "latitude": "29.974733810586464",
      "longitude": "-90.1016836885314"
    }
  },
  {
    "service_request": "2022-931425",
    "request_type": "Trash/Recycling",
    "request_reason": "Repair Trash Cart",
    "date_created": "2022-10-25T16:15:30.000",
    "date_modified": "2022-10-25T16:15:31.000",
    "request_status": "Pending",
    "responsible_agency": "Department of Sanitation",
    "final_address": "322 40Th St",
    "address_councildis": "A",
    "status": "Assigned to Contractor",
    "contractor": "Metro Disposal",
    "rowid": "931425",
    "final_x": "3665218.7904",
    "final_y": "553299.717719",
    "longitude": "-90.11875174655866",
    "latitude": "30.01586684098482",
    "geocoded_column": {
      "latitude": "30.01586684098482",
      "longitude": "-90.11875174655866"
    }
  },
  {
    "service_request": "2022-931424",
    "request_type": "Trash/Recycling",
    "request_reason": "Request a Large Item Pick Up",
    "date_created": "2022-10-25T16:15:05.000",
    "date_modified": "2022-10-25T16:15:06.000",
    "request_status": "Pending",
    "responsible_agency": "Department of Sanitation",
    "final_address": "1228 Decatur St",
    "address_councildis": "C",
    "status": "Assigned to Contractor",
    "contractor": "Empire Services",
    "rowid": "931424",
    "final_x": "3684456.02645",
    "final_y": "533603.125765",
    "longitude": "-90.05866309634294",
    "latitude": "29.961133481826195",
    "geocoded_column": {
      "latitude": "29.961133481826195",
      "longitude": "-90.05866309634294"
    }
  },
  {
    "service_request": "2022-931423",
    "request_type": "Trash/Recycling",
    "request_reason": "Repair Recycling Cart",
    "date_created": "2022-10-25T16:14:14.000",
    "date_modified": "2022-10-25T16:14:15.000",
    "request_status": "Pending",
    "responsible_agency": "Department of Sanitation",
    "final_address": "3611 Marigny St",
    "address_councildis": "D",
    "status": "Pending",
    "rowid": "931423",
    "final_x": "3684710.65154",
    "final_y": "546031.75368",
    "longitude": "-90.05742201282865",
    "latitude": "29.995300058368365",
    "geocoded_column": {
      "latitude": "29.995300058368365",
      "longitude": "-90.05742201282865"
    }
  },
  {
    "service_request": "2022-931422",
    "request_type": "Roads/Drainage",
    "request_reason": "Damaged Sidewalk",
    "date_created": "2022-10-25T16:12:23.000",
    "date_modified": "2022-10-25T16:12:25.000",
    "request_status": "Pending",
    "responsible_agency": "Department of Public Works",
    "final_address": "3601 Forest Park Ln",
    "address_councildis": "C",
    "status": "Pending",
    "rowid": "931422",
    "final_x": "3702941.29425",
    "final_y": "511402.819888",
    "longitude": "-90.00110548233576",
    "latitude": "29.899511993939825",
    "geocoded_column": {
      "latitude": "29.899511993939825",
      "longitude": "-90.00110548233576"
    }
  },
  {
    "service_request": "2022-931421",
    "request_type": "Trash/Recycling",
    "request_reason": "Missed Trash Pick-Up",
    "date_created": "2022-10-25T16:12:18.000",
    "date_modified": "2022-10-25T16:12:19.000",
    "request_status": "Pending",
    "responsible_agency": "Department of Sanitation",
    "final_address": "1800 BLK Delachaise St",
    "address_councildis": "B",
    "status": "Assigned to Contractor",
    "contractor": "Richards Disposal",
    "rowid": "931421",
    "final_x": "3673470.25407",
    "final_y": "522234.606893",
    "longitude": "-90.09374260075045",
    "latitude": "29.930205254337945",
    "geocoded_column": {
      "latitude": "29.930205254337945",
      "longitude": "-90.09374260075045"
    }
  },
  {
    "service_request": "2022-931420",
    "request_type": "Parks & Parkways",
    "request_reason": "Request Tree Service (Right of Way/Public Property)",
    "date_created": "2022-10-25T16:08:53.000",
    "date_modified": "2022-10-25T16:08:53.000",
    "request_status": "Pending",
    "responsible_agency": "Department of Parks & Parkway",
    "final_address": "3601 Forest Park Ln",
    "address_councildis": "C",
    "status": "Pending",
    "rowid": "931420",
    "final_x": "3702941.29425",
    "final_y": "511402.819888",
    "longitude": "-90.00110548233576",
    "latitude": "29.899511993939825",
    "geocoded_column": {
      "latitude": "29.899511993939825",
      "longitude": "-90.00110548233576"
    }
  },
  {
    "service_request": "2022-931419",
    "request_type": "Trash/Recycling",
    "request_reason": "Request a Large Item Pick Up",
    "date_created": "2022-10-25T16:07:29.000",
    "date_modified": "2022-10-25T16:07:30.000",
    "request_status": "Pending",
    "responsible_agency": "Department of Sanitation",
    "final_address": "1029 Burdette St",
    "address_councildis": "A",
    "status": "Assigned to Contractor",
    "contractor": "Richards Disposal",
    "rowid": "931419",
    "final_x": "3662506.69619",
    "final_y": "527239.734975",
    "longitude": "-90.12818678660965",
    "latitude": "29.944289345400932",
    "geocoded_column": {
      "latitude": "29.944289345400932",
      "longitude": "-90.12818678660965"
    }
  },
  {
    "service_request": "2022-931418",
    "request_type": "Trash/Recycling",
    "request_reason": "Illegal Dumping",
    "date_created": "2022-10-25T16:04:40.000",
    "date_modified": "2022-10-25T16:04:40.000",
    "request_status": "Pending",
    "responsible_agency": "Department of Sanitation",
    "final_address": "3040 Marais St",
    "address_councildis": "C",
    "status": "Pending",
    "rowid": "931418",
    "final_x": "3688871.72303",
    "final_y": "536369.696647",
    "longitude": "-90.04462091397492",
    "latitude": "29.968604779933948",
    "geocoded_column": {
      "latitude": "29.968604779933948",
      "longitude": "-90.04462091397492"
    }
  },
  {
    "service_request": "2022-931417",
    "request_type": "Trash/Recycling",
    "request_reason": "Order Trash Cart",
    "date_created": "2022-10-25T16:03:45.000",
    "date_modified": "2022-10-25T16:03:45.000",
    "request_status": "Pending",
    "responsible_agency": "Department of Sanitation",
    "final_address": "2328 Mandeville St",
    "address_councildis": "D",
    "status": "Assigned to Contractor",
    "contractor": "Metro Disposal",
    "rowid": "931417",
    "final_x": "3685368.127",
    "final_y": "541026.031371",
    "longitude": "-90.05552145523778",
    "latitude": "29.98151595429858",
    "geocoded_column": {
      "latitude": "29.98151595429858",
      "longitude": "-90.05552145523778"
    }
  },
  {
    "service_request": "2022-931416",
    "request_type": "Trash/Recycling",
    "request_reason": "Replace Recycling Cart",
    "date_created": "2022-10-25T16:00:53.000",
    "date_modified": "2022-10-25T16:00:54.000",
    "request_status": "Pending",
    "responsible_agency": "Department of Sanitation",
    "final_address": "55 Gull St",
    "address_councildis": "D",
    "status": "Pending",
    "rowid": "931416",
    "final_x": "3674808.92718",
    "final_y": "555795.893465",
    "longitude": "-90.08836548648897",
    "latitude": "30.02244742634582",
    "geocoded_column": {
      "latitude": "30.02244742634582",
      "longitude": "-90.08836548648897"
    }
  },
  {
    "service_request": "2022-931415",
    "request_type": "Abandoned Vehicles",
    "request_reason": "Abandoned/Junk Vehicles",
    "date_created": "2022-10-25T16:00:41.000",
    "date_modified": "2022-10-25T16:00:41.000",
    "request_status": "Pending",
    "responsible_agency": "Department of Public Works",
    "final_address": "2513 Conti St",
    "address_councildis": "B",
    "status": "Pending",
    "rowid": "931415",
    "final_x": "3676773.258",
    "final_y": "535537.796614",
    "longitude": "-90.08285722862959",
    "latitude": "29.966685936890816",
    "geocoded_column": {
      "latitude": "29.966685936890816",
      "longitude": "-90.08285722862959"
    }
  },
  {
    "service_request": "2022-931414",
    "request_type": "Roads/Drainage",
    "request_reason": "Man hole cover issue",
    "date_created": "2022-10-25T15:59:36.000",
    "date_modified": "2022-10-25T15:59:36.000",
    "request_status": "Pending",
    "responsible_agency": "Department of Public Works",
    "final_address": "2035 Bartholomew St",
    "address_councildis": "D",
    "status": "Pending",
    "rowid": "931414",
    "final_x": "3692768.84368",
    "final_y": "539004.455562",
    "longitude": "-90.0322191626374",
    "latitude": "29.975728337254793",
    "geocoded_column": {
      "latitude": "29.975728337254793",
      "longitude": "-90.0322191626374"
    }
  },
  {
    "service_request": "2022-931413",
    "request_type": "Trash/Recycling",
    "request_reason": "Replace Trash Cart",
    "date_created": "2022-10-25T15:58:30.000",
    "date_modified": "2022-10-25T15:58:31.000",
    "request_status": "Pending",
    "responsible_agency": "Department of Sanitation",
    "final_address": "55 Gull St",
    "address_councildis": "D",
    "status": "Assigned to Contractor",
    "contractor": "Metro Disposal",
    "rowid": "931413",
    "final_x": "3674808.92718",
    "final_y": "555795.893465",
    "longitude": "-90.08836548648897",
    "latitude": "30.02244742634582",
    "geocoded_column": {
      "latitude": "30.02244742634582",
      "longitude": "-90.08836548648897"
    }
  },
  {
    "service_request": "2022-931412",
    "request_type": "Trash/Recycling",
    "request_reason": "Missed Trash Pick-Up",
    "date_created": "2022-10-25T15:54:52.000",
    "date_modified": "2022-10-25T15:54:53.000",
    "request_status": "Pending",
    "responsible_agency": "Department of Sanitation",
    "final_address": "6300 BLK Louis XIV St",
    "address_councildis": "A",
    "status": "Assigned to Contractor",
    "contractor": "Metro Disposal",
    "rowid": "931412",
    "final_x": "3668296.65582",
    "final_y": "549720.193982",
    "longitude": "-90.10914787096537",
    "latitude": "30.005934339564423",
    "geocoded_column": {
      "latitude": "30.005934339564423",
      "longitude": "-90.10914787096537"
    }
  },
  {
    "service_request": "2022-931411",
    "request_type": "Trash/Recycling",
    "request_reason": "Order Recycling Cart",
    "date_created": "2022-10-25T15:51:58.000",
    "date_modified": "2022-10-25T15:51:58.000",
    "request_status": "Pending",
    "responsible_agency": "Department of Sanitation",
    "final_address": "5504 Hawthorne Pl",
    "address_councildis": "A",
    "status": "Pending",
    "rowid": "931411",
    "final_x": "3667700.62612",
    "final_y": "544241.126542",
    "longitude": "-90.11121549612474",
    "latitude": "29.990886289935457",
    "geocoded_column": {
      "latitude": "29.990886289935457",
      "longitude": "-90.11121549612474"
    }
  },
  {
    "service_request": "2022-931410",
    "request_type": "Abandoned Vehicles",
    "request_reason": "Abandoned/Junk Vehicles",
    "date_created": "2022-10-25T15:45:55.000",
    "date_modified": "2022-10-25T15:45:55.000",
    "request_status": "Pending",
    "responsible_agency": "Department of Public Works",
    "final_address": "1138 Third St",
    "address_councildis": "B",
    "status": "Pending",
    "rowid": "931410",
    "final_x": "3677359.45973",
    "final_y": "521396.250937",
    "longitude": "-90.08149390811901",
    "latitude": "29.927783785535897",
    "geocoded_column": {
      "latitude": "29.927783785535897",
      "longitude": "-90.08149390811901"
    }
  },
  {
    "service_request": "2022-931409",
    "request_type": "Trash/Recycling",
    "request_reason": "Replace Trash Cart",
    "date_created": "2022-10-25T15:37:56.000",
    "date_modified": "2022-10-25T15:37:57.000",
    "request_status": "Pending",
    "responsible_agency": "Department of Sanitation",
    "final_address": "4474 Arts St",
    "address_councildis": "D",
    "status": "Assigned to Contractor",
    "contractor": "Metro Disposal",
    "rowid": "931409",
    "final_x": "3685959.38703",
    "final_y": "549445.105235",
    "longitude": "-90.05335694408473",
    "latitude": "30.004647251364613",
    "geocoded_column": {
      "latitude": "30.004647251364613",
      "longitude": "-90.05335694408473"
    }
  },
  {
    "service_request": "2022-931408",
    "request_type": "Roads/Drainage",
    "request_reason": "Man hole cover issue",
    "date_created": "2022-10-25T15:36:54.000",
    "date_modified": "2022-10-25T15:37:39.000",
    "request_status": "Pending",
    "responsible_agency": "Department of Public Works",
    "final_address": "NERON PL & LOWERLINE ST",
    "address_councildis": "A",
    "status": "Pending",
    "rowid": "931408",
    "final_x": "3665851.6",
    "final_y": "530057.58",
    "longitude": "-90.11753152931207",
    "latitude": "29.951940349805806",
    "geocoded_column": {
      "latitude": "29.951940349805806",
      "longitude": "-90.11753152931207"
    }
  },
  {
    "service_request": "2022-931407",
    "request_type": "Trash/Recycling",
    "request_reason": "Repair Trash Cart",
    "date_created": "2022-10-25T15:35:41.000",
    "date_modified": "2022-10-25T15:35:42.000",
    "request_status": "Pending",
    "responsible_agency": "Department of Sanitation",
    "final_address": "1341 Franklin Ave",
    "address_councildis": "C",
    "status": "Assigned to Contractor",
    "contractor": "Metro Disposal",
    "rowid": "931407",
    "final_x": "3687424.23292",
    "final_y": "537502.378952",
    "longitude": "-90.0491520660738",
    "latitude": "29.97176394433445",
    "geocoded_column": {
      "latitude": "29.97176394433445",
      "longitude": "-90.0491520660738"
    }
  },
  {
    "service_request": "2022-931406",
    "request_type": "Trash/Recycling",
    "request_reason": "Request a Large Item Pick Up",
    "date_created": "2022-10-25T15:34:02.000",
    "date_modified": "2022-10-25T15:34:03.000",
    "request_status": "Pending",
    "responsible_agency": "Department of Sanitation",
    "final_address": "937 N Rendon St",
    "address_councildis": "A",
    "status": "Assigned to Contractor",
    "contractor": "Richards Disposal",
    "rowid": "931406",
    "final_x": "3675573.13774",
    "final_y": "539123.855434",
    "longitude": "-90.08652397864391",
    "latitude": "29.976582335790052",
    "geocoded_column": {
      "latitude": "29.976582335790052",
      "longitude": "-90.08652397864391"
    }
  },
  {
    "service_request": "2022-931405",
    "request_type": "Property Maintenance",
    "request_reason": "Property Maintenance",
    "date_created": "2022-10-25T15:33:15.000",
    "date_modified": "2022-10-25T15:33:15.000",
    "request_status": "Pending",
    "responsible_agency": "Department of Code Enforcement",
    "final_address": "6670 Coveview Ct",
    "address_councildis": "E",
    "status": "Pending",
    "rowid": "931405",
    "final_x": "3699465.54615",
    "final_y": "555729.482009",
    "longitude": "-90.01045940096917",
    "latitude": "30.021505153892626",
    "geocoded_column": {
      "latitude": "30.021505153892626",
      "longitude": "-90.01045940096917"
    }
  },
  {
    "service_request": "2022-931403",
    "request_type": "Trash/Recycling",
    "request_reason": "Repair Trash Cart",
    "date_created": "2022-10-25T15:31:23.000",
    "date_modified": "2022-10-25T15:31:24.000",
    "request_status": "Pending",
    "responsible_agency": "Department of Sanitation",
    "final_address": "1816 Touro St",
    "address_councildis": "D",
    "status": "Assigned to Contractor",
    "contractor": "Metro Disposal",
    "rowid": "931403",
    "final_x": "3683980.92457",
    "final_y": "538977.781834",
    "longitude": "-90.05997476978526",
    "latitude": "29.975926449000447",
    "geocoded_column": {
      "latitude": "29.975926449000447",
      "longitude": "-90.05997476978526"
    }
  },
  {
    "service_request": "2022-931402",
    "request_type": "Trash/Recycling",
    "request_reason": "Repair Trash Cart",
    "date_created": "2022-10-25T15:31:23.000",
    "date_modified": "2022-10-25T15:31:24.000",
    "request_status": "Pending",
    "responsible_agency": "Department of Sanitation",
    "final_address": "1931 France St",
    "address_councildis": "D",
    "status": "Assigned to Contractor",
    "contractor": "Metro Disposal",
    "rowid": "931402",
    "final_x": "3693251.65776",
    "final_y": "538429.514441",
    "longitude": "-90.03071494977318",
    "latitude": "29.97413237069829",
    "geocoded_column": {
      "latitude": "29.97413237069829",
      "longitude": "-90.03071494977318"
    }
  },
  {
    "service_request": "2022-931401",
    "request_type": "Trash/Recycling",
    "request_reason": "Repair Trash Cart",
    "date_created": "2022-10-25T15:28:37.000",
    "date_modified": "2022-10-25T15:28:38.000",
    "request_status": "Pending",
    "responsible_agency": "Department of Sanitation",
    "final_address": "2251 Leon C Simon Dr",
    "address_councildis": "D",
    "status": "Assigned to Contractor",
    "contractor": "Metro Disposal",
    "rowid": "931401",
    "final_x": "3683833.6717",
    "final_y": "557040.29385",
    "longitude": "-90.05980580024608",
    "latitude": "30.025596365200364",
    "geocoded_column": {
      "latitude": "30.025596365200364",
      "longitude": "-90.05980580024608"
    }
  },
  {
    "service_request": "2022-931400",
    "request_type": "Traffic Signals/Signs/Striping/Streetlights",
    "request_reason": "Traffic Sign Missing/Damaged",
    "date_created": "2022-10-25T15:28:36.000",
    "date_modified": "2022-10-25T15:28:36.000",
    "request_status": "Pending",
    "responsible_agency": "Department of Public Works",
    "final_address": "8830 Apricot St",
    "address_councildis": "A",
    "status": "Pending",
    "rowid": "931400",
    "final_x": "3663834.86951",
    "final_y": "534386.957125",
    "longitude": "-90.12375513453597",
    "latitude": "29.963903412481677",
    "geocoded_column": {
      "latitude": "29.963903412481677",
      "longitude": "-90.12375513453597"
    }
  },
  {
    "service_request": "2022-931399",
    "request_type": "Trash/Recycling",
    "request_reason": "Repair Trash Cart",
    "date_created": "2022-10-25T15:28:27.000",
    "date_modified": "2022-10-25T15:28:27.000",
    "request_status": "Pending",
    "responsible_agency": "Department of Sanitation",
    "final_address": "617 Franklin Ave",
    "address_councildis": "C",
    "status": "Assigned to Contractor",
    "contractor": "Metro Disposal",
    "rowid": "931399",
    "final_x": "3686730.50473",
    "final_y": "534763.365382",
    "longitude": "-90.05143973521886",
    "latitude": "29.964253971056046",
    "geocoded_column": {
      "latitude": "29.964253971056046",
      "longitude": "-90.05143973521886"
    }
  },
  {
    "service_request": "2022-931398",
    "request_type": "Trash/Recycling",
    "request_reason": "Repair Trash Cart",
    "date_created": "2022-10-25T15:24:11.000",
    "date_modified": "2022-10-25T15:24:12.000",
    "request_status": "Pending",
    "responsible_agency": "Department of Sanitation",
    "final_address": "3500 N Claiborne Ave",
    "address_councildis": "D",
    "status": "Assigned to Contractor",
    "contractor": "Metro Disposal",
    "rowid": "931398",
    "final_x": "3690956.2968",
    "final_y": "537455.496392",
    "longitude": "-90.03799897585121",
    "latitude": "29.97152571606978",
    "geocoded_column": {
      "latitude": "29.97152571606978",
      "longitude": "-90.03799897585121"
    }
  },
  {
    "service_request": "2022-931397",
    "request_type": "Trash/Recycling",
    "request_reason": "Repair Trash Cart",
    "date_created": "2022-10-25T15:23:16.000",
    "date_modified": "2022-10-25T15:23:17.000",
    "request_status": "Pending",
    "responsible_agency": "Department of Sanitation",
    "final_address": "1819 Piety St",
    "address_councildis": "D",
    "status": "Assigned to Contractor",
    "contractor": "Metro Disposal",
    "rowid": "931397",
    "final_x": "3690575.09315",
    "final_y": "538565.851081",
    "longitude": "-90.03916326289834",
    "latitude": "29.974590642607577",
    "geocoded_column": {
      "latitude": "29.974590642607577",
      "longitude": "-90.03916326289834"
    }
  },
  {
    "service_request": "2022-931396",
    "request_type": "Trash/Recycling",
    "request_reason": "Repair Trash Cart",
    "date_created": "2022-10-25T15:22:07.000",
    "date_modified": "2022-10-25T15:22:08.000",
    "request_status": "Pending",
    "responsible_agency": "Department of Sanitation",
    "final_address": "2474 N Prieur St",
    "address_councildis": "D",
    "status": "Assigned to Contractor",
    "contractor": "Metro Disposal",
    "rowid": "931396",
    "final_x": "3686912.80239",
    "final_y": "539390.658634",
    "longitude": "-90.05070048496184",
    "latitude": "29.976971801095253",
    "geocoded_column": {
      "latitude": "29.976971801095253",
      "longitude": "-90.05070048496184"
    }
  },
  {
    "service_request": "2022-931395",
    "request_type": "Trash/Recycling",
    "request_reason": "Repair Trash Cart",
    "date_created": "2022-10-25T15:21:10.000",
    "date_modified": "2022-10-25T15:22:24.000",
    "request_status": "Pending",
    "responsible_agency": "Department of Sanitation",
    "final_address": "2472 N Prieur St",
    "address_councildis": "D",
    "status": "Assigned to Contractor",
    "contractor": "Metro Disposal",
    "rowid": "931395",
    "final_x": "3686900.33666",
    "final_y": "539390.065034",
    "longitude": "-90.0507398766136",
    "latitude": "29.976970552582365",
    "geocoded_column": {
      "latitude": "29.976970552582365",
      "longitude": "-90.0507398766136"
    }
  },
  {
    "service_request": "2022-931394",
    "request_type": "Trash/Recycling",
    "request_reason": "Repair Trash Cart",
    "date_created": "2022-10-25T15:20:01.000",
    "date_modified": "2022-10-25T15:20:02.000",
    "request_status": "Pending",
    "responsible_agency": "Department of Sanitation",
    "final_address": "811 Piety St",
    "address_councildis": "C",
    "status": "Assigned to Contractor",
    "contractor": "Metro Disposal",
    "rowid": "931394",
    "final_x": "3689604.48233",
    "final_y": "534746.573382",
    "longitude": "-90.04236457872521",
    "latitude": "29.964119078336243",
    "geocoded_column": {
      "latitude": "29.964119078336243",
      "longitude": "-90.04236457872521"
    }
  },
  {
    "service_request": "2022-931393",
    "request_type": "Trash/Recycling",
    "request_reason": "Repair Recycling Cart",
    "date_created": "2022-10-25T15:19:59.000",
    "date_modified": "2022-10-25T15:19:59.000",
    "request_status": "Pending",
    "responsible_agency": "Department of Sanitation",
    "final_address": "5430 Milne St",
    "address_councildis": "A",
    "status": "Pending",
    "rowid": "931393",
    "final_x": "3666594.89543",
    "final_y": "543760.938446",
    "longitude": "-90.11472437851896",
    "latitude": "29.989598317607754",
    "geocoded_column": {
      "latitude": "29.989598317607754",
      "longitude": "-90.11472437851896"
    }
  },
  {
    "service_request": "2022-931392",
    "request_type": "Trash/Recycling",
    "request_reason": "Start Trash Service",
    "date_created": "2022-10-25T15:19:55.000",
    "date_modified": "2022-10-25T15:19:56.000",
    "request_status": "Pending",
    "responsible_agency": "Department of Sanitation",
    "final_address": "2211 Prytania St",
    "address_councildis": "B",
    "status": "Assigned to Contractor",
    "contractor": "Richards Disposal",
    "rowid": "931392",
    "final_x": "3677796.74229",
    "final_y": "523297.160059",
    "longitude": "-90.08004787593886",
    "latitude": "29.93299752132463",
    "geocoded_column": {
      "latitude": "29.93299752132463",
      "longitude": "-90.08004787593886"
    }
  },
  {
    "service_request": "2022-931391",
    "request_type": "Trash/Recycling",
    "request_reason": "Replace Trash Cart",
    "date_created": "2022-10-25T15:17:27.000",
    "date_modified": "2022-10-25T15:17:28.000",
    "request_status": "Pending",
    "responsible_agency": "Department of Sanitation",
    "final_address": "6451 Canal Blvd",
    "address_councildis": "A",
    "status": "Assigned to Contractor",
    "contractor": "Metro Disposal",
    "rowid": "931391",
    "final_x": "3668928.98529",
    "final_y": "550438.746196",
    "longitude": "-90.10712589341885",
    "latitude": "30.00789151622654",
    "geocoded_column": {
      "latitude": "30.00789151622654",
      "longitude": "-90.10712589341885"
    }
  },
  {
    "service_request": "2022-931390",
    "request_type": "Traffic Signals/Signs/Striping/Streetlights",
    "request_reason": "Street Light Outage/Malfunction",
    "date_created": "2022-10-25T15:14:56.000",
    "date_modified": "2022-10-25T15:14:57.000",
    "request_status": "Pending",
    "responsible_agency": "Department of Public Works",
    "final_address": "7 Crane St",
    "address_councildis": "D",
    "status": "Pending",
    "contractor": "Legacy Professional Services",
    "rowid": "931390",
    "final_x": "3673173.91073",
    "final_y": "554594.154968",
    "longitude": "-90.09357283956373",
    "latitude": "30.019191821851905",
    "geocoded_column": {
      "latitude": "30.019191821851905",
      "longitude": "-90.09357283956373"
    }
  },