[
  {
    "service_request": "2022-923360",
    "request_type": "Trash/Recycling",
    "request_reason": "Replace Trash Cart",
    "date_created": "2022-09-25T01:24:22.000",
    "date_modified": "2022-09-25T01:24:23.000",
    "request_status": "Pending",
    "responsible_agency": "Department of Sanitation",
    "final_address": "2710 Dublin St",
    "address_councildis": "A",
    "status": "Assigned to Contractor",
    "contractor": "Richards Disposal",
    "rowid": "923360",
    "final_x": "3665376.84794",
    "final_y": "532713.9465",
    "longitude": "-90.11894168453877",
    "latitude": "29.95925833456378",
    "geocoded_column": {
      "latitude": "29.95925833456378",
      "longitude": "-90.11894168453877"
    }
  },
  {
    "service_request": "2022-923358",
    "request_type": "Trash/Recycling",
    "request_reason": "Repair Trash Cart",
    "date_created": "2022-09-24T22:27:09.000",
    "date_modified": "2022-09-24T22:27:09.000",
    "request_status": "Pending",
    "responsible_agency": "Department of Sanitation",
    "final_address": "4747 Cerise Ave",
    "address_councildis": "E",
    "status": "Assigned to Contractor",
    "contractor": "Metro Disposal",
    "rowid": "923358",
    "final_x": "3708676.31844",
    "final_y": "555716.322585",
    "longitude": "-89.98135660805634",
    "latitude": "30.021173363012544",
    "geocoded_column": {
      "latitude": "30.021173363012544",
      "longitude": "-89.98135660805634"
    }
  },
  {
    "service_request": "2022-923357",
    "request_type": "Roads/Drainage",
    "request_reason": "Pothole",
    "date_created": "2022-09-24T21:39:44.000",
    "date_modified": "2022-09-24T21:39:44.000",
    "request_status": "Pending",
    "responsible_agency": "Department of Public Works",
    "final_address": "348 West Robert E Lee Blvd",
    "address_councildis": "A",
    "status": "Pending",
    "rowid": "923357",
    "final_x": "3665100.6432",
    "final_y": "554883.866456",
    "longitude": "-90.11907199946828",
    "latitude": "30.02022613657772",
    "geocoded_column": {
      "latitude": "30.02022613657772",
      "longitude": "-90.11907199946828"
    }
  },
  {
    "service_request": "2022-923356",
    "request_type": "Traffic Signals/Signs/Striping/Streetlights",
    "request_reason": "Street Light Outage/Malfunction",
    "date_created": "2022-09-24T21:06:03.000",
    "date_modified": "2022-09-24T21:06:04.000",
    "request_status": "Pending",
    "responsible_agency": "Department of Public Works",
    "final_address": "615 Milan St",
    "address_councildis": "B",
    "status": "Pending",
    "contractor": "Legacy Professional Services",
    "rowid": "923356",
    "final_x": "3671932.81537",
    "final_y": "517961.980406",
    "longitude": "-90.09874138646502",
    "latitude": "29.918502541132145",
    "geocoded_column": {
      "latitude": "29.918502541132145",
      "longitude": "-90.09874138646502"
    }
  },
  {
    "service_request": "2022-923355",
    "request_type": "Traffic Signals/Signs/Striping/Streetlights",
    "request_reason": "Street Light Outage/Malfunction",
    "date_created": "2022-09-24T21:05:06.000",
    "date_modified": "2022-09-24T21:05:07.000",
    "request_status": "Pending",
    "responsible_agency": "Department of Public Works",
    "final_address": "400 Chartres St",
    "address_councildis": "C",
    "status": "Pending",
    "contractor": "Legacy Professional Services",
    "rowid": "923355",
    "final_x": "3682207.49794",
    "final_y": "531375.162242",
    "longitude": "-90.06584135886212",
    "latitude": "29.95507592785548",
    "geocoded_column": {
      "latitude": "29.95507592785548",
      "longitude": "-90.06584135886212"
    }
  },
  {
    "service_request": "2022-923352",
    "request_type": "Traffic Signals/Signs/Striping/Streetlights",
    "request_reason": "Street Light Outage/Malfunction",
    "date_created": "2022-09-24T20:11:15.000",
    "date_modified": "2022-09-24T20:11:15.000",
    "request_status": "Pending",
    "responsible_agency": "Department of Public Works",
    "final_address": "5917 Constance St, New Orleans, Louisiana, 70115",
    "address_councildis": "A",
    "status": "Pending",
    "contractor": "Legacy Professional Services",
    "rowid": "923352",
    "final_x": "3665005.97351",
    "final_y": "518818.707703",
    "longitude": "-90.12057722448561",
    "latitude": "29.92106167485024",
    "geocoded_column": {
      "latitude": "29.92106167485024",
      "longitude": "-90.12057722448561"
    }
  },
  {
    "service_request": "2022-923351",
    "request_type": "Traffic Signals/Signs/Striping/Streetlights",
    "request_reason": "Street Light Outage/Malfunction",
    "date_created": "2022-09-24T20:10:07.000",
    "date_modified": "2022-09-24T20:10:07.000",
    "request_status": "Pending",
    "responsible_agency": "Department of Public Works",
    "final_address": "5935 Constance St, New Orleans, Louisiana, 70115",
    "address_councildis": "A",
    "status": "Pending",
    "contractor": "Legacy Professional Services",
    "rowid": "923351",
    "final_x": "3664880.25485",
    "final_y": "518850.783223",
    "longitude": "-90.12097299224453",
    "latitude": "29.921153530634953",
    "geocoded_column": {
      "latitude": "29.921153530634953",
      "longitude": "-90.12097299224453"
    }
  },
  {
    "service_request": "2022-923350",
    "request_type": "Trash/Recycling",
    "request_reason": "Missed Trash Pick-Up",
    "date_created": "2022-09-24T20:07:14.000",
    "date_modified": "2022-09-24T20:07:15.000",
    "request_status": "Pending",
    "responsible_agency": "Department of Sanitation",
    "final_address": "5416 Grand Bayou Dr",
    "address_councildis": "E",
    "status": "Assigned to Contractor",
    "contractor": "Metro Disposal",
    "rowid": "923350",
    "final_x": "3725942.59379",
    "final_y": "563949.187105",
    "longitude": "-89.9264814503644",
    "latitude": "30.043238894988793",
    "geocoded_column": {
      "latitude": "30.043238894988793",
      "longitude": "-89.9264814503644"
    }
  },
  {
    "service_request": "2022-923349",
    "request_type": "Trash/Recycling",
    "request_reason": "Missed Trash Pick-Up",
    "date_created": "2022-09-24T19:43:06.000",
    "date_modified": "2022-09-24T19:43:07.000",
    "request_status": "Pending",
    "responsible_agency": "Department of Sanitation",
    "final_address": "4610 Hauck Dr",
    "address_councildis": "E",
    "status": "Assigned to Contractor",
    "contractor": "Metro Disposal",
    "rowid": "923349",
    "final_x": "3714568.4556",
    "final_y": "555977.686873",
    "longitude": "-89.96272943798138",
    "latitude": "30.021699537776662",
    "geocoded_column": {
      "latitude": "30.021699537776662",
      "longitude": "-89.96272943798138"
    }
  },
  {
    "service_request": "2022-923348",
    "request_type": "Trash/Recycling",
    "request_reason": "Missed Trash Pick-Up",
    "date_created": "2022-09-24T19:40:19.000",
    "date_modified": "2022-09-24T19:40:19.000",
    "request_status": "Pending",
    "responsible_agency": "Department of Sanitation",
    "final_address": "13118 Dwyer Blvd",
    "address_councildis": "E",
    "status": "Assigned to Contractor",
    "contractor": "Metro Disposal",
    "rowid": "923348",
    "final_x": "3724198.54828",
    "final_y": "561238.55683",
    "longitude": "-89.93209804600616",
    "latitude": "30.035844541176957",
    "geocoded_column": {
      "latitude": "30.035844541176957",
      "longitude": "-89.93209804600616"
    }
  },
  {
    "service_request": "2022-923347",
    "request_type": "Trash/Recycling",
    "request_reason": "Missed Trash Pick-Up",
    "date_created": "2022-09-24T19:39:26.000",
    "date_modified": "2022-09-24T19:39:27.000",
    "request_status": "Pending",
    "responsible_agency": "Department of Sanitation",
    "final_address": "4600 Hauck Dr",
    "address_councildis": "E",
    "status": "Assigned to Contractor",
    "contractor": "Metro Disposal",
    "rowid": "923347",
    "final_x": "3714574.42341",
    "final_y": "555918.087257",
    "longitude": "-89.96271283409652",
    "latitude": "30.021535466100076",
    "geocoded_column": {
      "latitude": "30.021535466100076",
      "longitude": "-89.96271283409652"
    }
  },
  {
    "service_request": "2022-923346",
    "request_type": "Roads/Drainage",
    "request_reason": "Pothole",
    "date_created": "2022-09-24T19:17:21.000",
    "date_modified": "2022-09-24T19:17:21.000",
    "request_status": "Pending",
    "responsible_agency": "Department of Public Works",
    "final_address": "1 Virginia Ct",
    "address_councildis": "A",
    "status": "Pending",
    "rowid": "923346",
    "final_x": "3668704.63207",
    "final_y": "542268.174413",
    "longitude": "-90.10811071061121",
    "latitude": "29.98543186272606",
    "geocoded_column": {
      "latitude": "29.98543186272606",
      "longitude": "-90.10811071061121"
    }
  },
  {
    "service_request": "2022-923345",
    "request_type": "Traffic Signals/Signs/Striping/Streetlights",
    "request_reason": "Street Light Outage/Malfunction",
    "date_created": "2022-09-24T19:15:47.000",
    "date_modified": "2022-09-24T19:15:48.000",
    "request_status": "Pending",
    "responsible_agency": "Department of Public Works",
    "final_address": "1 Virginia Ct",
    "address_councildis": "A",
    "status": "Pending",
    "contractor": "Legacy Professional Services",
    "rowid": "923345",
    "final_x": "3668704.63207",
    "final_y": "542268.174413",
    "longitude": "-90.10811071061121",
    "latitude": "29.98543186272606",
    "geocoded_column": {
      "latitude": "29.98543186272606",
      "longitude": "-90.10811071061121"
    }
  },
  {
    "service_request": "2022-923344",
    "request_type": "Property Maintenance",
    "request_reason": "Property Maintenance",
    "date_created": "2022-09-24T19:04:27.000",
    "date_modified": "2022-09-24T19:04:28.000",
    "request_status": "Pending",
    "responsible_agency": "Department of Code Enforcement",
    "final_address": "STAR ST & CURRAN BLVD",
    "address_councildis": "E",
    "status": "Pending",
    "rowid": "923344",
    "final_x": "3720849.5",
    "final_y": "574301.28",
    "longitude": "-89.9421803332373",
    "latitude": "30.071873787537783",
    "geocoded_column": {
      "latitude": "30.071873787537783",
      "longitude": "-89.9421803332373"
    }
  },
  {
    "service_request": "2022-923343",
    "request_type": "Safety & Permits",
    "request_reason": "Licenses & Permits",
    "date_created": "2022-09-24T18:57:01.000",
    "date_modified": "2022-09-24T18:57:01.000",
    "request_status": "Pending",
    "responsible_agency": "Safety and Permits",
    "final_address": "1331 First St",
    "address_councildis": "B",
    "status": "Pending",
    "rowid": "923343",
    "final_x": "3677563.30434",
    "final_y": "522343.09785",
    "longitude": "-90.08081774623167",
    "latitude": "29.930381180752146",
    "geocoded_column": {
      "latitude": "29.930381180752146",
      "longitude": "-90.08081774623167"
    }
  },
  {
    "service_request": "2022-923342",
    "request_type": "Trash/Recycling",
    "request_reason": "Missed Trash Pick-Up",
    "date_created": "2022-09-24T18:23:33.000",
    "date_modified": "2022-09-24T18:23:34.000",
    "request_status": "Pending",
    "responsible_agency": "Department of Sanitation",
    "final_address": "134 N Alexander St",
    "address_councildis": "A",
    "status": "Assigned to Contractor",
    "contractor": "Richards Disposal",
    "rowid": "923342",
    "final_x": "3670253.93831",
    "final_y": "539432.27457",
    "longitude": "-90.10331323336244",
    "latitude": "29.97758845966334",
    "geocoded_column": {
      "latitude": "29.97758845966334",
      "longitude": "-90.10331323336244"
    }
  },
  {
    "service_request": "2022-923341",
    "request_type": "Safety & Permits",
    "request_reason": "Licenses & Permits",
    "date_created": "2022-09-24T18:18:37.000",
    "date_modified": "2022-09-24T18:18:37.000",
    "request_status": "Pending",
    "responsible_agency": "Safety and Permits",
    "final_address": "2328 Coliseum St",
    "address_councildis": "B",
    "status": "Pending",
    "rowid": "923341",
    "final_x": "3677730.84187",
    "final_y": "522487.63449",
    "longitude": "-90.080283866196",
    "latitude": "29.930773572625625",
    "geocoded_column": {
      "latitude": "29.930773572625625",
      "longitude": "-90.080283866196"
    }
  },
  {
    "service_request": "2022-923340",
    "request_type": "Safety & Permits",
    "request_reason": "Licenses & Permits",
    "date_created": "2022-09-24T18:18:37.000",
    "date_modified": "2022-09-24T18:18:37.000",
    "request_status": "Pending",
    "responsible_agency": "Safety and Permits",
    "final_address": "2328 Coliseum St",
    "address_councildis": "B",
    "status": "Pending",
    "rowid": "923340",
    "final_x": "3677730.84187",
    "final_y": "522487.63449",
    "longitude": "-90.080283866196",
    "latitude": "29.930773572625625",
    "geocoded_column": {
      "latitude": "29.930773572625625",
      "longitude": "-90.080283866196"
    }
  },
  {
    "service_request": "2022-923339",
    "request_type": "Trash/Recycling",
    "request_reason": "Missed Trash Pick-Up",
    "date_created": "2022-09-24T17:53:44.000",
    "date_modified": "2022-09-24T17:53:45.000",
    "request_status": "Pending",
    "responsible_agency": "Department of Sanitation",
    "final_address": "5006 N Galvez St",
    "address_councildis": "E",
    "status": "Assigned to Contractor",
    "contractor": "Metro Disposal",
    "rowid": "923339",
    "final_x": "3697065.836",
    "final_y": "537903.945161",
    "longitude": "-90.01868800928291",
    "latitude": "29.972567466573878",
    "geocoded_column": {
      "latitude": "29.972567466573878",
      "longitude": "-90.01868800928291"
    }
  },
  {
    "service_request": "2022-923338",
    "request_type": "Roads/Drainage",
    "request_reason": "Debris in Roadway",
    "date_created": "2022-09-24T17:29:56.000",
    "date_modified": "2022-09-24T17:29:56.000",
    "request_status": "Pending",
    "responsible_agency": "Department of Public Works",
    "final_address": "3823 Dumaine St",
    "address_councildis": "A",
    "status": "Pending",
    "rowid": "923338",
    "final_x": "3673639.16123",
    "final_y": "540243.396683",
    "longitude": "-90.09259379388672",
    "latitude": "29.979718413790465",
    "geocoded_column": {
      "latitude": "29.979718413790465",
      "longitude": "-90.09259379388672"
    }
  },
  {
    "service_request": "2022-923337",
    "request_type": "Trash/Recycling",
    "request_reason": "Missed Trash Pick-Up",
    "date_created": "2022-09-24T17:28:02.000",
    "date_modified": "2022-09-24T17:28:02.000",
    "request_status": "Pending",
    "responsible_agency": "Department of Sanitation",
    "final_address": "1026 Conti St",
    "address_councildis": "C",
    "status": "Assigned to Contractor",
    "contractor": "Empire Services",
    "rowid": "923337",
    "final_x": "3680839.58319",
    "final_y": "532354.521795",
    "longitude": "-90.07012662868551",
    "latitude": "29.95781037016211",
    "geocoded_column": {
      "latitude": "29.95781037016211",
      "longitude": "-90.07012662868551"
    }
  },
  {
    "service_request": "2022-923336",
    "request_type": "Roads/Drainage",
    "request_reason": "Debris in Roadway",
    "date_created": "2022-09-24T17:25:33.000",
    "date_modified": "2022-09-24T17:25:33.000",
    "request_status": "Pending",
    "responsible_agency": "Department of Public Works",
    "final_address": "2900 S Claiborne Ave",
    "address_councildis": "B",
    "status": "Pending",
    "rowid": "923336",
    "final_x": "3672768.75572",
    "final_y": "526286.092734",
    "longitude": "-90.09581899130944",
    "latitude": "29.941366374248226",
    "geocoded_column": {
      "latitude": "29.941366374248226",
      "longitude": "-90.09581899130944"
    }
  },
  {
    "service_request": "2022-923335",
    "request_type": "Property Maintenance",
    "request_reason": "Property Maintenance",
    "date_created": "2022-09-24T17:11:51.000",
    "date_modified": "2022-09-24T17:11:51.000",
    "request_status": "Pending",
    "responsible_agency": "Department of Code Enforcement",
    "final_address": "67 N Park Pl",
    "address_councildis": "A",
    "status": "Pending",
    "rowid": "923335",
    "final_x": "3669836.20212",
    "final_y": "544875.108175",
    "longitude": "-90.1044482276053",
    "latitude": "29.992566718672194",
    "geocoded_column": {
      "latitude": "29.992566718672194",
      "longitude": "-90.1044482276053"
    }
  },
  {
    "service_request": "2022-923334",
    "request_type": "Trash/Recycling",
    "request_reason": "Request a Large Item Pick Up",
    "date_created": "2022-09-24T16:52:06.000",
    "date_modified": "2022-09-24T16:52:07.000",
    "request_status": "Pending",
    "responsible_agency": "Department of Sanitation",
    "final_address": "7929 Freret St",
    "address_councildis": "A",
    "status": "Assigned to Contractor",
    "contractor": "Richards Disposal",
    "rowid": "923334",
    "final_x": "3661926.85114",
    "final_y": "527522.518655",
    "longitude": "-90.13000815603785",
    "latitude": "29.9450836666227",
    "geocoded_column": {
      "latitude": "29.9450836666227",
      "longitude": "-90.13000815603785"
    }
  },
  {
    "service_request": "2022-923333",
    "request_type": "Traffic Signals/Signs/Striping/Streetlights",
    "request_reason": "Traffic Sign Missing/Damaged",
    "date_created": "2022-09-24T16:41:34.000",
    "date_modified": "2022-09-24T16:41:34.000",
    "request_status": "Pending",
    "responsible_agency": "Department of Public Works",
    "final_address": "7017 S Claiborne Ave",
    "address_councildis": "A",
    "status": "Pending",
    "rowid": "923333",
    "final_x": "3666623.66426",
    "final_y": "529407.706369",
    "longitude": "-90.11511552222288",
    "latitude": "29.950130860662092",
    "geocoded_column": {
      "latitude": "29.950130860662092",
      "longitude": "-90.11511552222288"
    }
  },
  {
    "service_request": "2022-923331",
    "request_type": "Trash/Recycling",
    "request_reason": "Request a Large Item Pick Up",
    "date_created": "2022-09-24T16:37:13.000",
    "date_modified": "2022-09-24T16:37:14.000",
    "request_status": "Pending",
    "responsible_agency": "Department of Sanitation",
    "final_address": "2227 Valmont St",
    "address_councildis": "B",
    "status": "Assigned to Contractor",
    "contractor": "Richards Disposal",
    "rowid": "923331",
    "final_x": "3668248.00762",
    "final_y": "523778.226235",
    "longitude": "-90.1101764327885",
    "latitude": "29.93460402462305",
    "geocoded_column": {
      "latitude": "29.93460402462305",
      "longitude": "-90.1101764327885"
    }
  },
  {
    "service_request": "2022-923330",
    "request_type": "Trash/Recycling",
    "request_reason": "Request a Large Item Pick Up",
    "date_created": "2022-09-24T16:32:04.000",
    "date_modified": "2022-09-24T16:32:04.000",
    "request_status": "Pending",
    "responsible_agency": "Department of Sanitation",
    "final_address": "209 S Solomon St",
    "address_councildis": "A",
    "status": "Assigned to Contractor",
    "contractor": "Richards Disposal",
    "rowid": "923330",
    "final_x": "3670246.41537",
    "final_y": "538341.315913",
    "longitude": "-90.10337397913925",
    "latitude": "29.974588914001718",
    "geocoded_column": {
      "latitude": "29.974588914001718",
      "longitude": "-90.10337397913925"
    }
  },
  {
    "service_request": "2022-923329",
    "request_type": "Trash/Recycling",
    "request_reason": "Request a Large Item Pick Up",
    "date_created": "2022-09-24T16:30:54.000",
    "date_modified": "2022-09-24T16:30:55.000",
    "request_status": "Pending",
    "responsible_agency": "Department of Sanitation",
    "final_address": "209 S Solomon St",
    "address_councildis": "A",
    "status": "Assigned to Contractor",
    "contractor": "Richards Disposal",
    "rowid": "923329",
    "final_x": "3670246.41537",
    "final_y": "538341.315913",
    "longitude": "-90.10337397913925",
    "latitude": "29.974588914001718",
    "geocoded_column": {
      "latitude": "29.974588914001718",
      "longitude": "-90.10337397913925"
    }
  },
  {
    "service_request": "2022-923327",
    "request_type": "Trash/Recycling",
    "request_reason": "Missed Trash Pick-Up",
    "date_created": "2022-09-24T16:24:20.000",
    "date_modified": "2022-09-24T16:24:21.000",
    "request_status": "Pending",
    "responsible_agency": "Department of Sanitation",
    "final_address": "1723 N Broad St",
    "address_councildis": "D",
    "status": "Assigned to Contractor",
    "contractor": "Metro Disposal",
    "rowid": "923327",
    "final_x": "3679616.25659",
    "final_y": "540944.578443",
    "longitude": "-90.07369135355557",
    "latitude": "29.98146710526569",
    "geocoded_column": {
      "latitude": "29.98146710526569",
      "longitude": "-90.07369135355557"
    }
  },
  {
    "service_request": "2022-923326",
    "request_type": "Health Related Questions",
    "request_reason": "Noise Ordinance Complaint",
    "date_created": "2022-09-24T16:22:27.000",
    "date_modified": "2022-09-24T16:22:27.000",
    "request_status": "Pending",
    "responsible_agency": "Health Department",
    "final_address": "550 Baronne St, New Orleans, Louisiana, 70113",
    "address_councildis": "B",
    "status": "Pending",
    "rowid": "923326",
    "final_x": "3679871.27515",
    "final_y": "529133.143296",
    "longitude": "-90.07329612681656",
    "latitude": "29.948981981496516",
    "geocoded_column": {
      "latitude": "29.948981981496516",
      "longitude": "-90.07329612681656"
    }
  },
  {
    "service_request": "2022-923325",
    "request_type": "Property Maintenance",
    "request_reason": "Property Maintenance",
    "date_created": "2022-09-24T16:21:51.000",
    "date_modified": "2022-09-24T16:21:51.000",
    "request_status": "Pending",
    "responsible_agency": "Department of Code Enforcement",
    "final_address": "1401 St Roch Ave",
    "address_councildis": "C",
    "status": "Pending",
    "rowid": "923325",
    "final_x": "3686471.89986",
    "final_y": "537563.756872",
    "longitude": "-90.05215750720372",
    "latitude": "29.971962025153253",
    "geocoded_column": {
      "latitude": "29.971962025153253",
      "longitude": "-90.05215750720372"
    }
  },
  {
    "service_request": "2022-923324",
    "request_type": "Trash/Recycling",
    "request_reason": "Repair Trash Cart",
    "date_created": "2022-09-24T16:17:24.000",
    "date_modified": "2022-09-24T16:17:24.000",
    "request_status": "Pending",
    "responsible_agency": "Department of Sanitation",
    "final_address": "1620 Dublin St",
    "address_councildis": "A",
    "status": "Assigned to Contractor",
    "contractor": "Richards Disposal",
    "rowid": "923324",
    "final_x": "3662727.53235",
    "final_y": "529805.684161",
    "longitude": "-90.12740427751861",
    "latitude": "29.951338494039163",
    "geocoded_column": {
      "latitude": "29.951338494039163",
      "longitude": "-90.12740427751861"
    }
  },
  {
    "service_request": "2022-923323",
    "request_type": "Trash/Recycling",
    "request_reason": "Damaged Caused By Contractor",
    "date_created": "2022-09-24T16:14:22.000",
    "date_modified": "2022-09-24T16:14:22.000",
    "request_status": "Pending",
    "responsible_agency": "Department of Sanitation",
    "final_address": "1620 Dublin St",
    "address_councildis": "A",
    "status": "Assigned to Contractor",
    "contractor": "Richards Disposal",
    "rowid": "923323",
    "final_x": "3662727.53235",
    "final_y": "529805.684161",
    "longitude": "-90.12740427751861",
    "latitude": "29.951338494039163",
    "geocoded_column": {
      "latitude": "29.951338494039163",
      "longitude": "-90.12740427751861"
    }
  },
  {
    "service_request": "2022-923321",
    "request_type": "Parks & Parkways",
    "request_reason": "Request Tree Service (Right of Way/Public Property)",
    "date_created": "2022-09-24T15:57:43.000",
    "date_modified": "2022-09-24T15:57:43.000",
    "request_status": "Pending",
    "responsible_agency": "Department of Parks & Parkway",
    "final_address": "5922 Marshal Foch St",
    "address_councildis": "A",
    "status": "Pending",
    "rowid": "923321",
    "final_x": "3669687.36385",
    "final_y": "546714.013649",
    "longitude": "-90.10485610438451",
    "latitude": "29.997627462283",
    "geocoded_column": {
      "latitude": "29.997627462283",
      "longitude": "-90.10485610438451"
    }
  },
  {
    "service_request": "2022-923320",
    "request_type": "Abandoned Vehicles",
    "request_reason": "Abandoned/Junk Vehicles",
    "date_created": "2022-09-24T15:44:26.000",
    "date_modified": "2022-09-24T15:44:26.000",
    "request_status": "Pending",
    "responsible_agency": "Department of Public Works",
    "final_address": "1838 Pauline St",
    "address_councildis": "D",
    "status": "Pending",
    "rowid": "923320",
    "final_x": "3691891.10096",
    "final_y": "538374.251849",
    "longitude": "-90.03501386147337",
    "latitude": "29.974022877273118",
    "geocoded_column": {
      "latitude": "29.974022877273118",
      "longitude": "-90.03501386147337"
    }
  },
  {
    "service_request": "2022-923318",
    "request_type": "Abandoned Vehicles",
    "request_reason": "Abandoned/Junk Vehicles",
    "date_created": "2022-09-24T15:37:39.000",
    "date_modified": "2022-09-24T15:37:39.000",
    "request_status": "Pending",
    "responsible_agency": "Department of Public Works",
    "final_address": "604 Leboeuf St",
    "address_councildis": "C",
    "status": "Pending",
    "rowid": "923318",
    "final_x": "3689870.24316",
    "final_y": "529328.783745",
    "longitude": "-90.04171818687534",
    "latitude": "29.94921379898616",
    "geocoded_column": {
      "latitude": "29.94921379898616",
      "longitude": "-90.04171818687534"
    }
  },
  {
    "service_request": "2022-923317",
    "request_type": "Trash/Recycling",
    "request_reason": "Missed Trash Pick-Up",
    "date_created": "2022-09-24T15:30:28.000",
    "date_modified": "2022-09-24T15:30:29.000",
    "request_status": "Pending",
    "responsible_agency": "Department of Sanitation",
    "final_address": "2107 Rousseau St",
    "address_councildis": "B",
    "status": "Assigned to Contractor",
    "contractor": "Richards Disposal",
    "rowid": "923317",
    "final_x": "3680448.45832",
    "final_y": "520508.942904",
    "longitude": "-90.07177351331663",
    "latitude": "29.925250822849257",
    "geocoded_column": {
      "latitude": "29.925250822849257",
      "longitude": "-90.07177351331663"
    }
  },
  {
    "service_request": "2022-923316",
    "request_type": "Traffic Signals/Signs/Striping/Streetlights",
    "request_reason": "Street Light Outage/Malfunction",
    "date_created": "2022-09-24T15:01:51.000",
    "date_modified": "2022-09-24T15:01:52.000",
    "request_status": "Pending",
    "responsible_agency": "Department of Public Works",
    "final_address": "10340 Heritage Dr",
    "address_councildis": "E",
    "status": "Pending",
    "contractor": "Legacy Professional Services",
    "rowid": "923316",
    "final_x": "3709730.01022",
    "final_y": "564353.767073",
    "longitude": "-89.9777043838763",
    "latitude": "30.04488868954239",
    "geocoded_column": {
      "latitude": "30.04488868954239",
      "longitude": "-89.9777043838763"
    }
  },
  {
    "service_request": "2022-923315",
    "request_type": "COVID-19",
    "request_reason": "COVID-19 Business Non-Compliance",
    "date_created": "2022-09-24T14:57:38.000",
    "date_modified": "2022-09-24T14:57:39.000",
    "request_status": "Pending",
    "responsible_agency": "Safety and Permits",
    "final_address": "2618 Short St, New Orleans, Louisiana, 70125",
    "address_councildis": "A",
    "status": "Pending",
    "rowid": "923315",
    "final_x": "3665750.02304",
    "final_y": "531967.032003",
    "longitude": "-90.1177883033815",
    "latitude": "29.957193683871928",
    "geocoded_column": {
      "latitude": "29.957193683871928",
      "longitude": "-90.1177883033815"
    }
  },
  {
    "service_request": "2022-923314",
    "request_type": "Property Maintenance",
    "request_reason": "Property Maintenance",
    "date_created": "2022-09-24T14:55:47.000",
    "date_modified": "2022-09-24T14:55:47.000",
    "request_status": "Pending",
    "responsible_agency": "Department of Code Enforcement",
    "final_address": "8423 Hickory St",
    "address_councildis": "A",
    "status": "Pending",
    "rowid": "923314",
    "final_x": "3662466.77792",
    "final_y": "530815.12973",
    "longitude": "-90.1281940930222",
    "latitude": "29.954121687129657",
    "geocoded_column": {
      "latitude": "29.954121687129657",
      "longitude": "-90.1281940930222"
    }
  },
  {
    "service_request": "2022-923313",
    "request_type": "Abandoned Vehicles",
    "request_reason": "Abandoned/Junk Vehicles",
    "date_created": "2022-09-24T14:55:29.000",
    "date_modified": "2022-09-24T14:55:29.000",
    "request_status": "Pending",
    "responsible_agency": "Department of Public Works",
    "final_address": "366 Millaudon St",
    "address_councildis": "A",
    "status": "Pending",
    "rowid": "923313",
    "final_x": "3661789.00698",
    "final_y": "524568.659772",
    "longitude": "-90.13054127317676",
    "latitude": "29.9369654723645",
    "geocoded_column": {
      "latitude": "29.9369654723645",
      "longitude": "-90.13054127317676"
    }
  },
  {
    "service_request": "2022-923312",
    "request_type": "Property Maintenance",
    "request_reason": "Property Maintenance",
    "date_created": "2022-09-24T14:49:30.000",
    "date_modified": "2022-09-24T14:49:30.000",
    "request_status": "Pending",
    "responsible_agency": "Department of Code Enforcement",
    "final_address": "2650 Piety St",
    "address_councildis": "D",
    "status": "Pending",
    "rowid": "923312",
    "final_x": "3691321.84854",
    "final_y": "541859.457676",
    "longitude": "-90.03668712558792",
    "latitude": "29.98362367362341",
    "geocoded_column": {
      "latitude": "29.98362367362341",
      "longitude": "-90.03668712558792"
    }
  },
  {
    "service_request": "2022-923311",
    "request_type": "Abandoned Vehicles",
    "request_reason": "Abandoned/Junk Vehicles",
    "date_created": "2022-09-24T14:47:46.000",
    "date_modified": "2022-09-24T14:47:46.000",
    "request_status": "Pending",
    "responsible_agency": "Department of Public Works",
    "final_address": "366 Millaudon St",
    "address_councildis": "A",
    "status": "Pending",
    "rowid": "923311",
    "final_x": "3661789.00698",
    "final_y": "524568.659772",
    "longitude": "-90.13054127317676",
    "latitude": "29.9369654723645",
    "geocoded_column": {
      "latitude": "29.9369654723645",
      "longitude": "-90.13054127317676"
    }
  },
  {
    "service_request": "2022-923310",
    "request_type": "Trash/Recycling",
    "request_reason": "Replace Trash Cart",
    "date_created": "2022-09-24T14:44:02.000",
    "date_modified": "2022-09-24T14:44:03.000",
    "request_status": "Pending",
    "responsible_agency": "Department of Sanitation",
    "final_address": "4703 Music St",
    "address_councildis": "D",
    "status": "Assigned to Contractor",
    "contractor": "Metro Disposal",
    "rowid": "923310",
    "final_x": "3685741.6239",
    "final_y": "550259.823508",
    "longitude": "-90.05401616233287",
    "latitude": "30.006894117732354",
    "geocoded_column": {
      "latitude": "30.006894117732354",
      "longitude": "-90.05401616233287"
    }
  },
  {
    "service_request": "2022-923309",
    "request_type": "Trash/Recycling",
    "request_reason": "Missed Trash Pick-Up",
    "date_created": "2022-09-24T14:28:25.000",
    "date_modified": "2022-09-24T14:28:26.000",
    "request_status": "Pending",
    "responsible_agency": "Department of Sanitation",
    "final_address": "4701 Rhodes Dr",
    "address_councildis": "E",
    "status": "Assigned to Contractor",
    "contractor": "Metro Disposal",
    "rowid": "923309",
    "final_x": "3702608.77764",
    "final_y": "554093.44732",
    "longitude": "-90.00058783714707",
    "latitude": "30.016906530776254",
    "geocoded_column": {
      "latitude": "30.016906530776254",
      "longitude": "-90.00058783714707"
    }
  },
  {
    "service_request": "2022-923308",
    "request_type": "Abandoned Vehicles",
    "request_reason": "Abandoned/Junk Vehicles",
    "date_created": "2022-09-24T14:27:39.000",
    "date_modified": "2022-09-24T14:27:39.000",
    "request_status": "Pending",
    "responsible_agency": "Department of Public Works",
    "final_address": "8436 Hickory St",
    "address_councildis": "A",
    "status": "Pending",
    "rowid": "923308",
    "final_x": "3662359.18215",
    "final_y": "530810.068674",
    "longitude": "-90.12853400676707",
    "latitude": "29.954110882055407",
    "geocoded_column": {
      "latitude": "29.954110882055407",
      "longitude": "-90.12853400676707"
    }
  },
  {
    "service_request": "2022-923307",
    "request_type": "Traffic Signals/Signs/Striping/Streetlights",
    "request_reason": "Traffic Sign Missing/Damaged",
    "date_created": "2022-09-24T14:11:16.000",
    "date_modified": "2022-09-24T14:11:16.000",
    "request_status": "Pending",
    "responsible_agency": "Department of Public Works",
    "final_address": "939 Orleans Ave",
    "address_councildis": "C",
    "status": "Pending",
    "rowid": "923307",
    "final_x": "3681842.29442",
    "final_y": "533241.953156",
    "longitude": "-90.06692938578607",
    "latitude": "29.960220070724784",
    "geocoded_column": {
      "latitude": "29.960220070724784",
      "longitude": "-90.06692938578607"
    }
  },
  {
    "service_request": "2022-923306",
    "request_type": "Trash/Recycling",
    "request_reason": "Missed Trash Pick-Up",
    "date_created": "2022-09-24T13:59:07.000",
    "date_modified": "2022-09-24T13:59:07.000",
    "request_status": "Pending",
    "responsible_agency": "Department of Sanitation",
    "final_address": "1229 Clouet St",
    "address_councildis": "C",
    "status": "Assigned to Contractor",
    "contractor": "Metro Disposal",
    "rowid": "923306",
    "final_x": "3689189.6406",
    "final_y": "536615.301767",
    "longitude": "-90.04360818564848",
    "latitude": "29.9692702724158",
    "geocoded_column": {
      "latitude": "29.9692702724158",
      "longitude": "-90.04360818564848"
    }
  },
  {
    "service_request": "2022-923305",
    "request_type": "Trash/Recycling",
    "request_reason": "MIssed Recycling Pick-Up",
    "date_created": "2022-09-24T13:52:55.000",
    "date_modified": "2022-09-24T13:52:56.000",
    "request_status": "Pending",
    "responsible_agency": "Department of Sanitation",
    "final_address": "4219 Clio St",
    "address_councildis": "B",
    "status": "Assigned to Contractor",
    "contractor": "Richards Disposal",
    "rowid": "923305",
    "final_x": "3671468.16065",
    "final_y": "531591.879683",
    "longitude": "-90.09974488806519",
    "latitude": "29.955994106084443",
    "geocoded_column": {
      "latitude": "29.955994106084443",
      "longitude": "-90.09974488806519"
    }
  },
  {
    "service_request": "2022-923304",
    "request_type": "Trash/Recycling",
    "request_reason": "Request a Large Item Pick Up",
    "date_created": "2022-09-24T13:38:24.000",
    "date_modified": "2022-09-24T13:38:24.000",
    "request_status": "Pending",
    "responsible_agency": "Department of Sanitation",
    "final_address": "6620 General Diaz St",
    "address_councildis": "A",
    "status": "Assigned to Contractor",
    "contractor": "Metro Disposal",
    "rowid": "923304",
    "final_x": "3669827.85198",
    "final_y": "551478.684629",
    "longitude": "-90.10425085554571",
    "latitude": "30.010724501834563",
    "geocoded_column": {
      "latitude": "30.010724501834563",
      "longitude": "-90.10425085554571"
    }
  },
  {
    "service_request": "2022-923303",
    "request_type": "Trash/Recycling",
    "request_reason": "Return Recycling Cart",
    "date_created": "2022-09-24T13:27:05.000",
    "date_modified": "2022-09-24T13:27:05.000",
    "request_status": "Pending",
    "responsible_agency": "Department of Sanitation",
    "final_address": "1840 Euterpe St",
    "address_councildis": "B",
    "status": "Pending",
    "rowid": "923303",
    "final_x": "3677849.43208",
    "final_y": "525626.742013",
    "longitude": "-90.07980108279143",
    "latitude": "29.93940152096696",
    "geocoded_column": {
      "latitude": "29.93940152096696",
      "longitude": "-90.07980108279143"
    }
  },
  {
    "service_request": "2022-923302",
    "request_type": "Trash/Recycling",
    "request_reason": "Request a Large Item Pick Up",
    "date_created": "2022-09-24T13:25:17.000",
    "date_modified": "2022-09-24T13:25:18.000",
    "request_status": "Pending",
    "responsible_agency": "Department of Sanitation",
    "final_address": "1840 Euterpe St",
    "address_councildis": "B",
    "status": "Assigned to Contractor",
    "contractor": "Richards Disposal",
    "rowid": "923302",
    "final_x": "3677849.43208",
    "final_y": "525626.742013",
    "longitude": "-90.07980108279143",
    "latitude": "29.93940152096696",
    "geocoded_column": {
      "latitude": "29.93940152096696",
      "longitude": "-90.07980108279143"
    }
  },
  {
    "service_request": "2022-923301",
    "request_type": "Traffic Signals/Signs/Striping/Streetlights",
    "request_reason": "Street Light Outage/Malfunction",
    "date_created": "2022-09-24T13:19:58.000",
    "date_modified": "2022-09-24T13:19:59.000",
    "request_status": "Pending",
    "responsible_agency": "Department of Public Works",
    "final_address": "1021 Wilson Dr",
    "address_councildis": "A",
    "status": "Pending",
    "contractor": "Legacy Professional Services",
    "rowid": "923301",
    "final_x": "3674392.06894",
    "final_y": "540649.353867",
    "longitude": "-90.09020189136714",
    "latitude": "29.980812218406793",
    "geocoded_column": {
      "latitude": "29.980812218406793",
      "longitude": "-90.09020189136714"
    }
  },
  {
    "service_request": "2022-923300",
    "request_type": "Trash/Recycling",
    "request_reason": "Missed Trash Pick-Up",
    "date_created": "2022-09-24T13:10:59.000",
    "date_modified": "2022-09-24T13:11:00.000",
    "request_status": "Pending",
    "responsible_agency": "Department of Sanitation",
    "final_address": "615 Jefferson Ave",
    "address_councildis": "B",
    "status": "Assigned to Contractor",
    "contractor": "Richards Disposal",
    "rowid": "923300",
    "final_x": "3666592.3266",
    "final_y": "517696.842742",
    "longitude": "-90.11560743554148",
    "latitude": "29.917930635750533",
    "geocoded_column": {
      "latitude": "29.917930635750533",
      "longitude": "-90.11560743554148"
    }
  },
  {
    "service_request": "2022-923299",
    "request_type": "Property Maintenance",
    "request_reason": "Property Maintenance",
    "date_created": "2022-09-24T13:07:06.000",
    "date_modified": "2022-09-24T13:10:07.000",
    "request_status": "Pending",
    "responsible_agency": "Department of Code Enforcement",
    "final_address": "New Orleans,LA",
    "address_councildis": "D",
    "rowid": "923299",
    "final_x": "3678631.71195",
    "final_y": "535991.439943",
    "longitude": "-90.07697253334325",
    "latitude": "29.967877402778687",
    "geocoded_column": {
      "latitude": "29.967877402778687",
      "longitude": "-90.07697253334325"
    }
  },
  {
    "service_request": "2022-923298",
    "request_type": "Trash/Recycling",
    "request_reason": "Missed Trash Pick-Up",
    "date_created": "2022-09-24T12:59:52.000",
    "date_modified": "2022-09-24T12:59:52.000",
    "request_status": "Pending",
    "responsible_agency": "Department of Sanitation",
    "final_address": "6200 Cartier Ave",
    "address_councildis": "D",
    "status": "Assigned to Contractor",
    "contractor": "Metro Disposal",
    "rowid": "923298",
    "final_x": "3677535.62939",
    "final_y": "555649.817241",
    "longitude": "-90.07975480784933",
    "latitude": "30.021964027437583",
    "geocoded_column": {
      "latitude": "30.021964027437583",
      "longitude": "-90.07975480784933"
    }
  },
  {
    "service_request": "2022-923297",
    "request_type": "Trash/Recycling",
    "request_reason": "Replace Recycling Cart",
    "date_created": "2022-09-24T12:55:37.000",
    "date_modified": "2022-09-24T12:55:37.000",
    "request_status": "Pending",
    "responsible_agency": "Department of Sanitation",
    "final_address": "2301 Annette St",
    "address_councildis": "D",
    "status": "Pending",
    "rowid": "923297",
    "final_x": "3682816.68495",
    "final_y": "540606.588171",
    "longitude": "-90.06359476324613",
    "latitude": "29.980440621604735",
    "geocoded_column": {
      "latitude": "29.980440621604735",
      "longitude": "-90.06359476324613"
    }
  },
  {
    "service_request": "2022-923296",
    "request_type": "Trash/Recycling",
    "request_reason": "Replace Trash Cart",
    "date_created": "2022-09-24T12:54:07.000",
    "date_modified": "2022-09-24T12:54:07.000",
    "request_status": "Pending",
    "responsible_agency": "Department of Sanitation",
    "final_address": "2301 Annette St",
    "address_councildis": "D",
    "status": "Assigned to Contractor",
    "contractor": "Metro Disposal",
    "rowid": "923296",
    "final_x": "3682816.68495",
    "final_y": "540606.588171",
    "longitude": "-90.06359476324613",
    "latitude": "29.980440621604735",
    "geocoded_column": {
      "latitude": "29.980440621604735",
      "longitude": "-90.06359476324613"
    }
  },
  {
    "service_request": "2022-923295",
    "request_type": "Traffic Signals/Signs/Striping/Streetlights",
    "request_reason": "Traffic Sign Missing/Damaged",
    "date_created": "2022-09-24T12:51:57.000",
    "date_modified": "2022-09-24T12:51:58.000",
    "request_status": "Pending",
    "responsible_agency": "Department of Public Works",
    "final_address": "BURGUNDY ST & ORLEANS AVE",
    "address_councildis": "C",
    "status": "Pending",
    "rowid": "923295",
    "final_x": "3681794.7",
    "final_y": "533252.98",
    "longitude": "-90.06707929402621",
    "latitude": "29.960251837080666",
    "geocoded_column": {
      "latitude": "29.960251837080666",
      "longitude": "-90.06707929402621"
    }
  },
  {
    "service_request": "2022-923294",
    "request_type": "Safety & Permits",
    "request_reason": "Licenses & Permits",
    "date_created": "2022-09-24T12:42:34.000",
    "date_modified": "2022-09-24T12:42:34.000",
    "request_status": "Pending",
    "responsible_agency": "Safety and Permits",
    "final_address": "2629 Governor Nicholls St",
    "address_councildis": "D",
    "status": "Pending",
    "rowid": "923294",
    "final_x": "3678120.47611",
    "final_y": "538323.566601",
    "longitude": "-90.07850637840643",
    "latitude": "29.974305355893936",
    "geocoded_column": {
      "latitude": "29.974305355893936",
      "longitude": "-90.07850637840643"
    }
  },
  {
    "service_request": "2022-923293",
    "request_type": "Trash/Recycling",
    "request_reason": "Illegal Dumping",
    "date_created": "2022-09-24T12:40:56.000",
    "date_modified": "2022-09-24T12:40:57.000",
    "request_status": "Pending",
    "responsible_agency": "Department of Sanitation",
    "final_address": "2024 Franklin Ave",
    "address_councildis": "D",
    "status": "Pending",
    "rowid": "923293",
    "final_x": "3687567.74556",
    "final_y": "540070.144075",
    "longitude": "-90.04860790895934",
    "latitude": "29.978819971387",
    "geocoded_column": {
      "latitude": "29.978819971387",
      "longitude": "-90.04860790895934"
    }
  },
  {
    "service_request": "2022-923292",
    "request_type": "Trash/Recycling",
    "request_reason": "Missed Trash Pick-Up",
    "date_created": "2022-09-24T12:40:31.000",
    "date_modified": "2022-09-24T12:40:32.000",
    "request_status": "Pending",
    "responsible_agency": "Department of Sanitation",
    "final_address": "4535 St Bernard Ave",
    "address_councildis": "D",
    "status": "Assigned to Contractor",
    "contractor": "Metro Disposal",
    "rowid": "923292",
    "final_x": "3676885.45147",
    "final_y": "549174.430739",
    "longitude": "-90.08203264251642",
    "latitude": "30.004178579807775",
    "geocoded_column": {
      "latitude": "30.004178579807775",
      "longitude": "-90.08203264251642"
    }
  },
  {
    "service_request": "2022-923291",
    "request_type": "Property Maintenance",
    "request_reason": "Property Maintenance",
    "date_created": "2022-09-24T12:18:30.000",
    "date_modified": "2022-09-24T12:18:31.000",
    "request_status": "Pending",
    "responsible_agency": "Department of Code Enforcement",
    "final_address": "3015 Audubon St",
    "address_councildis": "B",
    "status": "Pending",
    "rowid": "923291",
    "final_x": "3668025.05069",
    "final_y": "531752.803459",
    "longitude": "-90.11061165766539",
    "latitude": "29.95653806857452",
    "geocoded_column": {
      "latitude": "29.95653806857452",
      "longitude": "-90.11061165766539"
    }
  },
  {
    "service_request": "2022-923290",
    "request_type": "Trash/Recycling",
    "request_reason": "Order Recycling Cart",
    "date_created": "2022-09-24T12:06:08.000",
    "date_modified": "2022-09-24T12:06:08.000",
    "request_status": "Pending",
    "responsible_agency": "Department of Sanitation",
    "final_address": "3921 Prytania St",
    "address_councildis": "B",
    "status": "Pending",
    "rowid": "923290",
    "final_x": "3672567.72584",
    "final_y": "520536.72556",
    "longitude": "-90.09664959239527",
    "latitude": "29.925563442607892",
    "geocoded_column": {
      "latitude": "29.925563442607892",
      "longitude": "-90.09664959239527"
    }
  },
  {
    "service_request": "2022-923289",
    "request_type": "Property Maintenance",
    "request_reason": "Property Maintenance",
    "date_created": "2022-09-24T12:00:25.000",
    "date_modified": "2022-09-24T12:00:25.000",
    "request_status": "Pending",
    "responsible_agency": "Department of Code Enforcement",
    "final_address": "2623 Piety St",
    "address_councildis": "D",
    "status": "Pending",
    "rowid": "923289",
    "final_x": "3691333.49718",
    "final_y": "541616.763148",
    "longitude": "-90.03665900777986",
    "latitude": "29.98295598819475",
    "geocoded_column": {
      "latitude": "29.98295598819475",
      "longitude": "-90.03665900777986"
    }
  },
  {
    "service_request": "2022-923288",
    "request_type": "Property Maintenance",
    "request_reason": "Property Maintenance",
    "date_created": "2022-09-24T11:58:26.000",
    "date_modified": "2022-09-24T11:58:26.000",
    "request_status": "Pending",
    "responsible_agency": "Department of Code Enforcement",
    "final_address": "2641 Piety St",
    "address_councildis": "D",
    "status": "Pending",
    "rowid": "923288",
    "final_x": "3691369.10313",
    "final_y": "541765.9707",
    "longitude": "-90.03654121290889",
    "latitude": "29.983365147527945",
    "geocoded_column": {
      "latitude": "29.983365147527945",
      "longitude": "-90.03654121290889"
    }
  },
  {
    "service_request": "2022-923287",
    "request_type": "Property Maintenance",
    "request_reason": "Property Maintenance",
    "date_created": "2022-09-24T11:57:28.000",
    "date_modified": "2022-09-24T11:57:28.000",
    "request_status": "Pending",
    "responsible_agency": "Department of Code Enforcement",
    "final_address": "2637 Piety St",
    "address_councildis": "D",
    "status": "Pending",
    "rowid": "923287",
    "final_x": "3691358.44163",
    "final_y": "541731.638092",
    "longitude": "-90.03657611459145",
    "latitude": "29.983271076930812",
    "geocoded_column": {
      "latitude": "29.983271076930812",
      "longitude": "-90.03657611459145"
    }
  },
  {
    "service_request": "2022-923286",
    "request_type": "Property Maintenance",
    "request_reason": "Property Maintenance",
    "date_created": "2022-09-24T11:56:13.000",
    "date_modified": "2022-09-24T11:56:13.000",
    "request_status": "Pending",
    "responsible_agency": "Department of Code Enforcement",
    "final_address": "2641 Piety St",
    "address_councildis": "D",
    "status": "Pending",
    "rowid": "923286",
    "final_x": "3691369.10313",
    "final_y": "541765.9707",
    "longitude": "-90.03654121290889",
    "latitude": "29.983365147527945",
    "geocoded_column": {
      "latitude": "29.983365147527945",
      "longitude": "-90.03654121290889"
    }
  },
  {
    "service_request": "2022-923285",
    "request_type": "Trash/Recycling",
    "request_reason": "Replace Trash Cart",
    "date_created": "2022-09-24T11:53:54.000",
    "date_modified": "2022-09-24T12:36:53.000",
    "case_close_date": "2022-09-24T07:36:53.000",
    "request_status": "Closed",
    "responsible_agency": "Department of Sanitation",
    "final_address": "2163 Selma St",
    "address_councildis": "D",
    "status": "Canceled By Citizen",
    "contractor": "Metro Disposal",
    "rowid": "923285",
    "final_x": "3683548.93346",
    "final_y": "551572.228181",
    "longitude": "-90.06089740457692",
    "latitude": "30.010569887003296",
    "geocoded_column": {
      "latitude": "30.010569887003296",
      "longitude": "-90.06089740457692"
    }
  },
  {
    "service_request": "2022-923282",
    "request_type": "Property Maintenance",
    "request_reason": "Property Maintenance",
    "date_created": "2022-09-24T11:53:29.000",
    "date_modified": "2022-09-24T11:53:30.000",
    "request_status": "Pending",
    "responsible_agency": "Department of Code Enforcement",
    "final_address": "4901 Copernicus St",
    "address_councildis": "C",
    "status": "Pending",
    "rowid": "923282",
    "final_x": "3702050.46551",
    "final_y": "522653.948154",
    "longitude": "-90.0035047176804",
    "latitude": "29.930477199088166",
    "geocoded_column": {
      "latitude": "29.930477199088166",
      "longitude": "-90.0035047176804"
    }
  },
  {
    "service_request": "2022-923281",
    "request_type": "Property Maintenance",
    "request_reason": "Property Maintenance",
    "date_created": "2022-09-24T11:52:24.000",
    "date_modified": "2022-09-24T11:52:24.000",
    "request_status": "Pending",
    "responsible_agency": "Department of Code Enforcement",
    "final_address": "2629 Piety St",
    "address_councildis": "D",
    "status": "Pending",
    "rowid": "923281",
    "final_x": "3691354.0182",
    "final_y": "541703.901068",
    "longitude": "-90.03659107748041",
    "latitude": "29.983194947702973",
    "geocoded_column": {
      "latitude": "29.983194947702973",
      "longitude": "-90.03659107748041"
    }
  },
  {
    "service_request": "2022-923280",
    "request_type": "Trash/Recycling",
    "request_reason": "Repair Recycling Cart",
    "date_created": "2022-09-24T11:47:19.000",
    "date_modified": "2022-09-24T11:47:20.000",
    "case_close_date": "2022-09-23T19:00:00.000",
    "request_status": "Pending",
    "responsible_agency": "Department of Sanitation",
    "final_address": "1917 Burdette St",
    "address_councildis": "A",
    "status": "Pending",
    "contractor": "Richards Disposal",
    "rowid": "923280",
    "final_x": "3664583.54368",
    "final_y": "529521.966721",
    "longitude": "-90.12155335469774",
    "latitude": "29.950504521921964",
    "geocoded_column": {
      "latitude": "29.950504521921964",
      "longitude": "-90.12155335469774"
    }
  },
  {
    "service_request": "2022-923279",
    "request_type": "Trash/Recycling",
    "request_reason": "Replace Trash Cart",
    "date_created": "2022-09-24T11:46:41.000",
    "date_modified": "2022-09-24T11:46:42.000",
    "case_close_date": "2022-09-23T19:00:00.000",
    "request_status": "Pending",
    "responsible_agency": "Department of Sanitation",
    "final_address": "1917 Burdette St",
    "address_councildis": "A",
    "status": "Assigned to Contractor",
    "contractor": "Richards Disposal",
    "rowid": "923279",
    "final_x": "3664583.54368",
    "final_y": "529521.966721",
    "longitude": "-90.12155335469774",
    "latitude": "29.950504521921964",
    "geocoded_column": {
      "latitude": "29.950504521921964",
      "longitude": "-90.12155335469774"
    }
  },
  {
    "service_request": "2022-923278",
    "request_type": "Trash/Recycling",
    "request_reason": "Missed Trash Pick-Up",
    "date_created": "2022-09-24T11:43:55.000",
    "date_modified": "2022-09-24T11:43:55.000",
    "request_status": "Pending",
    "responsible_agency": "Department of Sanitation",
    "final_address": "7331 Camberley Dr",
    "address_councildis": "E",
    "status": "Assigned to Contractor",
    "contractor": "Metro Disposal",
    "rowid": "923278",
    "final_x": "3712954.78507",
    "final_y": "565430.156514",
    "longitude": "-89.96747213429809",
    "latitude": "30.047743027458004",
    "geocoded_column": {
      "latitude": "30.047743027458004",
      "longitude": "-89.96747213429809"
    }
  },
  {
    "service_request": "2022-923277",
    "request_type": "Trash/Recycling",
    "request_reason": "MIssed Recycling Pick-Up",
    "date_created": "2022-09-24T11:38:49.000",
    "date_modified": "2022-09-24T11:38:50.000",
    "request_status": "Pending",
    "responsible_agency": "Department of Sanitation",
    "final_address": "4611 Baronne St",
    "address_councildis": "B",
    "status": "Assigned to Contractor",
    "contractor": "Richards Disposal",
    "rowid": "923277",
    "final_x": "3669922.26164",
    "final_y": "521586.325625",
    "longitude": "-90.10496501509711",
    "latitude": "29.928527751624316",
    "geocoded_column": {
      "latitude": "29.928527751624316",
      "longitude": "-90.10496501509711"
    }
  },
  {
    "service_request": "2022-923276",
    "request_type": "Safety & Permits",
    "request_reason": "Licenses & Permits",
    "date_created": "2022-09-24T11:29:21.000",
    "date_modified": "2022-09-24T11:29:22.000",
    "request_status": "Pending",
    "responsible_agency": "Safety and Permits",
    "final_address": "2636 Frenchmen St",
    "address_councildis": "D",
    "status": "Pending",
    "rowid": "923276",
    "final_x": "3684085.42684",
    "final_y": "542080.384012",
    "longitude": "-90.05953579062921",
    "latitude": "29.98445432240888",
    "geocoded_column": {
      "latitude": "29.98445432240888",
      "longitude": "-90.05953579062921"
    }
  },
  {
    "service_request": "2022-923275",
    "request_type": "Abandoned Vehicles",
    "request_reason": "Abandoned/Junk Vehicles",
    "date_created": "2022-09-24T11:13:53.000",
    "date_modified": "2022-09-24T11:13:54.000",
    "request_status": "Pending",
    "responsible_agency": "Department of Public Works",
    "final_address": "2236 Mendez St",
    "address_councildis": "D",
    "status": "Pending",
    "rowid": "923275",
    "final_x": "3684003.33506",
    "final_y": "553341.535639",
    "longitude": "-90.05939962963748",
    "latitude": "30.015420954758035",
    "geocoded_column": {
      "latitude": "30.015420954758035",
      "longitude": "-90.05939962963748"
    }
  },
  {
    "service_request": "2022-923274",
    "request_type": "Trash/Recycling",
    "request_reason": "Replace Trash Cart",
    "date_created": "2022-09-24T11:10:56.000",
    "date_modified": "2022-09-24T11:10:57.000",
    "request_status": "Pending",
    "responsible_agency": "Department of Sanitation",
    "final_address": "1928 S Carrollton Ave",
    "address_councildis": "A",
    "status": "Assigned to Contractor",
    "contractor": "Richards Disposal",
    "rowid": "923274",
    "final_x": "3663763.84141",
    "final_y": "530390.17325",
    "longitude": "-90.12411263185894",
    "latitude": "29.95291562002964",
    "geocoded_column": {
      "latitude": "29.95291562002964",
      "longitude": "-90.12411263185894"
    }
  },
  {
    "service_request": "2022-923273",
    "request_type": "Roads/Drainage",
    "request_reason": "Pothole",
    "date_created": "2022-09-24T11:09:02.000",
    "date_modified": "2022-09-24T11:09:02.000",
    "request_status": "Pending",
    "responsible_agency": "Department of Public Works",
    "final_address": "4600 St Charles Ave",
    "address_councildis": "B",
    "status": "Pending",
    "rowid": "923273",
    "final_x": "3670036.8329",
    "final_y": "520679.569337",
    "longitude": "-90.1046340313551",
    "latitude": "29.9260310834917",
    "geocoded_column": {
      "latitude": "29.9260310834917",
      "longitude": "-90.1046340313551"
    }
  },
  {
    "service_request": "2022-923272",
    "request_type": "Trash/Recycling",
    "request_reason": "Request a Large Item Pick Up",
    "date_created": "2022-09-24T11:02:46.000",
    "date_modified": "2022-09-24T11:02:46.000",
    "request_status": "Pending",
    "responsible_agency": "Department of Sanitation",
    "final_address": "7840 Windward Ct",
    "address_councildis": "E",
    "status": "Assigned to Contractor",
    "contractor": "Metro Disposal",
    "rowid": "923272",
    "final_x": "3715188.23083",
    "final_y": "570145.895911",
    "longitude": "-89.96023466885923",
    "latitude": "30.060635983065666",
    "geocoded_column": {
      "latitude": "30.060635983065666",
      "longitude": "-89.96023466885923"
    }
  },
  {
    "service_request": "2022-923271",
    "request_type": "Roads/Drainage",
    "request_reason": "Street Flooding / Drainage",
    "date_created": "2022-09-24T10:53:58.000",
    "date_modified": "2022-09-24T10:53:58.000",
    "request_status": "Pending",
    "responsible_agency": "Department of Public Works",
    "final_address": "2700 BLK Saint Roch Ave",
    "address_councildis": "D",
    "status": "Pending",
    "rowid": "923271",
    "final_x": "3685929.3594",
    "final_y": "542967.233735",
    "longitude": "-90.05368035465511",
    "latitude": "29.98683635210112",
    "geocoded_column": {
      "latitude": "29.98683635210112",
      "longitude": "-90.05368035465511"
    }
  },
  {
    "service_request": "2022-923270",
    "request_type": "Trash/Recycling",
    "request_reason": "Start Trash Service",
    "date_created": "2022-09-24T10:53:24.000",
    "date_modified": "2022-09-24T10:53:34.000",
    "request_status": "Pending",
    "responsible_agency": "Department of Sanitation",
    "final_address": "5525 Spain St",
    "address_councildis": "D",
    "status": "Assigned to Contractor",
    "contractor": "Metro Disposal",
    "rowid": "923270",
    "final_x": "3684823.18946",
    "final_y": "553334.530391",
    "longitude": "-90.0568095202178",
    "latitude": "30.015376604312173",
    "geocoded_column": {
      "latitude": "30.015376604312173",
      "longitude": "-90.0568095202178"
    }
  },
  {
    "service_request": "2022-923269",
    "request_type": "Trash/Recycling",
    "request_reason": "Start Trash Service",
    "date_created": "2022-09-24T10:52:55.000",
    "date_modified": "2022-09-24T10:52:56.000",
    "request_status": "Pending",
    "responsible_agency": "Department of Sanitation",
    "final_address": "5527 Spain St",
    "address_councildis": "D",
    "status": "Assigned to Contractor",
    "contractor": "Metro Disposal",
    "rowid": "923269",
    "final_x": "3684821.95151",
    "final_y": "553350.966679",
    "longitude": "-90.05681285302234",
    "latitude": "30.015421836004055",
    "geocoded_column": {
      "latitude": "30.015421836004055",
      "longitude": "-90.05681285302234"
    }
  },
  {
    "service_request": "2022-923268",
    "request_type": "Trash/Recycling",
    "request_reason": "Order Trash Cart",
    "date_created": "2022-09-24T10:52:47.000",
    "date_modified": "2022-09-24T10:52:47.000",
    "request_status": "Pending",
    "responsible_agency": "Department of Sanitation",
    "final_address": "5527 Spain St",
    "address_councildis": "D",
    "status": "Assigned to Contractor",
    "contractor": "Metro Disposal",
    "rowid": "923268",
    "final_x": "3684821.95151",
    "final_y": "553350.966679",
    "longitude": "-90.05681285302234",
    "latitude": "30.015421836004055",
    "geocoded_column": {
      "latitude": "30.015421836004055",
      "longitude": "-90.05681285302234"
    }
  },
  {
    "service_request": "2022-923267",
    "request_type": "Trash/Recycling",
    "request_reason": "Order Trash Cart",
    "date_created": "2022-09-24T10:52:16.000",
    "date_modified": "2022-09-24T10:52:17.000",
    "request_status": "Pending",
    "responsible_agency": "Department of Sanitation",
    "final_address": "5525 Spain St",
    "address_councildis": "D",
    "status": "Assigned to Contractor",
    "contractor": "Metro Disposal",
    "rowid": "923267",
    "final_x": "3684823.18946",
    "final_y": "553334.530391",
    "longitude": "-90.0568095202178",
    "latitude": "30.015376604312173",
    "geocoded_column": {
      "latitude": "30.015376604312173",
      "longitude": "-90.0568095202178"
    }
  },
  {
    "service_request": "2022-923266",
    "request_type": "Trash/Recycling",
    "request_reason": "Request a Large Item Pick Up",
    "date_created": "2022-09-24T10:44:03.000",
    "date_modified": "2022-09-24T10:44:04.000",
    "request_status": "Pending",
    "responsible_agency": "Department of Sanitation",
    "final_address": "7840 Windward Ct",
    "address_councildis": "E",
    "status": "Assigned to Contractor",
    "contractor": "Metro Disposal",
    "rowid": "923266",
    "final_x": "3715188.23083",
    "final_y": "570145.895911",
    "longitude": "-89.96023466885923",
    "latitude": "30.060635983065666",
    "geocoded_column": {
      "latitude": "30.060635983065666",
      "longitude": "-89.96023466885923"
    }
  },
  {
    "service_request": "2022-923265",
    "request_type": "Roads/Drainage",
    "request_reason": "Street Subsidence (Sinking)",
    "date_created": "2022-09-24T10:39:09.000",
    "date_modified": "2022-09-24T10:39:09.000",
    "request_status": "Pending",
    "responsible_agency": "Department of Public Works",
    "final_address": "5421 Garfield St",
    "address_councildis": "A",
    "status": "Pending",
    "rowid": "923265",
    "final_x": "3667098.82612",
    "final_y": "521166.980601",
    "longitude": "-90.11389211949019",
    "latitude": "29.927457610729693",
    "geocoded_column": {
      "latitude": "29.927457610729693",
      "longitude": "-90.11389211949019"
    }
  },
  {
    "service_request": "2022-923264",
    "request_type": "Trash/Recycling",
    "request_reason": "Missed Trash Pick-Up",
    "date_created": "2022-09-24T10:39:06.000",
    "date_modified": "2022-09-24T10:39:07.000",
    "request_status": "Pending",
    "responsible_agency": "Department of Sanitation",
    "final_address": "4624 Cleveland Ave",
    "address_councildis": "A",
    "status": "Assigned to Contractor",
    "contractor": "Richards Disposal",
    "rowid": "923264",
    "final_x": "3668953.49556",
    "final_y": "539399.402314",
    "longitude": "-90.10742159589572",
    "latitude": "29.97753639263195",
    "geocoded_column": {
      "latitude": "29.97753639263195",
      "longitude": "-90.10742159589572"
    }
  },
  {
    "service_request": "2022-923263",
    "request_type": "Trash/Recycling",
    "request_reason": "Missed Trash Pick-Up",
    "date_created": "2022-09-24T10:23:22.000",
    "date_modified": "2022-09-24T10:23:22.000",
    "request_status": "Pending",
    "responsible_agency": "Department of Sanitation",
    "final_address": "317 N Bernadotte St",
    "address_councildis": "A",
    "status": "Assigned to Contractor",
    "contractor": "Richards Disposal",
    "rowid": "923263",
    "final_x": "3669373.94497",
    "final_y": "540867.879819",
    "longitude": "-90.10604399460178",
    "latitude": "29.981561833136002",
    "geocoded_column": {
      "latitude": "29.981561833136002",
      "longitude": "-90.10604399460178"
    }
  },
  {
    "service_request": "2022-923262",
    "request_type": "Abandoned Vehicles",
    "request_reason": "Abandoned/Junk Vehicles",
    "date_created": "2022-09-24T10:19:19.000",
    "date_modified": "2022-09-24T10:19:20.000",
    "request_status": "Pending",
    "responsible_agency": "Department of Public Works",
    "final_address": "2610 Filmore Ave",
    "address_councildis": "D",
    "status": "Pending",
    "rowid": "923262",
    "final_x": "3686815.35452",
    "final_y": "552527.337814",
    "longitude": "-90.05054376978778",
    "latitude": "30.01309594626629",
    "geocoded_column": {
      "latitude": "30.01309594626629",
      "longitude": "-90.05054376978778"
    }
  },
  {
    "service_request": "2022-923261",
    "request_type": "Trash/Recycling",
    "request_reason": "Missed Trash Pick-Up",
    "date_created": "2022-09-24T10:19:08.000",
    "date_modified": "2022-09-24T10:19:09.000",
    "request_status": "Pending",
    "responsible_agency": "Department of Sanitation",
    "final_address": "317 N Bernadotte St",
    "address_councildis": "A",
    "status": "Assigned to Contractor",
    "contractor": "Richards Disposal",
    "rowid": "923261",
    "final_x": "3669373.94497",
    "final_y": "540867.879819",
    "longitude": "-90.10604399460178",
    "latitude": "29.981561833136002",
    "geocoded_column": {
      "latitude": "29.981561833136002",
      "longitude": "-90.10604399460178"
    }
  },
  {
    "service_request": "2022-923260",
    "request_type": "Trash/Recycling",
    "request_reason": "Missed Trash Pick-Up",
    "date_created": "2022-09-24T09:56:21.000",
    "date_modified": "2022-09-24T09:56:22.000",
    "request_status": "Pending",
    "responsible_agency": "Department of Sanitation",
    "final_address": "6014 Vermillion Blvd, New Orleans, Louisiana, 70122",
    "address_councildis": "D",
    "status": "Assigned to Contractor",
    "contractor": "Metro Disposal",
    "rowid": "923260",
    "final_x": "3682985.34498",
    "final_y": "554932.352664",
    "longitude": "-90.06256026077457",
    "latitude": "30.019826200564356",
    "geocoded_column": {
      "latitude": "30.019826200564356",
      "longitude": "-90.06256026077457"
    }
  },
  {
    "service_request": "2022-923259",
    "request_type": "Abandoned Vehicles",
    "request_reason": "Abandoned/Junk Vehicles",
    "date_created": "2022-09-24T09:40:30.000",
    "date_modified": "2022-09-24T09:40:31.000",
    "request_status": "Pending",
    "responsible_agency": "Department of Public Works",
    "final_address": "5400 BLK Willow St",
    "address_councildis": "A",
    "status": "Pending",
    "rowid": "923259",
    "final_x": "3668030.58811",
    "final_y": "525329.374326",
    "longitude": "-90.11081057727779",
    "latitude": "29.938875563936122",
    "geocoded_column": {
      "latitude": "29.938875563936122",
      "longitude": "-90.11081057727779"
    }
  },
  {
    "service_request": "2022-923258",
    "request_type": "Roads/Drainage",
    "request_reason": "Pothole",
    "date_created": "2022-09-24T09:35:45.000",
    "date_modified": "2022-09-24T09:45:51.000",
    "request_status": "Pending",
    "responsible_agency": "Department of Public Works",
    "final_address": "New Orleans,LA",
    "address_councildis": "C",
    "rowid": "923258",
    "final_x": "3683751.98396",
    "final_y": "533982.492229",
    "longitude": "-90.06087302801959",
    "latitude": "29.96219812588947",
    "geocoded_column": {
      "latitude": "29.96219812588947",
      "longitude": "-90.06087302801959"
    }
  },
  {
    "service_request": "2022-923257",
    "request_type": "Property Maintenance",
    "request_reason": "Property Maintenance",
    "date_created": "2022-09-24T09:28:52.000",
    "date_modified": "2022-09-24T09:28:52.000",
    "request_status": "Pending",
    "responsible_agency": "Department of Code Enforcement",
    "final_address": "8201 Nelson St",
    "address_councildis": "A",
    "status": "Pending",
    "rowid": "923257",
    "final_x": "3664863.62432",
    "final_y": "532126.378371",
    "longitude": "-90.12058196539877",
    "latitude": "29.95765766031686",
    "geocoded_column": {
      "latitude": "29.95765766031686",
      "longitude": "-90.12058196539877"
    }
  },
  {
    "service_request": "2022-923256",
    "request_type": "Trash/Recycling",
    "request_reason": "Repair Trash Cart",
    "date_created": "2022-09-24T09:23:26.000",
    "date_modified": "2022-09-24T09:23:26.000",
    "request_status": "Pending",
    "responsible_agency": "Department of Sanitation",
    "final_address": "2432 Halsey Ave",
    "address_councildis": "C",
    "status": "Assigned to Contractor",
    "contractor": "Richards Disposal",
    "rowid": "923256",
    "final_x": "3697758.04592",
    "final_y": "522144.937914",
    "longitude": "-90.017073616747",
    "latitude": "29.929213876749756",
    "geocoded_column": {
      "latitude": "29.929213876749756",
      "longitude": "-90.017073616747"
    }
  },
  {
    "service_request": "2022-923255",
    "request_type": "Trash/Recycling",
    "request_reason": "Illegal Dumping",
    "date_created": "2022-09-24T09:08:07.000",
    "date_modified": "2022-09-24T09:08:07.000",
    "request_status": "Pending",
    "responsible_agency": "Department of Sanitation",
    "final_address": "1254 N Villere St",
    "address_councildis": "C",
    "status": "Pending",
    "rowid": "923255",
    "final_x": "3681741.05583",
    "final_y": "535987.455047",
    "longitude": "-90.0671532733442",
    "latitude": "29.967772336615024",
    "geocoded_column": {
      "latitude": "29.967772336615024",
      "longitude": "-90.0671532733442"
    }
  },
  {
    "service_request": "2022-923254",
    "request_type": "Roads/Drainage",
    "request_reason": "Pothole",
    "date_created": "2022-09-24T09:06:57.000",
    "date_modified": "2022-09-24T09:06:57.000",
    "request_status": "Pending",
    "responsible_agency": "Department of Public Works",
    "final_address": "2624 Dante St",
    "address_councildis": "A",
    "status": "Pending",
    "rowid": "923254",
    "final_x": "3664924.9074",
    "final_y": "532764.265028",
    "longitude": "-90.1203671278611",
    "latitude": "29.95940985662608",
    "geocoded_column": {
      "latitude": "29.95940985662608",
      "longitude": "-90.1203671278611"
    }
  },
  {
    "service_request": "2022-923253",
    "request_type": "Trash/Recycling",
    "request_reason": "Missed Trash Pick-Up",
    "date_created": "2022-09-24T09:04:46.000",
    "date_modified": "2022-09-24T09:04:47.000",
    "request_status": "Pending",
    "responsible_agency": "Department of Sanitation",
    "final_address": "1326 Frankfort St",
    "address_councildis": "D",
    "status": "Assigned to Contractor",
    "contractor": "Metro Disposal",
    "rowid": "923253",
    "final_x": "3677442.3147",
    "final_y": "555754.167001",
    "longitude": "-90.08004605221223",
    "latitude": "30.022253758124553",
    "geocoded_column": {
      "latitude": "30.022253758124553",
      "longitude": "-90.08004605221223"
    }
  },
  {
    "service_request": "2022-923252",
    "request_type": "Trash/Recycling",
    "request_reason": "Request a Large Item Pick Up",
    "date_created": "2022-09-24T09:03:58.000",
    "date_modified": "2022-09-24T09:03:59.000",
    "request_status": "Pending",
    "responsible_agency": "Department of Sanitation",
    "final_address": "1735 General Taylor St",
    "address_councildis": "B",
    "status": "Assigned to Contractor",
    "contractor": "Richards Disposal",
    "rowid": "923252",
    "final_x": "3672517.73659",
    "final_y": "521706.260026",
    "longitude": "-90.09676755165165",
    "latitude": "29.928780770231167",
    "geocoded_column": {
      "latitude": "29.928780770231167",
      "longitude": "-90.09676755165165"
    }
  },
  {
    "service_request": "2022-923251",
    "request_type": "Trash/Recycling",
    "request_reason": "Request a Large Item Pick Up",
    "date_created": "2022-09-24T09:02:10.000",
    "date_modified": "2022-09-24T09:02:11.000",
    "request_status": "Pending",
    "responsible_agency": "Department of Sanitation",
    "final_address": "215 Fairfax Pl",
    "address_councildis": "C",
    "status": "Assigned to Contractor",
    "contractor": "Richards Disposal",
    "rowid": "923251",
    "final_x": "3706591.88113",
    "final_y": "517362.233013",
    "longitude": "-89.98936421507268",
    "latitude": "29.91578112194171",
    "geocoded_column": {
      "latitude": "29.91578112194171",
      "longitude": "-89.98936421507268"
    }
  },
  {
    "service_request": "2022-923250",
    "request_type": "Trash/Recycling",
    "request_reason": "Missed Trash Pick-Up",
    "date_created": "2022-09-24T09:01:50.000",
    "date_modified": "2022-09-24T09:01:51.000",
    "request_status": "Pending",
    "responsible_agency": "Department of Sanitation",
    "final_address": "3536 Paris Ave",
    "address_councildis": "D",
    "status": "Assigned to Contractor",
    "contractor": "Metro Disposal",
    "rowid": "923250",
    "final_x": "3679609.30843",
    "final_y": "545439.638352",
    "longitude": "-90.07355720716443",
    "latitude": "29.993827155580327",
    "geocoded_column": {
      "latitude": "29.993827155580327",
      "longitude": "-90.07355720716443"
    }
  },
  {
    "service_request": "2022-923249",
    "request_type": "Property Maintenance",
    "request_reason": "Property Maintenance",
    "date_created": "2022-09-24T09:01:24.000",
    "date_modified": "2022-09-24T09:01:24.000",
    "request_status": "Pending",
    "responsible_agency": "Department of Code Enforcement",
    "final_address": "2345 Clouet St",
    "address_councildis": "D",
    "status": "Pending",
    "rowid": "923249",
    "final_x": "3690261.08579",
    "final_y": "540845.708043",
    "longitude": "-90.04007370442066",
    "latitude": "29.980869187447254",
    "geocoded_column": {
      "latitude": "29.980869187447254",
      "longitude": "-90.04007370442066"
    }
  },
  {
    "service_request": "2022-923248",
    "request_type": "Trash/Recycling",
    "request_reason": "Missed Trash Pick-Up",
    "date_created": "2022-09-24T09:00:48.000",
    "date_modified": "2022-09-24T09:00:49.000",
    "request_status": "Pending",
    "responsible_agency": "Department of Sanitation",
    "final_address": "214 Brunswick Ct",
    "address_councildis": "C",
    "status": "Assigned to Contractor",
    "contractor": "Richards Disposal",
    "rowid": "923248",
    "final_x": "3706529.38539",
    "final_y": "517142.109621",
    "longitude": "-89.9895696219747",
    "latitude": "29.915177874190043",
    "geocoded_column": {
      "latitude": "29.915177874190043",
      "longitude": "-89.9895696219747"
    }
  },
  {
    "service_request": "2022-923247",
    "request_type": "Property Maintenance",
    "request_reason": "Property Maintenance",
    "date_created": "2022-09-24T08:58:36.000",
    "date_modified": "2022-09-24T08:58:36.000",
    "request_status": "Pending",
    "responsible_agency": "Department of Code Enforcement",
    "final_address": "2400 Clouet St",
    "address_councildis": "D",
    "status": "Pending",
    "rowid": "923247",
    "final_x": "3690193.69302",
    "final_y": "540938.913227",
    "longitude": "-90.04028323789016",
    "latitude": "29.981127559777722",
    "geocoded_column": {
      "latitude": "29.981127559777722",
      "longitude": "-90.04028323789016"
    }
  },
  {
    "service_request": "2022-923246",
    "request_type": "Trash/Recycling",
    "request_reason": "Missed Trash Pick-Up",
    "date_created": "2022-09-24T08:53:49.000",
    "date_modified": "2022-09-24T08:53:50.000",
    "request_status": "Pending",
    "responsible_agency": "Department of Sanitation",
    "final_address": "6320 Caldwell Dr",
    "address_councildis": "D",
    "status": "Assigned to Contractor",
    "contractor": "Metro Disposal",
    "rowid": "923246",
    "final_x": "3679080.04271",
    "final_y": "556809.51881",
    "longitude": "-90.07483460988873",
    "latitude": "30.0251062343487",
    "geocoded_column": {
      "latitude": "30.0251062343487",
      "longitude": "-90.07483460988873"
    }
  },
  {
    "service_request": "2022-923245",
    "request_type": "Property Maintenance",
    "request_reason": "Property Maintenance",
    "date_created": "2022-09-24T08:43:29.000",
    "date_modified": "2022-09-24T08:43:29.000",
    "request_status": "Pending",
    "responsible_agency": "Department of Code Enforcement",
    "final_address": "2415 Clouet St",
    "address_councildis": "D",
    "status": "Pending",
    "rowid": "923245",
    "final_x": "3690298.42646",
    "final_y": "541008.526539",
    "longitude": "-90.03994996175125",
    "latitude": "29.98131572136162",
    "geocoded_column": {
      "latitude": "29.98131572136162",
      "longitude": "-90.03994996175125"
    }
  },
  {
    "service_request": "2022-923244",
    "request_type": "Property Maintenance",
    "request_reason": "Property Maintenance",
    "date_created": "2022-09-24T08:43:14.000",
    "date_modified": "2022-09-24T08:43:14.000",
    "request_status": "Pending",
    "responsible_agency": "Department of Code Enforcement",
    "final_address": "3151 Mansfield Ave",
    "address_councildis": "C",
    "status": "Pending",
    "rowid": "923244",
    "final_x": "3709052.01278",
    "final_y": "518604.194103",
    "longitude": "-89.98155292168204",
    "latitude": "29.91911651023944",
    "geocoded_column": {
      "latitude": "29.91911651023944",
      "longitude": "-89.98155292168204"
    }
  },
  {
    "service_request": "2022-923243",
    "request_type": "Trash/Recycling",
    "request_reason": "Missed Trash Pick-Up",
    "date_created": "2022-09-24T08:42:50.000",
    "date_modified": "2022-09-24T08:42:51.000",
    "request_status": "Pending",
    "responsible_agency": "Department of Sanitation",
    "final_address": "5300 Cameron Blvd",
    "address_councildis": "D",
    "status": "Assigned to Contractor",
    "contractor": "Metro Disposal",
    "rowid": "923243",
    "final_x": "3682523.94632",
    "final_y": "552250.209494",
    "longitude": "-90.06411200226697",
    "latitude": "30.012465347092043",
    "geocoded_column": {
      "latitude": "30.012465347092043",
      "longitude": "-90.06411200226697"
    }
  },
  {
    "service_request": "2022-923242",
    "request_type": "COVID-19",
    "request_reason": "COVID-19 Business Non-Compliance",
    "date_created": "2022-09-24T08:39:44.000",
    "date_modified": "2022-09-24T08:39:45.000",
    "request_status": "Pending",
    "responsible_agency": "Safety and Permits",
    "final_address": "Bienville Ave, New Orleans, Louisiana, 70130",
    "address_councildis": "A",
    "status": "Pending",
    "rowid": "923242",
    "final_x": "3670674.95771",
    "final_y": "539566.366922",
    "longitude": "-90.10197895677501",
    "latitude": "29.977944734406112",
    "geocoded_column": {
      "latitude": "29.977944734406112",
      "longitude": "-90.10197895677501"
    }
  },
  {
    "service_request": "2022-923241",
    "request_type": "Trash/Recycling",
    "request_reason": "Missed Trash Pick-Up",
    "date_created": "2022-09-24T08:37:32.000",
    "date_modified": "2022-09-24T08:37:33.000",
    "request_status": "Pending",
    "responsible_agency": "Department of Sanitation",
    "final_address": "4316 Rayne Dr",
    "address_councildis": "D",
    "status": "Assigned to Contractor",
    "contractor": "Metro Disposal",
    "rowid": "923241",
    "final_x": "3679692.45947",
    "final_y": "548032.778258",
    "longitude": "-90.0732044615801",
    "latitude": "30.000954857434184",
    "geocoded_column": {
      "latitude": "30.000954857434184",
      "longitude": "-90.0732044615801"
    }
  },
  {
    "service_request": "2022-923240",
    "request_type": "Trash/Recycling",
    "request_reason": "Missed Trash Pick-Up",
    "date_created": "2022-09-24T08:24:58.000",
    "date_modified": "2022-09-24T08:24:58.000",
    "request_status": "Pending",
    "responsible_agency": "Department of Sanitation",
    "final_address": "1527 Jefferson Ave, New Orleans, Louisiana, 70115",
    "address_councildis": "B",
    "status": "Assigned to Contractor",
    "contractor": "Richards Disposal",
    "rowid": "923240",
    "final_x": "3667308.05799",
    "final_y": "520784.102393",
    "longitude": "-90.11324449353462",
    "latitude": "29.92639869255721",
    "geocoded_column": {
      "latitude": "29.92639869255721",
      "longitude": "-90.11324449353462"
    }
  },
  {
    "service_request": "2022-923239",
    "request_type": "Trash/Recycling",
    "request_reason": "Order Recycling Cart",
    "date_created": "2022-09-24T08:23:31.000",
    "date_modified": "2022-09-24T08:23:31.000",
    "request_status": "Pending",
    "responsible_agency": "Department of Sanitation",
    "final_address": "2919 Baudin St Unit A",
    "address_councildis": "B",
    "status": "Pending",
    "rowid": "923239",
    "final_x": "3673533.83969",
    "final_y": "534536.291845",
    "longitude": "-90.09312154205446",
    "latitude": "29.96402894490536",
    "geocoded_column": {
      "latitude": "29.96402894490536",
      "longitude": "-90.09312154205446"
    }
  },
  {
    "service_request": "2022-923238",
    "request_type": "Trash/Recycling",
    "request_reason": "Missed Trash Pick-Up",
    "date_created": "2022-09-24T08:10:14.000",
    "date_modified": "2022-09-24T08:10:15.000",
    "request_status": "Pending",
    "responsible_agency": "Department of Sanitation",
    "final_address": "1778 Lafreniere St",
    "address_councildis": "D",
    "status": "Assigned to Contractor",
    "contractor": "Metro Disposal",
    "rowid": "923238",
    "final_x": "3681179.53493",
    "final_y": "545212.848015",
    "longitude": "-90.06860500237201",
    "latitude": "29.993156000153814",
    "geocoded_column": {
      "latitude": "29.993156000153814",
      "longitude": "-90.06860500237201"
    }
  },
  {
    "service_request": "2022-923237",
    "request_type": "Trash/Recycling",
    "request_reason": "MIssed Recycling Pick-Up",
    "date_created": "2022-09-24T08:06:12.000",
    "date_modified": "2022-09-24T08:06:13.000",
    "request_status": "Pending",
    "responsible_agency": "Department of Sanitation",
    "final_address": "5793 Vermillion Blvd",
    "address_councildis": "D",
    "status": "Assigned to Contractor",
    "contractor": "Metro Disposal",
    "rowid": "923237",
    "final_x": "3683239.58204",
    "final_y": "554609.179096",
    "longitude": "-90.06176828648198",
    "latitude": "30.018929836536074",
    "geocoded_column": {
      "latitude": "30.018929836536074",
      "longitude": "-90.06176828648198"
    }
  },
  {
    "service_request": "2022-923236",
    "request_type": "Trash/Recycling",
    "request_reason": "Missed Trash Pick-Up",
    "date_created": "2022-09-24T08:05:33.000",
    "date_modified": "2022-09-24T08:05:34.000",
    "request_status": "Pending",
    "responsible_agency": "Department of Sanitation",
    "final_address": "5793 Vermillion Blvd",
    "address_councildis": "D",
    "status": "Assigned to Contractor",
    "contractor": "Metro Disposal",
    "rowid": "923236",
    "final_x": "3683239.58204",
    "final_y": "554609.179096",
    "longitude": "-90.06176828648198",
    "latitude": "30.018929836536074",
    "geocoded_column": {
      "latitude": "30.018929836536074",
      "longitude": "-90.06176828648198"
    }
  },
  {
    "service_request": "2022-923235",
    "request_type": "Abandoned Vehicles",
    "request_reason": "Abandoned/Junk Vehicles",
    "date_created": "2022-09-24T07:49:43.000",
    "date_modified": "2022-09-24T07:49:44.000",
    "request_status": "Pending",
    "responsible_agency": "Department of Public Works",
    "final_address": "7700 Downman Rd",
    "address_councildis": "D",
    "status": "Pending",
    "rowid": "923235",
    "final_x": "3694241.63805",
    "final_y": "558982.605404",
    "longitude": "-90.02684826218514",
    "latitude": "30.030614805807346",
    "geocoded_column": {
      "latitude": "30.030614805807346",
      "longitude": "-90.02684826218514"
    }
  },
  {
    "service_request": "2022-923234",
    "request_type": "Trash/Recycling",
    "request_reason": "Request a Large Item Pick Up",
    "date_created": "2022-09-24T07:48:19.000",
    "date_modified": "2022-09-24T07:48:20.000",
    "request_status": "Pending",
    "responsible_agency": "Department of Sanitation",
    "final_address": "8326 Sycamore St",
    "address_councildis": "A",
    "status": "Assigned to Contractor",
    "contractor": "Richards Disposal",
    "rowid": "923234",
    "final_x": "3663589.35232",
    "final_y": "531586.495491",
    "longitude": "-90.12462374665762",
    "latitude": "29.956210180599268",
    "geocoded_column": {
      "latitude": "29.956210180599268",
      "longitude": "-90.12462374665762"
    }
  },
  {
    "service_request": "2022-923233",
    "request_type": "Traffic Signals/Signs/Striping/Streetlights",
    "request_reason": "Traffic Signal Malfunctioning/Damaged",
    "date_created": "2022-09-24T07:12:11.000",
    "date_modified": "2022-09-24T07:12:12.000",
    "request_status": "Pending",
    "responsible_agency": "Department of Public Works",
    "final_address": "FRERET ST & JEFFERSON AVE",
    "address_councildis": "B",
    "status": "Pending",
    "rowid": "923233",
    "final_x": "3667939.2",
    "final_y": "523991.58",
    "longitude": "-90.11114415089764",
    "latitude": "29.93519973969662",
    "geocoded_column": {
      "latitude": "29.93519973969662",
      "longitude": "-90.11114415089764"
    }
  },
  {
    "service_request": "2022-923232",
    "request_type": "Trash/Recycling",
    "request_reason": "Request a Large Item Pick Up",
    "date_created": "2022-09-24T06:58:25.000",
    "date_modified": "2022-09-24T06:58:26.000",
    "request_status": "Pending",
    "responsible_agency": "Department of Sanitation",
    "final_address": "920 N Johnson St",
    "address_councildis": "D",
    "status": "Assigned to Contractor",
    "contractor": "Richards Disposal",
    "rowid": "923232",
    "final_x": "3679264.50594",
    "final_y": "536138.953991",
    "longitude": "-90.07496903386777",
    "latitude": "29.96826392284305",
    "geocoded_column": {
      "latitude": "29.96826392284305",
      "longitude": "-90.07496903386777"
    }
  },
  {
    "service_request": "2022-923231",
    "request_type": "Trash/Recycling",
    "request_reason": "Missed Trash Pick-Up",
    "date_created": "2022-09-24T06:58:23.000",
    "date_modified": "2022-09-24T06:58:24.000",
    "request_status": "Pending",
    "responsible_agency": "Department of Sanitation",
    "final_address": "6125 Cartier Ave",
    "address_councildis": "D",
    "status": "Assigned to Contractor",
    "contractor": "Metro Disposal",
    "rowid": "923231",
    "final_x": "3677697.19816",
    "final_y": "555072.803545",
    "longitude": "-90.079264245845",
    "latitude": "30.020372587912135",
    "geocoded_column": {
      "latitude": "30.020372587912135",
      "longitude": "-90.079264245845"
    }
  },
  {
    "service_request": "2022-923230",
    "request_type": "Trash/Recycling",
    "request_reason": "Missed Trash Pick-Up",
    "date_created": "2022-09-24T05:10:30.000",
    "date_modified": "2022-09-24T05:10:30.000",
    "request_status": "Pending",
    "responsible_agency": "Department of Sanitation",
    "final_address": "3000 Bruxelles St",
    "address_councildis": "D",
    "status": "Assigned to Contractor",
    "contractor": "Metro Disposal",
    "rowid": "923230",
    "final_x": "3680229.69615",
    "final_y": "543359.05595",
    "longitude": "-90.07166985986862",
    "latitude": "29.98808751736598",
    "geocoded_column": {
      "latitude": "29.98808751736598",
      "longitude": "-90.07166985986862"
    }
  },
  {
    "service_request": "2022-923229",
    "request_type": "Traffic Signals/Signs/Striping/Streetlights",
    "request_reason": "Traffic Signal Malfunctioning/Damaged",
    "date_created": "2022-09-24T04:31:45.000",
    "date_modified": "2022-09-24T04:31:46.000",
    "request_status": "Pending",
    "responsible_agency": "Department of Public Works",
    "final_address": "FRERET ST & JEFFERSON AVE",
    "address_councildis": "B",
    "status": "Pending",
    "rowid": "923229",
    "final_x": "3667939.2",
    "final_y": "523991.58",
    "longitude": "-90.11114415089764",
    "latitude": "29.93519973969662",
    "geocoded_column": {
      "latitude": "29.93519973969662",
      "longitude": "-90.11114415089764"
    }
  },
  {
    "service_request": "2022-923228",
    "request_type": "Traffic Signals/Signs/Striping/Streetlights",
    "request_reason": "Traffic Signal Malfunctioning/Damaged",
    "date_created": "2022-09-24T03:41:52.000",
    "date_modified": "2022-09-24T03:41:53.000",
    "request_status": "Pending",
    "responsible_agency": "Department of Public Works",
    "final_address": "FRERET ST & JEFFERSON AVE",
    "address_councildis": "B",
    "status": "Pending",
    "rowid": "923228",
    "final_x": "3667939.2",
    "final_y": "523991.58",
    "longitude": "-90.11114415089764",
    "latitude": "29.93519973969662",
    "geocoded_column": {
      "latitude": "29.93519973969662",
      "longitude": "-90.11114415089764"
    }
  },
  {
    "service_request": "2022-923227",
    "request_type": "Traffic Signals/Signs/Striping/Streetlights",
    "request_reason": "Street Light Outage/Malfunction",
    "date_created": "2022-09-24T01:54:36.000",
    "date_modified": "2022-09-24T01:54:36.000",
    "request_status": "Pending",
    "responsible_agency": "Department of Public Works",
    "final_address": "2228 Arts St",
    "address_councildis": "D",
    "status": "Pending",
    "contractor": "Legacy Professional Services",
    "rowid": "923227",
    "final_x": "3686825.30556",
    "final_y": "540736.865739",
    "longitude": "-90.05092924245615",
    "latitude": "29.98067608855759",
    "geocoded_column": {
      "latitude": "29.98067608855759",
      "longitude": "-90.05092924245615"
    }
  },
  {
    "service_request": "2022-923226",
    "request_type": "Trash/Recycling",
    "request_reason": "MIssed Recycling Pick-Up",
    "date_created": "2022-09-24T00:23:37.000",
    "date_modified": "2022-09-24T00:23:37.000",
    "request_status": "Pending",
    "responsible_agency": "Department of Sanitation",
    "final_address": "127 Alvin Callender St",
    "address_councildis": "A",
    "status": "Assigned to Contractor",
    "contractor": "Richards Disposal",
    "rowid": "923226",
    "final_x": "3661079.35078",
    "final_y": "523318.053627",
    "longitude": "-90.13282307405838",
    "latitude": "29.933547163249973",
    "geocoded_column": {
      "latitude": "29.933547163249973",
      "longitude": "-90.13282307405838"
    }
  },
  {
    "service_request": "2022-923225",
    "request_type": "Property Maintenance",
    "request_reason": "Property Maintenance",
    "date_created": "2022-09-23T23:25:52.000",
    "date_modified": "2022-09-23T23:25:52.000",
    "request_status": "Pending",
    "responsible_agency": "Department of Code Enforcement",
    "final_address": "14400 Peltier Dr",
    "address_councildis": "E",
    "status": "Pending",
    "rowid": "923225",
    "final_x": "3730477.16512",
    "final_y": "562363.305759",
    "longitude": "-89.91221270470567",
    "latitude": "30.03872452047885",
    "geocoded_column": {
      "latitude": "30.03872452047885",
      "longitude": "-89.91221270470567"
    }
  },
  {
    "service_request": "2022-923224",
    "request_type": "Abandoned Vehicles",
    "request_reason": "Abandoned/Junk Vehicles",
    "date_created": "2022-09-23T23:17:33.000",
    "date_modified": "2022-09-23T23:17:33.000",
    "request_status": "Pending",
    "responsible_agency": "Department of Public Works",
    "final_address": "4950 Gilbert St",
    "address_councildis": "E",
    "status": "Pending",
    "rowid": "923224",
    "final_x": "3729283.26707",
    "final_y": "562795.192928",
    "longitude": "-89.91596880764355",
    "latitude": "30.039952690388645",
    "geocoded_column": {
      "latitude": "30.039952690388645",
      "longitude": "-89.91596880764355"
    }
  },
  {
    "service_request": "2022-923223",
    "request_type": "Property Maintenance",
    "request_reason": "Property Maintenance",
    "date_created": "2022-09-23T23:10:48.000",
    "date_modified": "2022-09-23T23:10:48.000",
    "request_status": "Pending",
    "responsible_agency": "Department of Code Enforcement",
    "final_address": "5260 Revel St",
    "address_councildis": "E",
    "status": "Pending",
    "rowid": "923223",
    "final_x": "3724976.99654",
    "final_y": "562849.931168",
    "longitude": "-89.92957565792541",
    "latitude": "30.040248958622275",
    "geocoded_column": {
      "latitude": "30.040248958622275",
      "longitude": "-89.92957565792541"
    }
  },
  {
    "service_request": "2022-923222",
    "request_type": "Trash/Recycling",
    "request_reason": "Replace Trash Cart",
    "date_created": "2022-09-23T23:09:45.000",
    "date_modified": "2022-09-23T23:09:45.000",
    "request_status": "Pending",
    "responsible_agency": "Department of Sanitation",
    "final_address": "8933 Fig St",
    "address_councildis": "A",
    "status": "Assigned to Contractor",
    "contractor": "Richards Disposal",
    "rowid": "923222",
    "final_x": "3664034.18944",
    "final_y": "535257.757446",
    "longitude": "-90.12309665356393",
    "latitude": "29.966292040311775",
    "geocoded_column": {
      "latitude": "29.966292040311775",
      "longitude": "-90.12309665356393"
    }
  },
  {
    "service_request": "2022-923221",
    "request_type": "Trash/Recycling",
    "request_reason": "Repair Trash Cart",
    "date_created": "2022-09-23T23:09:08.000",
    "date_modified": "2022-09-23T23:09:08.000",
    "request_status": "Pending",
    "responsible_agency": "Department of Sanitation",
    "final_address": "2541 Acacia St",
    "address_councildis": "D",
    "status": "Assigned to Contractor",
    "contractor": "Metro Disposal",
    "rowid": "923221",
    "final_x": "3686732.9535",
    "final_y": "546371.679568",
    "longitude": "-90.05102176133954",
    "latitude": "29.996172659027007",
    "geocoded_column": {
      "latitude": "29.996172659027007",
      "longitude": "-90.05102176133954"
    }
  },
  {
    "service_request": "2022-923220",
    "request_type": "Property Maintenance",
    "request_reason": "Property Maintenance",
    "date_created": "2022-09-23T23:07:07.000",
    "date_modified": "2022-09-23T23:07:07.000",
    "request_status": "Pending",
    "responsible_agency": "Department of Code Enforcement",
    "final_address": "5035 Charmes Ct",
    "address_councildis": "E",
    "status": "Pending",
    "rowid": "923220",
    "final_x": "3726501.68921",
    "final_y": "561596.392415",
    "longitude": "-89.92480590609833",
    "latitude": "30.036750797746038",
    "geocoded_column": {
      "latitude": "30.036750797746038",
      "longitude": "-89.92480590609833"
    }
  },
  {
    "service_request": "2022-923219",
    "request_type": "Property Maintenance",
    "request_reason": "Property Maintenance",
    "date_created": "2022-09-23T23:04:27.000",
    "date_modified": "2022-09-23T23:04:27.000",
    "request_status": "Pending",
    "responsible_agency": "Department of Code Enforcement",
    "final_address": "5001 Charmes Ct",
    "address_councildis": "E",
    "status": "Pending",
    "rowid": "923219",
    "final_x": "3726456.50841",
    "final_y": "561790.372511",
    "longitude": "-89.92494115010038",
    "latitude": "30.037285689933547",
    "geocoded_column": {
      "latitude": "30.037285689933547",
      "longitude": "-89.92494115010038"
    }
  },
  {
    "service_request": "2022-923218",
    "request_type": "Abandoned Vehicles",
    "request_reason": "Vehicle Blocking Your Driveway",
    "date_created": "2022-09-23T22:41:17.000",
    "date_modified": "2022-09-23T22:41:17.000",
    "request_status": "Pending",
    "responsible_agency": "Department of Public Works",
    "final_address": "13451 Dwyer Blvd",
    "address_councildis": "E",
    "status": "Pending",
    "rowid": "923218",
    "final_x": "3725767.5486",
    "final_y": "562039.722015",
    "longitude": "-89.9271087183659",
    "latitude": "30.037994564609914",
    "geocoded_column": {
      "latitude": "30.037994564609914",
      "longitude": "-89.9271087183659"
    }
  },
  {
    "service_request": "2022-923217",
    "request_type": "Roads/Drainage",
    "request_reason": "Accessibility Ramps, Curbs and Sidewalk Repair",
    "date_created": "2022-09-23T22:33:40.000",
    "date_modified": "2022-09-23T22:33:40.000",
    "request_status": "Pending",
    "responsible_agency": "Department of Public Works",
    "final_address": "13701 Dwyer Blvd",
    "address_councildis": "E",
    "status": "Pending",
    "rowid": "923217",
    "final_x": "3726877.71123",
    "final_y": "562441.580639",
    "longitude": "-89.92358475328922",
    "latitude": "30.039062000902483",
    "geocoded_column": {
      "latitude": "30.039062000902483",
      "longitude": "-89.92358475328922"
    }
  },
  {
    "service_request": "2022-923216",
    "request_type": "Trash/Recycling",
    "request_reason": "Missed Trash Pick-Up",
    "date_created": "2022-09-23T22:29:18.000",
    "date_modified": "2022-09-23T22:29:19.000",
    "request_status": "Pending",
    "responsible_agency": "Department of Sanitation",
    "final_address": "1452 Pressburg St",
    "address_councildis": "D",
    "status": "Assigned to Contractor",
    "contractor": "Metro Disposal",
    "rowid": "923216",
    "final_x": "3677904.59355",
    "final_y": "553901.682199",
    "longitude": "-90.07864945846532",
    "latitude": "30.017146185286805",
    "geocoded_column": {
      "latitude": "30.017146185286805",
      "longitude": "-90.07864945846532"
    }
  },
  {
    "service_request": "2022-923215",
    "request_type": "Roads/Drainage",
    "request_reason": "Street Subsidence (Sinking)",
    "date_created": "2022-09-23T22:28:32.000",
    "date_modified": "2022-09-23T22:28:32.000",
    "request_status": "Pending",
    "responsible_agency": "Department of Public Works",
    "final_address": "13919 Dwyer Blvd",
    "address_councildis": "E",
    "status": "Pending",
    "rowid": "923215",
    "final_x": "3727795.96889",
    "final_y": "562769.227616",
    "longitude": "-89.92067007585995",
    "latitude": "30.03993179830851",
    "geocoded_column": {
      "latitude": "30.03993179830851",
      "longitude": "-89.92067007585995"
    }
  },
  {
    "service_request": "2022-923214",
    "request_type": "Trash/Recycling",
    "request_reason": "MIssed Recycling Pick-Up",
    "date_created": "2022-09-23T22:26:31.000",
    "date_modified": "2022-09-23T22:26:31.000",
    "request_status": "Pending",
    "responsible_agency": "Department of Sanitation",
    "final_address": "8506 Apricot St",
    "address_councildis": "A",
    "status": "Assigned to Contractor",
    "contractor": "Richards Disposal",
    "rowid": "923214",
    "final_x": "3664686.92685",
    "final_y": "533611.932741",
    "longitude": "-90.12109029887758",
    "latitude": "29.961747590287853",
    "geocoded_column": {
      "latitude": "29.961747590287853",
      "longitude": "-90.12109029887758"
    }
  },