[
  {
    "service_request": "2023-1053416",
    "request_type": "Roads/Drainage",
    "request_reason": "Pothole",
    "date_created": "2023-12-04T00:30:03.000",
    "date_modified": "2023-12-04T00:30:03.000",
    "request_status": "Pending",
    "responsible_agency": "Department of Public Works",
    "final_address": "4315 Pitt St",
    "address_councildis": "B",
    "status": "Pending",
    "rowid": "1053416",
    "final_x": "3671135.74062",
    "final_y": "520647.281017",
    "longitude": "-90.10116618834792",
    "latitude": "29.92590985375874",
    "geocoded_column": {
      "latitude": "29.92590985375874",
      "longitude": "-90.10116618834792"
    }
  },
  {
    "service_request": "2023-1053415",
    "request_type": "Trash/Recycling",
    "request_reason": "MIssed Recycling Pick-Up",
    "date_created": "2023-12-03T23:45:18.000",
    "date_modified": "2023-12-03T23:45:19.000",
    "request_status": "Pending",
    "responsible_agency": "Department of Sanitation",
    "final_address": "4355 General Meyer Ave",
    "address_councildis": "C",
    "status": "Assigned to Contractor",
    "contractor": "Richards Disposal",
    "rowid": "1053415",
    "final_x": "3699953.95274",
    "final_y": "524186.90854",
    "longitude": "-90.01006716171995",
    "latitude": "29.934759046262933",
    "geocoded_column": {
      "latitude": "29.934759046262933",
      "longitude": "-90.01006716171995"
    }
  },
  {
    "service_request": "2023-1053414",
    "request_type": "Roads/Drainage",
    "request_reason": "Pothole",
    "date_created": "2023-12-03T23:30:02.000",
    "date_modified": "2023-12-03T23:30:02.000",
    "request_status": "Pending",
    "responsible_agency": "Department of Public Works",
    "final_address": "4216 Chestnut St",
    "address_councildis": "B",
    "status": "Pending",
    "rowid": "1053414",
    "final_x": "3671574.31393",
    "final_y": "519539.203703",
    "longitude": "-90.09981939416457",
    "latitude": "29.922850019854593",
    "geocoded_column": {
      "latitude": "29.922850019854593",
      "longitude": "-90.09981939416457"
    }
  },
  {
    "service_request": "2023-1053413",
    "request_type": "Trash/Recycling",
    "request_reason": "Request a Large Item Pick Up",
    "date_created": "2023-12-03T22:46:23.000",
    "date_modified": "2023-12-03T22:46:24.000",
    "request_status": "Pending",
    "responsible_agency": "Department of Sanitation",
    "final_address": "5428 Elysian Fields Ave",
    "address_councildis": "D",
    "status": "Assigned to Contractor",
    "contractor": "IV Waste",
    "rowid": "1053413",
    "final_x": "3683570.00169",
    "final_y": "552705.306454",
    "longitude": "-90.06079108536572",
    "latitude": "30.013684796637275",
    "geocoded_column": {
      "latitude": "30.013684796637275",
      "longitude": "-90.06079108536572"
    }
  },
  {
    "service_request": "2023-1053412",
    "request_type": "Trash/Recycling",
    "request_reason": "Request a Large Item Pick Up",
    "date_created": "2023-12-03T22:04:53.000",
    "date_modified": "2023-12-03T22:04:54.000",
    "request_status": "Pending",
    "responsible_agency": "Department of Sanitation",
    "final_address": "7637 Tricia Ct",
    "address_councildis": "E",
    "status": "Assigned to Contractor",
    "contractor": "Waste Pro",
    "rowid": "1053412",
    "final_x": "3717727.86815",
    "final_y": "571159.18788",
    "longitude": "-89.95216844155685",
    "latitude": "30.06333818976537",
    "geocoded_column": {
      "latitude": "30.06333818976537",
      "longitude": "-89.95216844155685"
    }
  },
  {
    "service_request": "2023-1053410",
    "request_type": "Trash/Recycling",
    "request_reason": "Order Recycling Cart",
    "date_created": "2023-12-03T21:47:01.000",
    "date_modified": "2023-12-03T21:47:01.000",
    "request_status": "Pending",
    "responsible_agency": "Department of Sanitation",
    "final_address": "2823 Constance St",
    "address_councildis": "B",
    "status": "Pending",
    "rowid": "1053410",
    "final_x": "3677073.46702",
    "final_y": "520431.680248",
    "longitude": "-90.08242996112584",
    "latitude": "29.92514011750468",
    "geocoded_column": {
      "latitude": "29.92514011750468",
      "longitude": "-90.08242996112584"
    }
  },
  {
    "service_request": "2023-1053409",
    "request_type": "Trash/Recycling",
    "request_reason": "Replace Trash Cart",
    "date_created": "2023-12-03T21:20:21.000",
    "date_modified": "2023-12-03T21:20:22.000",
    "request_status": "Pending",
    "responsible_agency": "Department of Sanitation",
    "final_address": "617 Henry Clay Ave",
    "address_councildis": "A",
    "status": "Assigned to Contractor",
    "contractor": "Richards Disposal",
    "rowid": "1053409",
    "final_x": "3663653.79962",
    "final_y": "519068.599287",
    "longitude": "-90.12483713037831",
    "latitude": "29.921788081249247",
    "geocoded_column": {
      "latitude": "29.921788081249247",
      "longitude": "-90.12483713037831"
    }
  },
  {
    "service_request": "2023-1053408",
    "request_type": "Abandoned Vehicles",
    "request_reason": "Abandoned/Junk Vehicles",
    "date_created": "2023-12-03T21:16:29.000",
    "date_modified": "2023-12-03T21:16:29.000",
    "request_status": "Pending",
    "responsible_agency": "Department of Public Works",
    "final_address": "5900 BLK Selma St",
    "address_councildis": "D",
    "status": "Pending",
    "rowid": "1053408",
    "final_x": "3696263.73309",
    "final_y": "552391.576107",
    "longitude": "-90.02069703349542",
    "latitude": "30.012428421897027",
    "geocoded_column": {
      "latitude": "30.012428421897027",
      "longitude": "-90.02069703349542"
    }
  },
  {
    "service_request": "2023-1053407",
    "request_type": "Trash/Recycling",
    "request_reason": "Request a Large Item Pick Up",
    "date_created": "2023-12-03T21:11:52.000",
    "date_modified": "2023-12-03T21:11:53.000",
    "request_status": "Pending",
    "responsible_agency": "Department of Sanitation",
    "final_address": "6331 Catina St",
    "address_councildis": "A",
    "status": "Assigned to Contractor",
    "contractor": "IV Waste",
    "rowid": "1053407",
    "final_x": "3666979.45498",
    "final_y": "549739.108052",
    "longitude": "-90.11330859908006",
    "latitude": "30.006024975643577",
    "geocoded_column": {
      "latitude": "30.006024975643577",
      "longitude": "-90.11330859908006"
    }
  },
  {
    "service_request": "2023-1053406",
    "request_type": "Traffic Signals/Signs/Striping/Streetlights",
    "request_reason": "Street Light Outage/Malfunction",
    "date_created": "2023-12-03T20:54:35.000",
    "date_modified": "2023-12-03T20:54:36.000",
    "request_status": "Pending",
    "responsible_agency": "Department of Public Works",
    "final_address": "5 Glacier Ct",
    "address_councildis": "C",
    "status": "Assigned to Contractor",
    "contractor": "Legacy Professional Services",
    "rowid": "1053406",
    "final_x": "3700218.67133",
    "final_y": "516334.670708",
    "longitude": "-90.00951785162064",
    "latitude": "29.913159680446235",
    "geocoded_column": {
      "latitude": "29.913159680446235",
      "longitude": "-90.00951785162064"
    }
  },
  {
    "service_request": "2023-1053405",
    "request_type": "Trash/Recycling",
    "request_reason": "Illegal Dumping",
    "date_created": "2023-12-03T20:38:19.000",
    "date_modified": "2023-12-03T20:38:19.000",
    "request_status": "Pending",
    "responsible_agency": "Department of Sanitation",
    "final_address": "6011 Bullard Ave",
    "address_councildis": "E",
    "status": "Pending",
    "rowid": "1053405",
    "final_x": "3715808.26693",
    "final_y": "564514.977889",
    "longitude": "-89.95848833968968",
    "latitude": "30.045132824976395",
    "geocoded_column": {
      "latitude": "30.045132824976395",
      "longitude": "-89.95848833968968"
    }
  },
  {
    "service_request": "2023-1053404",
    "request_type": "Traffic Signals/Signs/Striping/Streetlights",
    "request_reason": "Street Light Outage/Malfunction",
    "date_created": "2023-12-03T20:34:26.000",
    "date_modified": "2023-12-03T20:34:55.000",
    "request_status": "Pending",
    "responsible_agency": "Department of Public Works",
    "final_address": "4914 Perrier St",
    "address_councildis": "B",
    "status": "Assigned to Contractor",
    "contractor": "Legacy Professional Services",
    "rowid": "1053404",
    "final_x": "3668890.88321",
    "final_y": "519849.177528",
    "longitude": "-90.10827949613655",
    "latitude": "29.92378150830209",
    "geocoded_column": {
      "latitude": "29.92378150830209",
      "longitude": "-90.10827949613655"
    }
  },
  {
    "service_request": "2023-1053403",
    "request_type": "Traffic Signals/Signs/Striping/Streetlights",
    "request_reason": "Street Light Outage/Malfunction",
    "date_created": "2023-12-03T20:31:11.000",
    "date_modified": "2023-12-03T20:31:12.000",
    "request_status": "Pending",
    "responsible_agency": "Department of Public Works",
    "final_address": "4914 Perrier St",
    "address_councildis": "B",
    "status": "Assigned to Contractor",
    "contractor": "Legacy Professional Services",
    "rowid": "1053403",
    "final_x": "3668890.88321",
    "final_y": "519849.177528",
    "longitude": "-90.10827949613655",
    "latitude": "29.92378150830209",
    "geocoded_column": {
      "latitude": "29.92378150830209",
      "longitude": "-90.10827949613655"
    }
  },
  {
    "service_request": "2023-1053402",
    "request_type": "Traffic Signals/Signs/Striping/Streetlights",
    "request_reason": "Street Light Outage/Malfunction",
    "date_created": "2023-12-03T20:27:56.000",
    "date_modified": "2023-12-03T20:27:56.000",
    "request_status": "Pending",
    "responsible_agency": "Department of Public Works",
    "final_address": "1617 King Dr",
    "address_councildis": "D",
    "status": "Assigned to Contractor",
    "contractor": "Legacy Professional Services",
    "rowid": "1053402",
    "final_x": "3679766.46197",
    "final_y": "550108.073428",
    "longitude": "-90.0728985650634",
    "latitude": "30.00665894003232",
    "geocoded_column": {
      "latitude": "30.00665894003232",
      "longitude": "-90.0728985650634"
    }
  },
  {
    "service_request": "2023-1053401",
    "request_type": "Traffic Signals/Signs/Striping/Streetlights",
    "request_reason": "Street Light Outage/Malfunction",
    "date_created": "2023-12-03T19:56:02.000",
    "date_modified": "2023-12-03T19:56:03.000",
    "request_status": "Pending",
    "responsible_agency": "Department of Public Works",
    "final_address": "700 BLK Eleonore St",
    "address_councildis": "A",
    "status": "Assigned to Contractor",
    "contractor": "Legacy Professional Services",
    "rowid": "1053401",
    "final_x": "3665189.227",
    "final_y": "518903.020709",
    "longitude": "-90.11999595497815",
    "latitude": "29.92128817480201",
    "geocoded_column": {
      "latitude": "29.92128817480201",
      "longitude": "-90.11999595497815"
    }
  },
  {
    "service_request": "2023-1053400",
    "request_type": "Trash/Recycling",
    "request_reason": "Order Recycling Cart",
    "date_created": "2023-12-03T19:55:02.000",
    "date_modified": "2023-12-03T19:55:02.000",
    "request_status": "Pending",
    "responsible_agency": "Department of Sanitation",
    "final_address": "2856 Baronne St",
    "address_councildis": "B",
    "status": "Pending",
    "rowid": "1053400",
    "final_x": "3675145.24456",
    "final_y": "522863.425275",
    "longitude": "-90.08843335058253",
    "latitude": "29.931884369415908",
    "geocoded_column": {
      "latitude": "29.931884369415908",
      "longitude": "-90.08843335058253"
    }
  },
  {
    "service_request": "2023-1053399",
    "request_type": "Trash/Recycling",
    "request_reason": "Request a Large Item Pick Up",
    "date_created": "2023-12-03T19:39:47.000",
    "date_modified": "2023-12-03T19:39:48.000",
    "request_status": "Pending",
    "responsible_agency": "Department of Sanitation",
    "final_address": "2413 Marengo St",
    "address_councildis": "B",
    "status": "Assigned to Contractor",
    "contractor": "Richards Disposal",
    "rowid": "1053399",
    "final_x": "3671709.66324",
    "final_y": "523925.422716",
    "longitude": "-90.09924302925505",
    "latitude": "29.93490670662304",
    "geocoded_column": {
      "latitude": "29.93490670662304",
      "longitude": "-90.09924302925505"
    }
  },
  {
    "service_request": "2023-1053398",
    "request_type": "Traffic Signals/Signs/Striping/Streetlights",
    "request_reason": "Street Light Outage/Malfunction",
    "date_created": "2023-12-03T19:26:12.000",
    "date_modified": "2023-12-03T19:26:13.000",
    "request_status": "Pending",
    "responsible_agency": "Department of Public Works",
    "final_address": "6959 Louis Xiv St",
    "address_councildis": "A",
    "status": "Assigned to Contractor",
    "contractor": "Legacy Professional Services",
    "rowid": "1053398",
    "final_x": "3668764.27022",
    "final_y": "553811.781591",
    "longitude": "-90.10753227833895",
    "latitude": "30.017171022595196",
    "geocoded_column": {
      "latitude": "30.017171022595196",
      "longitude": "-90.10753227833895"
    }
  },
  {
    "service_request": "2023-1053397",
    "request_type": "Trash/Recycling",
    "request_reason": "Return Trash Cart",
    "date_created": "2023-12-03T19:11:59.000",
    "date_modified": "2023-12-03T19:12:00.000",
    "request_status": "Pending",
    "responsible_agency": "Department of Sanitation",
    "final_address": "8811 Colapissa St",
    "address_councildis": "A",
    "status": "Assigned to Contractor",
    "contractor": "Richards Disposal",
    "rowid": "1053397",
    "final_x": "3664654.41581",
    "final_y": "535171.119622",
    "longitude": "-90.121140876108",
    "latitude": "29.966035787684138",
    "geocoded_column": {
      "latitude": "29.966035787684138",
      "longitude": "-90.121140876108"
    }
  },
  {
    "service_request": "2023-1053396",
    "request_type": "Trash/Recycling",
    "request_reason": "Replace Trash Cart",
    "date_created": "2023-12-03T18:30:01.000",
    "date_modified": "2023-12-03T18:30:01.000",
    "request_status": "Pending",
    "responsible_agency": "Department of Sanitation",
    "final_address": "2748 Mithra St",
    "address_councildis": "D",
    "status": "Assigned to Contractor",
    "contractor": "IV Waste",
    "rowid": "1053396",
    "final_x": "3687728.15075",
    "final_y": "552945.642263",
    "longitude": "-90.04764500177147",
    "latitude": "30.014217999631047",
    "geocoded_column": {
      "latitude": "30.014217999631047",
      "longitude": "-90.04764500177147"
    }
  },
  {
    "service_request": "2023-1053395",
    "request_type": "Trash/Recycling",
    "request_reason": "Request a Large Item Pick Up",
    "date_created": "2023-12-03T17:30:51.000",
    "date_modified": "2023-12-03T17:30:52.000",
    "request_status": "Pending",
    "responsible_agency": "Department of Sanitation",
    "final_address": "1614 Pine St",
    "address_councildis": "A",
    "status": "Assigned to Contractor",
    "contractor": "Richards Disposal",
    "rowid": "1053395",
    "final_x": "3664778.49786",
    "final_y": "528002.664063",
    "longitude": "-90.12098854379279",
    "latitude": "29.946321259356004",
    "geocoded_column": {
      "latitude": "29.946321259356004",
      "longitude": "-90.12098854379279"
    }
  },
  {
    "service_request": "2023-1053394",
    "request_type": "Trash/Recycling",
    "request_reason": "Request a Large Item Pick Up",
    "date_created": "2023-12-03T17:27:49.000",
    "date_modified": "2023-12-03T17:27:50.000",
    "request_status": "Pending",
    "responsible_agency": "Department of Sanitation",
    "final_address": "1418 N Villere St",
    "address_councildis": "C",
    "status": "Assigned to Contractor",
    "contractor": "IV Waste",
    "rowid": "1053394",
    "final_x": "3681956.9702",
    "final_y": "536284.161223",
    "longitude": "-90.06646105040768",
    "latitude": "29.968581614232924",
    "geocoded_column": {
      "latitude": "29.968581614232924",
      "longitude": "-90.06646105040768"
    }
  },
  {
    "service_request": "2023-1053393",
    "request_type": "Trash/Recycling",
    "request_reason": "Order Recycling Cart",
    "date_created": "2023-12-03T17:20:52.000",
    "date_modified": "2023-12-03T17:20:52.000",
    "request_status": "Pending",
    "responsible_agency": "Department of Sanitation",
    "final_address": "1418 N Villere St",
    "address_councildis": "C",
    "status": "Pending",
    "rowid": "1053393",
    "final_x": "3681956.9702",
    "final_y": "536284.161223",
    "longitude": "-90.06646105040768",
    "latitude": "29.968581614232924",
    "geocoded_column": {
      "latitude": "29.968581614232924",
      "longitude": "-90.06646105040768"
    }
  },
  {
    "service_request": "2023-1053392",
    "request_type": "Abandoned Vehicles",
    "request_reason": "Abandoned/Junk Vehicles",
    "date_created": "2023-12-03T16:57:14.000",
    "date_modified": "2023-12-03T16:57:14.000",
    "request_status": "Pending",
    "responsible_agency": "Department of Public Works",
    "final_address": "303 40Th St",
    "address_councildis": "A",
    "status": "Pending",
    "rowid": "1053392",
    "final_x": "3665375.08672",
    "final_y": "553402.288023",
    "longitude": "-90.11825448169635",
    "latitude": "30.016144317026455",
    "geocoded_column": {
      "latitude": "30.016144317026455",
      "longitude": "-90.11825448169635"
    }
  },
  {
    "service_request": "2023-1053391",
    "request_type": "Trash/Recycling",
    "request_reason": "Missed Trash Pick-Up",
    "date_created": "2023-12-03T16:48:10.000",
    "date_modified": "2023-12-03T16:48:11.000",
    "request_status": "Pending",
    "responsible_agency": "Department of Sanitation",
    "final_address": "2738 Calhoun St",
    "address_councildis": "A",
    "status": "Assigned to Contractor",
    "contractor": "Richards Disposal",
    "rowid": "1053391",
    "final_x": "3666521.49684",
    "final_y": "526914.290366",
    "longitude": "-90.11552178801261",
    "latitude": "29.943277759466053",
    "geocoded_column": {
      "latitude": "29.943277759466053",
      "longitude": "-90.11552178801261"
    }
  },
  {
    "service_request": "2023-1053390",
    "request_type": "Trash/Recycling",
    "request_reason": "Replace Trash Cart",
    "date_created": "2023-12-03T16:47:12.000",
    "date_modified": "2023-12-03T16:47:13.000",
    "request_status": "Pending",
    "responsible_agency": "Department of Sanitation",
    "final_address": "2738 Calhoun St",
    "address_councildis": "A",
    "status": "Assigned to Contractor",
    "contractor": "Richards Disposal",
    "rowid": "1053390",
    "final_x": "3666521.49684",
    "final_y": "526914.290366",
    "longitude": "-90.11552178801261",
    "latitude": "29.943277759466053",
    "geocoded_column": {
      "latitude": "29.943277759466053",
      "longitude": "-90.11552178801261"
    }
  },
  {
    "service_request": "2023-1053389",
    "request_type": "Roads/Drainage",
    "request_reason": "Pothole",
    "date_created": "2023-12-03T16:43:09.000",
    "date_modified": "2023-12-03T16:43:09.000",
    "request_status": "Pending",
    "responsible_agency": "Department of Public Works",
    "final_address": "1312 Milan St",
    "address_councildis": "B",
    "status": "Pending",
    "rowid": "1053389",
    "final_x": "3671625.82823",
    "final_y": "520286.919608",
    "longitude": "-90.09963137110304",
    "latitude": "29.92490447494246",
    "geocoded_column": {
      "latitude": "29.92490447494246",
      "longitude": "-90.09963137110304"
    }
  },
  {
    "service_request": "2023-1053387",
    "request_type": "Roads/Drainage",
    "request_reason": "Pothole",
    "date_created": "2023-12-03T16:26:51.000",
    "date_modified": "2023-12-03T16:26:51.000",
    "request_status": "Pending",
    "responsible_agency": "Department of Public Works",
    "final_address": "6630 Argonne Blvd",
    "address_councildis": "A",
    "status": "Pending",
    "rowid": "1053387",
    "final_x": "3670490.5618",
    "final_y": "551482.085077",
    "longitude": "-90.10215697694163",
    "latitude": "30.0107142892786",
    "geocoded_column": {
      "latitude": "30.0107142892786",
      "longitude": "-90.10215697694163"
    }
  },
  {
    "service_request": "2023-1053386",
    "request_type": "Abandoned Vehicles",
    "request_reason": "Vehicle Blocking Your Driveway",
    "date_created": "2023-12-03T16:25:12.000",
    "date_modified": "2023-12-03T16:25:12.000",
    "request_status": "Pending",
    "responsible_agency": "Department of Public Works",
    "final_address": "ULLOA ST & S SOLOMON ST",
    "address_councildis": "A",
    "status": "Pending",
    "rowid": "1053386",
    "final_x": "3669166.3",
    "final_y": "536852.48",
    "longitude": "-90.10683558844009",
    "latitude": "29.970526950450513",
    "geocoded_column": {
      "latitude": "29.970526950450513",
      "longitude": "-90.10683558844009"
    }
  },
  {
    "service_request": "2023-1053385",
    "request_type": "Roads/Drainage",
    "request_reason": "Debris in Roadway",
    "date_created": "2023-12-03T16:05:45.000",
    "date_modified": "2023-12-03T16:05:45.000",
    "request_status": "Pending",
    "responsible_agency": "Department of Public Works",
    "final_address": "TENNESSEE ST & N CLAIBORNE AVE",
    "address_councildis": "E",
    "status": "Pending",
    "rowid": "1053385",
    "final_x": "3696177.3",
    "final_y": "536095.98",
    "longitude": "-90.02155951871875",
    "latitude": "29.967624209323066",
    "geocoded_column": {
      "latitude": "29.967624209323066",
      "longitude": "-90.02155951871875"
    }
  },
  {
    "service_request": "2023-1053384",
    "request_type": "Trash/Recycling",
    "request_reason": "Request a Large Item Pick Up",
    "date_created": "2023-12-03T15:56:46.000",
    "date_modified": "2023-12-03T15:56:47.000",
    "request_status": "Pending",
    "responsible_agency": "Department of Sanitation",
    "final_address": "1000 Lizardi St",
    "address_councildis": "E",
    "status": "Assigned to Contractor",
    "contractor": "Waste Pro",
    "rowid": "1053384",
    "final_x": "3696375.46211",
    "final_y": "533740.974085",
    "longitude": "-90.02101889800849",
    "latitude": "29.96114254024358",
    "geocoded_column": {
      "latitude": "29.96114254024358",
      "longitude": "-90.02101889800849"
    }
  },
  {
    "service_request": "2023-1053383",
    "request_type": "Trash/Recycling",
    "request_reason": "Repair Trash Cart",
    "date_created": "2023-12-03T15:43:00.000",
    "date_modified": "2023-12-03T15:43:01.000",
    "request_status": "Pending",
    "responsible_agency": "Department of Sanitation",
    "final_address": "211 Forest Oaks Dr",
    "address_councildis": "C",
    "status": "Assigned to Contractor",
    "contractor": "Richards Disposal",
    "rowid": "1053383",
    "final_x": "3722385.82348",
    "final_y": "511057.878448",
    "longitude": "-89.93975516594118",
    "latitude": "29.897927579491384",
    "geocoded_column": {
      "latitude": "29.897927579491384",
      "longitude": "-89.93975516594118"
    }
  },
  {
    "service_request": "2023-1053382",
    "request_type": "Roads/Drainage",
    "request_reason": "Pothole",
    "date_created": "2023-12-03T15:33:28.000",
    "date_modified": "2023-12-03T15:33:28.000",
    "request_status": "Pending",
    "responsible_agency": "Department of Public Works",
    "final_address": "4216 Chestnut St",
    "address_councildis": "B",
    "status": "Pending",
    "rowid": "1053382",
    "final_x": "3671574.31393",
    "final_y": "519539.203703",
    "longitude": "-90.09981939416457",
    "latitude": "29.922850019854593",
    "geocoded_column": {
      "latitude": "29.922850019854593",
      "longitude": "-90.09981939416457"
    }
  },
  {
    "service_request": "2023-1053381",
    "request_type": "Roads/Drainage",
    "request_reason": "Pothole",
    "date_created": "2023-12-03T15:12:02.000",
    "date_modified": "2023-12-03T15:12:02.000",
    "request_status": "Pending",
    "responsible_agency": "Department of Public Works",
    "final_address": "1301 Constantinople St",
    "address_councildis": "B",
    "status": "Pending",
    "rowid": "1053381",
    "final_x": "3672430.66305",
    "final_y": "520250.7726",
    "longitude": "-90.09709199725775",
    "latitude": "29.924781230435865",
    "geocoded_column": {
      "latitude": "29.924781230435865",
      "longitude": "-90.09709199725775"
    }
  },
  {
    "service_request": "2023-1053380",
    "request_type": "Trash/Recycling",
    "request_reason": "Request a Large Item Pick Up",
    "date_created": "2023-12-03T14:57:51.000",
    "date_modified": "2023-12-03T14:57:52.000",
    "request_status": "Pending",
    "responsible_agency": "Department of Sanitation",
    "final_address": "1032 Bourbon St",
    "address_councildis": "C",
    "status": "Assigned to Contractor",
    "contractor": "Empire Services",
    "rowid": "1053380",
    "final_x": "3683117.50517",
    "final_y": "533759.093893",
    "longitude": "-90.06288443750766",
    "latitude": "29.961603215673943",
    "geocoded_column": {
      "latitude": "29.961603215673943",
      "longitude": "-90.06288443750766"
    }
  },
  {
    "service_request": "2023-1053379",
    "request_type": "Trash/Recycling",
    "request_reason": "Dead Animal Pick Up",
    "date_created": "2023-12-03T14:45:05.000",
    "date_modified": "2023-12-03T14:45:06.000",
    "request_status": "Pending",
    "responsible_agency": "Department of Sanitation",
    "final_address": "3053 N Rampart St",
    "address_councildis": "C",
    "status": "Assigned to Contractor",
    "contractor": "IV Waste",
    "rowid": "1053379",
    "final_x": "3688770.05436",
    "final_y": "535621.408582",
    "longitude": "-90.04496855894483",
    "latitude": "29.96655039330616",
    "geocoded_column": {
      "latitude": "29.96655039330616",
      "longitude": "-90.04496855894483"
    }
  },
  {
    "service_request": "2023-1053378",
    "request_type": "Roads/Drainage",
    "request_reason": "Pothole",
    "date_created": "2023-12-03T14:20:21.000",
    "date_modified": "2023-12-03T14:20:21.000",
    "request_status": "Pending",
    "responsible_agency": "Department of Public Works",
    "final_address": "6215 Hurst St",
    "address_councildis": "A",
    "status": "Pending",
    "rowid": "1053378",
    "final_x": "3664668.32039",
    "final_y": "522243.373626",
    "longitude": "-90.12152872358996",
    "latitude": "29.93048825206563",
    "geocoded_column": {
      "latitude": "29.93048825206563",
      "longitude": "-90.12152872358996"
    }
  },
  {
    "service_request": "2023-1053377",
    "request_type": "Roads/Drainage",
    "request_reason": "Pothole",
    "date_created": "2023-12-03T14:17:35.000",
    "date_modified": "2023-12-03T14:17:35.000",
    "request_status": "Pending",
    "responsible_agency": "Department of Public Works",
    "final_address": "5920 Camp St",
    "address_councildis": "A",
    "status": "Pending",
    "rowid": "1053377",
    "final_x": "3665036.98644",
    "final_y": "519412.865015",
    "longitude": "-90.12045947809368",
    "latitude": "29.922694518782095",
    "geocoded_column": {
      "latitude": "29.922694518782095",
      "longitude": "-90.12045947809368"
    }
  },
  {
    "service_request": "2023-1053376",
    "request_type": "Roads/Drainage",
    "request_reason": "Pothole",
    "date_created": "2023-12-03T14:15:04.000",
    "date_modified": "2023-12-03T14:15:04.000",
    "request_status": "Pending",
    "responsible_agency": "Department of Public Works",
    "final_address": "5929 Chestnut St",
    "address_councildis": "A",
    "status": "Pending",
    "rowid": "1053376",
    "final_x": "3665179.07604",
    "final_y": "519869.398712",
    "longitude": "-90.11999569598656",
    "latitude": "29.92394570684376",
    "geocoded_column": {
      "latitude": "29.92394570684376",
      "longitude": "-90.11999569598656"
    }
  },
  {
    "service_request": "2023-1053375",
    "request_type": "Roads/Drainage",
    "request_reason": "Street Subsidence (Sinking)",
    "date_created": "2023-12-03T14:11:58.000",
    "date_modified": "2023-12-03T14:11:58.000",
    "request_status": "Pending",
    "responsible_agency": "Department of Public Works",
    "final_address": "1821 Bordeaux St",
    "address_councildis": "B",
    "status": "Pending",
    "rowid": "1053375",
    "final_x": "3669336.85191",
    "final_y": "521613.126137",
    "longitude": "-90.10681212866741",
    "latitude": "29.928618687726875",
    "geocoded_column": {
      "latitude": "29.928618687726875",
      "longitude": "-90.10681212866741"
    }
  },
  {
    "service_request": "2023-1053374",
    "request_type": "Roads/Drainage",
    "request_reason": "Pothole",
    "date_created": "2023-12-03T14:08:53.000",
    "date_modified": "2023-12-03T14:08:53.000",
    "request_status": "Pending",
    "responsible_agency": "Department of Public Works",
    "final_address": "4739 Dryades St",
    "address_councildis": "B",
    "status": "Pending",
    "rowid": "1053374",
    "final_x": "3669310.42426",
    "final_y": "521851.683194",
    "longitude": "-90.10688749493693",
    "latitude": "29.92927542130942",
    "geocoded_column": {
      "latitude": "29.92927542130942",
      "longitude": "-90.10688749493693"
    }
  },
  {
    "service_request": "2023-1053373",
    "request_type": "Roads/Drainage",
    "request_reason": "Culvert Issue",
    "date_created": "2023-12-03T13:43:31.000",
    "date_modified": "2023-12-03T13:43:31.000",
    "request_status": "Pending",
    "responsible_agency": "Department of Public Works",
    "final_address": "MARAIS ST & FRANKLIN AVE",
    "address_councildis": "C",
    "status": "Pending",
    "rowid": "1053373",
    "final_x": "3687138.8",
    "final_y": "536839.28",
    "longitude": "-90.05007695833918",
    "latitude": "29.96994944707801",
    "geocoded_column": {
      "latitude": "29.96994944707801",
      "longitude": "-90.05007695833918"
    }
  },
  {
    "service_request": "2023-1053372",
    "request_type": "Trash/Recycling",
    "request_reason": "Request a Large Item Pick Up",
    "date_created": "2023-12-03T13:35:40.000",
    "date_modified": "2023-12-03T13:35:40.000",
    "request_status": "Pending",
    "responsible_agency": "Department of Sanitation",
    "final_address": "7600 Hurst St",
    "address_councildis": "A",
    "status": "Assigned to Contractor",
    "contractor": "Richards Disposal",
    "rowid": "1053372",
    "final_x": "3660885.10944",
    "final_y": "524562.83174",
    "longitude": "-90.13339513437518",
    "latitude": "29.936975505733685",
    "geocoded_column": {
      "latitude": "29.936975505733685",
      "longitude": "-90.13339513437518"
    }
  },
  {
    "service_request": "2023-1053370",
    "request_type": "Trash/Recycling",
    "request_reason": "Illegal Dumping",
    "date_created": "2023-12-03T13:27:52.000",
    "date_modified": "2023-12-03T13:27:52.000",
    "request_status": "Pending",
    "responsible_agency": "Department of Sanitation",
    "final_address": "208 Hillary St",
    "address_councildis": "A",
    "status": "Pending",
    "rowid": "1053370",
    "final_x": "3660791.92806",
    "final_y": "524467.190908",
    "longitude": "-90.13369247583448",
    "latitude": "29.936715206414828",
    "geocoded_column": {
      "latitude": "29.936715206414828",
      "longitude": "-90.13369247583448"
    }
  },
  {
    "service_request": "2023-1053369",
    "request_type": "Trash/Recycling",
    "request_reason": "Request a Large Item Pick Up",
    "date_created": "2023-12-03T13:24:58.000",
    "date_modified": "2023-12-03T13:24:59.000",
    "request_status": "Pending",
    "responsible_agency": "Department of Sanitation",
    "final_address": "7600 Hurst St",
    "address_councildis": "A",
    "status": "Assigned to Contractor",
    "contractor": "Richards Disposal",
    "rowid": "1053369",
    "final_x": "3660885.10944",
    "final_y": "524562.83174",
    "longitude": "-90.13339513437518",
    "latitude": "29.936975505733685",
    "geocoded_column": {
      "latitude": "29.936975505733685",
      "longitude": "-90.13339513437518"
    }
  },
  {
    "service_request": "2023-1053368",
    "request_type": "Trash/Recycling",
    "request_reason": "Repair Trash Cart",
    "date_created": "2023-12-03T13:23:09.000",
    "date_modified": "2023-12-03T13:23:09.000",
    "request_status": "Pending",
    "responsible_agency": "Department of Sanitation",
    "final_address": "611 S Hennessey St",
    "address_councildis": "A",
    "status": "Assigned to Contractor",
    "contractor": "Richards Disposal",
    "rowid": "1053368",
    "final_x": "3668999.17671",
    "final_y": "537312.007048",
    "longitude": "-90.10734785724414",
    "latitude": "29.971795413676535",
    "geocoded_column": {
      "latitude": "29.971795413676535",
      "longitude": "-90.10734785724414"
    }
  },
  {
    "service_request": "2023-1053367",
    "request_type": "Trash/Recycling",
    "request_reason": "Replace Trash Cart",
    "date_created": "2023-12-03T13:18:48.000",
    "date_modified": "2023-12-03T13:18:49.000",
    "request_status": "Pending",
    "responsible_agency": "Department of Sanitation",
    "final_address": "1221 Poland Ave",
    "address_councildis": "D",
    "status": "Assigned to Contractor",
    "contractor": "IV Waste",
    "rowid": "1053367",
    "final_x": "3693236.99056",
    "final_y": "535527.621062",
    "longitude": "-90.03086544789662",
    "latitude": "29.96615365183758",
    "geocoded_column": {
      "latitude": "29.96615365183758",
      "longitude": "-90.03086544789662"
    }
  },
  {
    "service_request": "2023-1053366",
    "request_type": "Trash/Recycling",
    "request_reason": "Request a Large Item Pick Up",
    "date_created": "2023-12-03T12:43:32.000",
    "date_modified": "2023-12-03T12:43:33.000",
    "request_status": "Pending",
    "responsible_agency": "Department of Sanitation",
    "final_address": "4653 Press Dr",
    "address_councildis": "D",
    "status": "Assigned to Contractor",
    "contractor": "IV Waste",
    "rowid": "1053366",
    "final_x": "3689778.6815",
    "final_y": "550493.85762",
    "longitude": "-90.0412537232611",
    "latitude": "30.00741307262872",
    "geocoded_column": {
      "latitude": "30.00741307262872",
      "longitude": "-90.0412537232611"
    }
  },
  {
    "service_request": "2023-1053365",
    "request_type": "Roads/Drainage",
    "request_reason": "Pothole",
    "date_created": "2023-12-03T12:29:13.000",
    "date_modified": "2023-12-03T12:29:13.000",
    "request_status": "Pending",
    "responsible_agency": "Department of Public Works",
    "final_address": "0 BLK Canal St",
    "address_councildis": "C",
    "status": "Pending",
    "rowid": "1053365",
    "final_x": "3683101.85784",
    "final_y": "529482.228553",
    "longitude": "-90.06308356901691",
    "latitude": "29.949843769360704",
    "geocoded_column": {
      "latitude": "29.949843769360704",
      "longitude": "-90.06308356901691"
    }
  },
  {
    "service_request": "2023-1053364",
    "request_type": "Abandoned Vehicles",
    "request_reason": "Abandoned/Junk Vehicles",
    "date_created": "2023-12-03T12:04:31.000",
    "date_modified": "2023-12-03T12:04:31.000",
    "request_status": "Pending",
    "responsible_agency": "Department of Public Works",
    "final_address": "4469 Lafaye St",
    "address_councildis": "D",
    "status": "Pending",
    "rowid": "1053364",
    "final_x": "3687576.69238",
    "final_y": "549469.008147",
    "longitude": "-90.04824672586385",
    "latitude": "30.00466320061493",
    "geocoded_column": {
      "latitude": "30.00466320061493",
      "longitude": "-90.04824672586385"
    }
  },
  {
    "service_request": "2023-1053363",
    "request_type": "Roads/Drainage",
    "request_reason": "Man hole cover issue",
    "date_created": "2023-12-03T11:53:41.000",
    "date_modified": "2023-12-03T11:53:41.000",
    "request_status": "Pending",
    "responsible_agency": "Department of Public Works",
    "final_address": "8423 Willow St",
    "address_councildis": "A",
    "status": "Pending",
    "rowid": "1053363",
    "final_x": "3661582.01965",
    "final_y": "529845.869569",
    "longitude": "-90.13101993091833",
    "latitude": "29.951482090859695",
    "geocoded_column": {
      "latitude": "29.951482090859695",
      "longitude": "-90.13101993091833"
    }
  },
  {
    "service_request": "2023-1053362",
    "request_type": "Trash/Recycling",
    "request_reason": "Replace Trash Cart",
    "date_created": "2023-12-03T11:53:19.000",
    "date_modified": "2023-12-03T11:53:20.000",
    "request_status": "Pending",
    "responsible_agency": "Department of Sanitation",
    "final_address": "8705 Pritchard Pl",
    "address_councildis": "A",
    "status": "Assigned to Contractor",
    "contractor": "Richards Disposal",
    "rowid": "1053362",
    "final_x": "3664463.2642",
    "final_y": "534387.493957",
    "longitude": "-90.12177069658863",
    "latitude": "29.963886633755397",
    "geocoded_column": {
      "latitude": "29.963886633755397",
      "longitude": "-90.12177069658863"
    }
  },
  {
    "service_request": "2023-1053361",
    "request_type": "Roads/Drainage",
    "request_reason": "Man hole cover issue",
    "date_created": "2023-12-03T11:49:35.000",
    "date_modified": "2023-12-03T11:49:35.000",
    "request_status": "Pending",
    "responsible_agency": "Department of Public Works",
    "final_address": "911 Joliet St",
    "address_councildis": "A",
    "status": "Pending",
    "rowid": "1053361",
    "final_x": "3660297.26125",
    "final_y": "528608.501952",
    "longitude": "-90.13511745080395",
    "latitude": "29.94811673058677",
    "geocoded_column": {
      "latitude": "29.94811673058677",
      "longitude": "-90.13511745080395"
    }
  },
  {
    "service_request": "2023-1053360",
    "request_type": "Trash/Recycling",
    "request_reason": "Replace Trash Cart",
    "date_created": "2023-12-03T11:47:15.000",
    "date_modified": "2023-12-03T11:47:15.000",
    "request_status": "Pending",
    "responsible_agency": "Department of Sanitation",
    "final_address": "911 Joliet St",
    "address_councildis": "A",
    "status": "Assigned to Contractor",
    "contractor": "Richards Disposal",
    "rowid": "1053360",
    "final_x": "3660297.26125",
    "final_y": "528608.501952",
    "longitude": "-90.13511745080395",
    "latitude": "29.94811673058677",
    "geocoded_column": {
      "latitude": "29.94811673058677",
      "longitude": "-90.13511745080395"
    }
  },
  {
    "service_request": "2023-1053359",
    "request_type": "Property Maintenance",
    "request_reason": "Property Maintenance",
    "date_created": "2023-12-03T11:43:42.000",
    "date_modified": "2023-12-03T11:43:42.000",
    "request_status": "Pending",
    "responsible_agency": "Department of Code Enforcement",
    "final_address": "4000 Prytania St",
    "address_councildis": "B",
    "status": "Pending",
    "rowid": "1053359",
    "final_x": "3672337.46235",
    "final_y": "520424.18028",
    "longitude": "-90.09738029716965",
    "latitude": "29.925260810600854",
    "geocoded_column": {
      "latitude": "29.925260810600854",
      "longitude": "-90.09738029716965"
    }
  },
  {
    "service_request": "2023-1053358",
    "request_type": "Roads/Drainage",
    "request_reason": "Catch Basin - Clogged",
    "date_created": "2023-12-03T10:48:49.000",
    "date_modified": "2023-12-03T10:48:49.000",
    "request_status": "Pending",
    "responsible_agency": "Department of Public Works",
    "final_address": "4910 Washington Ave",
    "address_councildis": "B",
    "status": "Pending",
    "rowid": "1053358",
    "final_x": "3669542.27598",
    "final_y": "533259.408388",
    "longitude": "-90.10576977596176",
    "latitude": "29.960636129358353",
    "geocoded_column": {
      "latitude": "29.960636129358353",
      "longitude": "-90.10576977596176"
    }
  },
  {
    "service_request": "2023-1053357",
    "request_type": "Trash/Recycling",
    "request_reason": "Repair Trash Cart",
    "date_created": "2023-12-03T10:21:30.000",
    "date_modified": "2023-12-03T10:21:31.000",
    "request_status": "Pending",
    "responsible_agency": "Department of Sanitation",
    "final_address": "4317 Banks St",
    "address_councildis": "A",
    "status": "Assigned to Contractor",
    "contractor": "Richards Disposal",
    "rowid": "1053357",
    "final_x": "3669530.38087",
    "final_y": "538125.533833",
    "longitude": "-90.1056426991917",
    "latitude": "29.97401670035877",
    "geocoded_column": {
      "latitude": "29.97401670035877",
      "longitude": "-90.1056426991917"
    }
  },
  {
    "service_request": "2023-1053356",
    "request_type": "Trash/Recycling",
    "request_reason": "Replace Recycling Cart",
    "date_created": "2023-12-03T10:19:33.000",
    "date_modified": "2023-12-03T10:19:33.000",
    "request_status": "Pending",
    "responsible_agency": "Department of Sanitation",
    "final_address": "4317 Banks St",
    "address_councildis": "A",
    "status": "Pending",
    "rowid": "1053356",
    "final_x": "3669530.38087",
    "final_y": "538125.533833",
    "longitude": "-90.1056426991917",
    "latitude": "29.97401670035877",
    "geocoded_column": {
      "latitude": "29.97401670035877",
      "longitude": "-90.1056426991917"
    }
  },
  {
    "service_request": "2023-1053355",
    "request_type": "Trash/Recycling",
    "request_reason": "Order Recycling Cart",
    "date_created": "2023-12-03T10:13:25.000",
    "date_modified": "2023-12-03T10:13:25.000",
    "request_status": "Pending",
    "responsible_agency": "Department of Sanitation",
    "final_address": "1622 Louisa St",
    "address_councildis": "D",
    "status": "Pending",
    "rowid": "1053355",
    "final_x": "3690042.48937",
    "final_y": "537928.856905",
    "longitude": "-90.04086804224875",
    "latitude": "29.972855663533842",
    "geocoded_column": {
      "latitude": "29.972855663533842",
      "longitude": "-90.04086804224875"
    }
  },
  {
    "service_request": "2023-1053354",
    "request_type": "Trash/Recycling",
    "request_reason": "Order Trash Cart",
    "date_created": "2023-12-03T10:12:11.000",
    "date_modified": "2023-12-03T10:12:11.000",
    "request_status": "Pending",
    "responsible_agency": "Department of Sanitation",
    "final_address": "1622 Louisa St",
    "address_councildis": "D",
    "status": "Assigned to Contractor",
    "contractor": "IV Waste",
    "rowid": "1053354",
    "final_x": "3690042.48937",
    "final_y": "537928.856905",
    "longitude": "-90.04086804224875",
    "latitude": "29.972855663533842",
    "geocoded_column": {
      "latitude": "29.972855663533842",
      "longitude": "-90.04086804224875"
    }
  },
  {
    "service_request": "2023-1053353",
    "request_type": "Abandoned Vehicles",
    "request_reason": "Abandoned/Junk Vehicles",
    "date_created": "2023-12-03T10:11:19.000",
    "date_modified": "2023-12-03T10:11:19.000",
    "request_status": "Pending",
    "responsible_agency": "Department of Public Works",
    "final_address": "3600 BLK Marigny St",
    "address_councildis": "D",
    "status": "Pending",
    "rowid": "1053353",
    "final_x": "3684632.89776",
    "final_y": "546098.477473",
    "longitude": "-90.05766528227672",
    "latitude": "29.995485905349",
    "geocoded_column": {
      "latitude": "29.995485905349",
      "longitude": "-90.05766528227672"
    }
  },
  {
    "service_request": "2023-1053352",
    "request_type": "Roads/Drainage",
    "request_reason": "Street Subsidence (Sinking)",
    "date_created": "2023-12-03T10:05:23.000",
    "date_modified": "2023-12-03T10:05:23.000",
    "request_status": "Pending",
    "responsible_agency": "Department of Public Works",
    "final_address": "4000 BLK General Ogden St",
    "address_councildis": "A",
    "status": "Pending",
    "rowid": "1053352",
    "final_x": "3666687.6574",
    "final_y": "537761.222165",
    "longitude": "-90.11463293338362",
    "latitude": "29.97309840744477",
    "geocoded_column": {
      "latitude": "29.97309840744477",
      "longitude": "-90.11463293338362"
    }
  },
  {
    "service_request": "2023-1053351",
    "request_type": "Abandoned Vehicles",
    "request_reason": "Abandoned/Junk Vehicles",
    "date_created": "2023-12-03T10:01:58.000",
    "date_modified": "2023-12-03T10:01:58.000",
    "request_status": "Pending",
    "responsible_agency": "Department of Public Works",
    "final_address": "1500 BLK S Norman C Francis Pkwy",
    "address_councildis": "B",
    "status": "Pending",
    "rowid": "1053351",
    "final_x": "3669582.84059",
    "final_y": "531385.440626",
    "longitude": "-90.10570508070431",
    "latitude": "29.955482141873635",
    "geocoded_column": {
      "latitude": "29.955482141873635",
      "longitude": "-90.10570508070431"
    }
  },
  {
    "service_request": "2023-1053350",
    "request_type": "Abandoned Vehicles",
    "request_reason": "Abandoned/Junk Vehicles",
    "date_created": "2023-12-03T09:59:31.000",
    "date_modified": "2023-12-03T09:59:31.000",
    "request_status": "Pending",
    "responsible_agency": "Department of Public Works",
    "final_address": "1500 BLK S Norman C Francis Pkwy",
    "address_councildis": "B",
    "status": "Pending",
    "rowid": "1053350",
    "final_x": "3669582.84059",
    "final_y": "531385.440626",
    "longitude": "-90.10570508070431",
    "latitude": "29.955482141873635",
    "geocoded_column": {
      "latitude": "29.955482141873635",
      "longitude": "-90.10570508070431"
    }
  },
  {
    "service_request": "2023-1053349",
    "request_type": "Trash/Recycling",
    "request_reason": "Replace Trash Cart",
    "date_created": "2023-12-03T09:42:46.000",
    "date_modified": "2023-12-03T09:42:47.000",
    "request_status": "Pending",
    "responsible_agency": "Department of Sanitation",
    "final_address": "1828 S Dupre St",
    "address_councildis": "B",
    "status": "Assigned to Contractor",
    "contractor": "Richards Disposal",
    "rowid": "1053349",
    "final_x": "3670481.95579",
    "final_y": "529606.636289",
    "longitude": "-90.10292630529895",
    "latitude": "29.9505644973034",
    "geocoded_column": {
      "latitude": "29.9505644973034",
      "longitude": "-90.10292630529895"
    }
  },
  {
    "service_request": "2023-1053348",
    "request_type": "Roads/Drainage",
    "request_reason": "Catch Basin - Clogged",
    "date_created": "2023-12-03T09:26:14.000",
    "date_modified": "2023-12-03T09:26:14.000",
    "request_status": "Pending",
    "responsible_agency": "Department of Public Works",
    "final_address": "4919 Corsica Pl",
    "address_councildis": "E",
    "status": "Pending",
    "rowid": "1053348",
    "final_x": "3727401.66809",
    "final_y": "562016.143455",
    "longitude": "-89.92194548609079",
    "latitude": "30.037874489620116",
    "geocoded_column": {
      "latitude": "30.037874489620116",
      "longitude": "-89.92194548609079"
    }
  },
  {
    "service_request": "2023-1053347",
    "request_type": "Roads/Drainage",
    "request_reason": "Street Flooding / Drainage",
    "date_created": "2023-12-03T09:21:04.000",
    "date_modified": "2023-12-03T09:21:04.000",
    "request_status": "Pending",
    "responsible_agency": "Department of Public Works",
    "final_address": "7942 Parry St",
    "address_councildis": "E",
    "status": "Pending",
    "rowid": "1053347",
    "final_x": "3713605.99979",
    "final_y": "569392.024358",
    "longitude": "-89.96526445077174",
    "latitude": "30.05861518528136",
    "geocoded_column": {
      "latitude": "30.05861518528136",
      "longitude": "-89.96526445077174"
    }
  },
  {
    "service_request": "2023-1053346",
    "request_type": "Roads/Drainage",
    "request_reason": "Street Flooding / Drainage",
    "date_created": "2023-12-03T09:18:54.000",
    "date_modified": "2023-12-03T09:18:54.000",
    "request_status": "Pending",
    "responsible_agency": "Department of Public Works",
    "final_address": "7942 Parry St",
    "address_councildis": "E",
    "status": "Pending",
    "rowid": "1053346",
    "final_x": "3713605.99979",
    "final_y": "569392.024358",
    "longitude": "-89.96526445077174",
    "latitude": "30.05861518528136",
    "geocoded_column": {
      "latitude": "30.05861518528136",
      "longitude": "-89.96526445077174"
    }
  },
  {
    "service_request": "2023-1053345",
    "request_type": "Roads/Drainage",
    "request_reason": "Pothole",
    "date_created": "2023-12-03T09:03:59.000",
    "date_modified": "2023-12-03T09:03:59.000",
    "request_status": "Pending",
    "responsible_agency": "Department of Public Works",
    "final_address": "2728 Broadway St",
    "address_councildis": "B",
    "status": "Pending",
    "rowid": "1053345",
    "final_x": "3667190.42164",
    "final_y": "531238.897794",
    "longitude": "-90.11326443133369",
    "latitude": "29.955149459212365",
    "geocoded_column": {
      "latitude": "29.955149459212365",
      "longitude": "-90.11326443133369"
    }
  },
  {
    "service_request": "2023-1053344",
    "request_type": "Trash/Recycling",
    "request_reason": "Replace Trash Cart",
    "date_created": "2023-12-03T08:29:15.000",
    "date_modified": "2023-12-03T08:29:15.000",
    "request_status": "Pending",
    "responsible_agency": "Department of Sanitation",
    "final_address": "501 Wagner St",
    "address_councildis": "C",
    "status": "Assigned to Contractor",
    "contractor": "Richards Disposal",
    "rowid": "1053344",
    "final_x": "3690539.91811",
    "final_y": "529760.344321",
    "longitude": "-90.0395883498639",
    "latitude": "29.950379668468134",
    "geocoded_column": {
      "latitude": "29.950379668468134",
      "longitude": "-90.0395883498639"
    }
  },
  {
    "service_request": "2023-1053343",
    "request_type": "Abandoned Vehicles",
    "request_reason": "Abandoned/Junk Vehicles",
    "date_created": "2023-12-03T08:02:50.000",
    "date_modified": "2023-12-03T08:02:50.000",
    "request_status": "Pending",
    "responsible_agency": "Department of Public Works",
    "final_address": "900 BLK Eliza St",
    "address_councildis": "C",
    "status": "Pending",
    "rowid": "1053343",
    "final_x": "3688357.98644",
    "final_y": "529892.762509",
    "longitude": "-90.04647303624529",
    "latitude": "29.95081133266515",
    "geocoded_column": {
      "latitude": "29.95081133266515",
      "longitude": "-90.04647303624529"
    }
  },
  {
    "service_request": "2023-1053342",
    "request_type": "Abandoned Vehicles",
    "request_reason": "Abandoned/Junk Vehicles",
    "date_created": "2023-12-03T07:58:13.000",
    "date_modified": "2023-12-03T07:58:13.000",
    "request_status": "Pending",
    "responsible_agency": "Department of Public Works",
    "final_address": "713 Eliza St",
    "address_councildis": "C",
    "status": "Pending",
    "rowid": "1053342",
    "final_x": "3687598.25935",
    "final_y": "529900.872641",
    "longitude": "-90.04887157500721",
    "latitude": "29.95085707175849",
    "geocoded_column": {
      "latitude": "29.95085707175849",
      "longitude": "-90.04887157500721"
    }
  },
  {
    "service_request": "2023-1053341",
    "request_type": "Abandoned Vehicles",
    "request_reason": "Abandoned/Junk Vehicles",
    "date_created": "2023-12-03T07:54:01.000",
    "date_modified": "2023-12-03T07:54:01.000",
    "request_status": "Pending",
    "responsible_agency": "Department of Public Works",
    "final_address": "713 Eliza St",
    "address_councildis": "C",
    "status": "Pending",
    "rowid": "1053341",
    "final_x": "3687598.25935",
    "final_y": "529900.872641",
    "longitude": "-90.04887157500721",
    "latitude": "29.95085707175849",
    "geocoded_column": {
      "latitude": "29.95085707175849",
      "longitude": "-90.04887157500721"
    }
  },
  {
    "service_request": "2023-1053340",
    "request_type": "Abandoned Vehicles",
    "request_reason": "Vehicle Blocking Your Driveway",
    "date_created": "2023-12-03T07:36:42.000",
    "date_modified": "2023-12-03T07:36:42.000",
    "request_status": "Pending",
    "responsible_agency": "Department of Public Works",
    "final_address": "2507 St Philip St",
    "address_councildis": "D",
    "status": "Pending",
    "rowid": "1053340",
    "final_x": "3678167.35899",
    "final_y": "537304.889992",
    "longitude": "-90.07839354662946",
    "latitude": "29.971502932914195",
    "geocoded_column": {
      "latitude": "29.971502932914195",
      "longitude": "-90.07839354662946"
    }
  },
  {
    "service_request": "2023-1053339",
    "request_type": "Trash/Recycling",
    "request_reason": "Request a Large Item Pick Up",
    "date_created": "2023-12-03T07:12:25.000",
    "date_modified": "2023-12-03T07:12:26.000",
    "request_status": "Pending",
    "responsible_agency": "Department of Sanitation",
    "final_address": "6735 E Hermes St",
    "address_councildis": "D",
    "status": "Assigned to Contractor",
    "contractor": "Waste Pro",
    "rowid": "1053339",
    "final_x": "3697714.32471",
    "final_y": "556425.274586",
    "longitude": "-90.0159674797979",
    "latitude": "30.02347379411678",
    "geocoded_column": {
      "latitude": "30.02347379411678",
      "longitude": "-90.0159674797979"
    }
  },
  {
    "service_request": "2023-1053338",
    "request_type": "Trash/Recycling",
    "request_reason": "Missed Trash Pick-Up",
    "date_created": "2023-12-03T07:11:14.000",
    "date_modified": "2023-12-03T07:11:15.000",
    "request_status": "Pending",
    "responsible_agency": "Department of Sanitation",
    "final_address": "3435 Lancaster St",
    "address_councildis": "C",
    "status": "Assigned to Contractor",
    "contractor": "Richards Disposal",
    "rowid": "1053338",
    "final_x": "3709831.68069",
    "final_y": "517982.817014",
    "longitude": "-89.9791151124595",
    "latitude": "29.917382626311966",
    "geocoded_column": {
      "latitude": "29.917382626311966",
      "longitude": "-89.9791151124595"
    }
  },
  {
    "service_request": "2023-1053337",
    "request_type": "Trash/Recycling",
    "request_reason": "Order Recycling Cart",
    "date_created": "2023-12-03T06:29:33.000",
    "date_modified": "2023-12-03T06:29:33.000",
    "request_status": "Pending",
    "responsible_agency": "Department of Sanitation",
    "final_address": "947 Hagan St",
    "address_councildis": "A",
    "status": "Pending",
    "rowid": "1053337",
    "final_x": "3675334.2052",
    "final_y": "539403.984074",
    "longitude": "-90.08726898071527",
    "latitude": "29.977359740214812",
    "geocoded_column": {
      "latitude": "29.977359740214812",
      "longitude": "-90.08726898071527"
    }
  },
  {
    "service_request": "2023-1053336",
    "request_type": "Abandoned Vehicles",
    "request_reason": "Abandoned/Junk Vehicles",
    "date_created": "2023-12-03T03:57:34.000",
    "date_modified": "2023-12-03T03:57:34.000",
    "request_status": "Pending",
    "responsible_agency": "Department of Public Works",
    "final_address": "2330 Iberville St",
    "address_councildis": "B",
    "status": "Pending",
    "rowid": "1053336",
    "final_x": "3676740.39656",
    "final_y": "534552.669573",
    "longitude": "-90.08299495238029",
    "latitude": "29.96397815746888",
    "geocoded_column": {
      "latitude": "29.96397815746888",
      "longitude": "-90.08299495238029"
    }
  },
  {
    "service_request": "2023-1053335",
    "request_type": "Roads/Drainage",
    "request_reason": "Street Flooding / Drainage",
    "date_created": "2023-12-03T01:52:30.000",
    "date_modified": "2023-12-03T01:52:30.000",
    "request_status": "Pending",
    "responsible_agency": "Department of Public Works",
    "final_address": "URQUHART ST & JAPONICA ST",
    "address_councildis": "D",
    "status": "Pending",
    "rowid": "1053335",
    "final_x": "3693875.6",
    "final_y": "535564.48",
    "longitude": "-90.0288474178309",
    "latitude": "29.966235025618037",
    "geocoded_column": {
      "latitude": "29.966235025618037",
      "longitude": "-90.0288474178309"
    }
  },
  {
    "service_request": "2023-1053334",
    "request_type": "Roads/Drainage",
    "request_reason": "Pothole",
    "date_created": "2023-12-03T01:30:09.000",
    "date_modified": "2023-12-03T01:30:09.000",
    "request_status": "Pending",
    "responsible_agency": "Department of Public Works",
    "final_address": "4200 BLK Perrier St",
    "address_councildis": "B",
    "status": "Pending",
    "rowid": "1053334",
    "final_x": "3671500.64253",
    "final_y": "520125.882108",
    "longitude": "-90.1000320136845",
    "latitude": "29.924465378806524",
    "geocoded_column": {
      "latitude": "29.924465378806524",
      "longitude": "-90.1000320136845"
    }
  },
  {
    "service_request": "2023-1053333",
    "request_type": "Roads/Drainage",
    "request_reason": "Road Shoulder Repair",
    "date_created": "2023-12-02T22:30:39.000",
    "date_modified": "2023-12-02T22:30:39.000",
    "request_status": "Pending",
    "responsible_agency": "Department of Public Works",
    "final_address": "3600 BLK Coliseum St",
    "address_councildis": "B",
    "status": "Pending",
    "rowid": "1053333",
    "final_x": "3673679.77859",
    "final_y": "520234.645014",
    "longitude": "-90.09314949821882",
    "latitude": "29.924699769259288",
    "geocoded_column": {
      "latitude": "29.924699769259288",
      "longitude": "-90.09314949821882"
    }
  },
  {
    "service_request": "2023-1053332",
    "request_type": "Roads/Drainage",
    "request_reason": "Pothole",
    "date_created": "2023-12-02T22:10:33.000",
    "date_modified": "2023-12-02T22:10:33.000",
    "request_status": "Pending",
    "responsible_agency": "Department of Public Works",
    "final_address": "1417 Dufossat St",
    "address_councildis": "B",
    "status": "Pending",
    "rowid": "1053332",
    "final_x": "3668172.86554",
    "final_y": "520317.064312",
    "longitude": "-90.11053026302999",
    "latitude": "29.92508913732497",
    "geocoded_column": {
      "latitude": "29.92508913732497",
      "longitude": "-90.11053026302999"
    }
  },
  {
    "service_request": "2023-1053331",
    "request_type": "Property Maintenance",
    "request_reason": "Property Maintenance",
    "date_created": "2023-12-02T21:41:51.000",
    "date_modified": "2023-12-02T21:41:51.000",
    "request_status": "Pending",
    "responsible_agency": "Department of Code Enforcement",
    "final_address": "1234 St Anthony St",
    "address_councildis": "C",
    "status": "Pending",
    "rowid": "1053331",
    "final_x": "3683467.55177",
    "final_y": "536466.940423",
    "longitude": "-90.0616841523773",
    "latitude": "29.969038184230023",
    "geocoded_column": {
      "latitude": "29.969038184230023",
      "longitude": "-90.0616841523773"
    }
  },
  {
    "service_request": "2023-1053330",
    "request_type": "Traffic Signals/Signs/Striping/Streetlights",
    "request_reason": "Traffic Sign Missing/Damaged",
    "date_created": "2023-12-02T21:16:21.000",
    "date_modified": "2023-12-02T21:16:21.000",
    "request_status": "Pending",
    "responsible_agency": "Department of Public Works",
    "final_address": "542 S Norman C Francis Prkwy",
    "address_councildis": "B",
    "status": "Pending",
    "rowid": "1053330",
    "final_x": "3672143.22753",
    "final_y": "535099.549062",
    "longitude": "-90.09749379504704",
    "latitude": "29.965619026641203",
    "geocoded_column": {
      "latitude": "29.965619026641203",
      "longitude": "-90.09749379504704"
    }
  },
  {
    "service_request": "2023-1053329",
    "request_type": "Roads/Drainage",
    "request_reason": "Catch Basin - Clogged",
    "date_created": "2023-12-02T20:14:48.000",
    "date_modified": "2023-12-02T20:14:48.000",
    "request_status": "Pending",
    "responsible_agency": "Department of Public Works",
    "final_address": "8506 Apricot St",
    "address_councildis": "A",
    "status": "Pending",
    "rowid": "1053329",
    "final_x": "3664686.92685",
    "final_y": "533611.932741",
    "longitude": "-90.12109029887758",
    "latitude": "29.961747590287853",
    "geocoded_column": {
      "latitude": "29.961747590287853",
      "longitude": "-90.12109029887758"
    }
  },
  {
    "service_request": "2023-1053328",
    "request_type": "Trash/Recycling",
    "request_reason": "Missed Trash Pick-Up",
    "date_created": "2023-12-02T20:11:10.000",
    "date_modified": "2023-12-02T20:11:11.000",
    "request_status": "Pending",
    "responsible_agency": "Department of Sanitation",
    "final_address": "APRICOT ST & EAGLE ST",
    "address_councildis": "A",
    "status": "Assigned to Contractor",
    "contractor": "Richards Disposal",
    "rowid": "1053328",
    "final_x": "3664000.3",
    "final_y": "534288.68",
    "longitude": "-90.12323599579183",
    "latitude": "29.96362837977159",
    "geocoded_column": {
      "latitude": "29.96362837977159",
      "longitude": "-90.12323599579183"
    }
  },
  {
    "service_request": "2023-1053327",
    "request_type": "Trash/Recycling",
    "request_reason": "Missed Trash Pick-Up",
    "date_created": "2023-12-02T20:06:27.000",
    "date_modified": "2023-12-02T20:06:28.000",
    "request_status": "Pending",
    "responsible_agency": "Department of Sanitation",
    "final_address": "8506 Apricot St",
    "address_councildis": "A",
    "status": "Assigned to Contractor",
    "contractor": "Richards Disposal",
    "rowid": "1053327",
    "final_x": "3664686.92685",
    "final_y": "533611.932741",
    "longitude": "-90.12109029887758",
    "latitude": "29.961747590287853",
    "geocoded_column": {
      "latitude": "29.961747590287853",
      "longitude": "-90.12109029887758"
    }
  },
  {
    "service_request": "2023-1053326",
    "request_type": "Trash/Recycling",
    "request_reason": "Request a Large Item Pick Up",
    "date_created": "2023-12-02T19:25:13.000",
    "date_modified": "2023-12-02T19:25:14.000",
    "request_status": "Pending",
    "responsible_agency": "Department of Sanitation",
    "final_address": "408 New Orleans-Hammond Hwy",
    "address_councildis": "A",
    "status": "Assigned to Contractor",
    "contractor": "IV Waste",
    "rowid": "1053326",
    "final_x": "3665457.49658",
    "final_y": "554584.843672",
    "longitude": "-90.11795447060952",
    "latitude": "30.019393526345446",
    "geocoded_column": {
      "latitude": "30.019393526345446",
      "longitude": "-90.11795447060952"
    }
  },
  {
    "service_request": "2023-1053324",
    "request_type": "Trash/Recycling",
    "request_reason": "Return Recycling Cart",
    "date_created": "2023-12-02T19:07:36.000",
    "date_modified": "2023-12-02T19:07:36.000",
    "request_status": "Pending",
    "responsible_agency": "Department of Sanitation",
    "final_address": "4501 S Tonti St",
    "address_councildis": "B",
    "status": "Pending",
    "rowid": "1053324",
    "final_x": "3669670.04954",
    "final_y": "528150.192",
    "longitude": "-90.1055391696729",
    "latitude": "29.946583698711894",
    "geocoded_column": {
      "latitude": "29.946583698711894",
      "longitude": "-90.1055391696729"
    }
  },
  {
    "service_request": "2023-1053323",
    "request_type": "Roads/Drainage",
    "request_reason": "Catch Basin - Clogged",
    "date_created": "2023-12-02T18:58:16.000",
    "date_modified": "2023-12-02T18:58:16.000",
    "request_status": "Pending",
    "responsible_agency": "Department of Public Works",
    "final_address": "2122 N Robertson St",
    "address_councildis": "C",
    "status": "Pending",
    "rowid": "1053323",
    "final_x": "3684652.69397",
    "final_y": "537726.68628",
    "longitude": "-90.0578971152203",
    "latitude": "29.97246582884523",
    "geocoded_column": {
      "latitude": "29.97246582884523",
      "longitude": "-90.0578971152203"
    }
  },
  {
    "service_request": "2023-1053322",
    "request_type": "Trash/Recycling",
    "request_reason": "Missed Trash Pick-Up",
    "date_created": "2023-12-02T18:40:28.000",
    "date_modified": "2023-12-02T18:40:29.000",
    "request_status": "Pending",
    "responsible_agency": "Department of Sanitation",
    "final_address": "8907 Colapissa St",
    "address_councildis": "A",
    "status": "Assigned to Contractor",
    "contractor": "Richards Disposal",
    "rowid": "1053322",
    "final_x": "3664412.33831",
    "final_y": "535387.17607",
    "longitude": "-90.12189814017599",
    "latitude": "29.96663691131138",
    "geocoded_column": {
      "latitude": "29.96663691131138",
      "longitude": "-90.12189814017599"
    }
  },
  {
    "service_request": "2023-1053321",
    "request_type": "Property Maintenance",
    "request_reason": "Property Maintenance",
    "date_created": "2023-12-02T17:59:37.000",
    "date_modified": "2023-12-02T17:59:37.000",
    "request_status": "Pending",
    "responsible_agency": "Department of Code Enforcement",
    "final_address": "1351 Tennessee St",
    "address_councildis": "E",
    "status": "Pending",
    "rowid": "1053321",
    "final_x": "3696075.35242",
    "final_y": "535400.052486",
    "longitude": "-90.02190662342059",
    "latitude": "29.96571386505037",
    "geocoded_column": {
      "latitude": "29.96571386505037",
      "longitude": "-90.02190662342059"
    }
  },
  {
    "service_request": "2023-1053320",
    "request_type": "Trash/Recycling",
    "request_reason": "Replace Trash Cart",
    "date_created": "2023-12-02T17:20:37.000",
    "date_modified": "2023-12-02T17:20:38.000",
    "request_status": "Pending",
    "responsible_agency": "Department of Sanitation",
    "final_address": "4428 S Tonti St",
    "address_councildis": "B",
    "status": "Assigned to Contractor",
    "contractor": "Richards Disposal",
    "rowid": "1053320",
    "final_x": "3669805.46894",
    "final_y": "528074.141823",
    "longitude": "-90.10511417476135",
    "latitude": "29.946370594917962",
    "geocoded_column": {
      "latitude": "29.946370594917962",
      "longitude": "-90.10511417476135"
    }
  },
  {
    "service_request": "2023-1053319",
    "request_type": "Roads/Drainage",
    "request_reason": "Street Subsidence (Sinking)",
    "date_created": "2023-12-02T17:15:50.000",
    "date_modified": "2023-12-02T17:15:50.000",
    "request_status": "Pending",
    "responsible_agency": "Department of Public Works",
    "final_address": "CAMP ST & 3RD ST",
    "address_councildis": "B",
    "status": "Pending",
    "rowid": "1053319",
    "final_x": "3677365.9",
    "final_y": "521481.58",
    "longitude": "-90.0814706348261",
    "latitude": "29.92801821922441",
    "geocoded_column": {
      "latitude": "29.92801821922441",
      "longitude": "-90.0814706348261"
    }
  },
  {
    "service_request": "2023-1053318",
    "request_type": "Trash/Recycling",
    "request_reason": "Order Recycling Cart",
    "date_created": "2023-12-02T17:03:18.000",
    "date_modified": "2023-12-02T17:03:18.000",
    "request_status": "Pending",
    "responsible_agency": "Department of Sanitation",
    "final_address": "408 New Orleans-Hammond Hwy",
    "address_councildis": "A",
    "status": "Pending",
    "rowid": "1053318",
    "final_x": "3665457.49658",
    "final_y": "554584.843672",
    "longitude": "-90.11795447060952",
    "latitude": "30.019393526345446",
    "geocoded_column": {
      "latitude": "30.019393526345446",
      "longitude": "-90.11795447060952"
    }
  },
  {
    "service_request": "2023-1053317",
    "request_type": "Roads/Drainage",
    "request_reason": "Street Flooding / Drainage",
    "date_created": "2023-12-02T16:34:45.000",
    "date_modified": "2023-12-02T16:34:45.000",
    "request_status": "Pending",
    "responsible_agency": "Department of Public Works",
    "final_address": "706 Dumaine St",
    "address_councildis": "C",
    "status": "Pending",
    "rowid": "1053317",
    "final_x": "3682874.22485",
    "final_y": "533103.209476",
    "longitude": "-90.0636756251108",
    "latitude": "29.959807172596726",
    "geocoded_column": {
      "latitude": "29.959807172596726",
      "longitude": "-90.0636756251108"
    }
  },
  {
    "service_request": "2023-1053316",
    "request_type": "Traffic Signals/Signs/Striping/Streetlights",
    "request_reason": "Street Light Outage/Malfunction",
    "date_created": "2023-12-02T16:16:34.000",
    "date_modified": "2023-12-02T16:16:35.000",
    "request_status": "Pending",
    "responsible_agency": "Department of Public Works",
    "final_address": "527 Seguin St",
    "address_councildis": "C",
    "status": "Assigned to Contractor",
    "contractor": "Legacy Professional Services",
    "rowid": "1053316",
    "final_x": "3686527.69679",
    "final_y": "529759.753729",
    "longitude": "-90.05225684309531",
    "latitude": "29.950501997583157",
    "geocoded_column": {
      "latitude": "29.950501997583157",
      "longitude": "-90.05225684309531"
    }
  },
  {
    "service_request": "2023-1053315",
    "request_type": "Traffic Signals/Signs/Striping/Streetlights",
    "request_reason": "Street Light Outage/Malfunction",
    "date_created": "2023-12-02T16:13:23.000",
    "date_modified": "2023-12-02T16:13:23.000",
    "request_status": "Pending",
    "responsible_agency": "Department of Public Works",
    "final_address": "541 Seguin St",
    "address_councildis": "C",
    "status": "Assigned to Contractor",
    "contractor": "Legacy Professional Services",
    "rowid": "1053315",
    "final_x": "3686598.23593",
    "final_y": "529668.633537",
    "longitude": "-90.05203733475794",
    "latitude": "29.95024927947189",
    "geocoded_column": {
      "latitude": "29.95024927947189",
      "longitude": "-90.05203733475794"
    }
  },
  {
    "service_request": "2023-1053314",
    "request_type": "Trash/Recycling",
    "request_reason": "Request a Large Item Pick Up",
    "date_created": "2023-12-02T16:10:40.000",
    "date_modified": "2023-12-02T16:10:41.000",
    "request_status": "Pending",
    "responsible_agency": "Department of Sanitation",
    "final_address": "2030 Chestnut St",
    "address_councildis": "B",
    "status": "Assigned to Contractor",
    "contractor": "Richards Disposal",
    "rowid": "1053314",
    "final_x": "3678856.36123",
    "final_y": "522972.016763",
    "longitude": "-90.0767139915808",
    "latitude": "29.932071573359895",
    "geocoded_column": {
      "latitude": "29.932071573359895",
      "longitude": "-90.0767139915808"
    }
  },
  {
    "service_request": "2023-1053313",
    "request_type": "Abandoned Vehicles",
    "request_reason": "Abandoned/Junk Vehicles",
    "date_created": "2023-12-02T15:55:45.000",
    "date_modified": "2023-12-02T15:55:45.000",
    "request_status": "Pending",
    "responsible_agency": "Department of Public Works",
    "final_address": "4314 N Derbigny St",
    "address_councildis": "D",
    "status": "Pending",
    "rowid": "1053313",
    "final_x": "3693395.84131",
    "final_y": "537207.219592",
    "longitude": "-90.03030348545148",
    "latitude": "29.970766986985588",
    "geocoded_column": {
      "latitude": "29.970766986985588",
      "longitude": "-90.03030348545148"
    }
  },
  {
    "service_request": "2023-1053312",
    "request_type": "Trash/Recycling",
    "request_reason": "Replace Recycling Cart",
    "date_created": "2023-12-02T15:54:59.000",
    "date_modified": "2023-12-02T15:54:59.000",
    "request_status": "Pending",
    "responsible_agency": "Department of Sanitation",
    "final_address": "1020 Governor Nicholls St",
    "address_councildis": "C",
    "status": "Pending",
    "rowid": "1053312",
    "final_x": "3682649.90837",
    "final_y": "534655.459718",
    "longitude": "-90.06432968040812",
    "latitude": "29.964082161590515",
    "geocoded_column": {
      "latitude": "29.964082161590515",
      "longitude": "-90.06432968040812"
    }
  },
  {
    "service_request": "2023-1053311",
    "request_type": "Property Maintenance",
    "request_reason": "Property Maintenance",
    "date_created": "2023-12-02T15:54:39.000",
    "date_modified": "2023-12-02T15:54:39.000",
    "request_status": "Pending",
    "responsible_agency": "Department of Code Enforcement",
    "final_address": "2321 Chippewa St",
    "address_councildis": "B",
    "status": "Pending",
    "rowid": "1053311",
    "final_x": "3679262.50095",
    "final_y": "520588.018104",
    "longitude": "-90.0755144648788",
    "latitude": "29.925504103859133",
    "geocoded_column": {
      "latitude": "29.925504103859133",
      "longitude": "-90.0755144648788"
    }
  },
  {
    "service_request": "2023-1053310",
    "request_type": "Abandoned Vehicles",
    "request_reason": "Abandoned/Junk Vehicles",
    "date_created": "2023-12-02T15:51:57.000",
    "date_modified": "2023-12-02T15:51:57.000",
    "request_status": "Pending",
    "responsible_agency": "Department of Public Works",
    "final_address": "4314 N Derbigny St",
    "address_councildis": "D",
    "status": "Pending",
    "rowid": "1053310",
    "final_x": "3693395.84131",
    "final_y": "537207.219592",
    "longitude": "-90.03030348545148",
    "latitude": "29.970766986985588",
    "geocoded_column": {
      "latitude": "29.970766986985588",
      "longitude": "-90.03030348545148"
    }
  },
  {
    "service_request": "2023-1053309",
    "request_type": "Abandoned Vehicles",
    "request_reason": "Abandoned/Junk Vehicles",
    "date_created": "2023-12-02T15:51:40.000",
    "date_modified": "2023-12-02T15:51:40.000",
    "request_status": "Pending",
    "responsible_agency": "Department of Public Works",
    "final_address": "4314 N Derbigny St",
    "address_councildis": "D",
    "status": "Pending",
    "rowid": "1053309",
    "final_x": "3693395.84131",
    "final_y": "537207.219592",
    "longitude": "-90.03030348545148",
    "latitude": "29.970766986985588",
    "geocoded_column": {
      "latitude": "29.970766986985588",
      "longitude": "-90.03030348545148"
    }
  },
  {
    "service_request": "2023-1053308",
    "request_type": "Property Maintenance",
    "request_reason": "Property Maintenance",
    "date_created": "2023-12-02T15:46:33.000",
    "date_modified": "2023-12-02T15:46:33.000",
    "request_status": "Pending",
    "responsible_agency": "Department of Code Enforcement",
    "final_address": "4314 N Derbigny St",
    "address_councildis": "D",
    "status": "Pending",
    "rowid": "1053308",
    "final_x": "3693395.84131",
    "final_y": "537207.219592",
    "longitude": "-90.03030348545148",
    "latitude": "29.970766986985588",
    "geocoded_column": {
      "latitude": "29.970766986985588",
      "longitude": "-90.03030348545148"
    }
  },
  {
    "service_request": "2023-1053307",
    "request_type": "Property Maintenance",
    "request_reason": "Property Maintenance",
    "date_created": "2023-12-02T15:43:48.000",
    "date_modified": "2023-12-02T15:43:48.000",
    "request_status": "Pending",
    "responsible_agency": "Department of Code Enforcement",
    "final_address": "4314 N Derbigny St",
    "address_councildis": "D",
    "status": "Pending",
    "rowid": "1053307",
    "final_x": "3693395.84131",
    "final_y": "537207.219592",
    "longitude": "-90.03030348545148",
    "latitude": "29.970766986985588",
    "geocoded_column": {
      "latitude": "29.970766986985588",
      "longitude": "-90.03030348545148"
    }
  },
  {
    "service_request": "2023-1053306",
    "request_type": "Trash/Recycling",
    "request_reason": "Request a Large Item Pick Up",
    "date_created": "2023-12-02T15:39:56.000",
    "date_modified": "2023-12-02T15:39:57.000",
    "request_status": "Pending",
    "responsible_agency": "Department of Sanitation",
    "final_address": "9660 River Rd",
    "address_councildis": "C",
    "status": "Assigned to Contractor",
    "contractor": "Richards Disposal",
    "rowid": "1053306",
    "final_x": "3721065.8533",
    "final_y": "518397.886966",
    "longitude": "-89.94363976561793",
    "latitude": "29.918154061690394",
    "geocoded_column": {
      "latitude": "29.918154061690394",
      "longitude": "-89.94363976561793"
    }
  },
  {
    "service_request": "2023-1053305",
    "request_type": "Abandoned Vehicles",
    "request_reason": "Abandoned/Junk Vehicles",
    "date_created": "2023-12-02T15:35:07.000",
    "date_modified": "2023-12-02T15:35:07.000",
    "request_status": "Pending",
    "responsible_agency": "Department of Public Works",
    "final_address": "1640 Poland Ave",
    "address_councildis": "D",
    "status": "Pending",
    "rowid": "1053305",
    "final_x": "3693523.33366",
    "final_y": "537223.57908",
    "longitude": "-90.02990026297283",
    "latitude": "29.970807982645884",
    "geocoded_column": {
      "latitude": "29.970807982645884",
      "longitude": "-90.02990026297283"
    }
  },
  {
    "service_request": "2023-1053304",
    "request_type": "Traffic Signals/Signs/Striping/Streetlights",
    "request_reason": "Additional signage",
    "date_created": "2023-12-02T15:23:21.000",
    "date_modified": "2023-12-02T15:23:21.000",
    "request_status": "Pending",
    "responsible_agency": "Department of Public Works",
    "final_address": "2515 Gravier St",
    "address_councildis": "B",
    "status": "Pending",
    "rowid": "1053304",
    "final_x": "3674803.30049",
    "final_y": "532981.363844",
    "longitude": "-90.08916601075602",
    "latitude": "29.959715573551104",
    "geocoded_column": {
      "latitude": "29.959715573551104",
      "longitude": "-90.08916601075602"
    }
  },
  {
    "service_request": "2023-1053303",
    "request_type": "Traffic Signals/Signs/Striping/Streetlights",
    "request_reason": "Traffic Sign Missing/Damaged",
    "date_created": "2023-12-02T14:49:59.000",
    "date_modified": "2023-12-02T14:49:59.000",
    "request_status": "Pending",
    "responsible_agency": "Department of Public Works",
    "final_address": "704 Canal St",
    "address_councildis": "B",
    "status": "Pending",
    "rowid": "1053303",
    "final_x": "3681079.18984",
    "final_y": "530633.848962",
    "longitude": "-90.06942995229784",
    "latitude": "29.95307183729564",
    "geocoded_column": {
      "latitude": "29.95307183729564",
      "longitude": "-90.06942995229784"
    }
  },
  {
    "service_request": "2023-1053302",
    "request_type": "Roads/Drainage",
    "request_reason": "Catch Basin - Clogged",
    "date_created": "2023-12-02T14:40:56.000",
    "date_modified": "2023-12-02T14:40:56.000",
    "request_status": "Pending",
    "responsible_agency": "Department of Public Works",
    "final_address": "1002 Crete St",
    "address_councildis": "A",
    "status": "Pending",
    "rowid": "1053302",
    "final_x": "3677534.83669",
    "final_y": "538374.006921",
    "longitude": "-90.08035422437897",
    "latitude": "29.974461671178066",
    "geocoded_column": {
      "latitude": "29.974461671178066",
      "longitude": "-90.08035422437897"
    }
  },
  {
    "service_request": "2023-1053301",
    "request_type": "Trash/Recycling",
    "request_reason": "Replace Trash Cart",
    "date_created": "2023-12-02T14:30:46.000",
    "date_modified": "2023-12-02T14:30:47.000",
    "request_status": "Pending",
    "responsible_agency": "Department of Sanitation",
    "final_address": "2429 Rev. John Raphael, Jr. Way",
    "address_councildis": "B",
    "status": "Assigned to Contractor",
    "contractor": "Richards Disposal",
    "rowid": "1053301",
    "final_x": "3675136.60411",
    "final_y": "525524.861885",
    "longitude": "-90.08836934062249",
    "latitude": "29.9392027097238",
    "geocoded_column": {
      "latitude": "29.9392027097238",
      "longitude": "-90.08836934062249"
    }
  },
  {
    "service_request": "2023-1053300",
    "request_type": "Safety & Permits",
    "request_reason": "Healthy Homes",
    "date_created": "2023-12-02T14:23:19.000",
    "date_modified": "2023-12-02T14:23:19.000",
    "request_status": "Pending",
    "responsible_agency": "Safety and Permits",
    "final_address": "125 Broadway St",
    "address_councildis": "A",
    "status": "Pending",
    "rowid": "1053300",
    "final_x": "3660890.87962",
    "final_y": "521414.379193",
    "longitude": "-90.13348100141324",
    "latitude": "29.9283180829124",
    "geocoded_column": {
      "latitude": "29.9283180829124",
      "longitude": "-90.13348100141324"
    }
  },
  {
    "service_request": "2023-1053299",
    "request_type": "Roads/Drainage",
    "request_reason": "Pothole",
    "date_created": "2023-12-02T14:22:09.000",
    "date_modified": "2023-12-02T14:22:09.000",
    "request_status": "Pending",
    "responsible_agency": "Department of Public Works",
    "final_address": "4216 Chestnut St",
    "address_councildis": "B",
    "status": "Pending",
    "rowid": "1053299",
    "final_x": "3671574.31393",
    "final_y": "519539.203703",
    "longitude": "-90.09981939416457",
    "latitude": "29.922850019854593",
    "geocoded_column": {
      "latitude": "29.922850019854593",
      "longitude": "-90.09981939416457"
    }
  },
  {
    "service_request": "2023-1053298",
    "request_type": "Roads/Drainage",
    "request_reason": "Road Shoulder Repair",
    "date_created": "2023-12-02T14:19:26.000",
    "date_modified": "2023-12-02T14:19:26.000",
    "request_status": "Pending",
    "responsible_agency": "Department of Public Works",
    "final_address": "1712 Upperline St",
    "address_councildis": "B",
    "status": "Pending",
    "rowid": "1053298",
    "final_x": "3669019.34023",
    "final_y": "521211.469945",
    "longitude": "-90.10782801031831",
    "latitude": "29.927523602627975",
    "geocoded_column": {
      "latitude": "29.927523602627975",
      "longitude": "-90.10782801031831"
    }
  },
  {
    "service_request": "2023-1053297",
    "request_type": "Trash/Recycling",
    "request_reason": "Order Recycling Cart",
    "date_created": "2023-12-02T14:13:38.000",
    "date_modified": "2023-12-02T14:13:38.000",
    "request_status": "Pending",
    "responsible_agency": "Department of Sanitation",
    "final_address": "5939 Eads St",
    "address_councildis": "D",
    "status": "Pending",
    "rowid": "1053297",
    "final_x": "3686830.81295",
    "final_y": "555164.228825",
    "longitude": "-90.0504016504076",
    "latitude": "30.02034594867321",
    "geocoded_column": {
      "latitude": "30.02034594867321",
      "longitude": "-90.0504016504076"
    }
  },
  {
    "service_request": "2023-1053296",
    "request_type": "Roads/Drainage",
    "request_reason": "Pothole",
    "date_created": "2023-12-02T14:12:31.000",
    "date_modified": "2023-12-02T14:12:31.000",
    "request_status": "Pending",
    "responsible_agency": "Department of Public Works",
    "final_address": "5822 Perrier St",
    "address_councildis": "A",
    "status": "Pending",
    "rowid": "1053296",
    "final_x": "3665612.84391",
    "final_y": "520336.532024",
    "longitude": "-90.11861080842084",
    "latitude": "29.9252175395516",
    "geocoded_column": {
      "latitude": "29.9252175395516",
      "longitude": "-90.11861080842084"
    }
  },
  {
    "service_request": "2023-1053295",
    "request_type": "Roads/Drainage",
    "request_reason": "Street Subsidence (Sinking)",
    "date_created": "2023-12-02T14:06:34.000",
    "date_modified": "2023-12-02T14:06:34.000",
    "request_status": "Pending",
    "responsible_agency": "Department of Public Works",
    "final_address": "3326 Nashville Ave",
    "address_councildis": "A",
    "status": "Pending",
    "rowid": "1053295",
    "final_x": "3667956.21453",
    "final_y": "528068.060095",
    "longitude": "-90.1109531448314",
    "latitude": "29.946408246641344",
    "geocoded_column": {
      "latitude": "29.946408246641344",
      "longitude": "-90.1109531448314"
    }
  },
  {
    "service_request": "2023-1053294",
    "request_type": "Roads/Drainage",
    "request_reason": "Street Subsidence (Sinking)",
    "date_created": "2023-12-02T13:56:57.000",
    "date_modified": "2023-12-02T13:56:57.000",
    "request_status": "Pending",
    "responsible_agency": "Department of Public Works",
    "final_address": "3326 Nashville Ave",
    "address_councildis": "A",
    "status": "Pending",
    "rowid": "1053294",
    "final_x": "3667956.21453",
    "final_y": "528068.060095",
    "longitude": "-90.1109531448314",
    "latitude": "29.946408246641344",
    "geocoded_column": {
      "latitude": "29.946408246641344",
      "longitude": "-90.1109531448314"
    }
  },
  {
    "service_request": "2023-1053293",
    "request_type": "Traffic Signals/Signs/Striping/Streetlights",
    "request_reason": "Traffic Signal Malfunctioning/Damaged",
    "date_created": "2023-12-02T13:33:37.000",
    "date_modified": "2023-12-02T13:33:37.000",
    "request_status": "Pending",
    "responsible_agency": "Department of Public Works",
    "final_address": "700 Canal St",
    "address_councildis": "B",
    "status": "Pending",
    "rowid": "1053293",
    "final_x": "3681088.32981",
    "final_y": "530625.904002",
    "longitude": "-90.06940136900302",
    "latitude": "29.95304971412305",
    "geocoded_column": {
      "latitude": "29.95304971412305",
      "longitude": "-90.06940136900302"
    }
  },
  {
    "service_request": "2023-1053292",
    "request_type": "Trash/Recycling",
    "request_reason": "Replace Recycling Cart",
    "date_created": "2023-12-02T13:32:26.000",
    "date_modified": "2023-12-02T13:32:26.000",
    "request_status": "Pending",
    "responsible_agency": "Department of Sanitation",
    "final_address": "8518 Spruce St",
    "address_councildis": "A",
    "status": "Pending",
    "rowid": "1053292",
    "final_x": "3662630.77402",
    "final_y": "531505.344067",
    "longitude": "-90.12765332459672",
    "latitude": "29.95601480954065",
    "geocoded_column": {
      "latitude": "29.95601480954065",
      "longitude": "-90.12765332459672"
    }
  },
  {
    "service_request": "2023-1053291",
    "request_type": "Roads/Drainage",
    "request_reason": "WaterMain Break",
    "date_created": "2023-12-02T13:29:28.000",
    "date_modified": "2023-12-02T13:29:28.000",
    "request_status": "Pending",
    "responsible_agency": "Department of Public Works",
    "final_address": "1ST ST & DRYADES ST",
    "address_councildis": "B",
    "status": "Pending",
    "rowid": "1053291",
    "final_x": "3676347.7",
    "final_y": "524125.38",
    "longitude": "-90.08459390801737",
    "latitude": "29.9353183560014",
    "geocoded_column": {
      "latitude": "29.9353183560014",
      "longitude": "-90.08459390801737"
    }
  },
  {
    "service_request": "2023-1053290",
    "request_type": "Roads/Drainage",
    "request_reason": "Pothole",
    "date_created": "2023-12-02T12:43:48.000",
    "date_modified": "2023-12-02T12:43:48.000",
    "request_status": "Pending",
    "responsible_agency": "Department of Public Works",
    "final_address": "5920 Camp St",
    "address_councildis": "A",
    "status": "Pending",
    "rowid": "1053290",
    "final_x": "3665036.98644",
    "final_y": "519412.865015",
    "longitude": "-90.12045947809368",
    "latitude": "29.922694518782095",
    "geocoded_column": {
      "latitude": "29.922694518782095",
      "longitude": "-90.12045947809368"
    }
  },
  {
    "service_request": "2023-1053289",
    "request_type": "Roads/Drainage",
    "request_reason": "Pothole",
    "date_created": "2023-12-02T12:39:58.000",
    "date_modified": "2023-12-02T12:39:58.000",
    "request_status": "Pending",
    "responsible_agency": "Department of Public Works",
    "final_address": "6115 Chestnut St",
    "address_councildis": "A",
    "status": "Pending",
    "rowid": "1053289",
    "final_x": "3664245.72404",
    "final_y": "520224.55916",
    "longitude": "-90.12293012427479",
    "latitude": "29.924949429705837",
    "geocoded_column": {
      "latitude": "29.924949429705837",
      "longitude": "-90.12293012427479"
    }
  },
  {
    "service_request": "2023-1053288",
    "request_type": "Trash/Recycling",
    "request_reason": "MIssed Recycling Pick-Up",
    "date_created": "2023-12-02T12:26:15.000",
    "date_modified": "2023-12-02T12:26:16.000",
    "request_status": "Pending",
    "responsible_agency": "Department of Sanitation",
    "final_address": "274 Audubon St",
    "address_councildis": "A",
    "status": "Assigned to Contractor",
    "contractor": "Richards Disposal",
    "rowid": "1053288",
    "final_x": "3661357.38381",
    "final_y": "521848.446586",
    "longitude": "-90.13199397618814",
    "latitude": "29.929498192229666",
    "geocoded_column": {
      "latitude": "29.929498192229666",
      "longitude": "-90.13199397618814"
    }
  },
  {
    "service_request": "2023-1053287",
    "request_type": "Mayor's Request",
    "request_reason": "Requests to the Mayor",
    "date_created": "2023-12-02T12:20:41.000",
    "date_modified": "2023-12-02T12:20:41.000",
    "request_status": "Pending",
    "responsible_agency": "Executive Office of the Mayor",
    "final_address": "CECIL ST & MONTICELLO AVE",
    "address_councildis": "A",
    "status": "Pending",
    "rowid": "1053287",
    "final_x": "3663393.0",
    "final_y": "537933.08",
    "longitude": "-90.12503243574116",
    "latitude": "29.973666900519298",
    "geocoded_column": {
      "latitude": "29.973666900519298",
      "longitude": "-90.12503243574116"
    }
  },
  {
    "service_request": "2023-1053286",
    "request_type": "Trash/Recycling",
    "request_reason": "Request a Large Item Pick Up",
    "date_created": "2023-12-02T12:08:22.000",
    "date_modified": "2023-12-02T12:08:22.000",
    "request_status": "Pending",
    "responsible_agency": "Department of Sanitation",
    "final_address": "422 Red Allen Way",
    "address_councildis": "C",
    "status": "Assigned to Contractor",
    "contractor": "Richards Disposal",
    "rowid": "1053286",
    "final_x": "3686715.76527",
    "final_y": "528745.300096",
    "longitude": "-90.05169884882461",
    "latitude": "29.947706813145032",
    "geocoded_column": {
      "latitude": "29.947706813145032",
      "longitude": "-90.05169884882461"
    }
  },
  {
    "service_request": "2023-1053285",
    "request_type": "Roads/Drainage",
    "request_reason": "Catch Basin - Clogged",
    "date_created": "2023-12-02T12:05:50.000",
    "date_modified": "2023-12-02T12:05:50.000",
    "request_status": "Pending",
    "responsible_agency": "Department of Public Works",
    "final_address": "6800 BLK Catina St",
    "address_councildis": "A",
    "status": "Pending",
    "rowid": "1053285",
    "final_x": "3667104.10014",
    "final_y": "553402.255844",
    "longitude": "-90.11279154129699",
    "latitude": "30.01609370079454",
    "geocoded_column": {
      "latitude": "30.01609370079454",
      "longitude": "-90.11279154129699"
    }
  },
  {
    "service_request": "2023-1053284",
    "request_type": "Trash/Recycling",
    "request_reason": "Missed Trash Pick-Up",
    "date_created": "2023-12-02T12:01:30.000",
    "date_modified": "2023-12-02T12:01:31.000",
    "request_status": "Pending",
    "responsible_agency": "Department of Sanitation",
    "final_address": "3118 Hamilton St",
    "address_councildis": "A",
    "status": "Assigned to Contractor",
    "contractor": "Richards Disposal",
    "rowid": "1053284",
    "final_x": "3664010.80244",
    "final_y": "535913.144903",
    "longitude": "-90.1231486503308",
    "latitude": "29.968094819180052",
    "geocoded_column": {
      "latitude": "29.968094819180052",
      "longitude": "-90.1231486503308"
    }
  },
  {
    "service_request": "2023-1053283",
    "request_type": "Trash/Recycling",
    "request_reason": "Missed Trash Pick-Up",
    "date_created": "2023-12-02T11:59:26.000",
    "date_modified": "2023-12-02T11:59:27.000",
    "request_status": "Pending",
    "responsible_agency": "Department of Sanitation",
    "final_address": "3122 Hamilton St",
    "address_councildis": "A",
    "status": "Assigned to Contractor",
    "contractor": "Richards Disposal",
    "rowid": "1053283",
    "final_x": "3664036.48359",
    "final_y": "535942.806919",
    "longitude": "-90.12306655849386",
    "latitude": "29.96817563412154",
    "geocoded_column": {
      "latitude": "29.96817563412154",
      "longitude": "-90.12306655849386"
    }
  },
  {
    "service_request": "2023-1053282",
    "request_type": "Abandoned Vehicles",
    "request_reason": "Abandoned/Junk Vehicles",
    "date_created": "2023-12-02T11:53:08.000",
    "date_modified": "2023-12-02T11:53:08.000",
    "request_status": "Pending",
    "responsible_agency": "Department of Public Works",
    "final_address": "4400 BLK Elysian Fields Ave",
    "address_councildis": "D",
    "status": "Pending",
    "rowid": "1053282",
    "final_x": "3684019.93606",
    "final_y": "549380.937771",
    "longitude": "-90.05948629425954",
    "latitude": "30.00453024212264",
    "geocoded_column": {
      "latitude": "30.00453024212264",
      "longitude": "-90.05948629425954"
    }
  },
  {
    "service_request": "2023-1053281",
    "request_type": "Abandoned Vehicles",
    "request_reason": "Abandoned/Junk Vehicles",
    "date_created": "2023-12-02T11:51:02.000",
    "date_modified": "2023-12-02T11:51:02.000",
    "request_status": "Pending",
    "responsible_agency": "Department of Public Works",
    "final_address": "4400 BLK Elysian Fields Ave",
    "address_councildis": "D",
    "status": "Pending",
    "rowid": "1053281",
    "final_x": "3684019.93606",
    "final_y": "549380.937771",
    "longitude": "-90.05948629425954",
    "latitude": "30.00453024212264",
    "geocoded_column": {
      "latitude": "30.00453024212264",
      "longitude": "-90.05948629425954"
    }
  },
  {
    "service_request": "2023-1053280",
    "request_type": "Trash/Recycling",
    "request_reason": "Missed Trash Pick-Up",
    "date_created": "2023-12-02T11:49:51.000",
    "date_modified": "2023-12-02T11:49:52.000",
    "request_status": "Pending",
    "responsible_agency": "Department of Sanitation",
    "final_address": "5616 N Dorgenois St",
    "address_councildis": "E",
    "status": "Assigned to Contractor",
    "contractor": "Waste Pro",
    "rowid": "1053280",
    "final_x": "3699599.06621",
    "final_y": "538901.431242",
    "longitude": "-90.01065129834431",
    "latitude": "29.97523003274961",
    "geocoded_column": {
      "latitude": "29.97523003274961",
      "longitude": "-90.01065129834431"
    }
  },
  {
    "service_request": "2023-1053279",
    "request_type": "Parks & Parkways",
    "request_reason": "Request Tree Service (Right of Way/Public Property)",
    "date_created": "2023-12-02T11:42:57.000",
    "date_modified": "2023-12-02T11:42:57.000",
    "request_status": "Pending",
    "responsible_agency": "Department of Parks & Parkway",
    "final_address": "2301 Leon C Simon Dr",
    "address_councildis": "D",
    "status": "Pending",
    "rowid": "1053279",
    "final_x": "3684175.97333",
    "final_y": "557075.185114",
    "longitude": "-90.05872295040048",
    "latitude": "30.025681837943758",
    "geocoded_column": {
      "latitude": "30.025681837943758",
      "longitude": "-90.05872295040048"
    }
  },
  {
    "service_request": "2023-1053276",
    "request_type": "Trash/Recycling",
    "request_reason": "Replace Trash Cart",
    "date_created": "2023-12-02T11:38:25.000",
    "date_modified": "2023-12-02T11:38:25.000",
    "request_status": "Pending",
    "responsible_agency": "Department of Sanitation",
    "final_address": "2401 DAbadie St",
    "address_councildis": "D",
    "status": "Assigned to Contractor",
    "contractor": "IV Waste",
    "rowid": "1053276",
    "final_x": "3680372.33192",
    "final_y": "540136.344011",
    "longitude": "-90.07133143497782",
    "latitude": "29.97922186592248",
    "geocoded_column": {
      "latitude": "29.97922186592248",
      "longitude": "-90.07133143497782"
    }
  },
  {
    "service_request": "2023-1053275",
    "request_type": "Property Maintenance",
    "request_reason": "Property Maintenance",
    "date_created": "2023-12-02T11:35:18.000",
    "date_modified": "2023-12-02T11:35:18.000",
    "request_status": "Pending",
    "responsible_agency": "Department of Code Enforcement",
    "final_address": "5547 Rosemary Pl",
    "address_councildis": "A",
    "status": "Pending",
    "rowid": "1053275",
    "final_x": "3667169.97492",
    "final_y": "544245.33403",
    "longitude": "-90.11289156042069",
    "latitude": "29.990913410791464",
    "geocoded_column": {
      "latitude": "29.990913410791464",
      "longitude": "-90.11289156042069"
    }
  },
  {
    "service_request": "2023-1053274",
    "request_type": "Traffic Signals/Signs/Striping/Streetlights",
    "request_reason": "Street Light Outage/Malfunction",
    "date_created": "2023-12-02T11:31:07.000",
    "date_modified": "2023-12-02T11:31:08.000",
    "request_status": "Pending",
    "responsible_agency": "Department of Public Works",
    "final_address": "826 France St",
    "address_councildis": "C",
    "status": "Assigned to Contractor",
    "contractor": "Legacy Professional Services",
    "rowid": "1053274",
    "final_x": "3692131.51382",
    "final_y": "534246.901317",
    "longitude": "-90.03440235276504",
    "latitude": "29.962666628275233",
    "geocoded_column": {
      "latitude": "29.962666628275233",
      "longitude": "-90.03440235276504"
    }
  },
  {
    "service_request": "2023-1053273",
    "request_type": "Trash/Recycling",
    "request_reason": "Request a Large Item Pick Up",
    "date_created": "2023-12-02T11:15:48.000",
    "date_modified": "2023-12-02T11:15:49.000",
    "request_status": "Pending",
    "responsible_agency": "Department of Sanitation",
    "final_address": "19 Marywood Ct",
    "address_councildis": "E",
    "status": "Assigned to Contractor",
    "contractor": "Waste Pro",
    "rowid": "1053273",
    "final_x": "3712630.72555",
    "final_y": "566686.179555",
    "longitude": "-89.96844904756047",
    "latitude": "30.051207198312422",
    "geocoded_column": {
      "latitude": "30.051207198312422",
      "longitude": "-89.96844904756047"
    }
  },
  {
    "service_request": "2023-1053272",
    "request_type": "Roads/Drainage",
    "request_reason": "Catch Basin - Clogged",
    "date_created": "2023-12-02T11:14:37.000",
    "date_modified": "2023-12-02T11:14:37.000",
    "request_status": "Pending",
    "responsible_agency": "Department of Public Works",
    "final_address": "945 Picheloup Pl",
    "address_councildis": "A",
    "status": "Pending",
    "rowid": "1053272",
    "final_x": "3673585.2731",
    "final_y": "540616.031243",
    "longitude": "-90.09275125235061",
    "latitude": "29.980744635638988",
    "geocoded_column": {
      "latitude": "29.980744635638988",
      "longitude": "-90.09275125235061"
    }
  },
  {
    "service_request": "2023-1053271",
    "request_type": "Traffic Signals/Signs/Striping/Streetlights",
    "request_reason": "Street Light Outage/Malfunction",
    "date_created": "2023-12-02T11:10:54.000",
    "date_modified": "2023-12-02T11:10:55.000",
    "request_status": "Pending",
    "responsible_agency": "Department of Public Works",
    "final_address": "1820 Sophie Wright Pl",
    "address_councildis": "B",
    "status": "Assigned to Contractor",
    "contractor": "Legacy Professional Services",
    "rowid": "1053271",
    "final_x": "3679667.25282",
    "final_y": "523207.660987",
    "longitude": "-90.07414591423982",
    "latitude": "29.93269504006671",
    "geocoded_column": {
      "latitude": "29.93269504006671",
      "longitude": "-90.07414591423982"
    }
  },