[
  {
    "service_request": "2025-1231893",
    "request_type": "Streetlights",
    "request_reason": "Streetlight Outage/Malfunction",
    "date_created": "2025-10-07T23:44:12.000",
    "date_modified": "2025-10-07T23:44:14.000",
    "request_status": "Pending",
    "responsible_agency": "Department of Public Works",
    "final_address": "1922 Moss St",
    "address_councildis": "D",
    "status": "Pending",
    "rowid": "1231893",
    "final_x": "3675501.31054",
    "final_y": "543914.596238",
    "longitude": "-90.08658620032703",
    "latitude": "29.989757368883478",
    "geocoded_column": {
      "latitude": "29.989757368883478",
      "longitude": "-90.08658620032703"
    }
  },
  {
    "service_request": "2025-1231892",
    "request_type": "Roads and Streets",
    "request_reason": "Pothole",
    "date_created": "2025-10-07T23:09:47.000",
    "date_modified": "2025-10-07T23:09:52.000",
    "request_status": "Pending",
    "responsible_agency": "Department of Public Works",
    "final_address": "N CARROLLTON AVE & ORLEANS AVE",
    "address_councildis": "A",
    "status": "Pending",
    "rowid": "1231892",
    "final_x": "3672713.3",
    "final_y": "540029.38",
    "longitude": "-90.09552534779168",
    "latitude": "29.979157474888535",
    "geocoded_column": {
      "latitude": "29.979157474888535",
      "longitude": "-90.09552534779168"
    }
  },
  {
    "service_request": "2025-1231891",
    "request_type": "Streetlights",
    "request_reason": "Streetlight Outage/Malfunction",
    "date_created": "2025-10-07T23:07:50.000",
    "date_modified": "2025-10-07T23:07:52.000",
    "request_status": "Pending",
    "responsible_agency": "Department of Public Works",
    "final_address": "1 Maurepas St",
    "address_councildis": "A",
    "status": "Pending",
    "rowid": "1231891",
    "final_x": "3676340.52885",
    "final_y": "540792.917387",
    "longitude": "-90.08404284634338",
    "latitude": "29.981148699784015",
    "geocoded_column": {
      "latitude": "29.981148699784015",
      "longitude": "-90.08404284634338"
    }
  },
  {
    "service_request": "2025-1231890",
    "request_type": "Trash/Recycling",
    "request_reason": "Replace Trash Cart",
    "date_created": "2025-10-07T22:10:04.000",
    "date_modified": "2025-10-07T22:10:06.000",
    "request_status": "Pending",
    "responsible_agency": "Department of Sanitation",
    "final_address": "8407 Panola St",
    "address_councildis": "A",
    "status": "Assigned to Contractor",
    "contractor": "IV Waste",
    "rowid": "1231890",
    "final_x": "3663248.46803",
    "final_y": "531527.940035",
    "longitude": "-90.12570209798855",
    "latitude": "29.956059055151336",
    "geocoded_column": {
      "latitude": "29.956059055151336",
      "longitude": "-90.12570209798855"
    }
  },
  {
    "service_request": "2025-1231889",
    "request_type": "Mosquito, Termite & Rodent Control",
    "request_reason": "Rodent Complaint (Mice & Rats)",
    "date_created": "2025-10-07T21:57:15.000",
    "date_modified": "2025-10-07T21:57:17.000",
    "request_status": "Pending",
    "responsible_agency": "Mosquito, Termite & Rodent Control Board",
    "final_address": "2011 Mandeville St",
    "address_councildis": "D",
    "status": "Pending",
    "rowid": "1231889",
    "final_x": "3685539.88566",
    "final_y": "539784.770762",
    "longitude": "-90.05502270002026",
    "latitude": "29.978097656781475",
    "geocoded_column": {
      "latitude": "29.978097656781475",
      "longitude": "-90.05502270002026"
    }
  },
  {
    "service_request": "2025-1231888",
    "request_type": "Streetlights",
    "request_reason": "Streetlight Outage/Malfunction",
    "date_created": "2025-10-07T21:50:48.000",
    "date_modified": "2025-10-07T21:50:50.000",
    "request_status": "Pending",
    "responsible_agency": "Department of Public Works",
    "final_address": "76 Versailles Blvd",
    "address_councildis": "B",
    "status": "Pending",
    "rowid": "1231888",
    "final_x": "3667859.38644",
    "final_y": "530665.146434",
    "longitude": "-90.11117140524786",
    "latitude": "29.953552227979444",
    "geocoded_column": {
      "latitude": "29.953552227979444",
      "longitude": "-90.11117140524786"
    }
  },
  {
    "service_request": "2025-1231887",
    "request_type": "Drainage",
    "request_reason": "Ditch and Culvert Maintenance",
    "date_created": "2025-10-07T21:44:53.000",
    "date_modified": "2025-10-07T21:44:55.000",
    "request_status": "Pending",
    "responsible_agency": "Department of Public Works",
    "final_address": "2407 St Anthony St",
    "address_councildis": "D",
    "status": "Pending",
    "rowid": "1231887",
    "final_x": "3683207.45288",
    "final_y": "541052.936524",
    "longitude": "-90.0623449145158",
    "latitude": "29.981656010734717",
    "geocoded_column": {
      "latitude": "29.981656010734717",
      "longitude": "-90.0623449145158"
    }
  },
  {
    "service_request": "2025-1231886",
    "request_type": "Trash/Recycling",
    "request_reason": "Request a Large Item Pick Up",
    "date_created": "2025-10-07T21:43:24.000",
    "date_modified": "2025-10-07T21:43:26.000",
    "request_status": "Pending",
    "responsible_agency": "Department of Sanitation",
    "final_address": "1424 St Bernard Ave",
    "address_councildis": "C",
    "status": "Assigned to Contractor",
    "contractor": "IV Waste",
    "rowid": "1231886",
    "final_x": "3682435.906",
    "final_y": "537287.62708",
    "longitude": "-90.06491346666846",
    "latitude": "29.971326229854228",
    "geocoded_column": {
      "latitude": "29.971326229854228",
      "longitude": "-90.06491346666846"
    }
  },
  {
    "service_request": "2025-1231885",
    "request_type": "Abandoned Vehicles",
    "request_reason": "Abandoned/Junk Vehicles",
    "date_created": "2025-10-07T21:38:59.000",
    "date_modified": "2025-10-07T21:39:01.000",
    "request_status": "Pending",
    "responsible_agency": "Department of Public Works",
    "final_address": "2424 St Anthony St",
    "address_councildis": "D",
    "status": "Pending",
    "rowid": "1231885",
    "final_x": "3683076.21538",
    "final_y": "541177.322188",
    "longitude": "-90.0627550670922",
    "latitude": "29.98200202972494",
    "geocoded_column": {
      "latitude": "29.98200202972494",
      "longitude": "-90.0627550670922"
    }
  },
  {
    "service_request": "2025-1231884",
    "request_type": "Trash/Recycling",
    "request_reason": "Repair Recycling Cart",
    "date_created": "2025-10-07T21:35:51.000",
    "date_modified": "2025-10-07T21:35:53.000",
    "request_status": "Pending",
    "responsible_agency": "Department of Sanitation",
    "final_address": "1510 Arabella St",
    "address_councildis": "A",
    "status": "Pending",
    "rowid": "1231884",
    "final_x": "3666394.93261",
    "final_y": "521694.076217",
    "longitude": "-90.11609647000488",
    "latitude": "29.928927536071132",
    "geocoded_column": {
      "latitude": "29.928927536071132",
      "longitude": "-90.11609647000488"
    }
  },
  {
    "service_request": "2025-1231883",
    "request_type": "Streetlights",
    "request_reason": "Streetlight Outage/Malfunction",
    "date_created": "2025-10-07T21:06:44.000",
    "date_modified": "2025-10-07T21:06:46.000",
    "request_status": "Pending",
    "responsible_agency": "Department of Public Works",
    "final_address": "1950 Moss St",
    "address_councildis": "D",
    "status": "Pending",
    "rowid": "1231883",
    "final_x": "3675511.27771",
    "final_y": "544112.467406",
    "longitude": "-90.0865479159185",
    "latitude": "29.99030114756687",
    "geocoded_column": {
      "latitude": "29.99030114756687",
      "longitude": "-90.0865479159185"
    }
  },
  {
    "service_request": "2025-1231882",
    "request_type": "Streetlights",
    "request_reason": "Streetlight Outage/Malfunction",
    "date_created": "2025-10-07T20:54:54.000",
    "date_modified": "2025-10-07T20:54:57.000",
    "request_status": "Pending",
    "responsible_agency": "Department of Public Works",
    "final_address": "7465 Hurst St",
    "address_councildis": "A",
    "status": "Pending",
    "rowid": "1231882",
    "final_x": "3661320.3047",
    "final_y": "524261.00646",
    "longitude": "-90.13203118218975",
    "latitude": "29.93613304285306",
    "geocoded_column": {
      "latitude": "29.93613304285306",
      "longitude": "-90.13203118218975"
    }
  },
  {
    "service_request": "2025-1231881",
    "request_type": "Trash/Recycling",
    "request_reason": "Request a Large Item Pick Up",
    "date_created": "2025-10-07T20:47:54.000",
    "date_modified": "2025-10-07T20:47:56.000",
    "request_status": "Pending",
    "responsible_agency": "Department of Sanitation",
    "final_address": "4921 Francisco Verrett Dr",
    "address_councildis": "E",
    "status": "Assigned to Contractor",
    "contractor": "Waste Pro",
    "rowid": "1231881",
    "final_x": "3704171.79652",
    "final_y": "556081.941914",
    "longitude": "-89.99557603486274",
    "latitude": "30.022324045376664",
    "geocoded_column": {
      "latitude": "30.022324045376664",
      "longitude": "-89.99557603486274"
    }
  },
  {
    "service_request": "2025-1231880",
    "request_type": "Streetlights",
    "request_reason": "Streetlight Outage/Malfunction",
    "date_created": "2025-10-07T20:41:04.000",
    "date_modified": "2025-10-07T20:41:06.000",
    "request_status": "Pending",
    "responsible_agency": "Department of Public Works",
    "final_address": "3301 Timber Ridge Ct",
    "address_councildis": "C",
    "status": "Pending",
    "rowid": "1231880",
    "final_x": "3704107.92535",
    "final_y": "511742.657264",
    "longitude": "-89.99741127147867",
    "latitude": "29.90040908353209",
    "geocoded_column": {
      "latitude": "29.90040908353209",
      "longitude": "-89.99741127147867"
    }
  },
  {
    "service_request": "2025-1231879",
    "request_type": "General Services",
    "request_reason": "General Service Request",
    "date_created": "2025-10-07T19:55:47.000",
    "date_modified": "2025-10-07T19:55:48.000",
    "request_status": "Pending",
    "responsible_agency": "Orleans Parish Communication District",
    "final_address": "3200 BLK Paris Ave",
    "address_councildis": "D",
    "status": "Pending",
    "rowid": "1231879",
    "final_x": "3679818.98711",
    "final_y": "544281.94272",
    "longitude": "-90.07293508916793",
    "latitude": "29.99063756010379",
    "geocoded_column": {
      "latitude": "29.99063756010379",
      "longitude": "-90.07293508916793"
    }
  },
  {
    "service_request": "2025-1231878",
    "request_type": "Streetlights",
    "request_reason": "Streetlight Outage/Malfunction",
    "date_created": "2025-10-07T19:55:35.000",
    "date_modified": "2025-10-07T19:55:38.000",
    "request_status": "Pending",
    "responsible_agency": "Department of Public Works",
    "final_address": "3400 Robert St",
    "address_councildis": "B",
    "status": "Pending",
    "rowid": "1231878",
    "final_x": "3668897.3467",
    "final_y": "527326.659327",
    "longitude": "-90.10800668227216",
    "latitude": "29.944341995209946",
    "geocoded_column": {
      "latitude": "29.944341995209946",
      "longitude": "-90.10800668227216"
    }
  },
  {
    "service_request": "2025-1231877",
    "request_type": "General Services",
    "request_reason": "General Service Request",
    "date_created": "2025-10-07T19:47:48.000",
    "date_modified": "2025-10-07T19:47:51.000",
    "request_status": "Pending",
    "responsible_agency": "Orleans Parish Communication District",
    "final_address": "1500 BLK Pleasure St",
    "address_councildis": "D",
    "status": "Pending",
    "rowid": "1231877",
    "final_x": "3679502.47495",
    "final_y": "544780.962391",
    "longitude": "-90.0739175473678",
    "latitude": "29.992019257973617",
    "geocoded_column": {
      "latitude": "29.992019257973617",
      "longitude": "-90.0739175473678"
    }
  },
  {
    "service_request": "2025-1231876",
    "request_type": "Property Maintenance",
    "request_reason": "Property Maintenance",
    "date_created": "2025-10-07T19:37:42.000",
    "date_modified": "2025-10-07T19:37:44.000",
    "request_status": "Pending",
    "responsible_agency": "Department of Code Enforcement",
    "final_address": "5800 Winchester Park Dr",
    "address_councildis": "E",
    "status": "Pending",
    "rowid": "1231876",
    "final_x": "3715205.82456",
    "final_y": "562073.763487",
    "longitude": "-89.96048476335083",
    "latitude": "30.03844033509644",
    "geocoded_column": {
      "latitude": "30.03844033509644",
      "longitude": "-89.96048476335083"
    }
  },
  {
    "service_request": "2025-1231875",
    "request_type": "Trash/Recycling",
    "request_reason": "Request a Large Item Pick Up",
    "date_created": "2025-10-07T19:34:39.000",
    "date_modified": "2025-10-07T19:34:41.000",
    "request_status": "Pending",
    "responsible_agency": "Department of Sanitation",
    "final_address": "4217 Tchoupitoulas St",
    "address_councildis": "B",
    "status": "Assigned to Contractor",
    "contractor": "IV Waste",
    "rowid": "1231875",
    "final_x": "3671796.50823",
    "final_y": "517566.214326",
    "longitude": "-90.09918509179559",
    "latitude": "29.91741834758617",
    "geocoded_column": {
      "latitude": "29.91741834758617",
      "longitude": "-90.09918509179559"
    }
  },
  {
    "service_request": "2025-1231874",
    "request_type": "Safety & Permits",
    "request_reason": "Construction permit",
    "date_created": "2025-10-07T19:23:09.000",
    "date_modified": "2025-10-07T19:23:11.000",
    "request_status": "Pending",
    "responsible_agency": "Safety and Permits",
    "final_address": "2212 Governor Nicholls St",
    "address_councildis": "D",
    "status": "Pending",
    "rowid": "1231874",
    "final_x": "3679326.51451",
    "final_y": "537183.334728",
    "longitude": "-90.07473698050525",
    "latitude": "29.9711337392553",
    "geocoded_column": {
      "latitude": "29.9711337392553",
      "longitude": "-90.07473698050525"
    }
  },
  {
    "service_request": "2025-1231873",
    "request_type": "Trash/Recycling",
    "request_reason": "Request a Large Item Pick Up",
    "date_created": "2025-10-07T19:19:37.000",
    "date_modified": "2025-10-07T19:19:39.000",
    "request_status": "Pending",
    "responsible_agency": "Department of Sanitation",
    "final_address": "7651 Michigan St",
    "address_councildis": "E",
    "status": "Assigned to Contractor",
    "contractor": "Waste Pro",
    "rowid": "1231873",
    "final_x": "3711715.68536",
    "final_y": "566672.276259",
    "longitude": "-89.97134168144463",
    "latitude": "30.05119890791",
    "geocoded_column": {
      "latitude": "30.05119890791",
      "longitude": "-89.97134168144463"
    }
  },
  {
    "service_request": "2025-1231872",
    "request_type": "Trash/Recycling",
    "request_reason": "Request a Large Item Pick Up",
    "date_created": "2025-10-07T19:11:18.000",
    "date_modified": "2025-10-07T19:11:20.000",
    "request_status": "Pending",
    "responsible_agency": "Department of Sanitation",
    "final_address": "4900 Painters St",
    "address_councildis": "D",
    "status": "Assigned to Contractor",
    "contractor": "IV Waste",
    "rowid": "1231872",
    "final_x": "3686119.74831",
    "final_y": "550926.893589",
    "longitude": "-90.05279801702622",
    "latitude": "30.008716703914462",
    "geocoded_column": {
      "latitude": "30.008716703914462",
      "longitude": "-90.05279801702622"
    }
  },
  {
    "service_request": "2025-1231871",
    "request_type": "Trash/Recycling",
    "request_reason": "Request a Large Item Pick Up",
    "date_created": "2025-10-07T19:03:37.000",
    "date_modified": "2025-10-07T19:03:39.000",
    "request_status": "Pending",
    "responsible_agency": "Department of Sanitation",
    "final_address": "6235 Brunswick Ct",
    "address_councildis": "C",
    "status": "Assigned to Contractor",
    "contractor": "Richards Disposal",
    "rowid": "1231871",
    "final_x": "3707187.23064",
    "final_y": "516995.620405",
    "longitude": "-89.98749867135967",
    "latitude": "29.9147538501564",
    "geocoded_column": {
      "latitude": "29.9147538501564",
      "longitude": "-89.98749867135967"
    }
  },
  {
    "service_request": "2025-1231870",
    "request_type": "Abandoned Vehicles",
    "request_reason": "Abandoned/Junk Vehicles",
    "date_created": "2025-10-07T18:57:21.000",
    "date_modified": "2025-10-07T18:57:23.000",
    "request_status": "Pending",
    "responsible_agency": "Department of Public Works",
    "final_address": "1422 Japonica St Apt 1B",
    "address_councildis": "D",
    "status": "Pending",
    "rowid": "1231870",
    "final_x": "3693978.95555",
    "final_y": "536133.434567",
    "longitude": "-90.0285005640505",
    "latitude": "29.967796213378357",
    "geocoded_column": {
      "latitude": "29.967796213378357",
      "longitude": "-90.0285005640505"
    }
  },
  {
    "service_request": "2025-1231869",
    "request_type": "Trash/Recycling",
    "request_reason": "Order Trash Cart",
    "date_created": "2025-10-07T18:57:03.000",
    "date_modified": "2025-10-07T18:57:06.000",
    "request_status": "Pending",
    "responsible_agency": "Department of Sanitation",
    "final_address": "2218 Jena St",
    "address_councildis": "B",
    "status": "Assigned to Contractor",
    "contractor": "IV Waste",
    "rowid": "1231869",
    "final_x": "3670182.28462",
    "final_y": "523119.185915",
    "longitude": "-90.10409226456024",
    "latitude": "29.93273495886746",
    "geocoded_column": {
      "latitude": "29.93273495886746",
      "longitude": "-90.10409226456024"
    }
  },
  {
    "service_request": "2025-1231868",
    "request_type": "Abandoned Vehicles",
    "request_reason": "Abandoned/Junk Vehicles",
    "date_created": "2025-10-07T18:56:18.000",
    "date_modified": "2025-10-07T18:56:20.000",
    "request_status": "Pending",
    "responsible_agency": "Department of Public Works",
    "final_address": "2207 Octavia St",
    "address_councildis": "A",
    "status": "Pending",
    "rowid": "1231868",
    "final_x": "3667579.41978",
    "final_y": "523798.566203",
    "longitude": "-90.11228647360097",
    "latitude": "29.934679560554073",
    "geocoded_column": {
      "latitude": "29.934679560554073",
      "longitude": "-90.11228647360097"
    }
  },
  {
    "service_request": "2025-1231867",
    "request_type": "Trash/Recycling",
    "request_reason": "Replace Trash Cart",
    "date_created": "2025-10-07T18:51:36.000",
    "date_modified": "2025-10-07T18:51:38.000",
    "request_status": "Pending",
    "responsible_agency": "Department of Sanitation",
    "final_address": "3706 Carondelet St",
    "address_councildis": "B",
    "status": "Assigned to Contractor",
    "contractor": "IV Waste",
    "rowid": "1231867",
    "final_x": "3672944.28769",
    "final_y": "521472.880121",
    "longitude": "-90.0954289740758",
    "latitude": "29.92812638630955",
    "geocoded_column": {
      "latitude": "29.92812638630955",
      "longitude": "-90.0954289740758"
    }
  },
  {
    "service_request": "2025-1231866",
    "request_type": "Trash/Recycling",
    "request_reason": "Replace Trash Cart",
    "date_created": "2025-10-07T18:32:33.000",
    "date_modified": "2025-10-07T18:32:35.000",
    "request_status": "Pending",
    "responsible_agency": "Department of Sanitation",
    "final_address": "2626 Upperline St",
    "address_councildis": "B",
    "status": "Assigned to Contractor",
    "contractor": "IV Waste",
    "rowid": "1231866",
    "final_x": "3669145.60762",
    "final_y": "524487.119932",
    "longitude": "-90.10731877438275",
    "latitude": "29.93652687746799",
    "geocoded_column": {
      "latitude": "29.93652687746799",
      "longitude": "-90.10731877438275"
    }
  },
  {
    "service_request": "2025-1231865",
    "request_type": "Abandoned Vehicles",
    "request_reason": "Abandoned/Junk Vehicles",
    "date_created": "2025-10-07T18:31:22.000",
    "date_modified": "2025-10-07T18:31:24.000",
    "request_status": "Pending",
    "responsible_agency": "Department of Public Works",
    "final_address": "7130 Yorktown Dr",
    "address_councildis": "E",
    "status": "Pending",
    "rowid": "1231865",
    "final_x": "3705909.29284",
    "final_y": "560987.034782",
    "longitude": "-89.98990430197051",
    "latitude": "30.03575524384151",
    "geocoded_column": {
      "latitude": "30.03575524384151",
      "longitude": "-89.98990430197051"
    }
  },
  {
    "service_request": "2025-1231864",
    "request_type": "General Services",
    "request_reason": "General Service Request",
    "date_created": "2025-10-07T18:31:11.000",
    "date_modified": "2025-10-07T18:31:13.000",
    "request_status": "Pending",
    "responsible_agency": "Orleans Parish Communication District",
    "final_address": "Poland Ave and St Claude Ave",
    "status": "Pending",
    "rowid": "1231864",
    "longitude": "0.0",
    "latitude": "0.0",
    "geocoded_column": {
      "latitude": "0.0",
      "longitude": "0.0"
    }
  },
  {
    "service_request": "2025-1231863",
    "request_type": "Parks & Parkways",
    "request_reason": "Request Tree Service (Right of Way/Public Property)",
    "date_created": "2025-10-07T18:24:24.000",
    "date_modified": "2025-10-07T18:24:25.000",
    "request_status": "Pending",
    "responsible_agency": "Department of Parks & Parkway",
    "final_address": "5632 Elysian Fields Ave",
    "address_councildis": "D",
    "status": "Pending",
    "rowid": "1231863",
    "final_x": "3683446.04124",
    "final_y": "553635.688599",
    "longitude": "-90.06115009926017",
    "latitude": "30.01624679272331",
    "geocoded_column": {
      "latitude": "30.01624679272331",
      "longitude": "-90.06115009926017"
    }
  },
  {
    "service_request": "2025-1231862",
    "request_type": "Streetlights",
    "request_reason": "Streetlight Outage/Malfunction",
    "date_created": "2025-10-07T18:12:47.000",
    "date_modified": "2025-10-07T18:12:49.000",
    "request_status": "Pending",
    "responsible_agency": "Department of Public Works",
    "final_address": "5632 Elysian Fields Ave",
    "address_councildis": "D",
    "status": "Pending",
    "rowid": "1231862",
    "final_x": "3683446.04124",
    "final_y": "553635.688599",
    "longitude": "-90.06115009926017",
    "latitude": "30.01624679272331",
    "geocoded_column": {
      "latitude": "30.01624679272331",
      "longitude": "-90.06115009926017"
    }
  },
  {
    "service_request": "2025-1231861",
    "request_type": "Trash/Recycling",
    "request_reason": "Request a Large Item Pick Up",
    "date_created": "2025-10-07T17:50:35.000",
    "date_modified": "2025-10-07T17:50:37.000",
    "request_status": "Pending",
    "responsible_agency": "Department of Sanitation",
    "final_address": "446 Thayer St",
    "address_councildis": "C",
    "status": "Assigned to Contractor",
    "contractor": "Richards Disposal",
    "rowid": "1231861",
    "final_x": "3689571.77667",
    "final_y": "529884.353921",
    "longitude": "-90.04264081491961",
    "latitude": "29.950750673486013",
    "geocoded_column": {
      "latitude": "29.950750673486013",
      "longitude": "-90.04264081491961"
    }
  },
  {
    "service_request": "2025-1231860",
    "request_type": "Drainage",
    "request_reason": "Illegal Dumping (Sewer Odor)",
    "date_created": "2025-10-07T17:49:03.000",
    "date_modified": "2025-10-07T17:49:05.000",
    "request_status": "Pending",
    "responsible_agency": "Sewerage & Water Board",
    "final_address": "2118 Robert St",
    "address_councildis": "B",
    "status": "Pending",
    "rowid": "1231860",
    "final_x": "3668750.5193",
    "final_y": "523393.269435",
    "longitude": "-90.1086029987522",
    "latitude": "29.933530757489702",
    "geocoded_column": {
      "latitude": "29.933530757489702",
      "longitude": "-90.1086029987522"
    }
  },
  {
    "service_request": "2025-1231859",
    "request_type": "Trash/Recycling",
    "request_reason": "Missed Trash Pick-Up",
    "date_created": "2025-10-07T17:47:51.000",
    "date_modified": "2025-10-07T17:47:52.000",
    "request_status": "Pending",
    "responsible_agency": "Department of Sanitation",
    "final_address": "444 Leboeuf St",
    "address_councildis": "C",
    "status": "Assigned to Contractor",
    "contractor": "Richards Disposal",
    "rowid": "1231859",
    "final_x": "3689891.23638",
    "final_y": "529893.833857",
    "longitude": "-90.04163179002695",
    "latitude": "29.950766841676007",
    "geocoded_column": {
      "latitude": "29.950766841676007",
      "longitude": "-90.04163179002695"
    }
  },
  {
    "service_request": "2025-1231858",
    "request_type": "Abandoned Vehicles",
    "request_reason": "Abandoned/Junk Vehicles",
    "date_created": "2025-10-07T17:41:05.000",
    "date_modified": "2025-10-07T17:41:07.000",
    "request_status": "Pending",
    "responsible_agency": "Department of Public Works",
    "final_address": "4301 Downman Rd",
    "address_councildis": "D",
    "status": "Pending",
    "rowid": "1231858",
    "final_x": "3696178.34186",
    "final_y": "552893.369303",
    "longitude": "-90.02094866260286",
    "latitude": "30.01381085442368",
    "geocoded_column": {
      "latitude": "30.01381085442368",
      "longitude": "-90.02094866260286"
    }
  },
  {
    "service_request": "2025-1231857",
    "request_type": "Trash/Recycling",
    "request_reason": "MIssed Recycling Pick-Up",
    "date_created": "2025-10-07T17:38:46.000",
    "date_modified": "2025-10-07T17:38:48.000",
    "request_status": "Pending",
    "responsible_agency": "Department of Sanitation",
    "final_address": "928 Burgundy St",
    "address_councildis": "C",
    "status": "Assigned to Contractor",
    "contractor": "IV Waste",
    "rowid": "1231857",
    "final_x": "3682303.54882",
    "final_y": "533871.850629",
    "longitude": "-90.06545083353141",
    "latitude": "29.961938047943615",
    "geocoded_column": {
      "latitude": "29.961938047943615",
      "longitude": "-90.06545083353141"
    }
  },
  {
    "service_request": "2025-1231856",
    "request_type": "Trash/Recycling",
    "request_reason": "Request a Large Item Pick Up",
    "date_created": "2025-10-07T17:19:49.000",
    "date_modified": "2025-10-07T17:19:50.000",
    "request_status": "Pending",
    "responsible_agency": "Department of Sanitation",
    "final_address": "5470 Stillwater Dr",
    "address_councildis": "E",
    "status": "Assigned to Contractor",
    "contractor": "Waste Pro",
    "rowid": "1231856",
    "final_x": "3716601.62776",
    "final_y": "560582.610014",
    "longitude": "-89.956130344825",
    "latitude": "30.034294208137506",
    "geocoded_column": {
      "latitude": "30.034294208137506",
      "longitude": "-89.956130344825"
    }
  },
  {
    "service_request": "2025-1231855",
    "request_type": "Trash/Recycling",
    "request_reason": "Order Recycling Cart",
    "date_created": "2025-10-07T17:16:25.000",
    "date_modified": "2025-10-07T17:16:26.000",
    "request_status": "Pending",
    "responsible_agency": "Department of Sanitation",
    "final_address": "1711 Palmer Ave",
    "address_councildis": "A",
    "status": "Pending",
    "rowid": "1231855",
    "final_x": "3665549.53837",
    "final_y": "523400.087227",
    "longitude": "-90.11870813256529",
    "latitude": "29.933643192526734",
    "geocoded_column": {
      "latitude": "29.933643192526734",
      "longitude": "-90.11870813256529"
    }
  },
  {
    "service_request": "2025-1231854",
    "request_type": "Abandoned Vehicles",
    "request_reason": "Abandoned/Junk Vehicles",
    "date_created": "2025-10-07T17:10:24.000",
    "date_modified": "2025-10-07T17:10:26.000",
    "request_status": "Pending",
    "responsible_agency": "Department of Public Works",
    "final_address": "1746 L. B. Landry Ave",
    "address_councildis": "C",
    "status": "Pending",
    "rowid": "1231854",
    "final_x": "3690090.4632",
    "final_y": "524556.942204",
    "longitude": "-90.04119276246314",
    "latitude": "29.936086036808078",
    "geocoded_column": {
      "latitude": "29.936086036808078",
      "longitude": "-90.04119276246314"
    }
  },
  {
    "service_request": "2025-1231853",
    "request_type": "Trash/Recycling",
    "request_reason": "Replace Trash Cart",
    "date_created": "2025-10-07T17:06:44.000",
    "date_modified": "2025-10-07T17:06:46.000",
    "request_status": "Pending",
    "responsible_agency": "Department of Sanitation",
    "final_address": "6421 Perlita Dr",
    "address_councildis": "D",
    "status": "Assigned to Contractor",
    "contractor": "IV Waste",
    "rowid": "1231853",
    "final_x": "3677748.6267",
    "final_y": "556817.452762",
    "longitude": "-90.07904140421172",
    "latitude": "30.02516819106918",
    "geocoded_column": {
      "latitude": "30.02516819106918",
      "longitude": "-90.07904140421172"
    }
  },
  {
    "service_request": "2025-1231852",
    "request_type": "Safety & Permits",
    "request_reason": "Zoning Enforcement",
    "date_created": "2025-10-07T16:57:22.000",
    "date_modified": "2025-10-07T16:57:23.000",
    "request_status": "Pending",
    "responsible_agency": "Safety and Permits",
    "final_address": "1850 Moss St",
    "address_councildis": "A",
    "status": "Pending",
    "rowid": "1231852",
    "final_x": "3675404.20853",
    "final_y": "543552.772814",
    "longitude": "-90.08690535146648",
    "latitude": "29.98876538491296",
    "geocoded_column": {
      "latitude": "29.98876538491296",
      "longitude": "-90.08690535146648"
    }
  },
  {
    "service_request": "2025-1231851",
    "request_type": "Abandoned Vehicles",
    "request_reason": "Abandoned/Junk Vehicles",
    "date_created": "2025-10-07T16:50:24.000",
    "date_modified": "2025-10-07T16:51:34.000",
    "request_status": "Pending",
    "responsible_agency": "Department of Public Works",
    "final_address": "4534 Toulouse St",
    "address_councildis": "A",
    "status": "Pending",
    "rowid": "1231851",
    "final_x": "3670555.80615",
    "final_y": "540958.106443",
    "longitude": "-90.10230805626439",
    "latitude": "29.981775065636025",
    "geocoded_column": {
      "latitude": "29.981775065636025",
      "longitude": "-90.10230805626439"
    }
  },
  {
    "service_request": "2025-1231850",
    "request_type": "Trash/Recycling",
    "request_reason": "Repair Trash Cart",
    "date_created": "2025-10-07T16:49:58.000",
    "date_modified": "2025-10-07T16:50:00.000",
    "request_status": "Pending",
    "responsible_agency": "Department of Sanitation",
    "final_address": "6506 Milne Blvd",
    "address_councildis": "A",
    "status": "Assigned to Contractor",
    "contractor": "IV Waste",
    "rowid": "1231850",
    "final_x": "3667259.15514",
    "final_y": "550892.062613",
    "longitude": "-90.1123861439579",
    "latitude": "30.009187007262103",
    "geocoded_column": {
      "latitude": "30.009187007262103",
      "longitude": "-90.1123861439579"
    }
  },
  {
    "service_request": "2025-1231849",
    "request_type": "Trash/Recycling",
    "request_reason": "Request a Large Item Pick Up",
    "date_created": "2025-10-07T16:46:33.000",
    "date_modified": "2025-10-07T16:46:35.000",
    "request_status": "Pending",
    "responsible_agency": "Department of Sanitation",
    "final_address": "2741 Dreux Ave",
    "address_councildis": "D",
    "status": "Assigned to Contractor",
    "contractor": "IV Waste",
    "rowid": "1231849",
    "final_x": "3687669.92598",
    "final_y": "552343.28111",
    "longitude": "-90.04785031334103",
    "latitude": "30.01256352429885",
    "geocoded_column": {
      "latitude": "30.01256352429885",
      "longitude": "-90.04785031334103"
    }
  },
  {
    "service_request": "2025-1231848",
    "request_type": "Trash/Recycling",
    "request_reason": "Repair Trash Cart",
    "date_created": "2025-10-07T16:44:39.000",
    "date_modified": "2025-10-07T16:44:41.000",
    "request_status": "Pending",
    "responsible_agency": "Department of Sanitation",
    "final_address": "9917 E Wheaton Cir",
    "address_councildis": "E",
    "status": "Assigned to Contractor",
    "contractor": "Waste Pro",
    "rowid": "1231848",
    "final_x": "3709039.02276",
    "final_y": "562462.010399",
    "longitude": "-89.97995882625048",
    "latitude": "30.039709574225075",
    "geocoded_column": {
      "latitude": "30.039709574225075",
      "longitude": "-89.97995882625048"
    }
  },
  {
    "service_request": "2025-1231847",
    "request_type": "Trash/Recycling",
    "request_reason": "Order Second Trash Cart",
    "date_created": "2025-10-07T16:44:10.000",
    "date_modified": "2025-10-07T16:44:12.000",
    "request_status": "Pending",
    "responsible_agency": "Department of Sanitation",
    "final_address": "9917 E Wheaton Cir",
    "address_councildis": "E",
    "status": "Assigned to Contractor",
    "contractor": "Waste Pro",
    "rowid": "1231847",
    "final_x": "3709039.02276",
    "final_y": "562462.010399",
    "longitude": "-89.97995882625048",
    "latitude": "30.039709574225075",
    "geocoded_column": {
      "latitude": "30.039709574225075",
      "longitude": "-89.97995882625048"
    }
  },
  {
    "service_request": "2025-1231846",
    "request_type": "Trash/Recycling",
    "request_reason": "Return Trash Cart",
    "date_created": "2025-10-07T16:41:42.000",
    "date_modified": "2025-10-07T16:41:54.000",
    "request_status": "Pending",
    "responsible_agency": "Department of Sanitation",
    "final_address": "1801 Lamanche St",
    "address_councildis": "E",
    "status": "Assigned to Contractor",
    "contractor": "Waste Pro",
    "rowid": "1231846",
    "final_x": "3699121.19101",
    "final_y": "536319.814471",
    "longitude": "-90.01225454876639",
    "latitude": "29.96814667640549",
    "geocoded_column": {
      "latitude": "29.96814667640549",
      "longitude": "-90.01225454876639"
    }
  },
  {
    "service_request": "2025-1231845",
    "request_type": "Trash/Recycling",
    "request_reason": "Return Trash Cart",
    "date_created": "2025-10-07T16:40:49.000",
    "date_modified": "2025-10-07T16:40:50.000",
    "request_status": "Pending",
    "responsible_agency": "Department of Sanitation",
    "final_address": "1633 Lesseps St",
    "address_councildis": "D",
    "status": "Assigned to Contractor",
    "contractor": "IV Waste",
    "rowid": "1231845",
    "final_x": "3693270.78589",
    "final_y": "537229.705288",
    "longitude": "-90.03069761686322",
    "latitude": "29.97083272437834",
    "geocoded_column": {
      "latitude": "29.97083272437834",
      "longitude": "-90.03069761686322"
    }
  },
  {
    "service_request": "2025-1231844",
    "request_type": "Parks & Parkways",
    "request_reason": "Request Tree Service (Right of Way/Public Property)",
    "date_created": "2025-10-07T16:39:30.000",
    "date_modified": "2025-10-07T16:39:32.000",
    "request_status": "Pending",
    "responsible_agency": "Department of Parks & Parkway",
    "final_address": "3446 Magazine St Apt A",
    "address_councildis": "B",
    "status": "Pending",
    "rowid": "1231844",
    "final_x": "3674639.09556",
    "final_y": "519363.726839",
    "longitude": "-90.09015107849024",
    "latitude": "29.92227643950869",
    "geocoded_column": {
      "latitude": "29.92227643950869",
      "longitude": "-90.09015107849024"
    }
  },
  {
    "service_request": "2025-1231843",
    "request_type": "Trash/Recycling",
    "request_reason": "Request a Large Item Pick Up",
    "date_created": "2025-10-07T16:38:00.000",
    "date_modified": "2025-10-07T16:38:01.000",
    "request_status": "Pending",
    "responsible_agency": "Department of Sanitation",
    "final_address": "4743 Gabriel Dr",
    "address_councildis": "E",
    "status": "Assigned to Contractor",
    "contractor": "Waste Pro",
    "rowid": "1231843",
    "final_x": "3708945.37918",
    "final_y": "555779.236633",
    "longitude": "-89.98050411256139",
    "latitude": "30.021337620275233",
    "geocoded_column": {
      "latitude": "30.021337620275233",
      "longitude": "-89.98050411256139"
    }
  },
  {
    "service_request": "2025-1231842",
    "request_type": "Trash/Recycling",
    "request_reason": "Request a Large Item Pick Up",
    "date_created": "2025-10-07T16:37:49.000",
    "date_modified": "2025-10-07T16:37:51.000",
    "request_status": "Pending",
    "responsible_agency": "Department of Sanitation",
    "final_address": "5242 Sandhurst Dr",
    "address_councildis": "E",
    "status": "Assigned to Contractor",
    "contractor": "Waste Pro",
    "rowid": "1231842",
    "final_x": "3704615.0163",
    "final_y": "557260.702299",
    "longitude": "-89.99413204860183",
    "latitude": "30.025550944484046",
    "geocoded_column": {
      "latitude": "30.025550944484046",
      "longitude": "-89.99413204860183"
    }
  },
  {
    "service_request": "2025-1231841",
    "request_type": "Trash/Recycling",
    "request_reason": "Missed Trash Pick-Up",
    "date_created": "2025-10-07T16:29:01.000",
    "date_modified": "2025-10-07T16:29:02.000",
    "request_status": "Pending",
    "responsible_agency": "Department of Sanitation",
    "final_address": "8700 Scottsdale Dr",
    "address_councildis": "E",
    "status": "Assigned to Contractor",
    "contractor": "Waste Pro",
    "rowid": "1231841",
    "final_x": "3704868.3827",
    "final_y": "561704.081695",
    "longitude": "-89.99316723761072",
    "latitude": "30.037760356361723",
    "geocoded_column": {
      "latitude": "30.037760356361723",
      "longitude": "-89.99316723761072"
    }
  },
  {
    "service_request": "2025-1231840",
    "request_type": "Trash/Recycling",
    "request_reason": "Request a Large Item Pick Up",
    "date_created": "2025-10-07T16:28:54.000",
    "date_modified": "2025-10-07T16:28:56.000",
    "request_status": "Pending",
    "responsible_agency": "Department of Sanitation",
    "final_address": "40 Park Timbers Dr",
    "address_councildis": "C",
    "status": "Assigned to Contractor",
    "contractor": "Richards Disposal",
    "rowid": "1231840",
    "final_x": "3699264.78256",
    "final_y": "517246.553717",
    "longitude": "-90.01249541551803",
    "latitude": "29.91569731766098",
    "geocoded_column": {
      "latitude": "29.91569731766098",
      "longitude": "-90.01249541551803"
    }
  },
  {
    "service_request": "2025-1231839",
    "request_type": "Trash/Recycling",
    "request_reason": "Request a Large Item Pick Up",
    "date_created": "2025-10-07T16:26:04.000",
    "date_modified": "2025-10-07T16:26:05.000",
    "request_status": "Pending",
    "responsible_agency": "Department of Sanitation",
    "final_address": "622 Nashville Ave",
    "address_councildis": "A",
    "status": "Assigned to Contractor",
    "contractor": "IV Waste",
    "rowid": "1231839",
    "final_x": "3665331.76192",
    "final_y": "518538.530295",
    "longitude": "-90.11955822089102",
    "latitude": "29.920281789372734",
    "geocoded_column": {
      "latitude": "29.920281789372734",
      "longitude": "-90.11955822089102"
    }
  },
  {
    "service_request": "2025-1231838",
    "request_type": "Property Maintenance",
    "request_reason": "Property Maintenance",
    "date_created": "2025-10-07T16:20:41.000",
    "date_modified": "2025-10-07T16:20:43.000",
    "request_status": "Pending",
    "responsible_agency": "Department of Code Enforcement",
    "final_address": "1901 St Ann St",
    "address_councildis": "D",
    "status": "Pending",
    "rowid": "1231838",
    "final_x": "3679408.00795",
    "final_y": "535372.975366",
    "longitude": "-90.07454242268761",
    "latitude": "29.96615340941629",
    "geocoded_column": {
      "latitude": "29.96615340941629",
      "longitude": "-90.07454242268761"
    }
  },
  {
    "service_request": "2025-1231837",
    "request_type": "Trash/Recycling",
    "request_reason": "Request a Large Item Pick Up",
    "date_created": "2025-10-07T16:13:52.000",
    "date_modified": "2025-10-07T16:13:53.000",
    "request_status": "Pending",
    "responsible_agency": "Department of Sanitation",
    "final_address": "8500 Gervais St",
    "address_councildis": "E",
    "status": "Assigned to Contractor",
    "contractor": "Waste Pro",
    "rowid": "1231837",
    "final_x": "3703642.32215",
    "final_y": "562535.133728",
    "longitude": "-89.99701123061169",
    "latitude": "30.040084795118457",
    "geocoded_column": {
      "latitude": "30.040084795118457",
      "longitude": "-89.99701123061169"
    }
  },
  {
    "service_request": "2025-1231836",
    "request_type": "General Services",
    "request_reason": "General Service Request",
    "date_created": "2025-10-07T16:11:13.000",
    "date_modified": "2025-10-07T16:11:17.000",
    "request_status": "Pending",
    "responsible_agency": "Orleans Parish Communication District",
    "final_address": "6301 Saint Bernard Ave, New Orleans, Louisiana, 70122",
    "address_councildis": "D",
    "status": "Pending",
    "rowid": "1231836",
    "final_x": "3677103.38907",
    "final_y": "555881.486681",
    "longitude": "-90.08111257789491",
    "latitude": "30.022614029773447",
    "geocoded_column": {
      "latitude": "30.022614029773447",
      "longitude": "-90.08111257789491"
    }
  },
  {
    "service_request": "2025-1231835",
    "request_type": "Trash/Recycling",
    "request_reason": "Order Trash Cart",
    "date_created": "2025-10-07T16:09:09.000",
    "date_modified": "2025-10-07T16:09:12.000",
    "request_status": "Pending",
    "responsible_agency": "Department of Sanitation",
    "final_address": "6060 Pratt Dr",
    "address_councildis": "D",
    "status": "Assigned to Contractor",
    "contractor": "IV Waste",
    "rowid": "1231835",
    "final_x": "3680085.33435",
    "final_y": "554955.04988",
    "longitude": "-90.07172256477504",
    "latitude": "30.019976724675566",
    "geocoded_column": {
      "latitude": "30.019976724675566",
      "longitude": "-90.07172256477504"
    }
  },
  {
    "service_request": "2025-1231834",
    "request_type": "Property Maintenance",
    "request_reason": "Property Maintenance",
    "date_created": "2025-10-07T16:04:19.000",
    "date_modified": "2025-10-07T16:04:21.000",
    "request_status": "Pending",
    "responsible_agency": "Department of Code Enforcement",
    "final_address": "2270 St Claude Ave",
    "address_councildis": "C",
    "status": "Pending",
    "rowid": "1231834",
    "final_x": "3685676.91106",
    "final_y": "536324.005127",
    "longitude": "-90.05471189533338",
    "latitude": "29.96857755704665",
    "geocoded_column": {
      "latitude": "29.96857755704665",
      "longitude": "-90.05471189533338"
    }
  },
  {
    "service_request": "2025-1231833",
    "request_type": "Parks & Parkways",
    "request_reason": "Request Grass Cutting Service (City Owned Property)",
    "date_created": "2025-10-07T16:03:59.000",
    "date_modified": "2025-10-07T16:04:00.000",
    "request_status": "Pending",
    "responsible_agency": "Department of Parks & Parkway",
    "final_address": "5204 Tullis Dr",
    "address_councildis": "C",
    "status": "Pending",
    "rowid": "1231833",
    "final_x": "3702915.38385",
    "final_y": "512001.207408",
    "longitude": "-90.0011652964782",
    "latitude": "29.901158185921116",
    "geocoded_column": {
      "latitude": "29.901158185921116",
      "longitude": "-90.0011652964782"
    }
  },
  {
    "service_request": "2025-1231832",
    "request_type": "Abandoned Vehicles",
    "request_reason": "Abandoned/Junk Vehicles",
    "date_created": "2025-10-07T16:01:49.000",
    "date_modified": "2025-10-07T16:01:50.000",
    "request_status": "Pending",
    "responsible_agency": "Department of Public Works",
    "final_address": "1535 Burdette St",
    "address_councildis": "A",
    "status": "Pending",
    "rowid": "1231832",
    "final_x": "3663730.10791",
    "final_y": "528571.58112",
    "longitude": "-90.12427973892692",
    "latitude": "29.947916057187477",
    "geocoded_column": {
      "latitude": "29.947916057187477",
      "longitude": "-90.12427973892692"
    }
  },
  {
    "service_request": "2025-1231831",
    "request_type": "Trash/Recycling",
    "request_reason": "Replace Trash Cart",
    "date_created": "2025-10-07T16:01:29.000",
    "date_modified": "2025-10-07T16:01:31.000",
    "request_status": "Pending",
    "responsible_agency": "Department of Sanitation",
    "final_address": "1722 Josephine St",
    "address_councildis": "B",
    "status": "Assigned to Contractor",
    "contractor": "IV Waste",
    "rowid": "1231831",
    "final_x": "3677543.39067",
    "final_y": "524368.0327",
    "longitude": "-90.08081073499285",
    "latitude": "29.935949687064383",
    "geocoded_column": {
      "latitude": "29.935949687064383",
      "longitude": "-90.08081073499285"
    }
  },
  {
    "service_request": "2025-1231830",
    "request_type": "Roads and Streets",
    "request_reason": "Abandoned Service Cut",
    "date_created": "2025-10-07T15:59:37.000",
    "date_modified": "2025-10-07T15:59:42.000",
    "request_status": "Pending",
    "responsible_agency": "Department of Public Works",
    "final_address": "1533 Burdette St",
    "address_councildis": "A",
    "status": "Pending",
    "rowid": "1231830",
    "final_x": "3663718.08813",
    "final_y": "528557.738048",
    "longitude": "-90.12431815153562",
    "latitude": "29.94787834192393",
    "geocoded_column": {
      "latitude": "29.94787834192393",
      "longitude": "-90.12431815153562"
    }
  },
  {
    "service_request": "2025-1231829",
    "request_type": "Streetlights",
    "request_reason": "Streetlight Outage/Malfunction",
    "date_created": "2025-10-07T15:59:18.000",
    "date_modified": "2025-10-07T15:59:31.000",
    "request_status": "Pending",
    "responsible_agency": "Department of Public Works",
    "final_address": "4030 Hamburg St",
    "address_councildis": "D",
    "status": "Pending",
    "rowid": "1231829",
    "final_x": "3679088.45519",
    "final_y": "547092.963857",
    "longitude": "-90.07514515933767",
    "latitude": "29.998388951954194",
    "geocoded_column": {
      "latitude": "29.998388951954194",
      "longitude": "-90.07514515933767"
    }
  },
  {
    "service_request": "2025-1231828",
    "request_type": "Trash/Recycling",
    "request_reason": "Request a Large Item Pick Up",
    "date_created": "2025-10-07T15:58:48.000",
    "date_modified": "2025-10-07T15:59:19.000",
    "request_status": "Pending",
    "responsible_agency": "Department of Sanitation",
    "final_address": "2220 Cadiz St",
    "address_councildis": "B",
    "status": "Assigned to Contractor",
    "contractor": "IV Waste",
    "rowid": "1231828",
    "final_x": "3669832.59073",
    "final_y": "523104.048379",
    "longitude": "-90.10519673545268",
    "latitude": "29.93270364617617",
    "geocoded_column": {
      "latitude": "29.93270364617617",
      "longitude": "-90.10519673545268"
    }
  },
  {
    "service_request": "2025-1231827",
    "request_type": "Parks & Parkways",
    "request_reason": "Request Tree Service (Right of Way/Public Property)",
    "date_created": "2025-10-07T15:58:02.000",
    "date_modified": "2025-10-07T15:58:04.000",
    "request_status": "Pending",
    "responsible_agency": "Department of Parks & Parkway",
    "final_address": "3111 Jefferson Ave",
    "address_councildis": "B",
    "status": "Pending",
    "rowid": "1231827",
    "final_x": "3668580.26958",
    "final_y": "526718.831678",
    "longitude": "-90.10902829395805",
    "latitude": "29.94267998562764",
    "geocoded_column": {
      "latitude": "29.94267998562764",
      "longitude": "-90.10902829395805"
    }
  },
  {
    "service_request": "2025-1231826",
    "request_type": "Streetlights",
    "request_reason": "Streetlight Outage/Malfunction",
    "date_created": "2025-10-07T15:57:33.000",
    "date_modified": "2025-10-07T15:57:34.000",
    "request_status": "Pending",
    "responsible_agency": "Department of Public Works",
    "final_address": "1480 Foy St Apt 2511",
    "address_councildis": "D",
    "status": "Pending",
    "rowid": "1231826",
    "final_x": "3678710.00334",
    "final_y": "546488.539601",
    "longitude": "-90.07636163362406",
    "latitude": "29.996738419943718",
    "geocoded_column": {
      "latitude": "29.996738419943718",
      "longitude": "-90.07636163362406"
    }
  },
  {
    "service_request": "2025-1231825",
    "request_type": "Trash/Recycling",
    "request_reason": "Request a Large Item Pick Up",
    "date_created": "2025-10-07T15:55:31.000",
    "date_modified": "2025-10-07T15:55:33.000",
    "request_status": "Pending",
    "responsible_agency": "Department of Sanitation",
    "final_address": "5954 Airway St",
    "address_councildis": "D",
    "status": "Assigned to Contractor",
    "contractor": "Waste Pro",
    "rowid": "1231825",
    "final_x": "3696541.77168",
    "final_y": "552807.857238",
    "longitude": "-90.01980351440908",
    "latitude": "30.013564277920036",
    "geocoded_column": {
      "latitude": "30.013564277920036",
      "longitude": "-90.01980351440908"
    }
  },
  {
    "service_request": "2025-1231824",
    "request_type": "Trash/Recycling",
    "request_reason": "Request a Large Item Pick Up",
    "date_created": "2025-10-07T15:54:33.000",
    "date_modified": "2025-10-07T15:54:35.000",
    "request_status": "Pending",
    "responsible_agency": "Department of Sanitation",
    "final_address": "6054 Airway St",
    "address_councildis": "D",
    "status": "Assigned to Contractor",
    "contractor": "Waste Pro",
    "rowid": "1231824",
    "final_x": "3696742.44304",
    "final_y": "552825.246486",
    "longitude": "-90.01916887092067",
    "latitude": "30.013605765064067",
    "geocoded_column": {
      "latitude": "30.013605765064067",
      "longitude": "-90.01916887092067"
    }
  },
  {
    "service_request": "2025-1231823",
    "request_type": "Trash/Recycling",
    "request_reason": "Request a Large Item Pick Up",
    "date_created": "2025-10-07T15:54:24.000",
    "date_modified": "2025-10-07T15:54:26.000",
    "request_status": "Pending",
    "responsible_agency": "Department of Sanitation",
    "final_address": "3118 Somerset Dr",
    "address_councildis": "C",
    "status": "Assigned to Contractor",
    "contractor": "Richards Disposal",
    "rowid": "1231823",
    "final_x": "3702620.2257",
    "final_y": "519629.02188",
    "longitude": "-90.0018170501418",
    "latitude": "29.92214150524124",
    "geocoded_column": {
      "latitude": "29.92214150524124",
      "longitude": "-90.0018170501418"
    }
  },
  {
    "service_request": "2025-1231822",
    "request_type": "Abandoned Vehicles",
    "request_reason": "Abandoned/Junk Vehicles",
    "date_created": "2025-10-07T15:53:00.000",
    "date_modified": "2025-10-07T15:53:02.000",
    "request_status": "Pending",
    "responsible_agency": "Department of Public Works",
    "final_address": "1900 BLK Dumaine St",
    "address_councildis": "D",
    "status": "Pending",
    "rowid": "1231822",
    "final_x": "3679496.00186",
    "final_y": "535728.876493",
    "longitude": "-90.07425218992759",
    "latitude": "29.967129357563632",
    "geocoded_column": {
      "latitude": "29.967129357563632",
      "longitude": "-90.07425218992759"
    }
  },
  {
    "service_request": "2025-1231821",
    "request_type": "Trash/Recycling",
    "request_reason": "Request a Large Item Pick Up",
    "date_created": "2025-10-07T15:52:46.000",
    "date_modified": "2025-10-07T15:52:48.000",
    "request_status": "Pending",
    "responsible_agency": "Department of Sanitation",
    "final_address": "1730 New Orleans St",
    "address_councildis": "D",
    "status": "Assigned to Contractor",
    "contractor": "IV Waste",
    "rowid": "1231821",
    "final_x": "3682170.84015",
    "final_y": "538560.929481",
    "longitude": "-90.06570609449184",
    "latitude": "29.974835435671327",
    "geocoded_column": {
      "latitude": "29.974835435671327",
      "longitude": "-90.06570609449184"
    }
  },
  {
    "service_request": "2025-1231820",
    "request_type": "Parks & Parkways",
    "request_reason": "Request Tree Service (Right of Way/Public Property)",
    "date_created": "2025-10-07T15:52:25.000",
    "date_modified": "2025-10-07T15:52:27.000",
    "request_status": "Pending",
    "responsible_agency": "Department of Parks & Parkway",
    "final_address": "900 Fern St",
    "address_councildis": "A",
    "status": "Pending",
    "rowid": "1231820",
    "final_x": "3661824.45798",
    "final_y": "527138.327743",
    "longitude": "-90.13034417980818",
    "latitude": "29.94403022045248",
    "geocoded_column": {
      "latitude": "29.94403022045248",
      "longitude": "-90.13034417980818"
    }
  },
  {
    "service_request": "2025-1231819",
    "request_type": "Health Related Request",
    "request_reason": "Noise Ordinance Complaint",
    "date_created": "2025-10-07T15:52:03.000",
    "date_modified": "2025-10-07T15:52:04.000",
    "request_status": "Pending",
    "responsible_agency": "Health Department",
    "final_address": "8200 Willow St",
    "address_councildis": "A",
    "status": "Pending",
    "rowid": "1231819",
    "final_x": "3662101.86599",
    "final_y": "529136.635328",
    "longitude": "-90.12940203059486",
    "latitude": "29.949516915823203",
    "geocoded_column": {
      "latitude": "29.949516915823203",
      "longitude": "-90.12940203059486"
    }
  },
  {
    "service_request": "2025-1231818",
    "request_type": "Abandoned Vehicles",
    "request_reason": "Abandoned/Junk Vehicles",
    "date_created": "2025-10-07T15:51:58.000",
    "date_modified": "2025-10-07T15:51:59.000",
    "request_status": "Pending",
    "responsible_agency": "Department of Public Works",
    "final_address": "3815 Duplessis St",
    "address_councildis": "D",
    "status": "Pending",
    "rowid": "1231818",
    "final_x": "3678515.34325",
    "final_y": "546242.146128",
    "longitude": "-90.0769850884414",
    "latitude": "29.996066795009256",
    "geocoded_column": {
      "latitude": "29.996066795009256",
      "longitude": "-90.0769850884414"
    }
  },
  {
    "service_request": "2025-1231817",
    "request_type": "Trash/Recycling",
    "request_reason": "Request a Large Item Pick Up",
    "date_created": "2025-10-07T15:45:28.000",
    "date_modified": "2025-10-07T15:45:34.000",
    "request_status": "Pending",
    "responsible_agency": "Department of Sanitation",
    "final_address": "6155 S Laverne St",
    "address_councildis": "D",
    "status": "Assigned to Contractor",
    "contractor": "Waste Pro",
    "rowid": "1231817",
    "final_x": "3696873.31626",
    "final_y": "555490.922329",
    "longitude": "-90.01865875096503",
    "latitude": "30.02093123955977",
    "geocoded_column": {
      "latitude": "30.02093123955977",
      "longitude": "-90.01865875096503"
    }
  },
  {
    "service_request": "2025-1231816",
    "request_type": "General Services",
    "request_reason": "General Service Request",
    "date_created": "2025-10-07T15:43:13.000",
    "date_modified": "2025-10-07T15:46:38.000",
    "case_close_date": "2025-10-07T10:46:37.000",
    "request_status": "Closed",
    "responsible_agency": "Orleans Parish Communication District",
    "final_address": "601 Seguin St",
    "address_councildis": "C",
    "status": "Question Answered.",
    "rowid": "1231816",
    "final_x": "3686638.85916",
    "final_y": "529608.322177",
    "longitude": "-90.0519111979024",
    "latitude": "29.95008219471011",
    "geocoded_column": {
      "latitude": "29.95008219471011",
      "longitude": "-90.0519111979024"
    }
  },
  {
    "service_request": "2025-1231815",
    "request_type": "Drainage",
    "request_reason": "Catch Basin Not Draining",
    "date_created": "2025-10-07T15:42:09.000",
    "date_modified": "2025-10-07T15:42:10.000",
    "request_status": "Pending",
    "responsible_agency": "Sewerage & Water Board",
    "final_address": "2200 BLK Saint Andrew St",
    "address_councildis": "B",
    "status": "Pending",
    "rowid": "1231815",
    "final_x": "3676541.54616",
    "final_y": "526226.202913",
    "longitude": "-90.08390961630437",
    "latitude": "29.941089118767003",
    "geocoded_column": {
      "latitude": "29.941089118767003",
      "longitude": "-90.08390961630437"
    }
  },
  {
    "service_request": "2025-1231814",
    "request_type": "Roads and Streets",
    "request_reason": "Street Subsidence (Sinking)",
    "date_created": "2025-10-07T15:40:43.000",
    "date_modified": "2025-10-07T15:40:45.000",
    "request_status": "Pending",
    "responsible_agency": "Sewerage & Water Board",
    "final_address": "800 BLK Wilson Dr",
    "address_councildis": "A",
    "status": "Pending",
    "rowid": "1231814",
    "final_x": "3674065.99927",
    "final_y": "539641.88015",
    "longitude": "-90.09126625756139",
    "latitude": "29.978051733601955",
    "geocoded_column": {
      "latitude": "29.978051733601955",
      "longitude": "-90.09126625756139"
    }
  },
  {
    "service_request": "2025-1231813",
    "request_type": "Parks & Parkways",
    "request_reason": "Request Tree Service (Right of Way/Public Property)",
    "date_created": "2025-10-07T15:39:53.000",
    "date_modified": "2025-10-07T15:39:55.000",
    "request_status": "Pending",
    "responsible_agency": "Department of Parks & Parkway",
    "final_address": "6317 N Rampart St",
    "address_councildis": "E",
    "status": "Pending",
    "rowid": "1231813",
    "final_x": "3700104.05911",
    "final_y": "532608.74042",
    "longitude": "-90.00928605587106",
    "latitude": "29.957911355860332",
    "geocoded_column": {
      "latitude": "29.957911355860332",
      "longitude": "-90.00928605587106"
    }
  },
  {
    "service_request": "2025-1231812",
    "request_type": "Parks & Parkways",
    "request_reason": "Request Grass Cutting Service (City Owned Property)",
    "date_created": "2025-10-07T15:32:27.000",
    "date_modified": "2025-10-07T15:32:28.000",
    "request_status": "Pending",
    "responsible_agency": "Department of Parks & Parkway",
    "final_address": "3424 Sullen Pl",
    "address_councildis": "C",
    "status": "Pending",
    "rowid": "1231812",
    "final_x": "3707753.13707",
    "final_y": "518125.126006",
    "longitude": "-89.98567055738548",
    "latitude": "29.917841309586105",
    "geocoded_column": {
      "latitude": "29.917841309586105",
      "longitude": "-89.98567055738548"
    }
  },
  {
    "service_request": "2025-1231811",
    "request_type": "Trash/Recycling",
    "request_reason": "Request a Large Item Pick Up",
    "date_created": "2025-10-07T15:30:08.000",
    "date_modified": "2025-10-07T15:30:10.000",
    "request_status": "Pending",
    "responsible_agency": "Department of Sanitation",
    "final_address": "4801 Cardenas Dr",
    "address_councildis": "E",
    "status": "Assigned to Contractor",
    "contractor": "Waste Pro",
    "rowid": "1231811",
    "final_x": "3713735.63864",
    "final_y": "556539.511962",
    "longitude": "-89.96533969716495",
    "latitude": "30.02327169989071",
    "geocoded_column": {
      "latitude": "30.02327169989071",
      "longitude": "-89.96533969716495"
    }
  },
  {
    "service_request": "2025-1231810",
    "request_type": "Trash/Recycling",
    "request_reason": "Illegal Dumping",
    "date_created": "2025-10-07T15:29:52.000",
    "date_modified": "2025-10-07T15:29:54.000",
    "request_status": "Pending",
    "responsible_agency": "Department of Sanitation",
    "final_address": "6501 Berkley Dr",
    "address_councildis": "C",
    "status": "Pending",
    "rowid": "1231810",
    "final_x": "3708009.63211",
    "final_y": "517985.49183",
    "longitude": "-89.98486613806749",
    "latitude": "29.917449066714372",
    "geocoded_column": {
      "latitude": "29.917449066714372",
      "longitude": "-89.98486613806749"
    }
  },
  {
    "service_request": "2025-1231809",
    "request_type": "Trash/Recycling",
    "request_reason": "Return Trash Cart",
    "date_created": "2025-10-07T15:28:46.000",
    "date_modified": "2025-10-07T15:28:48.000",
    "request_status": "Pending",
    "responsible_agency": "Department of Sanitation",
    "final_address": "940 Joliet St",
    "address_councildis": "A",
    "status": "Assigned to Contractor",
    "contractor": "IV Waste",
    "rowid": "1231809",
    "final_x": "3660377.11302",
    "final_y": "528814.957824",
    "longitude": "-90.13485850681022",
    "latitude": "29.948682122074917",
    "geocoded_column": {
      "latitude": "29.948682122074917",
      "longitude": "-90.13485850681022"
    }
  },
  {
    "service_request": "2025-1231808",
    "request_type": "Trash/Recycling",
    "request_reason": "Repair Recycling Cart",
    "date_created": "2025-10-07T15:25:30.000",
    "date_modified": "2025-10-07T15:25:32.000",
    "request_status": "Pending",
    "responsible_agency": "Department of Sanitation",
    "final_address": "931 Jefferson Ave",
    "address_councildis": "B",
    "status": "Pending",
    "rowid": "1231808",
    "final_x": "3666923.68743",
    "final_y": "519017.472119",
    "longitude": "-90.11451716735327",
    "latitude": "29.921552264796393",
    "geocoded_column": {
      "latitude": "29.921552264796393",
      "longitude": "-90.11451716735327"
    }
  },
  {
    "service_request": "2025-1231807",
    "request_type": "Trash/Recycling",
    "request_reason": "Replace Trash Cart",
    "date_created": "2025-10-07T15:22:52.000",
    "date_modified": "2025-10-07T15:22:54.000",
    "request_status": "Pending",
    "responsible_agency": "Department of Sanitation",
    "final_address": "2400 Iberville St",
    "address_councildis": "B",
    "status": "Assigned to Contractor",
    "contractor": "IV Waste",
    "rowid": "1231807",
    "final_x": "3676612.25569",
    "final_y": "534614.211718",
    "longitude": "-90.08339748981626",
    "latitude": "29.9641512216916",
    "geocoded_column": {
      "latitude": "29.9641512216916",
      "longitude": "-90.08339748981626"
    }
  },
  {
    "service_request": "2025-1231806",
    "request_type": "Street and Traffic Signs",
    "request_reason": "Traffic or Parking Sign Damaged or Missing",
    "date_created": "2025-10-07T15:21:56.000",
    "date_modified": "2025-10-07T15:21:57.000",
    "request_status": "Pending",
    "responsible_agency": "Department of Public Works",
    "final_address": "1750 St Charles Ave",
    "address_councildis": "B",
    "status": "Pending",
    "rowid": "1231806",
    "final_x": "3678708.23739",
    "final_y": "524583.7655",
    "longitude": "-90.07712582148702",
    "latitude": "29.93650781826905",
    "geocoded_column": {
      "latitude": "29.93650781826905",
      "longitude": "-90.07712582148702"
    }
  },
  {
    "service_request": "2025-1231805",
    "request_type": "Trash/Recycling",
    "request_reason": "Request a Large Item Pick Up",
    "date_created": "2025-10-07T15:21:02.000",
    "date_modified": "2025-10-07T15:21:04.000",
    "request_status": "Pending",
    "responsible_agency": "Department of Sanitation",
    "final_address": "7615 Ebbtide Dr",
    "address_councildis": "E",
    "status": "Assigned to Contractor",
    "contractor": "Waste Pro",
    "rowid": "1231805",
    "final_x": "3702266.20004",
    "final_y": "561479.389279",
    "longitude": "-90.00139896729617",
    "latitude": "30.03722596790005",
    "geocoded_column": {
      "latitude": "30.03722596790005",
      "longitude": "-90.00139896729617"
    }
  },
  {
    "service_request": "2025-1231804",
    "request_type": "Trash/Recycling",
    "request_reason": "Request a Large Item Pick Up",
    "date_created": "2025-10-07T15:20:58.000",
    "date_modified": "2025-10-07T15:21:00.000",
    "request_status": "Pending",
    "responsible_agency": "Department of Sanitation",
    "final_address": "2215 Charbonnet St",
    "address_councildis": "E",
    "status": "Assigned to Contractor",
    "contractor": "Waste Pro",
    "rowid": "1231804",
    "final_x": "3699849.5386",
    "final_y": "537838.477769",
    "longitude": "-90.00989901932059",
    "latitude": "29.972299343015774",
    "geocoded_column": {
      "latitude": "29.972299343015774",
      "longitude": "-90.00989901932059"
    }
  },
  {
    "service_request": "2025-1231803",
    "request_type": "Roads and Streets",
    "request_reason": "Street Subsidence (Sinking)",
    "date_created": "2025-10-07T15:18:53.000",
    "date_modified": "2025-10-07T15:18:55.000",
    "request_status": "Pending",
    "responsible_agency": "Sewerage & Water Board",
    "final_address": "2464 Killdeer St",
    "address_councildis": "D",
    "status": "Pending",
    "rowid": "1231803",
    "final_x": "3685181.46057",
    "final_y": "557618.601435",
    "longitude": "-90.05552660623438",
    "latitude": "30.02714523842869",
    "geocoded_column": {
      "latitude": "30.02714523842869",
      "longitude": "-90.05552660623438"
    }
  },
  {
    "service_request": "2025-1231802",
    "request_type": "Property Maintenance",
    "request_reason": "Property Maintenance",
    "date_created": "2025-10-07T15:18:30.000",
    "date_modified": "2025-10-07T15:18:31.000",
    "request_status": "Pending",
    "responsible_agency": "Department of Code Enforcement",
    "final_address": "635 Harmony St",
    "address_councildis": "B",
    "status": "Pending",
    "rowid": "1231802",
    "final_x": "3676535.49486",
    "final_y": "518626.507895",
    "longitude": "-90.08419028914447",
    "latitude": "29.920192614155457",
    "geocoded_column": {
      "latitude": "29.920192614155457",
      "longitude": "-90.08419028914447"
    }
  },
  {
    "service_request": "2025-1231801",
    "request_type": "Trash/Recycling",
    "request_reason": "Request a Large Item Pick Up",
    "date_created": "2025-10-07T15:16:05.000",
    "date_modified": "2025-10-07T15:16:06.000",
    "request_status": "Pending",
    "responsible_agency": "Department of Sanitation",
    "final_address": "2327 Jay St",
    "address_councildis": "D",
    "status": "Assigned to Contractor",
    "contractor": "IV Waste",
    "rowid": "1231801",
    "final_x": "3684325.39394",
    "final_y": "557380.490395",
    "longitude": "-90.058240067149",
    "latitude": "30.026516743235803",
    "geocoded_column": {
      "latitude": "30.026516743235803",
      "longitude": "-90.058240067149"
    }
  },
  {
    "service_request": "2025-1231800",
    "request_type": "Trash/Recycling",
    "request_reason": "Request a Large Item Pick Up",
    "date_created": "2025-10-07T15:15:02.000",
    "date_modified": "2025-10-07T15:15:04.000",
    "request_status": "Pending",
    "responsible_agency": "Department of Sanitation",
    "final_address": "4706 Majestic Oaks Dr",
    "address_councildis": "D",
    "status": "Assigned to Contractor",
    "contractor": "Waste Pro",
    "rowid": "1231800",
    "final_x": "3697660.62685",
    "final_y": "554075.989592",
    "longitude": "-90.01622248091994",
    "latitude": "30.017015849284224",
    "geocoded_column": {
      "latitude": "30.017015849284224",
      "longitude": "-90.01622248091994"
    }
  },
  {
    "service_request": "2025-1231799",
    "request_type": "Trash/Recycling",
    "request_reason": "Request a Large Item Pick Up",
    "date_created": "2025-10-07T15:12:48.000",
    "date_modified": "2025-10-07T15:12:50.000",
    "request_status": "Pending",
    "responsible_agency": "Department of Sanitation",
    "final_address": "7221 E Renaissance Ct",
    "address_councildis": "E",
    "status": "Assigned to Contractor",
    "contractor": "Waste Pro",
    "rowid": "1231799",
    "final_x": "3717025.27852",
    "final_y": "568356.158245",
    "longitude": "-89.95449596203733",
    "latitude": "30.055654287632233",
    "geocoded_column": {
      "latitude": "30.055654287632233",
      "longitude": "-89.95449596203733"
    }
  },
  {
    "service_request": "2025-1231798",
    "request_type": "Alley Ways",
    "request_reason": "Alley Way Issues",
    "date_created": "2025-10-07T15:11:21.000",
    "date_modified": "2025-10-07T15:11:23.000",
    "request_status": "Pending",
    "responsible_agency": "Department of Public Works",
    "final_address": "3501 Blair St",
    "address_councildis": "C",
    "status": "Pending",
    "rowid": "1231798",
    "final_x": "3709305.85336",
    "final_y": "517883.915062",
    "longitude": "-89.98077852121519",
    "latitude": "29.91712775786848",
    "geocoded_column": {
      "latitude": "29.91712775786848",
      "longitude": "-89.98077852121519"
    }
  },
  {
    "service_request": "2025-1231797",
    "request_type": "Abandoned Vehicles",
    "request_reason": "Abandoned/Junk Vehicles",
    "date_created": "2025-10-07T15:09:49.000",
    "date_modified": "2025-10-07T15:11:21.000",
    "request_status": "Pending",
    "responsible_agency": "Department of Public Works",
    "final_address": "10810 Dreux Ave",
    "address_councildis": "E",
    "status": "Pending",
    "rowid": "1231797",
    "final_x": "3715518.38891",
    "final_y": "556023.465561",
    "longitude": "-89.95972619996319",
    "latitude": "30.021794133705594",
    "geocoded_column": {
      "latitude": "30.021794133705594",
      "longitude": "-89.95972619996319"
    }
  },
  {
    "service_request": "2025-1231796",
    "request_type": "Roads and Streets",
    "request_reason": "Pothole",
    "date_created": "2025-10-07T15:02:41.000",
    "date_modified": "2025-10-07T15:02:43.000",
    "request_status": "Pending",
    "responsible_agency": "Department of Public Works",
    "final_address": "3219 Pittari Pl",
    "address_councildis": "C",
    "status": "Pending",
    "rowid": "1231796",
    "final_x": "3709659.40907",
    "final_y": "518904.464631",
    "longitude": "-89.9796245027675",
    "latitude": "29.919922431973514",
    "geocoded_column": {
      "latitude": "29.919922431973514",
      "longitude": "-89.9796245027675"
    }
  },
  {
    "service_request": "2025-1231795",
    "request_type": "Roads and Streets",
    "request_reason": "Pothole",
    "date_created": "2025-10-07T15:02:35.000",
    "date_modified": "2025-10-07T15:02:37.000",
    "request_status": "Pending",
    "responsible_agency": "Department of Public Works",
    "final_address": "9500 BLK Grant St",
    "address_councildis": "E",
    "status": "Pending",
    "rowid": "1231795",
    "final_x": "3710661.24859",
    "final_y": "554945.149084",
    "longitude": "-89.97511373105705",
    "latitude": "30.01898839119382",
    "geocoded_column": {
      "latitude": "30.01898839119382",
      "longitude": "-89.97511373105705"
    }
  },
  {
    "service_request": "2025-1231794",
    "request_type": "Trash/Recycling",
    "request_reason": "Repair Recycling Cart",
    "date_created": "2025-10-07T15:00:06.000",
    "date_modified": "2025-10-07T15:00:09.000",
    "request_status": "Pending",
    "responsible_agency": "Department of Sanitation",
    "final_address": "931 Jefferson Ave, New Orleans, Louisiana, 70115",
    "address_councildis": "B",
    "status": "Pending",
    "rowid": "1231794",
    "final_x": "3666923.68743",
    "final_y": "519017.472119",
    "longitude": "-90.11451716735327",
    "latitude": "29.921552264796393",
    "geocoded_column": {
      "latitude": "29.921552264796393",
      "longitude": "-90.11451716735327"
    }
  },
  {
    "service_request": "2025-1231793",
    "request_type": "Roads and Streets",
    "request_reason": "Pothole",
    "date_created": "2025-10-07T14:56:03.000",
    "date_modified": "2025-10-07T14:56:05.000",
    "request_status": "Pending",
    "responsible_agency": "Department of Public Works",
    "final_address": "9800 BLK Grant St",
    "address_councildis": "E",
    "status": "Pending",
    "rowid": "1231793",
    "final_x": "3711937.37268",
    "final_y": "555126.589338",
    "longitude": "-89.97107485135072",
    "latitude": "30.01944562681986",
    "geocoded_column": {
      "latitude": "30.01944562681986",
      "longitude": "-89.97107485135072"
    }
  },
  {
    "service_request": "2025-1231792",
    "request_type": "Roads and Streets",
    "request_reason": "Debris in Driving Lanes",
    "date_created": "2025-10-07T14:55:17.000",
    "date_modified": "2025-10-07T15:26:36.000",
    "request_status": "Pending",
    "responsible_agency": "Department of Public Works",
    "final_address": "51 Martin Dr",
    "address_councildis": "E",
    "status": "Pending",
    "rowid": "1231792",
    "final_x": "3697931.4369",
    "final_y": "561003.162462",
    "longitude": "-90.01511504183384",
    "latitude": "30.036054363017286",
    "geocoded_column": {
      "latitude": "30.036054363017286",
      "longitude": "-90.01511504183384"
    }
  },
  {
    "service_request": "2025-1231791",
    "request_type": "Parks & Parkways",
    "request_reason": "Request Grass Cutting Service (City Owned Property)",
    "date_created": "2025-10-07T14:55:08.000",
    "date_modified": "2025-10-07T14:55:10.000",
    "request_status": "Pending",
    "responsible_agency": "Department of Parks & Parkway",
    "final_address": "4300 BLK Washington Ave",
    "address_councildis": "B",
    "status": "Pending",
    "rowid": "1231791",
    "final_x": "3670467.18593",
    "final_y": "531242.176805",
    "longitude": "-90.1029174873085",
    "latitude": "29.95506213179362",
    "geocoded_column": {
      "latitude": "29.95506213179362",
      "longitude": "-90.1029174873085"
    }
  },
  {
    "service_request": "2025-1231790",
    "request_type": "Trash/Recycling",
    "request_reason": "Repair Trash Cart",
    "date_created": "2025-10-07T14:54:49.000",
    "date_modified": "2025-10-07T14:54:51.000",
    "request_status": "Pending",
    "responsible_agency": "Department of Sanitation",
    "final_address": "1803 Robert St",
    "address_councildis": "B",
    "status": "Assigned to Contractor",
    "contractor": "IV Waste",
    "rowid": "1231790",
    "final_x": "3668884.48295",
    "final_y": "522186.865402",
    "longitude": "-90.1082208019675",
    "latitude": "29.930209594446453",
    "geocoded_column": {
      "latitude": "29.930209594446453",
      "longitude": "-90.1082208019675"
    }
  },
  {
    "service_request": "2025-1231789",
    "request_type": "Parks & Parkways",
    "request_reason": "Request Tree Service (Right of Way/Public Property)",
    "date_created": "2025-10-07T14:54:11.000",
    "date_modified": "2025-10-07T14:54:13.000",
    "request_status": "Pending",
    "responsible_agency": "Department of Parks & Parkway",
    "final_address": "3723 General Taylor St",
    "address_councildis": "B",
    "status": "Pending",
    "rowid": "1231789",
    "final_x": "3670942.98343",
    "final_y": "528438.939904",
    "longitude": "-90.10151025087941",
    "latitude": "29.947340094742106",
    "geocoded_column": {
      "latitude": "29.947340094742106",
      "longitude": "-90.10151025087941"
    }
  },
  {
    "service_request": "2025-1231788",
    "request_type": "Property Maintenance",
    "request_reason": "Property Maintenance",
    "date_created": "2025-10-07T14:51:19.000",
    "date_modified": "2025-10-07T14:51:20.000",
    "request_status": "Pending",
    "responsible_agency": "Department of Code Enforcement",
    "final_address": "2144 Brutus St",
    "address_councildis": "D",
    "status": "Pending",
    "rowid": "1231788",
    "final_x": "3683523.30626",
    "final_y": "550238.313428",
    "longitude": "-90.06102516551047",
    "latitude": "30.006902887296775",
    "geocoded_column": {
      "latitude": "30.006902887296775",
      "longitude": "-90.06102516551047"
    }
  },
  {
    "service_request": "2025-1231787",
    "request_type": "Safety & Permits",
    "request_reason": "Licenses & Permits",
    "date_created": "2025-10-07T14:49:20.000",
    "date_modified": "2025-10-07T14:49:21.000",
    "request_status": "Pending",
    "responsible_agency": "Safety and Permits",
    "final_address": "1237 Tricou St",
    "address_councildis": "E",
    "status": "Pending",
    "rowid": "1231787",
    "final_x": "3700420.59312",
    "final_y": "533650.131461",
    "longitude": "-90.00824850966927",
    "latitude": "29.960764748671554",
    "geocoded_column": {
      "latitude": "29.960764748671554",
      "longitude": "-90.00824850966927"
    }
  },
  {
    "service_request": "2025-1231786",
    "request_type": "Roads and Streets",
    "request_reason": "Pothole",
    "date_created": "2025-10-07T14:47:49.000",
    "date_modified": "2025-10-07T14:47:50.000",
    "request_status": "Pending",
    "responsible_agency": "Department of Public Works",
    "final_address": "800 BLK Commerce St",
    "address_councildis": "B",
    "status": "Pending",
    "rowid": "1231786",
    "final_x": "3681984.58481",
    "final_y": "527333.336197",
    "longitude": "-90.06668631609762",
    "latitude": "29.9439690474267",
    "geocoded_column": {
      "latitude": "29.9439690474267",
      "longitude": "-90.06668631609762"
    }
  },
  {
    "service_request": "2025-1231785",
    "request_type": "Street and Traffic Signs",
    "request_reason": "Disabled Parking Sign Missing or Damaged",
    "date_created": "2025-10-07T14:46:58.000",
    "date_modified": "2025-10-07T15:00:53.000",
    "request_status": "Pending",
    "responsible_agency": "Department of Public Works",
    "final_address": "4674 Stephen Girard Ave",
    "address_councildis": "D",
    "status": "Pending",
    "rowid": "1231785",
    "final_x": "3691647.47043",
    "final_y": "550544.363156",
    "longitude": "-90.03534790437367",
    "latitude": "30.007493868845177",
    "geocoded_column": {
      "latitude": "30.007493868845177",
      "longitude": "-90.03534790437367"
    }
  },
  {
    "service_request": "2025-1231784",
    "request_type": "Trash/Recycling",
    "request_reason": "Order Trash Cart",
    "date_created": "2025-10-07T14:45:54.000",
    "date_modified": "2025-10-07T14:45:55.000",
    "request_status": "Pending",
    "responsible_agency": "Department of Sanitation",
    "final_address": "3037 Louisiana Avenue Prkwy",
    "address_councildis": "B",
    "status": "Assigned to Contractor",
    "contractor": "IV Waste",
    "rowid": "1231784",
    "final_x": "3672182.933",
    "final_y": "526597.60787",
    "longitude": "-90.09765794430845",
    "latitude": "29.942240323191616",
    "geocoded_column": {
      "latitude": "29.942240323191616",
      "longitude": "-90.09765794430845"
    }
  },
  {
    "service_request": "2025-1231783",
    "request_type": "Trash/Recycling",
    "request_reason": "Order Trash Cart",
    "date_created": "2025-10-07T14:42:15.000",
    "date_modified": "2025-10-07T14:42:18.000",
    "request_status": "Pending",
    "responsible_agency": "Department of Sanitation",
    "final_address": "6100 Duplessis St",
    "address_councildis": "D",
    "status": "Assigned to Contractor",
    "contractor": "IV Waste",
    "rowid": "1231783",
    "final_x": "3677899.00386",
    "final_y": "554905.264088",
    "longitude": "-90.0786323979944",
    "latitude": "30.019905840573998",
    "geocoded_column": {
      "latitude": "30.019905840573998",
      "longitude": "-90.0786323979944"
    }
  },
  {
    "service_request": "2025-1231782",
    "request_type": "Trash/Recycling",
    "request_reason": "Request a Large Item Pick Up",
    "date_created": "2025-10-07T14:40:39.000",
    "date_modified": "2025-10-07T14:40:41.000",
    "request_status": "Pending",
    "responsible_agency": "Department of Sanitation",
    "final_address": "2844 Baronne St",
    "address_councildis": "B",
    "status": "Assigned to Contractor",
    "contractor": "IV Waste",
    "rowid": "1231782",
    "final_x": "3675223.69589",
    "final_y": "522916.160187",
    "longitude": "-90.08818387876119",
    "latitude": "29.932027029403624",
    "geocoded_column": {
      "latitude": "29.932027029403624",
      "longitude": "-90.08818387876119"
    }
  },
  {
    "service_request": "2025-1231781",
    "request_type": "Trash/Recycling",
    "request_reason": "Order Trash Cart",
    "date_created": "2025-10-07T14:40:08.000",
    "date_modified": "2025-10-07T14:40:11.000",
    "request_status": "Pending",
    "responsible_agency": "Department of Sanitation",
    "final_address": "4313 Randolph Ave",
    "address_councildis": "D",
    "status": "Assigned to Contractor",
    "contractor": "IV Waste",
    "rowid": "1231781",
    "final_x": "3677791.1227",
    "final_y": "548166.828178",
    "longitude": "-90.07920630215249",
    "latitude": "30.00138080470222",
    "geocoded_column": {
      "latitude": "30.00138080470222",
      "longitude": "-90.07920630215249"
    }
  },
  {
    "service_request": "2025-1231780",
    "request_type": "Parks & Parkways",
    "request_reason": "Request Tree Service (Right of Way/Public Property)",
    "date_created": "2025-10-07T14:35:43.000",
    "date_modified": "2025-10-07T14:35:45.000",
    "request_status": "Pending",
    "responsible_agency": "Department of Parks & Parkway",
    "final_address": "921 St Roch Ave",
    "address_councildis": "C",
    "status": "Pending",
    "rowid": "1231780",
    "final_x": "3686566.54562",
    "final_y": "535902.209287",
    "longitude": "-90.05191728438338",
    "latitude": "29.967390438811478",
    "geocoded_column": {
      "latitude": "29.967390438811478",
      "longitude": "-90.05191728438338"
    }
  },
  {
    "service_request": "2025-1231779",
    "request_type": "Trash/Recycling",
    "request_reason": "Replace Recycling Cart",
    "date_created": "2025-10-07T14:35:09.000",
    "date_modified": "2025-10-07T14:35:11.000",
    "request_status": "Pending",
    "responsible_agency": "Department of Sanitation",
    "final_address": "8524 Apricot St",
    "address_councildis": "A",
    "status": "Pending",
    "rowid": "1231779",
    "final_x": "3664590.6553",
    "final_y": "533698.349445",
    "longitude": "-90.12139142380168",
    "latitude": "29.961988008104072",
    "geocoded_column": {
      "latitude": "29.961988008104072",
      "longitude": "-90.12139142380168"
    }
  },
  {
    "service_request": "2025-1231778",
    "request_type": "Trash/Recycling",
    "request_reason": "Request a Large Item Pick Up",
    "date_created": "2025-10-07T14:28:11.000",
    "date_modified": "2025-10-07T14:28:43.000",
    "request_status": "Pending",
    "responsible_agency": "Department of Sanitation",
    "final_address": "719 Filmore Ave",
    "address_councildis": "A",
    "status": "Assigned to Contractor",
    "contractor": "IV Waste",
    "rowid": "1231778",
    "final_x": "3669180.21671",
    "final_y": "552084.94575",
    "longitude": "-90.10627648122467",
    "latitude": "30.012410592107837",
    "geocoded_column": {
      "latitude": "30.012410592107837",
      "longitude": "-90.10627648122467"
    }
  },
  {
    "service_request": "2025-1231777",
    "request_type": "Streetlights",
    "request_reason": "Streetlight Outage/Malfunction",
    "date_created": "2025-10-07T14:26:35.000",
    "date_modified": "2025-10-07T14:26:37.000",
    "request_status": "Pending",
    "responsible_agency": "Department of Public Works",
    "final_address": "3313 S Saratoga St",
    "address_councildis": "B",
    "status": "Pending",
    "rowid": "1231777",
    "final_x": "3673732.94049",
    "final_y": "523339.040251",
    "longitude": "-90.09287559623134",
    "latitude": "29.93323427188133",
    "geocoded_column": {
      "latitude": "29.93323427188133",
      "longitude": "-90.09287559623134"
    }
  },
  {
    "service_request": "2025-1231776",
    "request_type": "Trash/Recycling",
    "request_reason": "Request a Large Item Pick Up",
    "date_created": "2025-10-07T14:24:06.000",
    "date_modified": "2025-10-07T14:24:10.000",
    "request_status": "Pending",
    "responsible_agency": "Department of Sanitation",
    "final_address": "7813 Star St",
    "address_councildis": "E",
    "status": "Assigned to Contractor",
    "contractor": "Waste Pro",
    "rowid": "1231776",
    "final_x": "3720756.72895",
    "final_y": "574497.074411",
    "longitude": "-89.94246609565816",
    "latitude": "30.07241523575473",
    "geocoded_column": {
      "latitude": "30.07241523575473",
      "longitude": "-89.94246609565816"
    }
  },
  {
    "service_request": "2025-1231775",
    "request_type": "Abandoned Vehicles",
    "request_reason": "Abandoned/Junk Vehicles",
    "date_created": "2025-10-07T14:20:16.000",
    "date_modified": "2025-10-07T14:20:18.000",
    "request_status": "Pending",
    "responsible_agency": "Department of Public Works",
    "final_address": "2625 Orleans Ave",
    "address_councildis": "D",
    "status": "Pending",
    "rowid": "1231775",
    "final_x": "3677073.30024",
    "final_y": "536871.12244",
    "longitude": "-90.08186370849798",
    "latitude": "29.970343122038877",
    "geocoded_column": {
      "latitude": "29.970343122038877",
      "longitude": "-90.08186370849798"
    }
  },
  {
    "service_request": "2025-1231774",
    "request_type": "Parks & Parkways",
    "request_reason": "Request Tree Service (Right of Way/Public Property)",
    "date_created": "2025-10-07T14:18:19.000",
    "date_modified": "2025-10-07T14:18:20.000",
    "request_status": "Pending",
    "responsible_agency": "Department of Parks & Parkway",
    "final_address": "4938 Wright Rd",
    "address_councildis": "E",
    "status": "Pending",
    "rowid": "1231774",
    "final_x": "3716514.29861",
    "final_y": "557852.505563",
    "longitude": "-89.9565099797084",
    "latitude": "30.026790401005997",
    "geocoded_column": {
      "latitude": "30.026790401005997",
      "longitude": "-89.9565099797084"
    }
  },
  {
    "service_request": "2025-1231773",
    "request_type": "Abandoned Vehicles",
    "request_reason": "Abandoned/Junk Vehicles",
    "date_created": "2025-10-07T14:18:09.000",
    "date_modified": "2025-10-07T14:18:12.000",
    "request_status": "Pending",
    "responsible_agency": "Department of Public Works",
    "final_address": "1800 BLK Music St",
    "address_councildis": "D",
    "status": "Pending",
    "rowid": "1231773",
    "final_x": "3686627.88622",
    "final_y": "539213.816045",
    "longitude": "-90.05160658684908",
    "latitude": "29.976494312565244",
    "geocoded_column": {
      "latitude": "29.976494312565244",
      "longitude": "-90.05160658684908"
    }
  },
  {
    "service_request": "2025-1231772",
    "request_type": "Trash/Recycling",
    "request_reason": "Request a Large Item Pick Up",
    "date_created": "2025-10-07T14:17:50.000",
    "date_modified": "2025-10-07T14:17:52.000",
    "request_status": "Pending",
    "responsible_agency": "Department of Sanitation",
    "final_address": "4545 Skyview Dr",
    "address_councildis": "D",
    "status": "Assigned to Contractor",
    "contractor": "Waste Pro",
    "rowid": "1231772",
    "final_x": "3696809.91869",
    "final_y": "553162.366423",
    "longitude": "-90.01894346616385",
    "latitude": "30.014530590064457",
    "geocoded_column": {
      "latitude": "30.014530590064457",
      "longitude": "-90.01894346616385"
    }
  },
  {
    "service_request": "2025-1231771",
    "request_type": "Trash/Recycling",
    "request_reason": "Request a Large Item Pick Up",
    "date_created": "2025-10-07T14:16:36.000",
    "date_modified": "2025-10-07T14:18:10.000",
    "request_status": "Pending",
    "responsible_agency": "Department of Sanitation",
    "final_address": "6062 Beechcraft St",
    "address_councildis": "D",
    "status": "Assigned to Contractor",
    "contractor": "Waste Pro",
    "rowid": "1231771",
    "final_x": "3696748.90531",
    "final_y": "553300.711063",
    "longitude": "-90.01913122418887",
    "latitude": "30.014912910048473",
    "geocoded_column": {
      "latitude": "30.014912910048473",
      "longitude": "-90.01913122418887"
    }
  },
  {
    "service_request": "2025-1231770",
    "request_type": "Trash/Recycling",
    "request_reason": "Request a Large Item Pick Up",
    "date_created": "2025-10-07T14:15:31.000",
    "date_modified": "2025-10-07T14:15:32.000",
    "request_status": "Pending",
    "responsible_agency": "Department of Sanitation",
    "final_address": "7246 Ring St",
    "address_councildis": "D",
    "status": "Assigned to Contractor",
    "contractor": "IV Waste",
    "rowid": "1231770",
    "final_x": "3668877.30804",
    "final_y": "555098.908697",
    "longitude": "-90.107131603591",
    "latitude": "30.020706840104445",
    "geocoded_column": {
      "latitude": "30.020706840104445",
      "longitude": "-90.107131603591"
    }
  },
  {
    "service_request": "2025-1231769",
    "request_type": "Trash/Recycling",
    "request_reason": "Order Recycling Cart",
    "date_created": "2025-10-07T14:14:29.000",
    "date_modified": "2025-10-07T14:14:31.000",
    "request_status": "Pending",
    "responsible_agency": "Department of Sanitation",
    "final_address": "5416 S Tonti St",
    "address_councildis": "A",
    "status": "Pending",
    "rowid": "1231769",
    "final_x": "3668662.53364",
    "final_y": "527897.369407",
    "longitude": "-90.1087287992494",
    "latitude": "29.945918165068676",
    "geocoded_column": {
      "latitude": "29.945918165068676",
      "longitude": "-90.1087287992494"
    }
  },
  {
    "service_request": "2025-1231768",
    "request_type": "Abandoned Vehicles",
    "request_reason": "Abandoned/Junk Vehicles",
    "date_created": "2025-10-07T14:12:54.000",
    "date_modified": "2025-10-07T14:13:29.000",
    "request_status": "Pending",
    "responsible_agency": "Department of Public Works",
    "final_address": "700 N Lopez St",
    "address_councildis": "A",
    "status": "Inspected",
    "rowid": "1231768",
    "final_x": "3675237.7803",
    "final_y": "537973.803657",
    "longitude": "-90.0876226297337",
    "latitude": "29.97343011563112",
    "geocoded_column": {
      "latitude": "29.97343011563112",
      "longitude": "-90.0876226297337"
    }
  },
  {
    "service_request": "2025-1231767",
    "request_type": "Trash/Recycling",
    "request_reason": "Request a Large Item Pick Up",
    "date_created": "2025-10-07T14:10:32.000",
    "date_modified": "2025-10-07T14:10:34.000",
    "request_status": "Pending",
    "responsible_agency": "Department of Sanitation",
    "final_address": "7854 Star St",
    "address_councildis": "E",
    "status": "Assigned to Contractor",
    "contractor": "Waste Pro",
    "rowid": "1231767",
    "final_x": "3720416.50041",
    "final_y": "574668.255211",
    "longitude": "-89.9435350971257",
    "latitude": "30.072897261370088",
    "geocoded_column": {
      "latitude": "30.072897261370088",
      "longitude": "-89.9435350971257"
    }
  },
  {
    "service_request": "2025-1231766",
    "request_type": "Trash/Recycling",
    "request_reason": "Request a Large Item Pick Up",
    "date_created": "2025-10-07T14:07:16.000",
    "date_modified": "2025-10-07T14:07:18.000",
    "request_status": "Pending",
    "responsible_agency": "Department of Sanitation",
    "final_address": "1624 Dufossat St",
    "address_councildis": "B",
    "status": "Assigned to Contractor",
    "contractor": "IV Waste",
    "rowid": "1231766",
    "final_x": "3668056.52353",
    "final_y": "521415.181753",
    "longitude": "-90.11086053616611",
    "latitude": "29.92811202523476",
    "geocoded_column": {
      "latitude": "29.92811202523476",
      "longitude": "-90.11086053616611"
    }
  },
  {
    "service_request": "2025-1231765",
    "request_type": "Property Maintenance",
    "request_reason": "Property Maintenance",
    "date_created": "2025-10-07T14:07:04.000",
    "date_modified": "2025-10-07T14:07:06.000",
    "request_status": "Pending",
    "responsible_agency": "Department of Code Enforcement",
    "final_address": "2601 Frenchmen St",
    "address_councildis": "D",
    "status": "Pending",
    "rowid": "1231765",
    "final_x": "3684175.46268",
    "final_y": "541834.109516",
    "longitude": "-90.05926005701961",
    "latitude": "29.98377440195315",
    "geocoded_column": {
      "latitude": "29.98377440195315",
      "longitude": "-90.05926005701961"
    }
  },
  {
    "service_request": "2025-1231764",
    "request_type": "Trash/Recycling",
    "request_reason": "Request a Large Item Pick Up",
    "date_created": "2025-10-07T14:06:48.000",
    "date_modified": "2025-10-07T14:14:48.000",
    "request_status": "Pending",
    "responsible_agency": "Department of Sanitation",
    "final_address": "5147 Bayouview Ct",
    "address_councildis": "E",
    "status": "Assigned to Contractor",
    "contractor": "Waste Pro",
    "rowid": "1231764",
    "final_x": "3699187.457",
    "final_y": "556337.600666",
    "longitude": "-90.01131591289709",
    "latitude": "30.023186072932578",
    "geocoded_column": {
      "latitude": "30.023186072932578",
      "longitude": "-90.01131591289709"
    }
  },
  {
    "service_request": "2025-1231763",
    "request_type": "Streetlights",
    "request_reason": "Streetlight Outage/Malfunction",
    "date_created": "2025-10-07T14:05:50.000",
    "date_modified": "2025-10-07T14:05:52.000",
    "request_status": "Pending",
    "responsible_agency": "Department of Public Works",
    "final_address": "S CARROLLTON AVE & FONTAINEBLEAU DR",
    "address_councildis": "A",
    "status": "Pending",
    "rowid": "1231763",
    "final_x": "3665432.5",
    "final_y": "532006.68",
    "longitude": "-90.11878962093776",
    "latitude": "29.95731196103767",
    "geocoded_column": {
      "latitude": "29.95731196103767",
      "longitude": "-90.11878962093776"
    }
  },
  {
    "service_request": "2025-1231762",
    "request_type": "Trash/Recycling",
    "request_reason": "Illegal Dumping",
    "date_created": "2025-10-07T14:05:39.000",
    "date_modified": "2025-10-07T14:05:40.000",
    "request_status": "Pending",
    "responsible_agency": "Department of Sanitation",
    "final_address": "2035 Governor Nicholls St",
    "address_councildis": "D",
    "status": "Pending",
    "rowid": "1231762",
    "final_x": "3679830.92379",
    "final_y": "536925.07572",
    "longitude": "-90.07315295835873",
    "latitude": "29.970408371742344",
    "geocoded_column": {
      "latitude": "29.970408371742344",
      "longitude": "-90.07315295835873"
    }
  },
  {
    "service_request": "2025-1231761",
    "request_type": "General Services",
    "request_reason": "General Service Request",
    "date_created": "2025-10-07T14:05:36.000",
    "date_modified": "2025-10-07T14:12:45.000",
    "case_close_date": "2025-10-07T09:12:44.000",
    "request_status": "Closed",
    "responsible_agency": "Orleans Parish Communication District",
    "final_address": "5900 BLK Bullard Ave",
    "address_councildis": "E",
    "status": "Referred to Risk Management",
    "rowid": "1231761",
    "final_x": "3716058.59672",
    "final_y": "563348.275978",
    "longitude": "-89.95774145360676",
    "latitude": "30.041916607627883",
    "geocoded_column": {
      "latitude": "30.041916607627883",
      "longitude": "-89.95774145360676"
    }
  },
  {
    "service_request": "2025-1231760",
    "request_type": "Street and Traffic Signs",
    "request_reason": "Additional Signage Request",
    "date_created": "2025-10-07T14:03:19.000",
    "date_modified": "2025-10-07T14:03:20.000",
    "request_status": "Pending",
    "responsible_agency": "Department of Public Works",
    "final_address": "S CARROLLTON AVE & FONTAINEBLEAU DR & APPLE ST",
    "address_councildis": "A",
    "status": "Pending",
    "rowid": "1231760",
    "final_x": "3665454.4",
    "final_y": "532037.28",
    "longitude": "-90.11871944283105",
    "latitude": "29.957395462741776",
    "geocoded_column": {
      "latitude": "29.957395462741776",
      "longitude": "-90.11871944283105"
    }
  },
  {
    "service_request": "2025-1231759",
    "request_type": "Trash/Recycling",
    "request_reason": "Request a Large Item Pick Up",
    "date_created": "2025-10-07T14:02:39.000",
    "date_modified": "2025-10-07T14:02:41.000",
    "request_status": "Pending",
    "responsible_agency": "Department of Sanitation",
    "final_address": "4406 Lonely Oak Dr",
    "address_councildis": "E",
    "status": "Assigned to Contractor",
    "contractor": "Waste Pro",
    "rowid": "1231759",
    "final_x": "3702407.7569",
    "final_y": "552842.756694",
    "longitude": "-90.00126891333656",
    "latitude": "30.01347403600308",
    "geocoded_column": {
      "latitude": "30.01347403600308",
      "longitude": "-90.00126891333656"
    }
  },
  {
    "service_request": "2025-1231758",
    "request_type": "Road Striping",
    "request_reason": "Lane Striping or other Pavement Markings",
    "date_created": "2025-10-07T14:00:14.000",
    "date_modified": "2025-10-07T14:00:17.000",
    "request_status": "Pending",
    "responsible_agency": "Department of Public Works",
    "final_address": "4401 S Broad St",
    "address_councildis": "B",
    "status": "Pending",
    "rowid": "1231758",
    "final_x": "3670064.357",
    "final_y": "529084.248",
    "longitude": "-90.10426256279271",
    "latitude": "29.94914042401191",
    "geocoded_column": {
      "latitude": "29.94914042401191",
      "longitude": "-90.10426256279271"
    }
  },
  {
    "service_request": "2025-1231757",
    "request_type": "Trash/Recycling",
    "request_reason": "Request a Large Item Pick Up",
    "date_created": "2025-10-07T13:59:32.000",
    "date_modified": "2025-10-07T13:59:34.000",
    "request_status": "Pending",
    "responsible_agency": "Department of Sanitation",
    "final_address": "1017 Wilson Dr",
    "address_councildis": "A",
    "status": "Assigned to Contractor",
    "contractor": "IV Waste",
    "rowid": "1231757",
    "final_x": "3674355.62932",
    "final_y": "540609.464523",
    "longitude": "-90.09031835065842",
    "latitude": "29.980703623384887",
    "geocoded_column": {
      "latitude": "29.980703623384887",
      "longitude": "-90.09031835065842"
    }
  },
  {
    "service_request": "2025-1231756",
    "request_type": "Trash/Recycling",
    "request_reason": "Repair Recycling Cart",
    "date_created": "2025-10-07T13:56:49.000",
    "date_modified": "2025-10-07T13:56:51.000",
    "request_status": "Pending",
    "responsible_agency": "Department of Sanitation",
    "final_address": "2419 Pine St",
    "address_councildis": "A",
    "status": "Pending",
    "rowid": "1231756",
    "final_x": "3666513.23841",
    "final_y": "530377.849218",
    "longitude": "-90.11543163142738",
    "latitude": "29.952801665642045",
    "geocoded_column": {
      "latitude": "29.952801665642045",
      "longitude": "-90.11543163142738"
    }
  },
  {
    "service_request": "2025-1231755",
    "request_type": "Trash/Recycling",
    "request_reason": "Request a Large Item Pick Up",
    "date_created": "2025-10-07T13:55:56.000",
    "date_modified": "2025-10-07T13:55:58.000",
    "request_status": "Pending",
    "responsible_agency": "Department of Sanitation",
    "final_address": "6801 Louisville St",
    "address_councildis": "A",
    "status": "Assigned to Contractor",
    "contractor": "IV Waste",
    "rowid": "1231755",
    "final_x": "3668335.71796",
    "final_y": "552790.297814",
    "longitude": "-90.10892082118019",
    "latitude": "30.014374901642938",
    "geocoded_column": {
      "latitude": "30.014374901642938",
      "longitude": "-90.10892082118019"
    }
  },