[
  {
    "service_request": "2022-922498",
    "request_type": "Trash/Recycling",
    "request_reason": "Missed Trash Pick-Up",
    "date_created": "2022-09-21T23:18:15.000",
    "date_modified": "2022-09-21T23:18:16.000",
    "request_status": "Pending",
    "responsible_agency": "Department of Sanitation",
    "final_address": "1818 Wilton Dr",
    "address_councildis": "D",
    "status": "Assigned to Contractor",
    "contractor": "Metro Disposal",
    "rowid": "922498",
    "final_x": "3681317.63784",
    "final_y": "550817.438869",
    "longitude": "-90.06797325266595",
    "latitude": "30.008562431051",
    "geocoded_column": {
      "latitude": "30.008562431051",
      "longitude": "-90.06797325266595"
    }
  },
  {
    "service_request": "2022-922497",
    "request_type": "Trash/Recycling",
    "request_reason": "Missed Trash Pick-Up",
    "date_created": "2022-09-21T22:48:58.000",
    "date_modified": "2022-09-21T22:48:59.000",
    "request_status": "Pending",
    "responsible_agency": "Department of Sanitation",
    "final_address": "2219 Burdette St",
    "address_councildis": "A",
    "status": "Assigned to Contractor",
    "contractor": "Richards Disposal",
    "rowid": "922497",
    "final_x": "3665349.0224",
    "final_y": "530294.324929",
    "longitude": "-90.11911051698317",
    "latitude": "29.952605974912668",
    "geocoded_column": {
      "latitude": "29.952605974912668",
      "longitude": "-90.11911051698317"
    }
  },
  {
    "service_request": "2022-922496",
    "request_type": "Traffic Signals/Signs/Striping/Streetlights",
    "request_reason": "Street Light Outage/Malfunction",
    "date_created": "2022-09-21T22:21:41.000",
    "date_modified": "2022-09-21T22:21:41.000",
    "request_status": "Pending",
    "responsible_agency": "Department of Public Works",
    "final_address": "2500 BLK Myrtle St",
    "address_councildis": "D",
    "status": "Pending",
    "contractor": "Legacy Professional Services",
    "rowid": "922496",
    "final_x": "3686768.1822",
    "final_y": "546030.642634",
    "longitude": "-90.05092253381262",
    "latitude": "29.995233846019083",
    "geocoded_column": {
      "latitude": "29.995233846019083",
      "longitude": "-90.05092253381262"
    }
  },
  {
    "service_request": "2022-922494",
    "request_type": "Roads/Drainage",
    "request_reason": "Accessibility Ramps, Curbs and Sidewalk Repair",
    "date_created": "2022-09-21T22:11:46.000",
    "date_modified": "2022-09-21T22:11:46.000",
    "request_status": "Pending",
    "responsible_agency": "Department of Public Works",
    "final_address": "516 S Scott St",
    "address_councildis": "B",
    "status": "Pending",
    "rowid": "922494",
    "final_x": "3670751.35201",
    "final_y": "536406.167239",
    "longitude": "-90.10184494695903",
    "latitude": "29.969252993590068",
    "geocoded_column": {
      "latitude": "29.969252993590068",
      "longitude": "-90.10184494695903"
    }
  },
  {
    "service_request": "2022-922493",
    "request_type": "Traffic Signals/Signs/Striping/Streetlights",
    "request_reason": "Traffic Sign Missing/Damaged",
    "date_created": "2022-09-21T21:51:26.000",
    "date_modified": "2022-09-21T21:51:26.000",
    "request_status": "Pending",
    "responsible_agency": "Department of Public Works",
    "final_address": "138 Millaudon St",
    "address_councildis": "A",
    "status": "Pending",
    "rowid": "922493",
    "final_x": "3660844.02771",
    "final_y": "523511.706619",
    "longitude": "-90.13355957892715",
    "latitude": "29.93408642539112",
    "geocoded_column": {
      "latitude": "29.93408642539112",
      "longitude": "-90.13355957892715"
    }
  },
  {
    "service_request": "2022-922492",
    "request_type": "Traffic Signals/Signs/Striping/Streetlights",
    "request_reason": "Street Light Knocked Down/Leaning",
    "date_created": "2022-09-21T21:50:24.000",
    "date_modified": "2022-09-21T21:51:21.000",
    "request_status": "Pending",
    "responsible_agency": "Department of Public Works",
    "final_address": "DERBY PL & GENTILLY BLVD",
    "address_councildis": "D",
    "status": "Pending",
    "contractor": "Legacy Professional Services",
    "rowid": "922492",
    "final_x": "3678899.6",
    "final_y": "542852.08",
    "longitude": "-90.07588877047303",
    "latitude": "29.986733713513107",
    "geocoded_column": {
      "latitude": "29.986733713513107",
      "longitude": "-90.07588877047303"
    }
  },
  {
    "service_request": "2022-922491",
    "request_type": "Traffic Signals/Signs/Striping/Streetlights",
    "request_reason": "Street Light Outage/Malfunction",
    "date_created": "2022-09-21T21:40:08.000",
    "date_modified": "2022-09-21T21:40:09.000",
    "request_status": "Pending",
    "responsible_agency": "Department of Public Works",
    "final_address": "7420 Mayo Rd",
    "address_councildis": "E",
    "status": "Pending",
    "contractor": "Legacy Professional Services",
    "rowid": "922491",
    "final_x": "3700876.18109",
    "final_y": "560142.028957",
    "longitude": "-90.00584067825267",
    "latitude": "30.03359310159656",
    "geocoded_column": {
      "latitude": "30.03359310159656",
      "longitude": "-90.00584067825267"
    }
  },
  {
    "service_request": "2022-922490",
    "request_type": "Property Maintenance",
    "request_reason": "Property Maintenance",
    "date_created": "2022-09-21T21:35:42.000",
    "date_modified": "2022-09-21T21:35:42.000",
    "request_status": "Pending",
    "responsible_agency": "Department of Code Enforcement",
    "final_address": "3215 Cherry St",
    "address_councildis": "A",
    "status": "Pending",
    "rowid": "922490",
    "final_x": "3663758.11635",
    "final_y": "536570.515207",
    "longitude": "-90.12392473466345",
    "latitude": "29.9699097064629",
    "geocoded_column": {
      "latitude": "29.9699097064629",
      "longitude": "-90.12392473466345"
    }
  },
  {
    "service_request": "2022-922489",
    "request_type": "Trash/Recycling",
    "request_reason": "Missed Trash Pick-Up",
    "date_created": "2022-09-21T21:11:03.000",
    "date_modified": "2022-09-21T21:11:04.000",
    "request_status": "Pending",
    "responsible_agency": "Department of Sanitation",
    "final_address": "7616 Hurst St",
    "address_councildis": "A",
    "status": "Assigned to Contractor",
    "contractor": "Richards Disposal",
    "rowid": "922489",
    "final_x": "3660793.83546",
    "final_y": "524642.908284",
    "longitude": "-90.1336806460374",
    "latitude": "29.93719831889418",
    "geocoded_column": {
      "latitude": "29.93719831889418",
      "longitude": "-90.1336806460374"
    }
  },
  {
    "service_request": "2022-922488",
    "request_type": "Trash/Recycling",
    "request_reason": "Missed Trash Pick-Up",
    "date_created": "2022-09-21T21:11:01.000",
    "date_modified": "2022-09-21T21:11:02.000",
    "request_status": "Pending",
    "responsible_agency": "Department of Sanitation",
    "final_address": "2124 Burgundy St",
    "address_councildis": "C",
    "status": "Assigned to Contractor",
    "contractor": "Metro Disposal",
    "rowid": "922488",
    "final_x": "3684875.93609",
    "final_y": "535540.749062",
    "longitude": "-90.05726895990139",
    "latitude": "29.96644842625025",
    "geocoded_column": {
      "latitude": "29.96644842625025",
      "longitude": "-90.05726895990139"
    }
  },
  {
    "service_request": "2022-922487",
    "request_type": "Trash/Recycling",
    "request_reason": "Missed Trash Pick-Up",
    "date_created": "2022-09-21T21:00:05.000",
    "date_modified": "2022-09-21T21:00:06.000",
    "request_status": "Pending",
    "responsible_agency": "Department of Sanitation",
    "final_address": "1111 Jefferson Ave",
    "address_councildis": "B",
    "status": "Assigned to Contractor",
    "contractor": "Richards Disposal",
    "rowid": "922487",
    "final_x": "3667064.86004",
    "final_y": "519624.076856",
    "longitude": "-90.11405116987353",
    "latitude": "29.92321610697393",
    "geocoded_column": {
      "latitude": "29.92321610697393",
      "longitude": "-90.11405116987353"
    }
  },
  {
    "service_request": "2022-922486",
    "request_type": "Trash/Recycling",
    "request_reason": "Missed Trash Pick-Up",
    "date_created": "2022-09-21T20:52:30.000",
    "date_modified": "2022-09-21T20:52:31.000",
    "request_status": "Pending",
    "responsible_agency": "Department of Sanitation",
    "final_address": "6560 Catina St",
    "address_councildis": "A",
    "status": "Assigned to Contractor",
    "contractor": "Metro Disposal",
    "rowid": "922486",
    "final_x": "3666908.17607",
    "final_y": "551386.235669",
    "longitude": "-90.11347838901612",
    "latitude": "30.010556089200083",
    "geocoded_column": {
      "latitude": "30.010556089200083",
      "longitude": "-90.11347838901612"
    }
  },
  {
    "service_request": "2022-922485",
    "request_type": "Health Related Questions",
    "request_reason": "Noise Ordinance Complaint",
    "date_created": "2022-09-21T20:32:40.000",
    "date_modified": "2022-09-21T20:32:40.000",
    "request_status": "Pending",
    "responsible_agency": "Health Department",
    "final_address": "5010 S Robertson St",
    "address_councildis": "B",
    "status": "Pending",
    "rowid": "922485",
    "final_x": "3668654.35982",
    "final_y": "524225.60294",
    "longitude": "-90.10887849078452",
    "latitude": "29.93582223345129",
    "geocoded_column": {
      "latitude": "29.93582223345129",
      "longitude": "-90.10887849078452"
    }
  },
  {
    "service_request": "2022-922484",
    "request_type": "Traffic Signals/Signs/Striping/Streetlights",
    "request_reason": "Street Light Knocked Down/Leaning",
    "date_created": "2022-09-21T20:20:37.000",
    "date_modified": "2022-09-21T20:20:38.000",
    "request_status": "Pending",
    "responsible_agency": "Department of Public Works",
    "final_address": "LAKESHORE DR & LEROY JOHNSON DR",
    "address_councildis": "D",
    "status": "Pending",
    "contractor": "Legacy Professional Services",
    "rowid": "922484",
    "final_x": "3689212.0",
    "final_y": "560520.88",
    "longitude": "-90.04268721015042",
    "latitude": "30.03500120589545",
    "geocoded_column": {
      "latitude": "30.03500120589545",
      "longitude": "-90.04268721015042"
    }
  },
  {
    "service_request": "2022-922483",
    "request_type": "Traffic Signals/Signs/Striping/Streetlights",
    "request_reason": "Street Light Outage/Malfunction",
    "date_created": "2022-09-21T20:04:21.000",
    "date_modified": "2022-09-21T20:04:22.000",
    "request_status": "Pending",
    "responsible_agency": "Department of Public Works",
    "final_address": "5711 Canal Blvd",
    "address_councildis": "A",
    "status": "Pending",
    "contractor": "Legacy Professional Services",
    "rowid": "922483",
    "final_x": "3668453.29806",
    "final_y": "545532.056912",
    "longitude": "-90.10879440029744",
    "latitude": "29.994413810440307",
    "geocoded_column": {
      "latitude": "29.994413810440307",
      "longitude": "-90.10879440029744"
    }
  },
  {
    "service_request": "2022-922482",
    "request_type": "Trash/Recycling",
    "request_reason": "Missed Trash Pick-Up",
    "date_created": "2022-09-21T20:03:46.000",
    "date_modified": "2022-09-21T20:03:47.000",
    "request_status": "Pending",
    "responsible_agency": "Department of Sanitation",
    "final_address": "436 Lowerline St",
    "address_councildis": "A",
    "status": "Assigned to Contractor",
    "contractor": "Richards Disposal",
    "rowid": "922482",
    "final_x": "3661796.24653",
    "final_y": "524178.173308",
    "longitude": "-90.1305313581377",
    "latitude": "29.935891548963873",
    "geocoded_column": {
      "latitude": "29.935891548963873",
      "longitude": "-90.1305313581377"
    }
  },
  {
    "service_request": "2022-922481",
    "request_type": "Roads/Drainage",
    "request_reason": "Catch Basin - Clogged",
    "date_created": "2022-09-21T19:48:05.000",
    "date_modified": "2022-09-21T19:48:05.000",
    "request_status": "Pending",
    "responsible_agency": "Department of Public Works",
    "final_address": "4743 Marque Dr",
    "address_councildis": "E",
    "status": "Pending",
    "rowid": "922481",
    "final_x": "3710136.47461",
    "final_y": "555733.647833",
    "longitude": "-89.97674232108685",
    "latitude": "30.021173548228123",
    "geocoded_column": {
      "latitude": "30.021173548228123",
      "longitude": "-89.97674232108685"
    }
  },
  {
    "service_request": "2022-922480",
    "request_type": "Traffic Signals/Signs/Striping/Streetlights",
    "request_reason": "Street Light Outage/Malfunction",
    "date_created": "2022-09-21T19:45:42.000",
    "date_modified": "2022-09-21T19:45:43.000",
    "request_status": "Pending",
    "responsible_agency": "Department of Public Works",
    "final_address": "2558 Lavender St",
    "address_councildis": "D",
    "status": "Pending",
    "contractor": "Legacy Professional Services",
    "rowid": "922480",
    "final_x": "3686829.3135",
    "final_y": "546883.434065",
    "longitude": "-90.0506992719201",
    "latitude": "29.997576834109065",
    "geocoded_column": {
      "latitude": "29.997576834109065",
      "longitude": "-90.0506992719201"
    }
  },
  {
    "service_request": "2022-922479",
    "request_type": "Trash/Recycling",
    "request_reason": "Missed Trash Pick-Up",
    "date_created": "2022-09-21T19:24:17.000",
    "date_modified": "2022-09-21T19:24:18.000",
    "request_status": "Pending",
    "responsible_agency": "Department of Sanitation",
    "final_address": "1211 Sixth St",
    "address_councildis": "B",
    "status": "Assigned to Contractor",
    "contractor": "Richards Disposal",
    "rowid": "922479",
    "final_x": "3676419.42747",
    "final_y": "520952.661497",
    "longitude": "-90.08447663197596",
    "latitude": "29.92659226392518",
    "geocoded_column": {
      "latitude": "29.92659226392518",
      "longitude": "-90.08447663197596"
    }
  },
  {
    "service_request": "2022-922478",
    "request_type": "Trash/Recycling",
    "request_reason": "Missed Trash Pick-Up",
    "date_created": "2022-09-21T19:18:36.000",
    "date_modified": "2022-09-21T19:18:37.000",
    "request_status": "Pending",
    "responsible_agency": "Department of Sanitation",
    "final_address": "6553 Colbert St",
    "address_councildis": "A",
    "status": "Assigned to Contractor",
    "contractor": "Metro Disposal",
    "rowid": "922478",
    "final_x": "3667858.10285",
    "final_y": "551204.476309",
    "longitude": "-90.11048332470615",
    "latitude": "30.010028473614984",
    "geocoded_column": {
      "latitude": "30.010028473614984",
      "longitude": "-90.11048332470615"
    }
  },
  {
    "service_request": "2022-922477",
    "request_type": "Property Maintenance",
    "request_reason": "Property Maintenance",
    "date_created": "2022-09-21T19:16:45.000",
    "date_modified": "2022-09-21T19:16:45.000",
    "request_status": "Pending",
    "responsible_agency": "Department of Code Enforcement",
    "final_address": "3030 St Anthony Ave",
    "address_councildis": "D",
    "status": "Pending",
    "rowid": "922477",
    "final_x": "3682771.72866",
    "final_y": "543752.007182",
    "longitude": "-90.06362666919985",
    "latitude": "29.989090787278116",
    "geocoded_column": {
      "latitude": "29.989090787278116",
      "longitude": "-90.06362666919985"
    }
  },
  {
    "service_request": "2022-922476",
    "request_type": "Trash/Recycling",
    "request_reason": "Missed Trash Pick-Up",
    "date_created": "2022-09-21T19:07:58.000",
    "date_modified": "2022-09-21T19:07:59.000",
    "request_status": "Pending",
    "responsible_agency": "Department of Sanitation",
    "final_address": "1515 Jefferson Ave",
    "address_councildis": "B",
    "status": "Assigned to Contractor",
    "contractor": "Richards Disposal",
    "rowid": "922476",
    "final_x": "3667248.21767",
    "final_y": "520687.835257",
    "longitude": "-90.11343662860484",
    "latitude": "29.926135740304627",
    "geocoded_column": {
      "latitude": "29.926135740304627",
      "longitude": "-90.11343662860484"
    }
  },
  {
    "service_request": "2022-922475",
    "request_type": "Trash/Recycling",
    "request_reason": "Missed Trash Pick-Up",
    "date_created": "2022-09-21T19:00:56.000",
    "date_modified": "2022-09-21T19:00:56.000",
    "request_status": "Pending",
    "responsible_agency": "Department of Sanitation",
    "final_address": "5650 Orleans Ave",
    "address_councildis": "A",
    "status": "Assigned to Contractor",
    "contractor": "Metro Disposal",
    "rowid": "922475",
    "final_x": "3670611.94043",
    "final_y": "544987.195407",
    "longitude": "-90.10199400398078",
    "latitude": "29.992852021101907",
    "geocoded_column": {
      "latitude": "29.992852021101907",
      "longitude": "-90.10199400398078"
    }
  },
  {
    "service_request": "2022-922474",
    "request_type": "Trash/Recycling",
    "request_reason": "Missed Trash Pick-Up",
    "date_created": "2022-09-21T18:51:29.000",
    "date_modified": "2022-09-21T18:51:29.000",
    "request_status": "Pending",
    "responsible_agency": "Department of Sanitation",
    "final_address": "2420 Pine St",
    "address_councildis": "A",
    "status": "Assigned to Contractor",
    "contractor": "Richards Disposal",
    "rowid": "922474",
    "final_x": "3666432.46957",
    "final_y": "530549.881794",
    "longitude": "-90.11568089195933",
    "latitude": "29.953277059479298",
    "geocoded_column": {
      "latitude": "29.953277059479298",
      "longitude": "-90.11568089195933"
    }
  },
  {
    "service_request": "2022-922473",
    "request_type": "Trash/Recycling",
    "request_reason": "Missed Trash Pick-Up",
    "date_created": "2022-09-21T18:46:15.000",
    "date_modified": "2022-09-21T18:46:16.000",
    "request_status": "Pending",
    "responsible_agency": "Department of Sanitation",
    "final_address": "7719 Pearl St",
    "address_councildis": "A",
    "status": "Assigned to Contractor",
    "contractor": "Richards Disposal",
    "rowid": "922473",
    "final_x": "3661322.75584",
    "final_y": "525685.491069",
    "longitude": "-90.1319762934953",
    "latitude": "29.940049854606897",
    "geocoded_column": {
      "latitude": "29.940049854606897",
      "longitude": "-90.1319762934953"
    }
  },
  {
    "service_request": "2022-922472",
    "request_type": "Trash/Recycling",
    "request_reason": "Missed Trash Pick-Up",
    "date_created": "2022-09-21T18:41:40.000",
    "date_modified": "2022-09-21T18:41:41.000",
    "request_status": "Pending",
    "responsible_agency": "Department of Sanitation",
    "final_address": "5492 Hawthorne Pl",
    "address_councildis": "A",
    "status": "Assigned to Contractor",
    "contractor": "Metro Disposal",
    "rowid": "922472",
    "final_x": "3667751.2994",
    "final_y": "543794.092878",
    "longitude": "-90.11107049336911",
    "latitude": "29.989655613877932",
    "geocoded_column": {
      "latitude": "29.989655613877932",
      "longitude": "-90.11107049336911"
    }
  },
  {
    "service_request": "2022-922471",
    "request_type": "Traffic Signals/Signs/Striping/Streetlights",
    "request_reason": "Request for Stop Sign",
    "date_created": "2022-09-21T18:36:09.000",
    "date_modified": "2022-09-21T18:36:09.000",
    "request_status": "Pending",
    "responsible_agency": "Department of Public Works",
    "final_address": "2830 N Rampart St",
    "address_councildis": "C",
    "status": "Pending",
    "rowid": "922471",
    "final_x": "3687855.04284",
    "final_y": "535778.886663",
    "longitude": "-90.04785256907486",
    "latitude": "29.96701166050381",
    "geocoded_column": {
      "latitude": "29.96701166050381",
      "longitude": "-90.04785256907486"
    }
  },
  {
    "service_request": "2022-922470",
    "request_type": "Trash/Recycling",
    "request_reason": "Missed Trash Pick-Up",
    "date_created": "2022-09-21T18:33:36.000",
    "date_modified": "2022-09-21T18:33:37.000",
    "request_status": "Pending",
    "responsible_agency": "Department of Sanitation",
    "final_address": "7312 Benjamin St",
    "address_councildis": "A",
    "status": "Assigned to Contractor",
    "contractor": "Richards Disposal",
    "rowid": "922470",
    "final_x": "3662079.13799",
    "final_y": "524067.913532",
    "longitude": "-90.12964191636387",
    "latitude": "29.93558020108946",
    "geocoded_column": {
      "latitude": "29.93558020108946",
      "longitude": "-90.12964191636387"
    }
  },
  {
    "service_request": "2022-922468",
    "request_type": "Trash/Recycling",
    "request_reason": "Missed Trash Pick-Up",
    "date_created": "2022-09-21T18:26:13.000",
    "date_modified": "2022-09-21T18:26:14.000",
    "request_status": "Pending",
    "responsible_agency": "Department of Sanitation",
    "final_address": "1631 N Rocheblave St",
    "address_councildis": "D",
    "status": "Assigned to Contractor",
    "contractor": "Metro Disposal",
    "rowid": "922468",
    "final_x": "3680071.85743",
    "final_y": "539733.672138",
    "longitude": "-90.0722944471605",
    "latitude": "29.978123754157632",
    "geocoded_column": {
      "latitude": "29.978123754157632",
      "longitude": "-90.0722944471605"
    }
  },
  {
    "service_request": "2022-922466",
    "request_type": "Trash/Recycling",
    "request_reason": "Missed Trash Pick-Up",
    "date_created": "2022-09-21T18:24:35.000",
    "date_modified": "2022-09-21T18:24:35.000",
    "request_status": "Pending",
    "responsible_agency": "Department of Sanitation",
    "final_address": "5852 Catina St",
    "address_councildis": "A",
    "status": "Assigned to Contractor",
    "contractor": "Metro Disposal",
    "rowid": "922466",
    "final_x": "3666688.75335",
    "final_y": "546875.106705",
    "longitude": "-90.1143232571773",
    "latitude": "29.99815846953292",
    "geocoded_column": {
      "latitude": "29.99815846953292",
      "longitude": "-90.1143232571773"
    }
  },
  {
    "service_request": "2022-922464",
    "request_type": "Trash/Recycling",
    "request_reason": "Missed Trash Pick-Up",
    "date_created": "2022-09-21T18:16:48.000",
    "date_modified": "2022-09-21T18:16:49.000",
    "request_status": "Pending",
    "responsible_agency": "Department of Sanitation",
    "final_address": "1656 N Tonti St",
    "address_councildis": "D",
    "status": "Assigned to Contractor",
    "contractor": "Metro Disposal",
    "rowid": "922464",
    "final_x": "3680541.43343",
    "final_y": "539667.669002",
    "longitude": "-90.07081365645098",
    "latitude": "29.977928050280887",
    "geocoded_column": {
      "latitude": "29.977928050280887",
      "longitude": "-90.07081365645098"
    }
  },
  {
    "service_request": "2022-922463",
    "request_type": "Trash/Recycling",
    "request_reason": "Missed Trash Pick-Up",
    "date_created": "2022-09-21T18:14:17.000",
    "date_modified": "2022-09-21T18:14:18.000",
    "request_status": "Pending",
    "responsible_agency": "Department of Sanitation",
    "final_address": "508 Filmore Ave",
    "address_councildis": "A",
    "status": "Assigned to Contractor",
    "contractor": "Metro Disposal",
    "rowid": "922463",
    "final_x": "3668262.96666",
    "final_y": "551998.912854",
    "longitude": "-90.10917739277946",
    "latitude": "30.01220100872681",
    "geocoded_column": {
      "latitude": "30.01220100872681",
      "longitude": "-90.10917739277946"
    }
  },
  {
    "service_request": "2022-922462",
    "request_type": "Abandoned Vehicles",
    "request_reason": "Abandoned/Junk Vehicles",
    "date_created": "2022-09-21T18:07:40.000",
    "date_modified": "2022-09-21T18:07:40.000",
    "request_status": "Pending",
    "responsible_agency": "Department of Public Works",
    "final_address": "1438 France St",
    "address_councildis": "D",
    "status": "Pending",
    "rowid": "922462",
    "final_x": "3692689.92611",
    "final_y": "536584.839367",
    "longitude": "-90.03255515663366",
    "latitude": "29.9690777158939",
    "geocoded_column": {
      "latitude": "29.9690777158939",
      "longitude": "-90.03255515663366"
    }
  },
  {
    "service_request": "2022-922461",
    "request_type": "Trash/Recycling",
    "request_reason": "Missed Trash Pick-Up",
    "date_created": "2022-09-21T17:57:58.000",
    "date_modified": "2022-09-21T17:57:59.000",
    "request_status": "Pending",
    "responsible_agency": "Department of Sanitation",
    "final_address": "1201 Pine St",
    "address_councildis": "A",
    "status": "Assigned to Contractor",
    "contractor": "Richards Disposal",
    "rowid": "922461",
    "final_x": "3663976.39591",
    "final_y": "526674.45971",
    "longitude": "-90.1235653473237",
    "latitude": "29.94269243405165",
    "geocoded_column": {
      "latitude": "29.94269243405165",
      "longitude": "-90.1235653473237"
    }
  },
  {
    "service_request": "2022-922460",
    "request_type": "Trash/Recycling",
    "request_reason": "Missed Trash Pick-Up",
    "date_created": "2022-09-21T17:57:50.000",
    "date_modified": "2022-09-21T17:57:50.000",
    "request_status": "Pending",
    "responsible_agency": "Department of Sanitation",
    "final_address": "1652 N Dorgenois St",
    "address_councildis": "D",
    "status": "Assigned to Contractor",
    "contractor": "Metro Disposal",
    "rowid": "922460",
    "final_x": "3679888.04507",
    "final_y": "540146.133451",
    "longitude": "-90.07286066167424",
    "latitude": "29.979263440758537",
    "geocoded_column": {
      "latitude": "29.979263440758537",
      "longitude": "-90.07286066167424"
    }
  },
  {
    "service_request": "2022-922458",
    "request_type": "Trash/Recycling",
    "request_reason": "Missed Trash Pick-Up",
    "date_created": "2022-09-21T17:42:29.000",
    "date_modified": "2022-09-21T17:42:30.000",
    "request_status": "Pending",
    "responsible_agency": "Department of Sanitation",
    "final_address": "6424 Milne Blvd",
    "address_councildis": "A",
    "status": "Assigned to Contractor",
    "contractor": "Metro Disposal",
    "rowid": "922458",
    "final_x": "3667223.92756",
    "final_y": "550532.691604",
    "longitude": "-90.11250953699762",
    "latitude": "30.008199894454588",
    "geocoded_column": {
      "latitude": "30.008199894454588",
      "longitude": "-90.11250953699762"
    }
  },
  {
    "service_request": "2022-922457",
    "request_type": "Trash/Recycling",
    "request_reason": "Missed Trash Pick-Up",
    "date_created": "2022-09-21T17:41:31.000",
    "date_modified": "2022-09-21T17:41:32.000",
    "request_status": "Pending",
    "responsible_agency": "Department of Sanitation",
    "final_address": "7903 Plum St",
    "address_councildis": "A",
    "status": "Assigned to Contractor",
    "contractor": "Richards Disposal",
    "rowid": "922457",
    "final_x": "3662757.28013",
    "final_y": "528177.268416",
    "longitude": "-90.1273644637923",
    "latitude": "29.946860013110612",
    "geocoded_column": {
      "latitude": "29.946860013110612",
      "longitude": "-90.1273644637923"
    }
  },
  {
    "service_request": "2022-922456",
    "request_type": "Trash/Recycling",
    "request_reason": "Missed Trash Pick-Up",
    "date_created": "2022-09-21T17:40:21.000",
    "date_modified": "2022-09-21T17:40:21.000",
    "request_status": "Pending",
    "responsible_agency": "Department of Sanitation",
    "final_address": "5525 Hawthorne Pl",
    "address_councildis": "A",
    "status": "Assigned to Contractor",
    "contractor": "Metro Disposal",
    "rowid": "922456",
    "final_x": "3667906.68666",
    "final_y": "544439.584975",
    "longitude": "-90.11055790837796",
    "latitude": "29.991425938002156",
    "geocoded_column": {
      "latitude": "29.991425938002156",
      "longitude": "-90.11055790837796"
    }
  },
  {
    "service_request": "2022-922454",
    "request_type": "Trash/Recycling",
    "request_reason": "Replace Trash Cart",
    "date_created": "2022-09-21T17:38:39.000",
    "date_modified": "2022-09-21T17:38:40.000",
    "request_status": "Pending",
    "responsible_agency": "Department of Sanitation",
    "final_address": "1415 Harmony St",
    "address_councildis": "B",
    "status": "Assigned to Contractor",
    "contractor": "Richards Disposal",
    "rowid": "922454",
    "final_x": "3675288.58664",
    "final_y": "521064.420473",
    "longitude": "-90.08804255629256",
    "latitude": "29.92693340651666",
    "geocoded_column": {
      "latitude": "29.92693340651666",
      "longitude": "-90.08804255629256"
    }
  },
  {
    "service_request": "2022-922453",
    "request_type": "Property Maintenance",
    "request_reason": "Property Maintenance",
    "date_created": "2022-09-21T17:37:34.000",
    "date_modified": "2022-09-21T17:37:34.000",
    "request_status": "Pending",
    "responsible_agency": "Department of Code Enforcement",
    "final_address": "604 French St",
    "address_councildis": "A",
    "status": "Pending",
    "rowid": "922453",
    "final_x": "3668261.6185",
    "final_y": "548566.241747",
    "longitude": "-90.10929750650398",
    "latitude": "30.002762401608752",
    "geocoded_column": {
      "latitude": "30.002762401608752",
      "longitude": "-90.10929750650398"
    }
  },
  {
    "service_request": "2022-922452",
    "request_type": "Trash/Recycling",
    "request_reason": "Missed Trash Pick-Up",
    "date_created": "2022-09-21T17:37:29.000",
    "date_modified": "2022-09-21T17:37:30.000",
    "request_status": "Pending",
    "responsible_agency": "Department of Sanitation",
    "final_address": "1219 Jefferson Ave",
    "address_councildis": "B",
    "status": "Assigned to Contractor",
    "contractor": "Richards Disposal",
    "rowid": "922452",
    "final_x": "3667122.21313",
    "final_y": "519981.939512",
    "longitude": "-90.11385810506765",
    "latitude": "29.924198438138536",
    "geocoded_column": {
      "latitude": "29.924198438138536",
      "longitude": "-90.11385810506765"
    }
  },
  {
    "service_request": "2022-922451",
    "request_type": "Trash/Recycling",
    "request_reason": "Missed Trash Pick-Up",
    "date_created": "2022-09-21T17:34:23.000",
    "date_modified": "2022-09-21T17:34:23.000",
    "case_close_date": "2021-11-23T18:00:00.000",
    "request_status": "Pending",
    "responsible_agency": "Department of Sanitation",
    "final_address": "5844 Louis Xiv St",
    "address_councildis": "A",
    "status": "Assigned to Contractor",
    "contractor": "Metro Disposal",
    "rowid": "922451",
    "final_x": "3667930.93741",
    "final_y": "546413.305489",
    "longitude": "-90.11041476605872",
    "latitude": "29.996852280134146",
    "geocoded_column": {
      "latitude": "29.996852280134146",
      "longitude": "-90.11041476605872"
    }
  },
  {
    "service_request": "2022-922449",
    "request_type": "Abandoned Vehicles",
    "request_reason": "Abandoned/Junk Vehicles",
    "date_created": "2022-09-21T17:29:22.000",
    "date_modified": "2022-09-21T17:29:22.000",
    "request_status": "Pending",
    "responsible_agency": "Department of Public Works",
    "final_address": "4659 Francis Dr",
    "address_councildis": "D",
    "status": "Pending",
    "rowid": "922449",
    "final_x": "3698346.34115",
    "final_y": "553987.907416",
    "longitude": "-90.0140591235977",
    "latitude": "30.016751965972947",
    "geocoded_column": {
      "latitude": "30.016751965972947",
      "longitude": "-90.0140591235977"
    }
  },
  {
    "service_request": "2022-922448",
    "request_type": "Abandoned Vehicles",
    "request_reason": "Abandoned/Junk Vehicles",
    "date_created": "2022-09-21T17:23:13.000",
    "date_modified": "2022-09-21T17:23:13.000",
    "request_status": "Pending",
    "responsible_agency": "Department of Public Works",
    "final_address": "4659 Francis Dr",
    "address_councildis": "D",
    "status": "Pending",
    "rowid": "922448",
    "final_x": "3698346.34115",
    "final_y": "553987.907416",
    "longitude": "-90.0140591235977",
    "latitude": "30.016751965972947",
    "geocoded_column": {
      "latitude": "30.016751965972947",
      "longitude": "-90.0140591235977"
    }
  },
  {
    "service_request": "2022-922447",
    "request_type": "Trash/Recycling",
    "request_reason": "Missed Trash Pick-Up",
    "date_created": "2022-09-21T17:22:40.000",
    "date_modified": "2022-09-21T17:22:41.000",
    "request_status": "Pending",
    "responsible_agency": "Department of Sanitation",
    "final_address": "2120 Columbus St, New Orleans, Louisiana, 70119",
    "address_councildis": "D",
    "status": "Assigned to Contractor",
    "contractor": "Metro Disposal",
    "rowid": "922447",
    "final_x": "3680150.51183",
    "final_y": "538345.262793",
    "longitude": "-90.07209429580024",
    "latitude": "29.974303728561466",
    "geocoded_column": {
      "latitude": "29.974303728561466",
      "longitude": "-90.07209429580024"
    }
  },
  {
    "service_request": "2022-922446",
    "request_type": "Trash/Recycling",
    "request_reason": "Missed Trash Pick-Up",
    "date_created": "2022-09-21T17:22:27.000",
    "date_modified": "2022-09-21T17:22:28.000",
    "request_status": "Pending",
    "responsible_agency": "Department of Sanitation",
    "final_address": "2762 Mendez St",
    "address_councildis": "D",
    "status": "Assigned to Contractor",
    "contractor": "Metro Disposal",
    "rowid": "922446",
    "final_x": "3687788.27894",
    "final_y": "553692.453591",
    "longitude": "-90.04742854759058",
    "latitude": "30.016269600138834",
    "geocoded_column": {
      "latitude": "30.016269600138834",
      "longitude": "-90.04742854759058"
    }
  },
  {
    "service_request": "2022-922445",
    "request_type": "Mosquito, Termite & Rodent Control",
    "request_reason": "Rodent Complaint (Rats)",
    "date_created": "2022-09-21T17:20:55.000",
    "date_modified": "2022-09-21T17:20:55.000",
    "request_status": "Pending",
    "responsible_agency": "Mosquito, Termite & Rodent Control Board",
    "final_address": "2706 Josephine St",
    "address_councildis": "B",
    "status": "Pending",
    "rowid": "922445",
    "final_x": "3675438.66875",
    "final_y": "527104.140223",
    "longitude": "-90.08736146699114",
    "latitude": "29.94353617826806",
    "geocoded_column": {
      "latitude": "29.94353617826806",
      "longitude": "-90.08736146699114"
    }
  },
  {
    "service_request": "2022-922444",
    "request_type": "Mosquito, Termite & Rodent Control",
    "request_reason": "Rodent Complaint (Rats)",
    "date_created": "2022-09-21T17:20:16.000",
    "date_modified": "2022-09-21T17:20:17.000",
    "request_status": "Pending",
    "responsible_agency": "Mosquito, Termite & Rodent Control Board",
    "final_address": "213 N Pierce St",
    "address_councildis": "A",
    "status": "Pending",
    "rowid": "922444",
    "final_x": "3671788.97159",
    "final_y": "538517.497609",
    "longitude": "-90.09849620272557",
    "latitude": "29.975027735039646",
    "geocoded_column": {
      "latitude": "29.975027735039646",
      "longitude": "-90.09849620272557"
    }
  },
  {
    "service_request": "2022-922443",
    "request_type": "Trash/Recycling",
    "request_reason": "Missed Trash Pick-Up",
    "date_created": "2022-09-21T17:15:59.000",
    "date_modified": "2022-09-21T17:16:00.000",
    "request_status": "Pending",
    "responsible_agency": "Department of Sanitation",
    "final_address": "3753 Gentilly Blvd",
    "address_councildis": "D",
    "status": "Assigned to Contractor",
    "contractor": "Metro Disposal",
    "rowid": "922443",
    "final_x": "3687493.31702",
    "final_y": "549019.750931",
    "longitude": "-90.04852603854562",
    "latitude": "30.003430477536895",
    "geocoded_column": {
      "latitude": "30.003430477536895",
      "longitude": "-90.04852603854562"
    }
  },
  {
    "service_request": "2022-922442",
    "request_type": "Trash/Recycling",
    "request_reason": "Missed Trash Pick-Up",
    "date_created": "2022-09-21T17:14:39.000",
    "date_modified": "2022-09-21T17:14:40.000",
    "request_status": "Pending",
    "responsible_agency": "Department of Sanitation",
    "final_address": "7530 Weaver Ave",
    "address_councildis": "E",
    "status": "Assigned to Contractor",
    "contractor": "Metro Disposal",
    "rowid": "922442",
    "final_x": "3707499.35979",
    "final_y": "564125.134305",
    "longitude": "-89.98476273145904",
    "latitude": "30.044332415856626",
    "geocoded_column": {
      "latitude": "30.044332415856626",
      "longitude": "-89.98476273145904"
    }
  },
  {
    "service_request": "2022-922441",
    "request_type": "Trash/Recycling",
    "request_reason": "Missed Trash Pick-Up",
    "date_created": "2022-09-21T17:12:12.000",
    "date_modified": "2022-09-21T17:12:12.000",
    "request_status": "Pending",
    "responsible_agency": "Department of Sanitation",
    "final_address": "1121 Kerlerec St",
    "address_councildis": "C",
    "status": "Assigned to Contractor",
    "contractor": "Metro Disposal",
    "rowid": "922441",
    "final_x": "3682993.18076",
    "final_y": "535713.559879",
    "longitude": "-90.06320861968643",
    "latitude": "29.96698111497834",
    "geocoded_column": {
      "latitude": "29.96698111497834",
      "longitude": "-90.06320861968643"
    }
  },
  {
    "service_request": "2022-922440",
    "request_type": "Trash/Recycling",
    "request_reason": "Missed Trash Pick-Up",
    "date_created": "2022-09-21T17:12:09.000",
    "date_modified": "2022-09-21T17:12:09.000",
    "request_status": "Pending",
    "responsible_agency": "Department of Sanitation",
    "final_address": "6618 Milne Blvd",
    "address_councildis": "A",
    "status": "Assigned to Contractor",
    "contractor": "Metro Disposal",
    "rowid": "922440",
    "final_x": "3667357.14989",
    "final_y": "551865.044182",
    "longitude": "-90.11204378023557",
    "latitude": "30.01185949473345",
    "geocoded_column": {
      "latitude": "30.01185949473345",
      "longitude": "-90.11204378023557"
    }
  },
  {
    "service_request": "2022-922439",
    "request_type": "Trash/Recycling",
    "request_reason": "Replace Recycling Cart",
    "date_created": "2022-09-21T17:09:27.000",
    "date_modified": "2022-09-21T17:09:27.000",
    "request_status": "Pending",
    "responsible_agency": "Department of Sanitation",
    "final_address": "3912 Constance St, New Orleans, Louisiana, 70115",
    "address_councildis": "B",
    "status": "Pending",
    "rowid": "922439",
    "final_x": "3673070.20238",
    "final_y": "518552.163511",
    "longitude": "-90.09513112150603",
    "latitude": "29.920091610679627",
    "geocoded_column": {
      "latitude": "29.920091610679627",
      "longitude": "-90.09513112150603"
    }
  },
  {
    "service_request": "2022-922438",
    "request_type": "Traffic Signals/Signs/Striping/Streetlights",
    "request_reason": "Street Light Outage/Malfunction",
    "date_created": "2022-09-21T17:07:45.000",
    "date_modified": "2022-09-21T17:07:46.000",
    "request_status": "Pending",
    "responsible_agency": "Department of Public Works",
    "final_address": "1009 Esplanade Ave",
    "address_councildis": "C",
    "status": "Pending",
    "contractor": "Legacy Professional Services",
    "rowid": "922438",
    "final_x": "3683153.84072",
    "final_y": "535178.154886",
    "longitude": "-90.06272000486001",
    "latitude": "29.965504038033025",
    "geocoded_column": {
      "latitude": "29.965504038033025",
      "longitude": "-90.06272000486001"
    }
  },
  {
    "service_request": "2022-922437",
    "request_type": "Trash/Recycling",
    "request_reason": "Missed Trash Pick-Up",
    "date_created": "2022-09-21T17:00:00.000",
    "date_modified": "2022-09-21T17:00:01.000",
    "request_status": "Pending",
    "responsible_agency": "Department of Sanitation",
    "final_address": "4037 Ulloa St",
    "address_councildis": "A",
    "status": "Assigned to Contractor",
    "contractor": "Richards Disposal",
    "rowid": "922437",
    "final_x": "3669819.61492",
    "final_y": "536399.998919",
    "longitude": "-90.1047876599315",
    "latitude": "29.96926353446488",
    "geocoded_column": {
      "latitude": "29.96926353446488",
      "longitude": "-90.1047876599315"
    }
  },
  {
    "service_request": "2022-922436",
    "request_type": "Property Maintenance",
    "request_reason": "Property Maintenance",
    "date_created": "2022-09-21T16:58:26.000",
    "date_modified": "2022-09-21T16:58:27.000",
    "request_status": "Pending",
    "responsible_agency": "Department of Code Enforcement",
    "final_address": "3330 Fern St",
    "address_councildis": "B",
    "status": "Pending",
    "rowid": "922436",
    "final_x": "3667729.51674",
    "final_y": "533606.593605",
    "longitude": "-90.11148244061081",
    "latitude": "29.961644049436995",
    "geocoded_column": {
      "latitude": "29.961644049436995",
      "longitude": "-90.11148244061081"
    }
  },
  {
    "service_request": "2022-922435",
    "request_type": "Traffic Signals/Signs/Striping/Streetlights",
    "request_reason": "Street Light Outage/Malfunction",
    "date_created": "2022-09-21T16:58:20.000",
    "date_modified": "2022-09-21T16:58:21.000",
    "request_status": "Pending",
    "responsible_agency": "Department of Public Works",
    "final_address": "837 Esplanade Ave",
    "address_councildis": "C",
    "status": "Pending",
    "contractor": "Legacy Professional Services",
    "rowid": "922435",
    "final_x": "3683649.23458",
    "final_y": "534913.41415",
    "longitude": "-90.06116485678085",
    "latitude": "29.96476097802046",
    "geocoded_column": {
      "latitude": "29.96476097802046",
      "longitude": "-90.06116485678085"
    }
  },
  {
    "service_request": "2022-922434",
    "request_type": "Trash/Recycling",
    "request_reason": "Missed Trash Pick-Up",
    "date_created": "2022-09-21T16:48:48.000",
    "date_modified": "2022-09-21T16:48:48.000",
    "request_status": "Pending",
    "responsible_agency": "Department of Sanitation",
    "final_address": "2116 Chartres St, New Orleans, Louisiana, 70116",
    "address_councildis": "C",
    "status": "Assigned to Contractor",
    "contractor": "Metro Disposal",
    "rowid": "922434",
    "final_x": "3684875.33154",
    "final_y": "534459.265733",
    "longitude": "-90.05730890241797",
    "latitude": "29.963474739350968",
    "geocoded_column": {
      "latitude": "29.963474739350968",
      "longitude": "-90.05730890241797"
    }
  },
  {
    "service_request": "2022-922432",
    "request_type": "Traffic Signals/Signs/Striping/Streetlights",
    "request_reason": "Street Light Outage/Malfunction",
    "date_created": "2022-09-21T16:46:26.000",
    "date_modified": "2022-09-21T16:46:27.000",
    "request_status": "Pending",
    "responsible_agency": "Department of Public Works",
    "final_address": "BELLAIRE DR & ACADEMY DR",
    "address_councildis": "A",
    "status": "Pending",
    "contractor": "Legacy Professional Services",
    "rowid": "922432",
    "final_x": "3664152.2",
    "final_y": "545718.58",
    "longitude": "-90.12237485156511",
    "latitude": "29.995052372101675",
    "geocoded_column": {
      "latitude": "29.995052372101675",
      "longitude": "-90.12237485156511"
    }
  },
  {
    "service_request": "2022-922430",
    "request_type": "Property Maintenance",
    "request_reason": "Property Maintenance",
    "date_created": "2022-09-21T16:42:55.000",
    "date_modified": "2022-09-21T16:42:55.000",
    "request_status": "Pending",
    "responsible_agency": "Department of Code Enforcement",
    "final_address": "2133 General Pershing St",
    "address_councildis": "B",
    "status": "Pending",
    "rowid": "922430",
    "final_x": "3671128.18855",
    "final_y": "522965.884475",
    "longitude": "-90.10111131885654",
    "latitude": "29.932285492998822",
    "geocoded_column": {
      "latitude": "29.932285492998822",
      "longitude": "-90.10111131885654"
    }
  },
  {
    "service_request": "2022-922429",
    "request_type": "Trash/Recycling",
    "request_reason": "Order Recycling Cart",
    "date_created": "2022-09-21T16:41:22.000",
    "date_modified": "2022-09-21T16:41:23.000",
    "request_status": "Pending",
    "responsible_agency": "Department of Sanitation",
    "final_address": "14023 Curran Rd",
    "address_councildis": "E",
    "status": "Pending",
    "rowid": "922429",
    "final_x": "3718560.28773",
    "final_y": "572335.812777",
    "longitude": "-89.94949223067253",
    "latitude": "30.066545800564494",
    "geocoded_column": {
      "latitude": "30.066545800564494",
      "longitude": "-89.94949223067253"
    }
  },
  {
    "service_request": "2022-922428",
    "request_type": "Trash/Recycling",
    "request_reason": "Order Trash Cart",
    "date_created": "2022-09-21T16:41:09.000",
    "date_modified": "2022-09-21T16:41:09.000",
    "request_status": "Pending",
    "responsible_agency": "Department of Sanitation",
    "final_address": "14023 Curran Rd",
    "address_councildis": "E",
    "status": "Assigned to Contractor",
    "contractor": "Metro Disposal",
    "rowid": "922428",
    "final_x": "3718560.28773",
    "final_y": "572335.812777",
    "longitude": "-89.94949223067253",
    "latitude": "30.066545800564494",
    "geocoded_column": {
      "latitude": "30.066545800564494",
      "longitude": "-89.94949223067253"
    }
  },
  {
    "service_request": "2022-922427",
    "request_type": "Trash/Recycling",
    "request_reason": "Start Trash Service",
    "date_created": "2022-09-21T16:40:49.000",
    "date_modified": "2022-09-21T16:40:49.000",
    "request_status": "Pending",
    "responsible_agency": "Department of Sanitation",
    "final_address": "14023 Curran Rd",
    "address_councildis": "E",
    "status": "Assigned to Contractor",
    "contractor": "Metro Disposal",
    "rowid": "922427",
    "final_x": "3718560.28773",
    "final_y": "572335.812777",
    "longitude": "-89.94949223067253",
    "latitude": "30.066545800564494",
    "geocoded_column": {
      "latitude": "30.066545800564494",
      "longitude": "-89.94949223067253"
    }
  },
  {
    "service_request": "2022-922426",
    "request_type": "Property Maintenance",
    "request_reason": "Property Maintenance",
    "date_created": "2022-09-21T16:39:52.000",
    "date_modified": "2022-09-21T16:39:52.000",
    "request_status": "Pending",
    "responsible_agency": "Department of Code Enforcement",
    "final_address": "4905 Dauphine St",
    "address_councildis": "E",
    "status": "Pending",
    "rowid": "922426",
    "final_x": "3695157.36419",
    "final_y": "533310.25274",
    "longitude": "-90.02488094293956",
    "latitude": "29.959996511850015",
    "geocoded_column": {
      "latitude": "29.959996511850015",
      "longitude": "-90.02488094293956"
    }
  },
  {
    "service_request": "2022-922425",
    "request_type": "Abandoned Vehicles",
    "request_reason": "Abandoned/Junk Vehicles",
    "date_created": "2022-09-21T16:36:43.000",
    "date_modified": "2022-09-21T16:36:43.000",
    "request_status": "Pending",
    "responsible_agency": "Department of Public Works",
    "final_address": "2816 St Louis St",
    "address_councildis": "B",
    "status": "Pending",
    "rowid": "922425",
    "final_x": "3675616.76885",
    "final_y": "536601.182023",
    "longitude": "-90.08647287608022",
    "latitude": "29.96964453884213",
    "geocoded_column": {
      "latitude": "29.96964453884213",
      "longitude": "-90.08647287608022"
    }
  },
  {
    "service_request": "2022-922424",
    "request_type": "Traffic Signals/Signs/Striping/Streetlights",
    "request_reason": "Street Light Outage/Malfunction",
    "date_created": "2022-09-21T16:35:48.000",
    "date_modified": "2022-09-21T16:35:49.000",
    "request_status": "Pending",
    "responsible_agency": "Department of Public Works",
    "final_address": "401 Esplanade Ave",
    "address_councildis": "C",
    "status": "Pending",
    "contractor": "Legacy Professional Services",
    "rowid": "922424",
    "final_x": "3685011.07132",
    "final_y": "533769.662085",
    "longitude": "-90.05690451034387",
    "latitude": "29.96157440992725",
    "geocoded_column": {
      "latitude": "29.96157440992725",
      "longitude": "-90.05690451034387"
    }
  },
  {
    "service_request": "2022-922422",
    "request_type": "Roads/Drainage",
    "request_reason": "Catch Basin - Clogged",
    "date_created": "2022-09-21T16:32:33.000",
    "date_modified": "2022-09-21T16:44:30.000",
    "request_status": "Pending",
    "responsible_agency": "Department of Public Works",
    "final_address": "1936 Hendee St",
    "address_councildis": "C",
    "status": "Pending",
    "rowid": "922422",
    "final_x": "3690660.13494",
    "final_y": "523735.450043",
    "longitude": "-90.03942358640822",
    "latitude": "29.933809535612067",
    "geocoded_column": {
      "latitude": "29.933809535612067",
      "longitude": "-90.03942358640822"
    }
  },
  {
    "service_request": "2022-922418",
    "request_type": "Roads/Drainage",
    "request_reason": "Catch Basin - Clogged",
    "date_created": "2022-09-21T16:30:55.000",
    "date_modified": "2022-09-21T17:38:50.000",
    "request_status": "Pending",
    "responsible_agency": "Department of Public Works",
    "final_address": "WALL BLVD & HENDEE ST",
    "address_councildis": "C",
    "status": "Pending",
    "rowid": "922418",
    "final_x": "3690753.9",
    "final_y": "523964.08",
    "longitude": "-90.03911942313876",
    "latitude": "29.93443527878091",
    "geocoded_column": {
      "latitude": "29.93443527878091",
      "longitude": "-90.03911942313876"
    }
  },
  {
    "service_request": "2022-922415",
    "request_type": "Traffic Signals/Signs/Striping/Streetlights",
    "request_reason": "Street Light Outage/Malfunction",
    "date_created": "2022-09-21T16:28:04.000",
    "date_modified": "2022-09-21T16:48:09.000",
    "request_status": "Pending",
    "responsible_agency": "Department of Public Works",
    "final_address": "1932 Hendee St",
    "address_councildis": "C",
    "status": "Pending",
    "contractor": "Legacy Professional Services",
    "rowid": "922415",
    "final_x": "3690660.97699",
    "final_y": "523760.496891",
    "longitude": "-90.03942003520662",
    "latitude": "29.93387837981436",
    "geocoded_column": {
      "latitude": "29.93387837981436",
      "longitude": "-90.03942003520662"
    }
  },
  {
    "service_request": "2022-922412",
    "request_type": "Traffic Signals/Signs/Striping/Streetlights",
    "request_reason": "Street Light Outage/Malfunction",
    "date_created": "2022-09-21T16:26:50.000",
    "date_modified": "2022-09-21T17:51:32.000",
    "request_status": "Pending",
    "responsible_agency": "Department of Public Works",
    "final_address": "1912 Hendee St",
    "address_councildis": "C",
    "status": "Pending",
    "contractor": "Legacy Professional Services",
    "rowid": "922412",
    "final_x": "3690659.21539",
    "final_y": "523865.771515",
    "longitude": "-90.03942184353646",
    "latitude": "29.93416790406138",
    "geocoded_column": {
      "latitude": "29.93416790406138",
      "longitude": "-90.03942184353646"
    }
  },
  {
    "service_request": "2022-922411",
    "request_type": "Trash/Recycling",
    "request_reason": "Order Recycling Cart",
    "date_created": "2022-09-21T16:25:27.000",
    "date_modified": "2022-09-21T16:25:27.000",
    "request_status": "Pending",
    "responsible_agency": "Department of Sanitation",
    "final_address": "4530 S Tonti St",
    "address_councildis": "B",
    "status": "Pending",
    "rowid": "922411",
    "final_x": "3669463.23354",
    "final_y": "528043.803839",
    "longitude": "-90.10619576109674",
    "latitude": "29.946297257789908",
    "geocoded_column": {
      "latitude": "29.946297257789908",
      "longitude": "-90.10619576109674"
    }
  },
  {
    "service_request": "2022-922410",
    "request_type": "Trash/Recycling",
    "request_reason": "Missed Trash Pick-Up",
    "date_created": "2022-09-21T16:24:47.000",
    "date_modified": "2022-09-21T16:24:47.000",
    "request_status": "Pending",
    "responsible_agency": "Department of Sanitation",
    "final_address": "131 Millaudon St",
    "address_councildis": "A",
    "status": "Assigned to Contractor",
    "contractor": "Richards Disposal",
    "rowid": "922410",
    "final_x": "3660857.76448",
    "final_y": "523432.896763",
    "longitude": "-90.13351881742025",
    "latitude": "29.93386932754744",
    "geocoded_column": {
      "latitude": "29.93386932754744",
      "longitude": "-90.13351881742025"
    }
  },
  {
    "service_request": "2022-922409",
    "request_type": "Trash/Recycling",
    "request_reason": "Missed Trash Pick-Up",
    "date_created": "2022-09-21T16:24:37.000",
    "date_modified": "2022-09-21T16:24:38.000",
    "request_status": "Pending",
    "responsible_agency": "Department of Sanitation",
    "final_address": "624 St Roch Ave",
    "address_councildis": "C",
    "status": "Assigned to Contractor",
    "contractor": "Metro Disposal",
    "rowid": "922409",
    "final_x": "3686593.33423",
    "final_y": "534847.352646",
    "longitude": "-90.05186994113276",
    "latitude": "29.964489125751367",
    "geocoded_column": {
      "latitude": "29.964489125751367",
      "longitude": "-90.05186994113276"
    }
  },
  {
    "service_request": "2022-922407",
    "request_type": "Trash/Recycling",
    "request_reason": "Repair Trash Cart",
    "date_created": "2022-09-21T16:21:42.000",
    "date_modified": "2022-09-21T16:21:43.000",
    "request_status": "Pending",
    "responsible_agency": "Department of Sanitation",
    "final_address": "1723 General Taylor St",
    "address_councildis": "B",
    "status": "Assigned to Contractor",
    "contractor": "Richards Disposal",
    "rowid": "922407",
    "final_x": "3672542.00711",
    "final_y": "521618.841657",
    "longitude": "-90.09669391274504",
    "latitude": "29.928539677615326",
    "geocoded_column": {
      "latitude": "29.928539677615326",
      "longitude": "-90.09669391274504"
    }
  },
  {
    "service_request": "2022-922404",
    "request_type": "Property Maintenance",
    "request_reason": "Property Maintenance",
    "date_created": "2022-09-21T16:17:50.000",
    "date_modified": "2022-09-21T17:32:02.000",
    "request_status": "Pending",
    "responsible_agency": "Department of Code Enforcement",
    "final_address": "1912 L. B. Landry Ave",
    "address_councildis": "C",
    "rowid": "922404",
    "final_x": "3690130.32982",
    "final_y": "523883.879292",
    "longitude": "-90.04109086659413",
    "latitude": "29.934234105584256",
    "geocoded_column": {
      "latitude": "29.934234105584256",
      "longitude": "-90.04109086659413"
    }
  },
  {
    "service_request": "2022-922400",
    "request_type": "Parks & Parkways",
    "request_reason": "Request Tree Service (Right of Way/Public Property)",
    "date_created": "2022-09-21T16:15:09.000",
    "date_modified": "2022-09-21T17:33:24.000",
    "request_status": "Pending",
    "responsible_agency": "Department of Parks & Parkway",
    "final_address": "1900 BLK Hendee St",
    "address_councildis": "C",
    "status": "Pending",
    "rowid": "922400",
    "final_x": "3690617.69648",
    "final_y": "523812.600128",
    "longitude": "-90.03955481215426",
    "latitude": "29.934022989854718",
    "geocoded_column": {
      "latitude": "29.934022989854718",
      "longitude": "-90.03955481215426"
    }
  },
  {
    "service_request": "2022-922399",
    "request_type": "Trash/Recycling",
    "request_reason": "Missed Trash Pick-Up",
    "date_created": "2022-09-21T16:12:59.000",
    "date_modified": "2022-09-21T16:12:59.000",
    "request_status": "Pending",
    "responsible_agency": "Department of Sanitation",
    "final_address": "474 Pine St",
    "address_councildis": "A",
    "status": "Assigned to Contractor",
    "contractor": "Richards Disposal",
    "rowid": "922399",
    "final_x": "3662271.71021",
    "final_y": "524353.757756",
    "longitude": "-90.12902447629864",
    "latitude": "29.936360618508427",
    "geocoded_column": {
      "latitude": "29.936360618508427",
      "longitude": "-90.12902447629864"
    }
  },
  {
    "service_request": "2022-922398",
    "request_type": "Traffic Signals/Signs/Striping/Streetlights",
    "request_reason": "Street Light Outage/Malfunction",
    "date_created": "2022-09-21T16:12:57.000",
    "date_modified": "2022-09-21T16:12:57.000",
    "request_status": "Pending",
    "responsible_agency": "Department of Public Works",
    "final_address": "4915 Moore Dr",
    "address_councildis": "D",
    "status": "Pending",
    "contractor": "Legacy Professional Services",
    "rowid": "922398",
    "final_x": "3680057.80571",
    "final_y": "549679.751636",
    "longitude": "-90.07199303058383",
    "latitude": "30.005472393294887",
    "geocoded_column": {
      "latitude": "30.005472393294887",
      "longitude": "-90.07199303058383"
    }
  },
  {
    "service_request": "2022-922397",
    "request_type": "Trash/Recycling",
    "request_reason": "Illegal Dumping",
    "date_created": "2022-09-21T16:12:41.000",
    "date_modified": "2022-09-21T16:12:41.000",
    "request_status": "Pending",
    "responsible_agency": "Department of Sanitation",
    "final_address": "1411 S Rendon St",
    "address_councildis": "B",
    "status": "Pending",
    "rowid": "922397",
    "final_x": "3669984.78983",
    "final_y": "531472.027203",
    "longitude": "-90.10443293413428",
    "latitude": "29.95570837915135",
    "geocoded_column": {
      "latitude": "29.95570837915135",
      "longitude": "-90.10443293413428"
    }
  },
  {
    "service_request": "2022-922396",
    "request_type": "Traffic Signals/Signs/Striping/Streetlights",
    "request_reason": "Street Light Outage/Malfunction",
    "date_created": "2022-09-21T16:11:33.000",
    "date_modified": "2022-09-21T16:11:34.000",
    "request_status": "Pending",
    "responsible_agency": "Department of Public Works",
    "final_address": "4915 Moore Dr",
    "address_councildis": "D",
    "status": "Pending",
    "contractor": "Legacy Professional Services",
    "rowid": "922396",
    "final_x": "3680057.80571",
    "final_y": "549679.751636",
    "longitude": "-90.07199303058383",
    "latitude": "30.005472393294887",
    "geocoded_column": {
      "latitude": "30.005472393294887",
      "longitude": "-90.07199303058383"
    }
  },
  {
    "service_request": "2022-922395",
    "request_type": "Traffic Signals/Signs/Striping/Streetlights",
    "request_reason": "Street Light Outage/Malfunction",
    "date_created": "2022-09-21T16:08:36.000",
    "date_modified": "2022-09-21T16:08:37.000",
    "request_status": "Pending",
    "responsible_agency": "Department of Public Works",
    "final_address": "1008 Governor Nicholls St",
    "address_councildis": "C",
    "status": "Pending",
    "contractor": "Legacy Professional Services",
    "rowid": "922395",
    "final_x": "3682713.15266",
    "final_y": "534603.797126",
    "longitude": "-90.06413176784446",
    "latitude": "29.96393818112893",
    "geocoded_column": {
      "latitude": "29.96393818112893",
      "longitude": "-90.06413176784446"
    }
  },
  {
    "service_request": "2022-922394",
    "request_type": "Trash/Recycling",
    "request_reason": "Missed Trash Pick-Up",
    "date_created": "2022-09-21T16:07:38.000",
    "date_modified": "2022-09-21T16:07:38.000",
    "request_status": "Pending",
    "responsible_agency": "Department of Sanitation",
    "final_address": "5607 Baccich St",
    "address_councildis": "D",
    "status": "Assigned to Contractor",
    "contractor": "Metro Disposal",
    "rowid": "922394",
    "final_x": "3687662.37065",
    "final_y": "553781.064087",
    "longitude": "-90.04782322089875",
    "latitude": "30.016517130895153",
    "geocoded_column": {
      "latitude": "30.016517130895153",
      "longitude": "-90.04782322089875"
    }
  },
  {
    "service_request": "2022-922392",
    "request_type": "Trash/Recycling",
    "request_reason": "Illegal Dumping",
    "date_created": "2022-09-21T16:05:35.000",
    "date_modified": "2022-09-21T16:05:35.000",
    "request_status": "Pending",
    "responsible_agency": "Department of Sanitation",
    "final_address": "2206 Esplanade Ave",
    "address_councildis": "D",
    "status": "Pending",
    "rowid": "922392",
    "final_x": "3679477.22536",
    "final_y": "537874.155977",
    "longitude": "-90.07423704188501",
    "latitude": "29.97302870745866",
    "geocoded_column": {
      "latitude": "29.97302870745866",
      "longitude": "-90.07423704188501"
    }
  },
  {
    "service_request": "2022-922391",
    "request_type": "Trash/Recycling",
    "request_reason": "Repair Trash Cart",
    "date_created": "2022-09-21T16:04:28.000",
    "date_modified": "2022-09-21T16:04:28.000",
    "request_status": "Pending",
    "responsible_agency": "Department of Sanitation",
    "final_address": "711 Louisiana Ave",
    "address_councildis": "B",
    "status": "Assigned to Contractor",
    "contractor": "Richards Disposal",
    "rowid": "922391",
    "final_x": "3675700.93614",
    "final_y": "518310.591926",
    "longitude": "-90.08683544390725",
    "latitude": "29.919348936807538",
    "geocoded_column": {
      "latitude": "29.919348936807538",
      "longitude": "-90.08683544390725"
    }
  },
  {
    "service_request": "2022-922390",
    "request_type": "Trash/Recycling",
    "request_reason": "Replace Trash Cart",
    "date_created": "2022-09-21T16:01:44.000",
    "date_modified": "2022-09-21T16:01:44.000",
    "request_status": "Pending",
    "responsible_agency": "Department of Sanitation",
    "final_address": "709 Louisiana Ave",
    "address_councildis": "B",
    "status": "Assigned to Contractor",
    "contractor": "Richards Disposal",
    "rowid": "922390",
    "final_x": "3675705.90209",
    "final_y": "518297.763894",
    "longitude": "-90.08682020937866",
    "latitude": "29.91931351529317",
    "geocoded_column": {
      "latitude": "29.91931351529317",
      "longitude": "-90.08682020937866"
    }
  },
  {
    "service_request": "2022-922389",
    "request_type": "Trash/Recycling",
    "request_reason": "Order Trash Cart",
    "date_created": "2022-09-21T16:01:23.000",
    "date_modified": "2022-09-21T16:01:24.000",
    "request_status": "Pending",
    "responsible_agency": "Department of Sanitation",
    "final_address": "4629 Lafaye St",
    "address_councildis": "D",
    "status": "Assigned to Contractor",
    "contractor": "Metro Disposal",
    "rowid": "922389",
    "final_x": "3687555.97922",
    "final_y": "549936.75394",
    "longitude": "-90.04829559052371",
    "latitude": "30.005949969866887",
    "geocoded_column": {
      "latitude": "30.005949969866887",
      "longitude": "-90.04829559052371"
    }
  },
  {
    "service_request": "2022-922388",
    "request_type": "Abandoned Vehicles",
    "request_reason": "Abandoned/Junk Vehicles",
    "date_created": "2022-09-21T16:00:14.000",
    "date_modified": "2022-09-21T16:00:14.000",
    "request_status": "Pending",
    "responsible_agency": "Department of Public Works",
    "final_address": "116 Huntlee Dr",
    "address_councildis": "C",
    "status": "Pending",
    "rowid": "922388",
    "final_x": "3702494.31306",
    "final_y": "524134.01574",
    "longitude": "-90.0020492832584",
    "latitude": "29.93453269769205",
    "geocoded_column": {
      "latitude": "29.93453269769205",
      "longitude": "-90.0020492832584"
    }
  },
  {
    "service_request": "2022-922387",
    "request_type": "Trash/Recycling",
    "request_reason": "Order Trash Cart",
    "date_created": "2022-09-21T16:00:01.000",
    "date_modified": "2022-09-21T16:00:07.000",
    "request_status": "Pending",
    "responsible_agency": "Department of Sanitation",
    "final_address": "4627 Lafaye St",
    "address_councildis": "D",
    "status": "Assigned to Contractor",
    "contractor": "Metro Disposal",
    "rowid": "922387",
    "final_x": "3687558.75702",
    "final_y": "549922.170644",
    "longitude": "-90.04828733150963",
    "latitude": "30.005909785461437",
    "geocoded_column": {
      "latitude": "30.005909785461437",
      "longitude": "-90.04828733150963"
    }
  },
  {
    "service_request": "2022-922386",
    "request_type": "Trash/Recycling",
    "request_reason": "Request a Large Item Pick Up",
    "date_created": "2022-09-21T15:58:32.000",
    "date_modified": "2022-09-21T15:58:33.000",
    "request_status": "Pending",
    "responsible_agency": "Department of Sanitation",
    "final_address": "710 River Oaks Dr",
    "address_councildis": "C",
    "status": "Assigned to Contractor",
    "contractor": "Richards Disposal",
    "rowid": "922386",
    "final_x": "3701516.05431",
    "final_y": "519835.08364",
    "longitude": "-90.00529489792889",
    "latitude": "29.9227433388727",
    "geocoded_column": {
      "latitude": "29.9227433388727",
      "longitude": "-90.00529489792889"
    }
  },
  {
    "service_request": "2022-922385",
    "request_type": "Traffic Signals/Signs/Striping/Streetlights",
    "request_reason": "Street Light Outage/Malfunction",
    "date_created": "2022-09-21T15:54:03.000",
    "date_modified": "2022-09-21T15:54:04.000",
    "request_status": "Pending",
    "responsible_agency": "Department of Public Works",
    "final_address": "628 Governor Nicholls St",
    "address_councildis": "C",
    "status": "Pending",
    "contractor": "Legacy Professional Services",
    "rowid": "922385",
    "final_x": "3683741.52335",
    "final_y": "533814.907653",
    "longitude": "-90.06091193771724",
    "latitude": "29.961737645275505",
    "geocoded_column": {
      "latitude": "29.961737645275505",
      "longitude": "-90.06091193771724"
    }
  },
  {
    "service_request": "2022-922384",
    "request_type": "Trash/Recycling",
    "request_reason": "Request a Large Item Pick Up",
    "date_created": "2022-09-21T15:50:53.000",
    "date_modified": "2022-09-21T15:50:54.000",
    "request_status": "Pending",
    "responsible_agency": "Department of Sanitation",
    "final_address": "7151 Whitmore Pl",
    "address_councildis": "E",
    "status": "Assigned to Contractor",
    "contractor": "Metro Disposal",
    "rowid": "922384",
    "final_x": "3718706.37548",
    "final_y": "569798.220262",
    "longitude": "-89.94912733432305",
    "latitude": "30.059563629434624",
    "geocoded_column": {
      "latitude": "30.059563629434624",
      "longitude": "-89.94912733432305"
    }
  },
  {
    "service_request": "2022-922383",
    "request_type": "Trash/Recycling",
    "request_reason": "Missed Trash Pick-Up",
    "date_created": "2022-09-21T15:50:26.000",
    "date_modified": "2022-09-21T15:50:28.000",
    "request_status": "Pending",
    "responsible_agency": "Department of Sanitation",
    "final_address": "1916 Burdette St",
    "address_councildis": "A",
    "status": "Assigned to Contractor",
    "contractor": "Richards Disposal",
    "rowid": "922383",
    "final_x": "3664523.79604",
    "final_y": "529575.722369",
    "longitude": "-90.12174021289066",
    "latitude": "29.95065406984298",
    "geocoded_column": {
      "latitude": "29.95065406984298",
      "longitude": "-90.12174021289066"
    }
  },
  {
    "service_request": "2022-922382",
    "request_type": "Traffic Signals/Signs/Striping/Streetlights",
    "request_reason": "Street Light Outage/Malfunction",
    "date_created": "2022-09-21T15:49:55.000",
    "date_modified": "2022-09-21T15:49:56.000",
    "request_status": "Pending",
    "responsible_agency": "Department of Public Works",
    "final_address": "629 Governor Nicholls St",
    "address_councildis": "C",
    "status": "Pending",
    "contractor": "Legacy Professional Services",
    "rowid": "922382",
    "final_x": "3683766.32521",
    "final_y": "533862.661829",
    "longitude": "-90.06083194289212",
    "latitude": "29.96186819553315",
    "geocoded_column": {
      "latitude": "29.96186819553315",
      "longitude": "-90.06083194289212"
    }
  },
  {
    "service_request": "2022-922381",
    "request_type": "Traffic Signals/Signs/Striping/Streetlights",
    "request_reason": "Street Name Sign Damaged or Missing",
    "date_created": "2022-09-21T15:49:17.000",
    "date_modified": "2022-09-21T15:49:17.000",
    "request_status": "Pending",
    "responsible_agency": "Department of Public Works",
    "final_address": "2842 Mercedes Blvd",
    "address_councildis": "C",
    "status": "Pending",
    "rowid": "922381",
    "final_x": "3698057.67907",
    "final_y": "520722.881273",
    "longitude": "-90.01617934098225",
    "latitude": "29.925294240685155",
    "geocoded_column": {
      "latitude": "29.925294240685155",
      "longitude": "-90.01617934098225"
    }
  },
  {
    "service_request": "2022-922380",
    "request_type": "Traffic Signals/Signs/Striping/Streetlights",
    "request_reason": "Street Light Outage/Malfunction",
    "date_created": "2022-09-21T15:47:01.000",
    "date_modified": "2022-09-21T15:47:02.000",
    "request_status": "Pending",
    "responsible_agency": "Department of Public Works",
    "final_address": "BELLAIRE DR & ACADEMY DR",
    "address_councildis": "A",
    "status": "Pending",
    "contractor": "Legacy Professional Services",
    "rowid": "922380",
    "final_x": "3664152.2",
    "final_y": "545718.58",
    "longitude": "-90.12237485156511",
    "latitude": "29.995052372101675",
    "geocoded_column": {
      "latitude": "29.995052372101675",
      "longitude": "-90.12237485156511"
    }
  },
  {
    "service_request": "2022-922379",
    "request_type": "Abandoned Vehicles",
    "request_reason": "Abandoned/Junk Vehicles",
    "date_created": "2022-09-21T15:45:24.000",
    "date_modified": "2022-09-21T15:45:24.000",
    "request_status": "Pending",
    "responsible_agency": "Department of Public Works",
    "final_address": "8303 Belfast St",
    "address_councildis": "A",
    "status": "Pending",
    "rowid": "922379",
    "final_x": "3665044.60084",
    "final_y": "532920.002948",
    "longitude": "-90.11998395507939",
    "latitude": "29.95983460043627",
    "geocoded_column": {
      "latitude": "29.95983460043627",
      "longitude": "-90.11998395507939"
    }
  },
  {
    "service_request": "2022-922378",
    "request_type": "Trash/Recycling",
    "request_reason": "Order Trash Cart",
    "date_created": "2022-09-21T15:39:58.000",
    "date_modified": "2022-09-21T15:39:59.000",
    "request_status": "Pending",
    "responsible_agency": "Department of Sanitation",
    "final_address": "New Orleans,LA",
    "status": "Assigned to Contractor",
    "rowid": "922378",
    "longitude": "0.0",
    "latitude": "0.0",
    "geocoded_column": {
      "latitude": "0.0",
      "longitude": "0.0"
    }
  },
  {
    "service_request": "2022-922377",
    "request_type": "Traffic Signals/Signs/Striping/Streetlights",
    "request_reason": "Additional signage",
    "date_created": "2022-09-21T15:38:43.000",
    "date_modified": "2022-09-21T15:38:43.000",
    "request_status": "Pending",
    "responsible_agency": "Department of Public Works",
    "final_address": "FLEUR DE LIS DR & VETERANS BLVD & VETERANS HWY",
    "address_councildis": "A",
    "status": "Pending",
    "rowid": "922377",
    "final_x": "3665115.5",
    "final_y": "547476.48",
    "longitude": "-90.11927304180386",
    "latitude": "29.99985796726132",
    "geocoded_column": {
      "latitude": "29.99985796726132",
      "longitude": "-90.11927304180386"
    }
  },
  {
    "service_request": "2022-922376",
    "request_type": "Trash/Recycling",
    "request_reason": "Missed Trash Pick-Up",
    "date_created": "2022-09-21T15:37:13.000",
    "date_modified": "2022-09-21T15:37:14.000",
    "request_status": "Pending",
    "responsible_agency": "Department of Sanitation",
    "final_address": "925 Cherokee St",
    "address_councildis": "A",
    "status": "Assigned to Contractor",
    "contractor": "Richards Disposal",
    "rowid": "922376",
    "final_x": "3663027.84179",
    "final_y": "526328.298622",
    "longitude": "-90.12657168001252",
    "latitude": "29.941768104665808",
    "geocoded_column": {
      "latitude": "29.941768104665808",
      "longitude": "-90.12657168001252"
    }
  },
  {
    "service_request": "2022-922375",
    "request_type": "Traffic Signals/Signs/Striping/Streetlights",
    "request_reason": "Traffic Sign Missing/Damaged",
    "date_created": "2022-09-21T15:34:32.000",
    "date_modified": "2022-09-21T15:34:33.000",
    "request_status": "Pending",
    "responsible_agency": "Department of Public Works",
    "final_address": "1800 Bayou Rd",
    "address_councildis": "D",
    "status": "Pending",
    "rowid": "922375",
    "final_x": "3680677.70338",
    "final_y": "536478.131207",
    "longitude": "-90.07049429116029",
    "latitude": "29.969153793963116",
    "geocoded_column": {
      "latitude": "29.969153793963116",
      "longitude": "-90.07049429116029"
    }
  },
  {
    "service_request": "2022-922374",
    "request_type": "Abandoned Vehicles",
    "request_reason": "Abandoned/Junk Vehicles",
    "date_created": "2022-09-21T15:33:46.000",
    "date_modified": "2022-09-21T15:33:46.000",
    "request_status": "Pending",
    "responsible_agency": "Department of Public Works",
    "final_address": "2701 Magazine St",
    "address_councildis": "B",
    "status": "Pending",
    "rowid": "922374",
    "final_x": "3677260.51387",
    "final_y": "521024.913913",
    "longitude": "-90.0818190602655",
    "latitude": "29.926765701433922",
    "geocoded_column": {
      "latitude": "29.926765701433922",
      "longitude": "-90.0818190602655"
    }
  },
  {
    "service_request": "2022-922373",
    "request_type": "Trash/Recycling",
    "request_reason": "Replace Trash Cart",
    "date_created": "2022-09-21T15:32:37.000",
    "date_modified": "2022-09-21T15:32:37.000",
    "request_status": "Pending",
    "responsible_agency": "Department of Sanitation",
    "final_address": "2418 Audubon St",
    "address_councildis": "A",
    "status": "Assigned to Contractor",
    "contractor": "Richards Disposal",
    "rowid": "922373",
    "final_x": "3666924.55809",
    "final_y": "530142.220417",
    "longitude": "-90.11414077870546",
    "latitude": "29.952141735635887",
    "geocoded_column": {
      "latitude": "29.952141735635887",
      "longitude": "-90.11414077870546"
    }
  },
  {
    "service_request": "2022-922372",
    "request_type": "Trash/Recycling",
    "request_reason": "Missed Trash Pick-Up",
    "date_created": "2022-09-21T15:32:30.000",
    "date_modified": "2022-09-21T15:32:31.000",
    "request_status": "Pending",
    "responsible_agency": "Department of Sanitation",
    "final_address": "1723 General Taylor St",
    "address_councildis": "B",
    "status": "Assigned to Contractor",
    "contractor": "Richards Disposal",
    "rowid": "922372",
    "final_x": "3672542.00711",
    "final_y": "521618.841657",
    "longitude": "-90.09669391274504",
    "latitude": "29.928539677615326",
    "geocoded_column": {
      "latitude": "29.928539677615326",
      "longitude": "-90.09669391274504"
    }
  },
  {
    "service_request": "2022-922371",
    "request_type": "Trash/Recycling",
    "request_reason": "Missed Trash Pick-Up",
    "date_created": "2022-09-21T15:31:02.000",
    "date_modified": "2022-09-21T15:31:03.000",
    "request_status": "Pending",
    "responsible_agency": "Department of Sanitation",
    "final_address": "916 Pine St",
    "address_councildis": "A",
    "status": "Assigned to Contractor",
    "contractor": "Richards Disposal",
    "rowid": "922371",
    "final_x": "3663393.47347",
    "final_y": "525946.966525",
    "longitude": "-90.12542999176739",
    "latitude": "29.940708969740953",
    "geocoded_column": {
      "latitude": "29.940708969740953",
      "longitude": "-90.12542999176739"
    }
  },
  {
    "service_request": "2022-922370",
    "request_type": "Parks & Parkways",
    "request_reason": "Request Tree Service (Right of Way/Public Property)",
    "date_created": "2022-09-21T15:29:41.000",
    "date_modified": "2022-09-21T15:29:41.000",
    "request_status": "Pending",
    "responsible_agency": "Department of Parks & Parkway",
    "final_address": "1800 Bayou Rd",
    "address_councildis": "D",
    "status": "Pending",
    "rowid": "922370",
    "final_x": "3680677.70338",
    "final_y": "536478.131207",
    "longitude": "-90.07049429116029",
    "latitude": "29.969153793963116",
    "geocoded_column": {
      "latitude": "29.969153793963116",
      "longitude": "-90.07049429116029"
    }
  },
  {
    "service_request": "2022-922367",
    "request_type": "Trash/Recycling",
    "request_reason": "Missed Trash Pick-Up",
    "date_created": "2022-09-21T15:26:04.000",
    "date_modified": "2022-09-21T15:26:04.000",
    "request_status": "Pending",
    "responsible_agency": "Department of Sanitation",
    "final_address": "6061 Memphis St",
    "address_councildis": "A",
    "status": "Assigned to Contractor",
    "contractor": "Metro Disposal",
    "rowid": "922367",
    "final_x": "3669322.66106",
    "final_y": "547683.179602",
    "longitude": "-90.10597540046514",
    "latitude": "30.000303079058572",
    "geocoded_column": {
      "latitude": "30.000303079058572",
      "longitude": "-90.10597540046514"
    }
  },
  {
    "service_request": "2022-922366",
    "request_type": "Property Maintenance",
    "request_reason": "Property Maintenance",
    "date_created": "2022-09-21T15:25:33.000",
    "date_modified": "2022-09-21T15:25:33.000",
    "request_status": "Pending",
    "responsible_agency": "Department of Code Enforcement",
    "final_address": "5803 Canal Blvd",
    "address_councildis": "A",
    "status": "Pending",
    "rowid": "922366",
    "final_x": "3668525.43457",
    "final_y": "546007.265552",
    "longitude": "-90.10855048413956",
    "latitude": "29.995718350696553",
    "geocoded_column": {
      "latitude": "29.995718350696553",
      "longitude": "-90.10855048413956"
    }
  },
  {
    "service_request": "2022-922365",
    "request_type": "Roads/Drainage",
    "request_reason": "Pothole",
    "date_created": "2022-09-21T15:24:40.000",
    "date_modified": "2022-09-21T15:24:40.000",
    "request_status": "Pending",
    "responsible_agency": "Department of Public Works",
    "final_address": "1918 Prytania St",
    "address_councildis": "B",
    "status": "Pending",
    "rowid": "922365",
    "final_x": "3678627.93813",
    "final_y": "523779.018107",
    "longitude": "-90.07740717651603",
    "latitude": "29.934297448218054",
    "geocoded_column": {
      "latitude": "29.934297448218054",
      "longitude": "-90.07740717651603"
    }
  },
  {
    "service_request": "2022-922363",
    "request_type": "Parks & Parkways",
    "request_reason": "Tree Stump (removal, grind)",
    "date_created": "2022-09-21T15:24:38.000",
    "date_modified": "2022-09-21T15:27:03.000",
    "case_close_date": "2022-09-21T10:27:03.000",
    "request_status": "Closed",
    "responsible_agency": "Department of Parks & Parkway",
    "final_address": "916 Jourdan Ave",
    "address_councildis": "E",
    "status": "Duplicate Request",
    "rowid": "922363",
    "final_x": "3694783.21629",
    "final_y": "533885.764613",
    "longitude": "-90.02604168083347",
    "latitude": "29.961590709144318",
    "geocoded_column": {
      "latitude": "29.961590709144318",
      "longitude": "-90.02604168083347"
    }
  },
  {
    "service_request": "2022-922362",
    "request_type": "Traffic Signals/Signs/Striping/Streetlights",
    "request_reason": "Traffic Sign Missing/Damaged",
    "date_created": "2022-09-21T15:24:25.000",
    "date_modified": "2022-09-21T15:24:25.000",
    "request_status": "Pending",
    "responsible_agency": "Department of Public Works",
    "final_address": "7908 Panola St",
    "address_councildis": "A",
    "status": "Pending",
    "rowid": "922362",
    "final_x": "3664615.62202",
    "final_y": "530188.296193",
    "longitude": "-90.12142981520346",
    "latitude": "29.95233577943518",
    "geocoded_column": {
      "latitude": "29.95233577943518",
      "longitude": "-90.12142981520346"
    }
  },
  {
    "service_request": "2022-922361",
    "request_type": "Trash/Recycling",
    "request_reason": "Missed Trash Pick-Up",
    "date_created": "2022-09-21T15:24:24.000",
    "date_modified": "2022-09-21T15:24:24.000",
    "request_status": "Pending",
    "responsible_agency": "Department of Sanitation",
    "final_address": "721 Greenwood St",
    "address_councildis": "A",
    "status": "Assigned to Contractor",
    "contractor": "Metro Disposal",
    "rowid": "922361",
    "final_x": "3668411.18433",
    "final_y": "542917.996237",
    "longitude": "-90.10901566297264",
    "latitude": "29.987227275993185",
    "geocoded_column": {
      "latitude": "29.987227275993185",
      "longitude": "-90.10901566297264"
    }
  },
  {
    "service_request": "2022-922358",
    "request_type": "Parks & Parkways",
    "request_reason": "Tree Stump (removal, grind)",
    "date_created": "2022-09-21T15:23:06.000",
    "date_modified": "2022-09-21T15:23:06.000",
    "request_status": "Pending",
    "responsible_agency": "Department of Parks & Parkway",
    "final_address": "916 Jourdan Ave",
    "address_councildis": "E",
    "status": "Pending",
    "rowid": "922358",
    "final_x": "3694783.21629",
    "final_y": "533885.764613",
    "longitude": "-90.02604168083347",
    "latitude": "29.961590709144318",
    "geocoded_column": {
      "latitude": "29.961590709144318",
      "longitude": "-90.02604168083347"
    }
  },
  {
    "service_request": "2022-922357",
    "request_type": "Abandoned Vehicles",
    "request_reason": "Abandoned/Junk Vehicles",
    "date_created": "2022-09-21T15:22:37.000",
    "date_modified": "2022-09-21T15:22:38.000",
    "request_status": "Pending",
    "responsible_agency": "Department of Public Works",
    "final_address": "1107 S Peters St",
    "address_councildis": "B",
    "status": "Pending",
    "rowid": "922357",
    "final_x": "3682275.04309",
    "final_y": "526052.262206",
    "longitude": "-90.06581400237685",
    "latitude": "29.940437690874344",
    "geocoded_column": {
      "latitude": "29.940437690874344",
      "longitude": "-90.06581400237685"
    }
  },
  {
    "service_request": "2022-922356",
    "request_type": "Trash/Recycling",
    "request_reason": "Missed Trash Pick-Up",
    "date_created": "2022-09-21T15:20:47.000",
    "date_modified": "2022-09-21T15:20:48.000",
    "request_status": "Pending",
    "responsible_agency": "Department of Sanitation",
    "final_address": "1515 Verna St",
    "address_councildis": "A",
    "status": "Assigned to Contractor",
    "contractor": "Metro Disposal",
    "rowid": "922356",
    "final_x": "3675861.38203",
    "final_y": "541534.48782",
    "longitude": "-90.08553070363809",
    "latitude": "29.983202118337747",
    "geocoded_column": {
      "latitude": "29.983202118337747",
      "longitude": "-90.08553070363809"
    }
  },
  {
    "service_request": "2022-922355",
    "request_type": "Trash/Recycling",
    "request_reason": "Missed Trash Pick-Up",
    "date_created": "2022-09-21T15:19:07.000",
    "date_modified": "2022-09-21T15:19:08.000",
    "request_status": "Pending",
    "responsible_agency": "Department of Sanitation",
    "final_address": "6226 Louis Xiv St",
    "address_councildis": "A",
    "status": "Assigned to Contractor",
    "contractor": "Metro Disposal",
    "rowid": "922355",
    "final_x": "3668131.73537",
    "final_y": "548943.433427",
    "longitude": "-90.10969510129681",
    "latitude": "30.003803362117694",
    "geocoded_column": {
      "latitude": "30.003803362117694",
      "longitude": "-90.10969510129681"
    }
  },
  {
    "service_request": "2022-922354",
    "request_type": "Traffic Signals/Signs/Striping/Streetlights",
    "request_reason": "Street Light Outage/Malfunction",
    "date_created": "2022-09-21T15:18:15.000",
    "date_modified": "2022-09-21T15:18:17.000",
    "request_status": "Pending",
    "responsible_agency": "Department of Public Works",
    "final_address": "826 Ursulines Ave",
    "address_councildis": "C",
    "status": "Pending",
    "contractor": "Legacy Professional Services",
    "rowid": "922354",
    "final_x": "3682955.20847",
    "final_y": "533962.013637",
    "longitude": "-90.06338984094056",
    "latitude": "29.96216612232577",
    "geocoded_column": {
      "latitude": "29.96216612232577",
      "longitude": "-90.06338984094056"
    }
  },
  {
    "service_request": "2022-922353",
    "request_type": "Trash/Recycling",
    "request_reason": "Request a Large Item Pick Up",
    "date_created": "2022-09-21T15:18:08.000",
    "date_modified": "2022-09-21T15:18:10.000",
    "request_status": "Pending",
    "responsible_agency": "Department of Sanitation",
    "final_address": "2615 Ap Tureaud Ave",
    "address_councildis": "D",
    "status": "Assigned to Contractor",
    "contractor": "Metro Disposal",
    "rowid": "922353",
    "final_x": "3681667.1709",
    "final_y": "541722.23022",
    "longitude": "-90.0671864830669",
    "latitude": "29.983543222375598",
    "geocoded_column": {
      "latitude": "29.983543222375598",
      "longitude": "-90.0671864830669"
    }
  },
  {
    "service_request": "2022-922352",
    "request_type": "Trash/Recycling",
    "request_reason": "Missed Trash Pick-Up",
    "date_created": "2022-09-21T15:17:53.000",
    "date_modified": "2022-09-21T15:17:53.000",
    "request_status": "Pending",
    "responsible_agency": "Department of Sanitation",
    "final_address": "2929 Pine St",
    "address_councildis": "B",
    "status": "Assigned to Contractor",
    "contractor": "Richards Disposal",
    "rowid": "922352",
    "final_x": "3667460.51994",
    "final_y": "531955.695875",
    "longitude": "-90.11238744072737",
    "latitude": "29.957112508302433",
    "geocoded_column": {
      "latitude": "29.957112508302433",
      "longitude": "-90.11238744072737"
    }
  },
  {
    "service_request": "2022-922351",
    "request_type": "Trash/Recycling",
    "request_reason": "MIssed Recycling Pick-Up",
    "date_created": "2022-09-21T15:15:57.000",
    "date_modified": "2022-09-21T15:15:57.000",
    "request_status": "Pending",
    "responsible_agency": "Department of Sanitation",
    "final_address": "2929 Pine St",
    "address_councildis": "B",
    "status": "Assigned to Contractor",
    "contractor": "Richards Disposal",
    "rowid": "922351",
    "final_x": "3667460.51994",
    "final_y": "531955.695875",
    "longitude": "-90.11238744072737",
    "latitude": "29.957112508302433",
    "geocoded_column": {
      "latitude": "29.957112508302433",
      "longitude": "-90.11238744072737"
    }
  },
  {
    "service_request": "2022-922350",
    "request_type": "Traffic Signals/Signs/Striping/Streetlights",
    "request_reason": "Street Light Outage/Malfunction",
    "date_created": "2022-09-21T15:14:03.000",
    "date_modified": "2022-09-21T15:14:04.000",
    "request_status": "Pending",
    "responsible_agency": "Department of Public Works",
    "final_address": "820 Ursulines Ave",
    "address_councildis": "C",
    "status": "Pending",
    "contractor": "Legacy Professional Services",
    "rowid": "922350",
    "final_x": "3682986.97954",
    "final_y": "533944.322309",
    "longitude": "-90.06329013197332",
    "latitude": "29.962116508988657",
    "geocoded_column": {
      "latitude": "29.962116508988657",
      "longitude": "-90.06329013197332"
    }
  },
  {
    "service_request": "2022-922349",
    "request_type": "Abandoned Vehicles",
    "request_reason": "Abandoned/Junk Vehicles",
    "date_created": "2022-09-21T15:12:32.000",
    "date_modified": "2022-09-21T15:12:33.000",
    "request_status": "Pending",
    "responsible_agency": "Department of Public Works",
    "final_address": "2104 Benefit St",
    "address_councildis": "D",
    "status": "Pending",
    "rowid": "922349",
    "final_x": "3683644.60079",
    "final_y": "544316.841551",
    "longitude": "-90.06084971555408",
    "latitude": "29.9906172572289",
    "geocoded_column": {
      "latitude": "29.9906172572289",
      "longitude": "-90.06084971555408"
    }
  },
  {
    "service_request": "2022-922348",
    "request_type": "Health Related Questions",
    "request_reason": "Request Information on the Health Marketplace",
    "date_created": "2022-09-21T15:10:44.000",
    "date_modified": "2022-09-21T15:10:45.000",
    "request_status": "Pending",
    "responsible_agency": "Health Department",
    "final_address": "615 Baronne St",
    "address_councildis": "B",
    "status": "Pending",
    "rowid": "922348",
    "final_x": "3679750.32725",
    "final_y": "528990.581632",
    "longitude": "-90.07368296012069",
    "latitude": "29.948593641238705",
    "geocoded_column": {
      "latitude": "29.948593641238705",
      "longitude": "-90.07368296012069"
    }
  },
  {
    "service_request": "2022-922347",
    "request_type": "Trash/Recycling",
    "request_reason": "Missed Trash Pick-Up",
    "date_created": "2022-09-21T15:10:05.000",
    "date_modified": "2022-09-21T15:10:06.000",
    "request_status": "Pending",
    "responsible_agency": "Department of Sanitation",
    "final_address": "1780 N Gayoso St",
    "address_councildis": "D",
    "status": "Assigned to Contractor",
    "contractor": "Metro Disposal",
    "rowid": "922347",
    "final_x": "3679166.62677",
    "final_y": "541914.405068",
    "longitude": "-90.07507785543403",
    "latitude": "29.984147374544133",
    "geocoded_column": {
      "latitude": "29.984147374544133",
      "longitude": "-90.07507785543403"
    }
  },
  {
    "service_request": "2022-922346",
    "request_type": "Trash/Recycling",
    "request_reason": "Order Recycling Cart",
    "date_created": "2022-09-21T15:09:19.000",
    "date_modified": "2022-09-21T15:09:19.000",
    "request_status": "Pending",
    "responsible_agency": "Department of Sanitation",
    "final_address": "1303 Delachaise St",
    "address_councildis": "B",
    "status": "Pending",
    "rowid": "922346",
    "final_x": "3674374.55137",
    "final_y": "520235.771",
    "longitude": "-90.090956291032",
    "latitude": "29.924682170140652",
    "geocoded_column": {
      "latitude": "29.924682170140652",
      "longitude": "-90.090956291032"
    }
  },
  {
    "service_request": "2022-922345",
    "request_type": "Trash/Recycling",
    "request_reason": "Request a Large Item Pick Up",
    "date_created": "2022-09-21T15:08:41.000",
    "date_modified": "2022-09-21T15:08:42.000",
    "request_status": "Pending",
    "responsible_agency": "Department of Sanitation",
    "final_address": "1221 Farragut St",
    "address_councildis": "C",
    "status": "Assigned to Contractor",
    "contractor": "Richards Disposal",
    "rowid": "922345",
    "final_x": "3692318.8319",
    "final_y": "526732.395134",
    "longitude": "-90.03407989841921",
    "latitude": "29.94199850418801",
    "geocoded_column": {
      "latitude": "29.94199850418801",
      "longitude": "-90.03407989841921"
    }
  },
  {
    "service_request": "2022-922344",
    "request_type": "Trash/Recycling",
    "request_reason": "Order Recycling Cart",
    "date_created": "2022-09-21T15:08:27.000",
    "date_modified": "2022-09-21T15:08:28.000",
    "request_status": "Pending",
    "responsible_agency": "Department of Sanitation",
    "final_address": "3441 Chestnut St",
    "address_councildis": "B",
    "status": "Pending",
    "rowid": "922344",
    "final_x": "3674399.51278",
    "final_y": "520205.702136",
    "longitude": "-90.09087852530885",
    "latitude": "29.924598746233237",
    "geocoded_column": {
      "latitude": "29.924598746233237",
      "longitude": "-90.09087852530885"
    }
  },
  {
    "service_request": "2022-922342",
    "request_type": "Traffic Signals/Signs/Striping/Streetlights",
    "request_reason": "Street Light Outage/Malfunction",
    "date_created": "2022-09-21T15:05:57.000",
    "date_modified": "2022-09-21T15:05:57.000",
    "request_status": "Pending",
    "responsible_agency": "Department of Public Works",
    "final_address": "810 Ursulines Ave",
    "address_councildis": "C",
    "status": "Pending",
    "contractor": "Legacy Professional Services",
    "rowid": "922342",
    "final_x": "3683055.55349",
    "final_y": "533892.381957",
    "longitude": "-90.06307540431267",
    "latitude": "29.961971600720435",
    "geocoded_column": {
      "latitude": "29.961971600720435",
      "longitude": "-90.06307540431267"
    }
  },
  {
    "service_request": "2022-922341",
    "request_type": "Trash/Recycling",
    "request_reason": "Missed Trash Pick-Up",
    "date_created": "2022-09-21T15:02:50.000",
    "date_modified": "2022-09-21T15:02:52.000",
    "request_status": "Pending",
    "responsible_agency": "Department of Sanitation",
    "final_address": "124 S Solomon St",
    "address_councildis": "A",
    "status": "Assigned to Contractor",
    "contractor": "Richards Disposal",
    "rowid": "922341",
    "final_x": "3670488.55239",
    "final_y": "538443.536393",
    "longitude": "-90.10260578177494",
    "latitude": "29.97486283688435",
    "geocoded_column": {
      "latitude": "29.97486283688435",
      "longitude": "-90.10260578177494"
    }
  },
  {
    "service_request": "2022-922340",
    "request_type": "Property Maintenance",
    "request_reason": "Property Maintenance",
    "date_created": "2022-09-21T15:00:13.000",
    "date_modified": "2022-09-21T15:00:13.000",
    "request_status": "Pending",
    "responsible_agency": "Department of Code Enforcement",
    "final_address": "719 Lyons St",
    "address_councildis": "B",
    "status": "Pending",
    "rowid": "922340",
    "final_x": "3669397.40788",
    "final_y": "518031.899062",
    "longitude": "-90.1067419846722",
    "latitude": "29.918769667314837",
    "geocoded_column": {
      "latitude": "29.918769667314837",
      "longitude": "-90.1067419846722"
    }
  },
  {
    "service_request": "2022-922339",
    "request_type": "Abandoned Vehicles",
    "request_reason": "Abandoned/Junk Vehicles",
    "date_created": "2022-09-21T14:54:15.000",
    "date_modified": "2022-09-21T14:54:15.000",
    "request_status": "Pending",
    "responsible_agency": "Department of Public Works",
    "final_address": "715 N Lopez St",
    "address_councildis": "A",
    "status": "Pending",
    "rowid": "922339",
    "final_x": "3675333.64149",
    "final_y": "538269.813449",
    "longitude": "-90.0873097138799",
    "latitude": "29.974241175641303",
    "geocoded_column": {
      "latitude": "29.974241175641303",
      "longitude": "-90.0873097138799"
    }
  },
  {
    "service_request": "2022-922338",
    "request_type": "Abandoned Vehicles",
    "request_reason": "Abandoned/Junk Vehicles",
    "date_created": "2022-09-21T14:52:52.000",
    "date_modified": "2022-09-21T14:52:52.000",
    "request_status": "Pending",
    "responsible_agency": "Department of Public Works",
    "final_address": "715 N Lopez St",
    "address_councildis": "A",
    "status": "Pending",
    "rowid": "922338",
    "final_x": "3675333.64149",
    "final_y": "538269.813449",
    "longitude": "-90.0873097138799",
    "latitude": "29.974241175641303",
    "geocoded_column": {
      "latitude": "29.974241175641303",
      "longitude": "-90.0873097138799"
    }
  },
  {
    "service_request": "2022-922337",
    "request_type": "Traffic Signals/Signs/Striping/Streetlights",
    "request_reason": "Street Light Outage/Malfunction",
    "date_created": "2022-09-21T14:50:01.000",
    "date_modified": "2022-09-21T14:50:02.000",
    "request_status": "Pending",
    "responsible_agency": "Department of Public Works",
    "final_address": "615 Ursulines Ave",
    "address_councildis": "C",
    "status": "Pending",
    "contractor": "Legacy Professional Services",
    "rowid": "922337",
    "final_x": "3683626.24962",
    "final_y": "533522.993412",
    "longitude": "-90.06128618641885",
    "latitude": "29.960938500554807",
    "geocoded_column": {
      "latitude": "29.960938500554807",
      "longitude": "-90.06128618641885"
    }
  },
  {
    "service_request": "2022-922335",
    "request_type": "Trash/Recycling",
    "request_reason": "Missed Trash Pick-Up",
    "date_created": "2022-09-21T14:45:28.000",
    "date_modified": "2022-09-21T14:45:29.000",
    "request_status": "Pending",
    "responsible_agency": "Department of Sanitation",
    "final_address": "2103 Josephine St Apt A",
    "address_councildis": "B",
    "status": "Assigned to Contractor",
    "contractor": "Richards Disposal",
    "rowid": "922335",
    "final_x": "3676770.22376",
    "final_y": "525508.046205",
    "longitude": "-90.08321237548816",
    "latitude": "29.939107566064003",
    "geocoded_column": {
      "latitude": "29.939107566064003",
      "longitude": "-90.08321237548816"
    }
  },
  {
    "service_request": "2022-922334",
    "request_type": "Abandoned Vehicles",
    "request_reason": "Abandoned/Junk Vehicles",
    "date_created": "2022-09-21T14:44:23.000",
    "date_modified": "2022-09-21T14:44:24.000",
    "request_status": "Pending",
    "responsible_agency": "Department of Public Works",
    "final_address": "2537 St Roch Ave",
    "address_councildis": "D",
    "status": "Pending",
    "rowid": "922334",
    "final_x": "3686134.99606",
    "final_y": "541899.834764",
    "longitude": "-90.05306849600004",
    "latitude": "29.98389506744912",
    "geocoded_column": {
      "latitude": "29.98389506744912",
      "longitude": "-90.05306849600004"
    }
  },
  {
    "service_request": "2022-922333",
    "request_type": "Trash/Recycling",
    "request_reason": "Order Recycling Cart",
    "date_created": "2022-09-21T14:43:14.000",
    "date_modified": "2022-09-21T14:43:14.000",
    "request_status": "Pending",
    "responsible_agency": "Department of Sanitation",
    "final_address": "2623 Hyman Pl",
    "address_councildis": "C",
    "status": "Pending",
    "rowid": "922333",
    "final_x": "3700995.98193",
    "final_y": "521413.113593",
    "longitude": "-90.00687888561875",
    "latitude": "29.9270989415547",
    "geocoded_column": {
      "latitude": "29.9270989415547",
      "longitude": "-90.00687888561875"
    }
  },
  {
    "service_request": "2022-922332",
    "request_type": "Parks & Parkways",
    "request_reason": "Request Tree Service (Right of Way/Public Property)",
    "date_created": "2022-09-21T14:40:50.000",
    "date_modified": "2022-09-21T14:40:51.000",
    "request_status": "Pending",
    "responsible_agency": "Department of Parks & Parkway",
    "final_address": "FONTAINEBLEAU DR & CALHOUN ST",
    "address_councildis": "B",
    "status": "Pending",
    "rowid": "922332",
    "final_x": "3667986.1",
    "final_y": "530035.88",
    "longitude": "-90.1107924955432",
    "latitude": "29.951818234104596",
    "geocoded_column": {
      "latitude": "29.951818234104596",
      "longitude": "-90.1107924955432"
    }
  },
  {
    "service_request": "2022-922331",
    "request_type": "Tax and Revenue",
    "request_reason": "Sales Tax Question",
    "date_created": "2022-09-21T14:38:29.000",
    "date_modified": "2022-09-21T14:38:29.000",
    "request_status": "Pending",
    "responsible_agency": "Bureau of Revenue",
    "final_address": "13800 Old Gentilly Rd",
    "address_councildis": "E",
    "status": "Pending",
    "rowid": "922331",
    "final_x": "3727435.23309",
    "final_y": "556225.911066",
    "longitude": "-89.92206478628862",
    "latitude": "30.02195259142992",
    "geocoded_column": {
      "latitude": "30.02195259142992",
      "longitude": "-89.92206478628862"
    }
  },