[
  {
    "service_request": "2022-956599",
    "request_type": "Trash/Recycling",
    "request_reason": "Order Recycling Cart",
    "date_created": "2022-12-28T00:59:13.000",
    "date_modified": "2022-12-28T00:59:13.000",
    "request_status": "Pending",
    "responsible_agency": "Department of Sanitation",
    "final_address": "4107 Erato St",
    "address_councildis": "B",
    "status": "Pending",
    "rowid": "956599",
    "final_x": "3671372.13313",
    "final_y": "531227.705218",
    "longitude": "-90.10006048745569",
    "latitude": "29.954995589032162",
    "geocoded_column": {
      "latitude": "29.954995589032162",
      "longitude": "-90.10006048745569"
    }
  },
  {
    "service_request": "2022-956597",
    "request_type": "Trash/Recycling",
    "request_reason": "Missed Trash Pick-Up",
    "date_created": "2022-12-27T22:42:46.000",
    "date_modified": "2022-12-27T22:42:46.000",
    "request_status": "Pending",
    "responsible_agency": "Department of Sanitation",
    "final_address": "1301 General Taylor St",
    "address_councildis": "B",
    "status": "Assigned to Contractor",
    "contractor": "Richards Disposal",
    "rowid": "956597",
    "final_x": "3672844.37032",
    "final_y": "520291.135864",
    "longitude": "-90.09578468200387",
    "latitude": "29.924879936904606",
    "geocoded_column": {
      "latitude": "29.924879936904606",
      "longitude": "-90.09578468200387"
    }
  },
  {
    "service_request": "2022-956596",
    "request_type": "Trash/Recycling",
    "request_reason": "Start Trash Service",
    "date_created": "2022-12-27T22:42:14.000",
    "date_modified": "2022-12-27T22:42:15.000",
    "request_status": "Pending",
    "responsible_agency": "Department of Sanitation",
    "final_address": "1839 Allen St",
    "address_councildis": "D",
    "status": "Assigned to Contractor",
    "contractor": "IV Waste",
    "rowid": "956596",
    "final_x": "3682581.5974",
    "final_y": "538995.732234",
    "longitude": "-90.06439361351114",
    "latitude": "29.976018490786277",
    "geocoded_column": {
      "latitude": "29.976018490786277",
      "longitude": "-90.06439361351114"
    }
  },
  {
    "service_request": "2022-956595",
    "request_type": "Property Maintenance",
    "request_reason": "Property Maintenance",
    "date_created": "2022-12-27T22:30:51.000",
    "date_modified": "2022-12-27T22:30:51.000",
    "request_status": "Pending",
    "responsible_agency": "Department of Code Enforcement",
    "final_address": "2025 Constance St",
    "address_councildis": "B",
    "status": "Pending",
    "rowid": "956595",
    "final_x": "3679553.30703",
    "final_y": "522199.513786",
    "longitude": "-90.07454059549033",
    "latitude": "29.92992640894876",
    "geocoded_column": {
      "latitude": "29.92992640894876",
      "longitude": "-90.07454059549033"
    }
  },
  {
    "service_request": "2022-956594",
    "request_type": "Roads/Drainage",
    "request_reason": "Street Flooding / Drainage",
    "date_created": "2022-12-27T22:26:53.000",
    "date_modified": "2022-12-27T22:26:53.000",
    "request_status": "Pending",
    "responsible_agency": "Department of Public Works",
    "final_address": "2828 Coliseum St",
    "address_councildis": "B",
    "status": "Pending",
    "rowid": "956594",
    "final_x": "3676286.40865",
    "final_y": "521506.019449",
    "longitude": "-90.08487750392543",
    "latitude": "29.92811780458729",
    "geocoded_column": {
      "latitude": "29.92811780458729",
      "longitude": "-90.08487750392543"
    }
  },
  {
    "service_request": "2022-956593",
    "request_type": "Health Related Request",
    "request_reason": "Noise Ordinance Complaint",
    "date_created": "2022-12-27T22:20:04.000",
    "date_modified": "2022-12-27T22:20:04.000",
    "request_status": "Pending",
    "responsible_agency": "Health Department",
    "final_address": "711 Bourbon St, New Orleans, Louisiana, 70116",
    "address_councildis": "C",
    "status": "Pending",
    "rowid": "956593",
    "final_x": "3682299.38447",
    "final_y": "532765.705988",
    "longitude": "-90.06550263299877",
    "latitude": "29.95889665479323",
    "geocoded_column": {
      "latitude": "29.95889665479323",
      "longitude": "-90.06550263299877"
    }
  },
  {
    "service_request": "2022-956592",
    "request_type": "Trash/Recycling",
    "request_reason": "Missed Trash Pick-Up",
    "date_created": "2022-12-27T22:17:38.000",
    "date_modified": "2022-12-27T22:17:39.000",
    "request_status": "Pending",
    "responsible_agency": "Department of Sanitation",
    "final_address": "4314 Annunciation St",
    "address_councildis": "B",
    "status": "Assigned to Contractor",
    "contractor": "Richards Disposal",
    "rowid": "956592",
    "final_x": "3671425.02331",
    "final_y": "517743.383094",
    "longitude": "-90.10035164522479",
    "latitude": "29.917916502197677",
    "geocoded_column": {
      "latitude": "29.917916502197677",
      "longitude": "-90.10035164522479"
    }
  },
  {
    "service_request": "2022-956591",
    "request_type": "Traffic Signals/Signs/Striping/Streetlights",
    "request_reason": "Street Light Outage/Malfunction",
    "date_created": "2022-12-27T21:59:36.000",
    "date_modified": "2022-12-27T21:59:37.000",
    "request_status": "Pending",
    "responsible_agency": "Department of Public Works",
    "final_address": "2011 Chartres St",
    "address_councildis": "C",
    "status": "Assigned to Contractor",
    "contractor": "Legacy Professional Services",
    "rowid": "956591",
    "final_x": "3684613.92009",
    "final_y": "534498.126981",
    "longitude": "-90.05813304454537",
    "latitude": "29.963589596366827",
    "geocoded_column": {
      "latitude": "29.963589596366827",
      "longitude": "-90.05813304454537"
    }
  },
  {
    "service_request": "2022-956590",
    "request_type": "Trash/Recycling",
    "request_reason": "Missed Trash Pick-Up",
    "date_created": "2022-12-27T21:55:16.000",
    "date_modified": "2022-12-27T21:55:17.000",
    "request_status": "Pending",
    "responsible_agency": "Department of Sanitation",
    "final_address": "6564 Vicksburg St",
    "address_councildis": "A",
    "status": "Assigned to Contractor",
    "contractor": "IV Waste",
    "rowid": "956590",
    "final_x": "3669133.93198",
    "final_y": "551180.976469",
    "longitude": "-90.10645329592408",
    "latitude": "30.00992635714015",
    "geocoded_column": {
      "latitude": "30.00992635714015",
      "longitude": "-90.10645329592408"
    }
  },
  {
    "service_request": "2022-956588",
    "request_type": "Trash/Recycling",
    "request_reason": "Missed Trash Pick-Up",
    "date_created": "2022-12-27T21:30:27.000",
    "date_modified": "2022-12-27T21:30:28.000",
    "request_status": "Pending",
    "responsible_agency": "Department of Sanitation",
    "final_address": "1319 Jefferson Ave",
    "address_councildis": "B",
    "status": "Assigned to Contractor",
    "contractor": "Richards Disposal",
    "rowid": "956588",
    "final_x": "3667172.79169",
    "final_y": "520198.914104",
    "longitude": "-90.11369115540957",
    "latitude": "29.924793569520368",
    "geocoded_column": {
      "latitude": "29.924793569520368",
      "longitude": "-90.11369115540957"
    }
  },
  {
    "service_request": "2022-956587",
    "request_type": "Trash/Recycling",
    "request_reason": "Missed Trash Pick-Up",
    "date_created": "2022-12-27T21:20:56.000",
    "date_modified": "2022-12-27T21:20:56.000",
    "request_status": "Pending",
    "responsible_agency": "Department of Sanitation",
    "final_address": "826 Elmira Ave",
    "address_councildis": "C",
    "status": "Assigned to Contractor",
    "contractor": "Richards Disposal",
    "rowid": "956587",
    "final_x": "3688190.71676",
    "final_y": "528476.538048",
    "longitude": "-90.04705138536406",
    "latitude": "29.946922364375258",
    "geocoded_column": {
      "latitude": "29.946922364375258",
      "longitude": "-90.04705138536406"
    }
  },
  {
    "service_request": "2022-956586",
    "request_type": "Abandoned Vehicles",
    "request_reason": "Abandoned/Junk Vehicles",
    "date_created": "2022-12-27T21:16:27.000",
    "date_modified": "2022-12-27T21:17:25.000",
    "request_status": "Pending",
    "responsible_agency": "Department of Public Works",
    "final_address": "2708 New Orleans St",
    "address_councildis": "D",
    "status": "Pending",
    "rowid": "956586",
    "final_x": "3681856.04629",
    "final_y": "542451.966989",
    "longitude": "-90.06656443397097",
    "latitude": "29.985544002407025",
    "geocoded_column": {
      "latitude": "29.985544002407025",
      "longitude": "-90.06656443397097"
    }
  },
  {
    "service_request": "2022-956585",
    "request_type": "Abandoned Vehicles",
    "request_reason": "Abandoned/Junk Vehicles",
    "date_created": "2022-12-27T21:01:44.000",
    "date_modified": "2022-12-27T21:01:44.000",
    "request_status": "Pending",
    "responsible_agency": "Department of Public Works",
    "final_address": "1668 N Tonti St",
    "address_councildis": "D",
    "status": "Pending",
    "rowid": "956585",
    "final_x": "3680605.56565",
    "final_y": "539750.166346",
    "longitude": "-90.0706082332086",
    "latitude": "29.978152946199305",
    "geocoded_column": {
      "latitude": "29.978152946199305",
      "longitude": "-90.0706082332086"
    }
  },
  {
    "service_request": "2022-956584",
    "request_type": "Trash/Recycling",
    "request_reason": "Missed Trash Pick-Up",
    "date_created": "2022-12-27T20:56:24.000",
    "date_modified": "2022-12-27T20:56:25.000",
    "request_status": "Pending",
    "responsible_agency": "Department of Sanitation",
    "final_address": "831 Pacific Ave",
    "address_councildis": "C",
    "status": "Assigned to Contractor",
    "contractor": "Richards Disposal",
    "rowid": "956584",
    "final_x": "3688403.64739",
    "final_y": "528426.378816",
    "longitude": "-90.04638086550617",
    "latitude": "29.94677786941864",
    "geocoded_column": {
      "latitude": "29.94677786941864",
      "longitude": "-90.04638086550617"
    }
  },
  {
    "service_request": "2022-956583",
    "request_type": "Abandoned Vehicles",
    "request_reason": "Abandoned/Junk Vehicles",
    "date_created": "2022-12-27T20:39:49.000",
    "date_modified": "2022-12-27T20:39:49.000",
    "request_status": "Pending",
    "responsible_agency": "Department of Public Works",
    "final_address": "5670 Woodlawn Pl",
    "address_councildis": "A",
    "status": "Pending",
    "rowid": "956583",
    "final_x": "3667441.57517",
    "final_y": "545248.704911",
    "longitude": "-90.11199985487272",
    "latitude": "29.99366438030162",
    "geocoded_column": {
      "latitude": "29.99366438030162",
      "longitude": "-90.11199985487272"
    }
  },
  {
    "service_request": "2022-956582",
    "request_type": "Trash/Recycling",
    "request_reason": "Missed Trash Pick-Up",
    "date_created": "2022-12-27T20:35:04.000",
    "date_modified": "2022-12-27T20:35:05.000",
    "request_status": "Pending",
    "responsible_agency": "Department of Sanitation",
    "final_address": "1721 Robert St",
    "address_councildis": "B",
    "status": "Assigned to Contractor",
    "contractor": "Richards Disposal",
    "rowid": "956582",
    "final_x": "3668804.12609",
    "final_y": "521971.424698",
    "longitude": "-90.10848174660215",
    "latitude": "29.929619563428524",
    "geocoded_column": {
      "latitude": "29.929619563428524",
      "longitude": "-90.10848174660215"
    }
  },
  {
    "service_request": "2022-956581",
    "request_type": "Traffic Signals/Signs/Striping/Streetlights",
    "request_reason": "Street Light Outage/Malfunction",
    "date_created": "2022-12-27T20:33:09.000",
    "date_modified": "2022-12-27T20:33:10.000",
    "request_status": "Pending",
    "responsible_agency": "Department of Public Works",
    "final_address": "1500 BLK N Roman St",
    "address_councildis": "D",
    "status": "Assigned to Contractor",
    "contractor": "Legacy Professional Services",
    "rowid": "956581",
    "final_x": "3681268.0787",
    "final_y": "537772.307117",
    "longitude": "-90.06858473216138",
    "latitude": "29.972694427317823",
    "geocoded_column": {
      "latitude": "29.972694427317823",
      "longitude": "-90.06858473216138"
    }
  },
  {
    "service_request": "2022-956580",
    "request_type": "Trash/Recycling",
    "request_reason": "Missed Trash Pick-Up",
    "date_created": "2022-12-27T20:29:54.000",
    "date_modified": "2022-12-27T20:29:55.000",
    "request_status": "Pending",
    "responsible_agency": "Department of Sanitation",
    "final_address": "1014 Aline St",
    "address_councildis": "B",
    "status": "Assigned to Contractor",
    "contractor": "Richards Disposal",
    "rowid": "956580",
    "final_x": "3674493.55937",
    "final_y": "519166.814519",
    "longitude": "-90.09061721832725",
    "latitude": "29.92173933475211",
    "geocoded_column": {
      "latitude": "29.92173933475211",
      "longitude": "-90.09061721832725"
    }
  },
  {
    "service_request": "2022-956579",
    "request_type": "Trash/Recycling",
    "request_reason": "Missed Trash Pick-Up",
    "date_created": "2022-12-27T20:10:30.000",
    "date_modified": "2022-12-27T20:10:31.000",
    "request_status": "Pending",
    "responsible_agency": "Department of Sanitation",
    "final_address": "2618 Cupid St",
    "address_councildis": "C",
    "status": "Assigned to Contractor",
    "contractor": "Richards Disposal",
    "rowid": "956579",
    "final_x": "3700410.05136",
    "final_y": "521423.851385",
    "longitude": "-90.00872811303307",
    "latitude": "29.927147104449098",
    "geocoded_column": {
      "latitude": "29.927147104449098",
      "longitude": "-90.00872811303307"
    }
  },
  {
    "service_request": "2022-956578",
    "request_type": "Trash/Recycling",
    "request_reason": "Missed Trash Pick-Up",
    "date_created": "2022-12-27T20:07:42.000",
    "date_modified": "2022-12-27T20:07:43.000",
    "request_status": "Pending",
    "responsible_agency": "Department of Sanitation",
    "final_address": "3965 Constance St",
    "address_councildis": "B",
    "status": "Assigned to Contractor",
    "contractor": "Richards Disposal",
    "rowid": "956578",
    "final_x": "3672630.12603",
    "final_y": "518611.610039",
    "longitude": "-90.09651820865471",
    "latitude": "29.920268138418123",
    "geocoded_column": {
      "latitude": "29.920268138418123",
      "longitude": "-90.09651820865471"
    }
  },
  {
    "service_request": "2022-956577",
    "request_type": "Trash/Recycling",
    "request_reason": "MIssed Recycling Pick-Up",
    "date_created": "2022-12-27T20:06:44.000",
    "date_modified": "2022-12-27T20:06:44.000",
    "request_status": "Pending",
    "responsible_agency": "Department of Sanitation",
    "final_address": "902 Stewart Ct",
    "address_councildis": "A",
    "status": "Assigned to Contractor",
    "contractor": "Richards Disposal",
    "rowid": "956577",
    "final_x": "3673066.12801",
    "final_y": "540708.791883",
    "longitude": "-90.09438777562833",
    "latitude": "29.981015140424745",
    "geocoded_column": {
      "latitude": "29.981015140424745",
      "longitude": "-90.09438777562833"
    }
  },
  {
    "service_request": "2022-956576",
    "request_type": "Abandoned Vehicles",
    "request_reason": "Abandoned/Junk Vehicles",
    "date_created": "2022-12-27T19:56:02.000",
    "date_modified": "2022-12-27T19:56:02.000",
    "request_status": "Pending",
    "responsible_agency": "Department of Public Works",
    "final_address": "3438 Cleveland Ave",
    "address_councildis": "B",
    "status": "Pending",
    "rowid": "956576",
    "final_x": "3672612.03816",
    "final_y": "536597.805639",
    "longitude": "-90.09596221290224",
    "latitude": "29.969724816618136",
    "geocoded_column": {
      "latitude": "29.969724816618136",
      "longitude": "-90.09596221290224"
    }
  },
  {
    "service_request": "2022-956575",
    "request_type": "Trash/Recycling",
    "request_reason": "Order Recycling Cart",
    "date_created": "2022-12-27T19:50:53.000",
    "date_modified": "2022-12-27T19:50:53.000",
    "request_status": "Pending",
    "responsible_agency": "Department of Sanitation",
    "final_address": "7307 Burthe St",
    "address_councildis": "A",
    "status": "Pending",
    "rowid": "956575",
    "final_x": "3663287.19527",
    "final_y": "525849.362109",
    "longitude": "-90.12576877945969",
    "latitude": "29.94044366884792",
    "geocoded_column": {
      "latitude": "29.94044366884792",
      "longitude": "-90.12576877945969"
    }
  },
  {
    "service_request": "2022-956574",
    "request_type": "Trash/Recycling",
    "request_reason": "Order Trash Cart",
    "date_created": "2022-12-27T19:47:38.000",
    "date_modified": "2022-12-27T19:47:39.000",
    "request_status": "Pending",
    "responsible_agency": "Department of Sanitation",
    "final_address": "7307 Burthe St",
    "address_councildis": "A",
    "status": "Assigned to Contractor",
    "contractor": "Richards Disposal",
    "rowid": "956574",
    "final_x": "3663287.19527",
    "final_y": "525849.362109",
    "longitude": "-90.12576877945969",
    "latitude": "29.94044366884792",
    "geocoded_column": {
      "latitude": "29.94044366884792",
      "longitude": "-90.12576877945969"
    }
  },
  {
    "service_request": "2022-956572",
    "request_type": "Trash/Recycling",
    "request_reason": "Missed Trash Pick-Up",
    "date_created": "2022-12-27T19:40:08.000",
    "date_modified": "2022-12-27T19:40:08.000",
    "request_status": "Pending",
    "responsible_agency": "Department of Sanitation",
    "final_address": "732 Pacific Ave",
    "address_councildis": "C",
    "status": "Assigned to Contractor",
    "contractor": "Richards Disposal",
    "rowid": "956572",
    "final_x": "3688510.70217",
    "final_y": "528792.5456",
    "longitude": "-90.04602986702261",
    "latitude": "29.94778139629566",
    "geocoded_column": {
      "latitude": "29.94778139629566",
      "longitude": "-90.04602986702261"
    }
  },
  {
    "service_request": "2022-956571",
    "request_type": "Trash/Recycling",
    "request_reason": "Missed Trash Pick-Up",
    "date_created": "2022-12-27T19:34:37.000",
    "date_modified": "2022-12-27T19:34:37.000",
    "request_status": "Pending",
    "responsible_agency": "Department of Sanitation",
    "final_address": "732 Pacific Ave",
    "address_councildis": "C",
    "status": "Assigned to Contractor",
    "contractor": "Richards Disposal",
    "rowid": "956571",
    "final_x": "3688510.70217",
    "final_y": "528792.5456",
    "longitude": "-90.04602986702261",
    "latitude": "29.94778139629566",
    "geocoded_column": {
      "latitude": "29.94778139629566",
      "longitude": "-90.04602986702261"
    }
  },
  {
    "service_request": "2022-956570",
    "request_type": "Trash/Recycling",
    "request_reason": "Missed Trash Pick-Up",
    "date_created": "2022-12-27T19:33:52.000",
    "date_modified": "2022-12-27T19:33:52.000",
    "request_status": "Pending",
    "responsible_agency": "Department of Sanitation",
    "final_address": "732 Pacific Ave",
    "address_councildis": "C",
    "status": "Assigned to Contractor",
    "contractor": "Richards Disposal",
    "rowid": "956570",
    "final_x": "3688510.70217",
    "final_y": "528792.5456",
    "longitude": "-90.04602986702261",
    "latitude": "29.94778139629566",
    "geocoded_column": {
      "latitude": "29.94778139629566",
      "longitude": "-90.04602986702261"
    }
  },
  {
    "service_request": "2022-956569",
    "request_type": "Trash/Recycling",
    "request_reason": "Missed Trash Pick-Up",
    "date_created": "2022-12-27T19:33:37.000",
    "date_modified": "2022-12-27T19:33:38.000",
    "request_status": "Pending",
    "responsible_agency": "Department of Sanitation",
    "final_address": "732 Pacific Ave",
    "address_councildis": "C",
    "status": "Assigned to Contractor",
    "contractor": "Richards Disposal",
    "rowid": "956569",
    "final_x": "3688510.70217",
    "final_y": "528792.5456",
    "longitude": "-90.04602986702261",
    "latitude": "29.94778139629566",
    "geocoded_column": {
      "latitude": "29.94778139629566",
      "longitude": "-90.04602986702261"
    }
  },
  {
    "service_request": "2022-956568",
    "request_type": "Trash/Recycling",
    "request_reason": "Missed Trash Pick-Up",
    "date_created": "2022-12-27T19:32:50.000",
    "date_modified": "2022-12-27T19:32:50.000",
    "request_status": "Pending",
    "responsible_agency": "Department of Sanitation",
    "final_address": "732 Pacific Ave",
    "address_councildis": "C",
    "status": "Assigned to Contractor",
    "contractor": "Richards Disposal",
    "rowid": "956568",
    "final_x": "3688510.70217",
    "final_y": "528792.5456",
    "longitude": "-90.04602986702261",
    "latitude": "29.94778139629566",
    "geocoded_column": {
      "latitude": "29.94778139629566",
      "longitude": "-90.04602986702261"
    }
  },
  {
    "service_request": "2022-956567",
    "request_type": "Trash/Recycling",
    "request_reason": "Missed Trash Pick-Up",
    "date_created": "2022-12-27T19:32:11.000",
    "date_modified": "2022-12-27T19:32:11.000",
    "request_status": "Pending",
    "responsible_agency": "Department of Sanitation",
    "final_address": "732 Pacific Ave",
    "address_councildis": "C",
    "status": "Assigned to Contractor",
    "contractor": "Richards Disposal",
    "rowid": "956567",
    "final_x": "3688510.70217",
    "final_y": "528792.5456",
    "longitude": "-90.04602986702261",
    "latitude": "29.94778139629566",
    "geocoded_column": {
      "latitude": "29.94778139629566",
      "longitude": "-90.04602986702261"
    }
  },
  {
    "service_request": "2022-956566",
    "request_type": "Trash/Recycling",
    "request_reason": "Missed Trash Pick-Up",
    "date_created": "2022-12-27T19:29:58.000",
    "date_modified": "2022-12-27T19:29:59.000",
    "request_status": "Pending",
    "responsible_agency": "Department of Sanitation",
    "final_address": "732 Pacific Ave",
    "address_councildis": "C",
    "status": "Assigned to Contractor",
    "contractor": "Richards Disposal",
    "rowid": "956566",
    "final_x": "3688510.70217",
    "final_y": "528792.5456",
    "longitude": "-90.04602986702261",
    "latitude": "29.94778139629566",
    "geocoded_column": {
      "latitude": "29.94778139629566",
      "longitude": "-90.04602986702261"
    }
  },
  {
    "service_request": "2022-956565",
    "request_type": "Roads/Drainage",
    "request_reason": "Debris in Roadway",
    "date_created": "2022-12-27T19:23:34.000",
    "date_modified": "2022-12-27T19:23:34.000",
    "request_status": "Pending",
    "responsible_agency": "Department of Public Works",
    "final_address": "S CLAIBORNE AVE & TOLEDANO ST",
    "address_councildis": "B",
    "status": "Pending",
    "rowid": "956565",
    "final_x": "3672686.1",
    "final_y": "526316.28",
    "longitude": "-90.09607892276615",
    "latitude": "29.941451833708907",
    "geocoded_column": {
      "latitude": "29.941451833708907",
      "longitude": "-90.09607892276615"
    }
  },
  {
    "service_request": "2022-956564",
    "request_type": "Trash/Recycling",
    "request_reason": "Missed Trash Pick-Up",
    "date_created": "2022-12-27T19:16:23.000",
    "date_modified": "2022-12-27T19:16:24.000",
    "request_status": "Pending",
    "responsible_agency": "Department of Sanitation",
    "final_address": "2323 Napoleon Ave",
    "address_councildis": "B",
    "status": "Assigned to Contractor",
    "contractor": "Richards Disposal",
    "rowid": "956564",
    "final_x": "3670678.14228",
    "final_y": "523545.080315",
    "longitude": "-90.10251243535163",
    "latitude": "29.933891395218257",
    "geocoded_column": {
      "latitude": "29.933891395218257",
      "longitude": "-90.10251243535163"
    }
  },
  {
    "service_request": "2022-956563",
    "request_type": "Property Maintenance",
    "request_reason": "Property Maintenance",
    "date_created": "2022-12-27T19:07:09.000",
    "date_modified": "2022-12-27T19:07:09.000",
    "request_status": "Pending",
    "responsible_agency": "Department of Code Enforcement",
    "final_address": "2000 Second St",
    "address_councildis": "B",
    "status": "Pending",
    "rowid": "956563",
    "final_x": "3675853.04046",
    "final_y": "524256.878844",
    "longitude": "-90.08615103196456",
    "latitude": "29.935694748522696",
    "geocoded_column": {
      "latitude": "29.935694748522696",
      "longitude": "-90.08615103196456"
    }
  },
  {
    "service_request": "2022-956562",
    "request_type": "Abandoned Vehicles",
    "request_reason": "Abandoned/Junk Vehicles",
    "date_created": "2022-12-27T18:59:17.000",
    "date_modified": "2022-12-27T18:59:17.000",
    "request_status": "Pending",
    "responsible_agency": "Department of Public Works",
    "final_address": "5415 Macarthur Blvd",
    "address_councildis": "C",
    "status": "Pending",
    "rowid": "956562",
    "final_x": "3704111.2234",
    "final_y": "519457.368247",
    "longitude": "-89.99711694449041",
    "latitude": "29.921621792105256",
    "geocoded_column": {
      "latitude": "29.921621792105256",
      "longitude": "-89.99711694449041"
    }
  },
  {
    "service_request": "2022-956561",
    "request_type": "Trash/Recycling",
    "request_reason": "MIssed Recycling Pick-Up",
    "date_created": "2022-12-27T18:57:55.000",
    "date_modified": "2022-12-27T18:57:56.000",
    "request_status": "Pending",
    "responsible_agency": "Department of Sanitation",
    "final_address": "4810 Bienville Ave",
    "address_councildis": "A",
    "status": "Assigned to Contractor",
    "contractor": "Richards Disposal",
    "rowid": "956561",
    "final_x": "3669177.79854",
    "final_y": "540724.592267",
    "longitude": "-90.10666836299133",
    "latitude": "29.98117361622397",
    "geocoded_column": {
      "latitude": "29.98117361622397",
      "longitude": "-90.10666836299133"
    }
  },
  {
    "service_request": "2022-956560",
    "request_type": "Roads/Drainage",
    "request_reason": "Debris in Roadway",
    "date_created": "2022-12-27T18:55:23.000",
    "date_modified": "2022-12-27T18:55:23.000",
    "request_status": "Pending",
    "responsible_agency": "Department of Public Works",
    "final_address": "5415 Macarthur Blvd",
    "address_councildis": "C",
    "status": "Pending",
    "rowid": "956560",
    "final_x": "3704111.2234",
    "final_y": "519457.368247",
    "longitude": "-89.99711694449041",
    "latitude": "29.921621792105256",
    "geocoded_column": {
      "latitude": "29.921621792105256",
      "longitude": "-89.99711694449041"
    }
  },
  {
    "service_request": "2022-956559",
    "request_type": "Trash/Recycling",
    "request_reason": "Missed Trash Pick-Up",
    "date_created": "2022-12-27T18:45:55.000",
    "date_modified": "2022-12-27T18:45:56.000",
    "request_status": "Pending",
    "responsible_agency": "Department of Sanitation",
    "final_address": "5351 Tchoupitoulas St",
    "address_councildis": "B",
    "status": "Assigned to Contractor",
    "contractor": "Richards Disposal",
    "rowid": "956559",
    "final_x": "3666843.49517",
    "final_y": "517212.276725",
    "longitude": "-90.11483089618059",
    "latitude": "29.916590888881792",
    "geocoded_column": {
      "latitude": "29.916590888881792",
      "longitude": "-90.11483089618059"
    }
  },
  {
    "service_request": "2022-956558",
    "request_type": "Roads/Drainage",
    "request_reason": "Service Cut",
    "date_created": "2022-12-27T18:45:51.000",
    "date_modified": "2022-12-27T18:45:51.000",
    "request_status": "Pending",
    "responsible_agency": "Department of Public Works",
    "final_address": "1022 Octavia St",
    "address_councildis": "A",
    "status": "Pending",
    "rowid": "956558",
    "final_x": "3666609.30413",
    "final_y": "519807.799416",
    "longitude": "-90.11548302775535",
    "latitude": "29.923734607461967",
    "geocoded_column": {
      "latitude": "29.923734607461967",
      "longitude": "-90.11548302775535"
    }
  },
  {
    "service_request": "2022-956557",
    "request_type": "Trash/Recycling",
    "request_reason": "Replace Trash Cart",
    "date_created": "2022-12-27T18:35:15.000",
    "date_modified": "2022-12-27T18:35:16.000",
    "request_status": "Pending",
    "responsible_agency": "Department of Sanitation",
    "final_address": "2501 First St",
    "address_councildis": "B",
    "status": "Assigned to Contractor",
    "contractor": "Richards Disposal",
    "rowid": "956557",
    "final_x": "3675147.94798",
    "final_y": "526006.235581",
    "longitude": "-90.08831701360228",
    "latitude": "29.940525990627606",
    "geocoded_column": {
      "latitude": "29.940525990627606",
      "longitude": "-90.08831701360228"
    }
  },
  {
    "service_request": "2022-956556",
    "request_type": "Trash/Recycling",
    "request_reason": "Missed Trash Pick-Up",
    "date_created": "2022-12-27T18:32:28.000",
    "date_modified": "2022-12-27T18:32:29.000",
    "request_status": "Pending",
    "responsible_agency": "Department of Sanitation",
    "final_address": "1383 Madrid St",
    "address_councildis": "D",
    "status": "Assigned to Contractor",
    "contractor": "IV Waste",
    "rowid": "956556",
    "final_x": "3677398.92488",
    "final_y": "554715.991576",
    "longitude": "-90.08021902832029",
    "latitude": "30.019400456907146",
    "geocoded_column": {
      "latitude": "30.019400456907146",
      "longitude": "-90.08021902832029"
    }
  },
  {
    "service_request": "2022-956555",
    "request_type": "Trash/Recycling",
    "request_reason": "MIssed Recycling Pick-Up",
    "date_created": "2022-12-27T18:28:00.000",
    "date_modified": "2022-12-27T18:28:01.000",
    "request_status": "Pending",
    "responsible_agency": "Department of Sanitation",
    "final_address": "2206 Ursulines Ave",
    "address_councildis": "D",
    "status": "Assigned to Contractor",
    "contractor": "Richards Disposal",
    "rowid": "956555",
    "final_x": "3679167.87272",
    "final_y": "536880.164936",
    "longitude": "-90.07524850507848",
    "latitude": "29.970304916736975",
    "geocoded_column": {
      "latitude": "29.970304916736975",
      "longitude": "-90.07524850507848"
    }
  },
  {
    "service_request": "2022-956554",
    "request_type": "Trash/Recycling",
    "request_reason": "Order Recycling Cart",
    "date_created": "2022-12-27T18:21:49.000",
    "date_modified": "2022-12-27T18:21:49.000",
    "request_status": "Pending",
    "responsible_agency": "Department of Sanitation",
    "final_address": "5944 Argonne Blvd",
    "address_councildis": "A",
    "status": "Pending",
    "rowid": "956554",
    "final_x": "3670066.86791",
    "final_y": "546827.277457",
    "longitude": "-90.1036534180396",
    "latitude": "29.997927705448376",
    "geocoded_column": {
      "latitude": "29.997927705448376",
      "longitude": "-90.1036534180396"
    }
  },
  {
    "service_request": "2022-956553",
    "request_type": "Trash/Recycling",
    "request_reason": "Missed Trash Pick-Up",
    "date_created": "2022-12-27T18:21:38.000",
    "date_modified": "2022-12-27T18:21:39.000",
    "request_status": "Pending",
    "responsible_agency": "Department of Sanitation",
    "final_address": "3816 Jena St",
    "address_councildis": "B",
    "status": "Assigned to Contractor",
    "contractor": "Richards Disposal",
    "rowid": "956553",
    "final_x": "3669635.5723",
    "final_y": "528583.205312",
    "longitude": "-90.10563337845794",
    "latitude": "29.947775359864256",
    "geocoded_column": {
      "latitude": "29.947775359864256",
      "longitude": "-90.10563337845794"
    }
  },
  {
    "service_request": "2022-956552",
    "request_type": "Trash/Recycling",
    "request_reason": "Missed Trash Pick-Up",
    "date_created": "2022-12-27T18:19:24.000",
    "date_modified": "2022-12-27T18:19:24.000",
    "request_status": "Pending",
    "responsible_agency": "Department of Sanitation",
    "final_address": "600 Verret St",
    "address_councildis": "C",
    "status": "Assigned to Contractor",
    "contractor": "Richards Disposal",
    "rowid": "956552",
    "final_x": "3687079.53295",
    "final_y": "529449.930689",
    "longitude": "-90.05052538655315",
    "latitude": "29.949633114079695",
    "geocoded_column": {
      "latitude": "29.949633114079695",
      "longitude": "-90.05052538655315"
    }
  },
  {
    "service_request": "2022-956551",
    "request_type": "Trash/Recycling",
    "request_reason": "Missed Trash Pick-Up",
    "date_created": "2022-12-27T18:17:54.000",
    "date_modified": "2022-12-27T18:17:55.000",
    "request_status": "Pending",
    "responsible_agency": "Department of Sanitation",
    "final_address": "604 Verret St",
    "address_councildis": "C",
    "status": "Assigned to Contractor",
    "contractor": "Richards Disposal",
    "rowid": "956551",
    "final_x": "3687082.71497",
    "final_y": "529426.237377",
    "longitude": "-90.05051617702954",
    "latitude": "29.94956786761005",
    "geocoded_column": {
      "latitude": "29.94956786761005",
      "longitude": "-90.05051617702954"
    }
  },
  {
    "service_request": "2022-956550",
    "request_type": "Trash/Recycling",
    "request_reason": "Request a Large Item Pick Up",
    "date_created": "2022-12-27T18:16:09.000",
    "date_modified": "2022-12-27T18:16:10.000",
    "request_status": "Pending",
    "responsible_agency": "Department of Sanitation",
    "final_address": "5141 Carlisle Ct",
    "address_councildis": "C",
    "status": "Assigned to Contractor",
    "contractor": "Richards Disposal",
    "rowid": "956550",
    "final_x": "3703174.63895",
    "final_y": "516472.027317",
    "longitude": "-90.0001829538753",
    "latitude": "29.91344312926251",
    "geocoded_column": {
      "latitude": "29.91344312926251",
      "longitude": "-90.0001829538753"
    }
  },
  {
    "service_request": "2022-956549",
    "request_type": "Abandoned Vehicles",
    "request_reason": "Abandoned/Junk Vehicles",
    "date_created": "2022-12-27T18:15:00.000",
    "date_modified": "2022-12-27T18:15:00.000",
    "request_status": "Pending",
    "responsible_agency": "Department of Public Works",
    "final_address": "3600 BLK Vespasian St",
    "address_councildis": "C",
    "status": "Pending",
    "rowid": "956549",
    "final_x": "3696943.75995",
    "final_y": "522551.071483",
    "longitude": "-90.01962944848454",
    "latitude": "29.930356299990063",
    "geocoded_column": {
      "latitude": "29.930356299990063",
      "longitude": "-90.01962944848454"
    }
  },
  {
    "service_request": "2022-956548",
    "request_type": "Traffic Signals/Signs/Striping/Streetlights",
    "request_reason": "Street Light Outage/Malfunction",
    "date_created": "2022-12-27T18:10:46.000",
    "date_modified": "2022-12-27T18:10:46.000",
    "request_status": "Pending",
    "responsible_agency": "Department of Public Works",
    "final_address": "1384 Madrid St",
    "address_councildis": "D",
    "status": "Assigned to Contractor",
    "contractor": "Legacy Professional Services",
    "rowid": "956548",
    "final_x": "3677425.60994",
    "final_y": "554596.499928",
    "longitude": "-90.08013884173728",
    "latitude": "30.01907109564744",
    "geocoded_column": {
      "latitude": "30.01907109564744",
      "longitude": "-90.08013884173728"
    }
  },
  {
    "service_request": "2022-956547",
    "request_type": "Trash/Recycling",
    "request_reason": "Missed Trash Pick-Up",
    "date_created": "2022-12-27T18:07:34.000",
    "date_modified": "2022-12-27T18:09:04.000",
    "request_status": "Pending",
    "responsible_agency": "Department of Sanitation",
    "final_address": "4436 Perrier St",
    "address_councildis": "B",
    "status": "Assigned to Contractor",
    "contractor": "Richards Disposal",
    "rowid": "956547",
    "final_x": "3670609.85915",
    "final_y": "519987.69612",
    "longitude": "-90.10284860402513",
    "latitude": "29.924111744542767",
    "geocoded_column": {
      "latitude": "29.924111744542767",
      "longitude": "-90.10284860402513"
    }
  },
  {
    "service_request": "2022-956546",
    "request_type": "Traffic Signals/Signs/Striping/Streetlights",
    "request_reason": "Street Light Outage/Malfunction",
    "date_created": "2022-12-27T18:06:41.000",
    "date_modified": "2022-12-27T18:06:41.000",
    "request_status": "Pending",
    "responsible_agency": "Department of Public Works",
    "final_address": "1373 Madrid St",
    "address_councildis": "D",
    "status": "Assigned to Contractor",
    "contractor": "Legacy Professional Services",
    "rowid": "956546",
    "final_x": "3677335.40546",
    "final_y": "554722.11484",
    "longitude": "-90.08041951685529",
    "latitude": "30.01941920358103",
    "geocoded_column": {
      "latitude": "30.01941920358103",
      "longitude": "-90.08041951685529"
    }
  },
  {
    "service_request": "2022-956545",
    "request_type": "Trash/Recycling",
    "request_reason": "Request a Large Item Pick Up",
    "date_created": "2022-12-27T18:05:26.000",
    "date_modified": "2022-12-27T18:05:26.000",
    "request_status": "Pending",
    "responsible_agency": "Department of Sanitation",
    "final_address": "7742 Henley St",
    "address_councildis": "E",
    "status": "Assigned to Contractor",
    "contractor": "Waste Pro",
    "rowid": "956545",
    "final_x": "3696622.80784",
    "final_y": "559643.088413",
    "longitude": "-90.01929982708954",
    "latitude": "30.032356013270373",
    "geocoded_column": {
      "latitude": "30.032356013270373",
      "longitude": "-90.01929982708954"
    }
  },
  {
    "service_request": "2022-956544",
    "request_type": "Trash/Recycling",
    "request_reason": "Missed Trash Pick-Up",
    "date_created": "2022-12-27T18:02:52.000",
    "date_modified": "2022-12-27T18:02:53.000",
    "request_status": "Pending",
    "responsible_agency": "Department of Sanitation",
    "final_address": "1800 BLK Benefit St",
    "address_councildis": "D",
    "status": "Assigned to Contractor",
    "contractor": "IV Waste",
    "rowid": "956544",
    "final_x": "3681863.97383",
    "final_y": "544204.906128",
    "longitude": "-90.06647817842068",
    "latitude": "29.990363726545166",
    "geocoded_column": {
      "latitude": "29.990363726545166",
      "longitude": "-90.06647817842068"
    }
  },
  {
    "service_request": "2022-956543",
    "request_type": "Abandoned Vehicles",
    "request_reason": "Abandoned/Junk Vehicles",
    "date_created": "2022-12-27T17:56:57.000",
    "date_modified": "2022-12-27T17:56:57.000",
    "request_status": "Pending",
    "responsible_agency": "Department of Public Works",
    "final_address": "417 Atlantic Ave",
    "address_councildis": "C",
    "status": "Pending",
    "rowid": "956543",
    "final_x": "3688765.10908",
    "final_y": "530126.493121",
    "longitude": "-90.04517925703925",
    "latitude": "29.951441433056228",
    "geocoded_column": {
      "latitude": "29.951441433056228",
      "longitude": "-90.04517925703925"
    }
  },
  {
    "service_request": "2022-956542",
    "request_type": "Trash/Recycling",
    "request_reason": "Missed Trash Pick-Up",
    "date_created": "2022-12-27T17:45:57.000",
    "date_modified": "2022-12-27T17:45:57.000",
    "request_status": "Pending",
    "responsible_agency": "Department of Sanitation",
    "final_address": "1028 Eliza St",
    "address_councildis": "C",
    "status": "Assigned to Contractor",
    "contractor": "Richards Disposal",
    "rowid": "956542",
    "final_x": "3688665.68547",
    "final_y": "529935.045377",
    "longitude": "-90.04549998140911",
    "latitude": "29.95091809049814",
    "geocoded_column": {
      "latitude": "29.95091809049814",
      "longitude": "-90.04549998140911"
    }
  },
  {
    "service_request": "2022-956541",
    "request_type": "Trash/Recycling",
    "request_reason": "Missed Trash Pick-Up",
    "date_created": "2022-12-27T17:44:32.000",
    "date_modified": "2022-12-27T17:44:33.000",
    "request_status": "Pending",
    "responsible_agency": "Department of Sanitation",
    "final_address": "9 Blanc Pl",
    "address_councildis": "B",
    "status": "Assigned to Contractor",
    "contractor": "Richards Disposal",
    "rowid": "956541",
    "final_x": "3667874.285",
    "final_y": "520921.573625",
    "longitude": "-90.111452440078",
    "latitude": "29.92676010442122",
    "geocoded_column": {
      "latitude": "29.92676010442122",
      "longitude": "-90.111452440078"
    }
  },
  {
    "service_request": "2022-956540",
    "request_type": "Traffic Signals/Signs/Striping/Streetlights",
    "request_reason": "Street Light Outage/Malfunction",
    "date_created": "2022-12-27T17:41:31.000",
    "date_modified": "2022-12-27T17:41:31.000",
    "request_status": "Pending",
    "responsible_agency": "Department of Public Works",
    "final_address": "2606 Gordon St, New Orleans, Louisiana, 70117",
    "address_councildis": "E",
    "status": "Assigned to Contractor",
    "contractor": "Legacy Professional Services",
    "rowid": "956540",
    "final_x": "3701309.80452",
    "final_y": "538869.135625",
    "longitude": "-90.00524955372448",
    "latitude": "29.975086821609285",
    "geocoded_column": {
      "latitude": "29.975086821609285",
      "longitude": "-90.00524955372448"
    }
  },
  {
    "service_request": "2022-956539",
    "request_type": "Trash/Recycling",
    "request_reason": "MIssed Recycling Pick-Up",
    "date_created": "2022-12-27T17:38:06.000",
    "date_modified": "2022-12-27T17:38:07.000",
    "request_status": "Pending",
    "responsible_agency": "Department of Sanitation",
    "final_address": "2309 Iberville St, New Orleans, Louisiana, 70119",
    "address_councildis": "B",
    "status": "Assigned to Contractor",
    "contractor": "Richards Disposal",
    "rowid": "956539",
    "final_x": "3676907.40226",
    "final_y": "534519.047429",
    "longitude": "-90.08246872239917",
    "latitude": "29.963880696021",
    "geocoded_column": {
      "latitude": "29.963880696021",
      "longitude": "-90.08246872239917"
    }
  },
  {
    "service_request": "2022-956538",
    "request_type": "Trash/Recycling",
    "request_reason": "MIssed Recycling Pick-Up",
    "date_created": "2022-12-27T17:36:31.000",
    "date_modified": "2022-12-27T17:36:31.000",
    "request_status": "Pending",
    "responsible_agency": "Department of Sanitation",
    "final_address": "6315 Cartier Dr",
    "address_councildis": "D",
    "status": "Assigned to Contractor",
    "contractor": "IV Waste",
    "rowid": "956538",
    "final_x": "3677658.146",
    "final_y": "556128.090522",
    "longitude": "-90.07935114801901",
    "latitude": "30.023275419030103",
    "geocoded_column": {
      "latitude": "30.023275419030103",
      "longitude": "-90.07935114801901"
    }
  },
  {
    "service_request": "2022-956537",
    "request_type": "Traffic Signals/Signs/Striping/Streetlights",
    "request_reason": "Street Light Outage/Malfunction",
    "date_created": "2022-12-27T17:34:48.000",
    "date_modified": "2022-12-27T17:34:48.000",
    "request_status": "Pending",
    "responsible_agency": "Department of Public Works",
    "final_address": "5900 Alfred St",
    "address_councildis": "D",
    "status": "Assigned to Contractor",
    "contractor": "Legacy Professional Services",
    "rowid": "956537",
    "final_x": "3677094.92488",
    "final_y": "553967.891032",
    "longitude": "-90.08120539661627",
    "latitude": "30.017352588562474",
    "geocoded_column": {
      "latitude": "30.017352588562474",
      "longitude": "-90.08120539661627"
    }
  },
  {
    "service_request": "2022-956536",
    "request_type": "Trash/Recycling",
    "request_reason": "Missed Trash Pick-Up",
    "date_created": "2022-12-27T17:30:31.000",
    "date_modified": "2022-12-27T17:30:32.000",
    "request_status": "Pending",
    "responsible_agency": "Department of Sanitation",
    "final_address": "29 W Park Pl",
    "address_councildis": "A",
    "status": "Assigned to Contractor",
    "contractor": "IV Waste",
    "rowid": "956536",
    "final_x": "3670104.9721",
    "final_y": "544096.551246",
    "longitude": "-90.10362562432668",
    "latitude": "29.990418026372414",
    "geocoded_column": {
      "latitude": "29.990418026372414",
      "longitude": "-90.10362562432668"
    }
  },
  {
    "service_request": "2022-956535",
    "request_type": "Trash/Recycling",
    "request_reason": "MIssed Recycling Pick-Up",
    "date_created": "2022-12-27T17:29:23.000",
    "date_modified": "2022-12-27T17:29:24.000",
    "request_status": "Pending",
    "responsible_agency": "Department of Sanitation",
    "final_address": "5944 Argonne Blvd",
    "address_councildis": "A",
    "status": "Assigned to Contractor",
    "contractor": "IV Waste",
    "rowid": "956535",
    "final_x": "3670066.86791",
    "final_y": "546827.277457",
    "longitude": "-90.1036534180396",
    "latitude": "29.997927705448376",
    "geocoded_column": {
      "latitude": "29.997927705448376",
      "longitude": "-90.1036534180396"
    }
  },
  {
    "service_request": "2022-956534",
    "request_type": "Trash/Recycling",
    "request_reason": "Illegal Dumping",
    "date_created": "2022-12-27T17:22:29.000",
    "date_modified": "2022-12-27T17:22:29.000",
    "request_status": "Pending",
    "responsible_agency": "Department of Sanitation",
    "final_address": "3001 N Claiborne Ave",
    "address_councildis": "D",
    "status": "Pending",
    "rowid": "956534",
    "final_x": "3688954.22947",
    "final_y": "538064.582089",
    "longitude": "-90.04430014061775",
    "latitude": "29.973262567552087",
    "geocoded_column": {
      "latitude": "29.973262567552087",
      "longitude": "-90.04430014061775"
    }
  },
  {
    "service_request": "2022-956533",
    "request_type": "Traffic Signals/Signs/Striping/Streetlights",
    "request_reason": "Street Name Sign Damaged or Missing",
    "date_created": "2022-12-27T17:21:55.000",
    "date_modified": "2022-12-27T17:21:55.000",
    "request_status": "Pending",
    "responsible_agency": "Department of Public Works",
    "final_address": "941 France St",
    "address_councildis": "C",
    "status": "Pending",
    "rowid": "956533",
    "final_x": "3692300.90569",
    "final_y": "534682.678918",
    "longitude": "-90.03385183150745",
    "latitude": "29.96385958253897",
    "geocoded_column": {
      "latitude": "29.96385958253897",
      "longitude": "-90.03385183150745"
    }
  },
  {
    "service_request": "2022-956532",
    "request_type": "Traffic Signals/Signs/Striping/Streetlights",
    "request_reason": "Street Name Sign Damaged or Missing",
    "date_created": "2022-12-27T17:21:09.000",
    "date_modified": "2022-12-27T17:21:09.000",
    "request_status": "Pending",
    "responsible_agency": "Department of Public Works",
    "final_address": "1340 France St",
    "address_councildis": "D",
    "status": "Pending",
    "rowid": "956532",
    "final_x": "3692625.12867",
    "final_y": "536243.503367",
    "longitude": "-90.03277202578793",
    "latitude": "29.96814118506136",
    "geocoded_column": {
      "latitude": "29.96814118506136",
      "longitude": "-90.03277202578793"
    }
  },
  {
    "service_request": "2022-956531",
    "request_type": "Traffic Signals/Signs/Striping/Streetlights",
    "request_reason": "Street Name Sign Damaged or Missing",
    "date_created": "2022-12-27T17:20:08.000",
    "date_modified": "2022-12-27T17:20:08.000",
    "request_status": "Pending",
    "responsible_agency": "Department of Public Works",
    "final_address": "1440 France St",
    "address_councildis": "D",
    "status": "Pending",
    "rowid": "956531",
    "final_x": "3692716.85763",
    "final_y": "536616.526151",
    "longitude": "-90.03246896929446",
    "latitude": "29.969164002653113",
    "geocoded_column": {
      "latitude": "29.969164002653113",
      "longitude": "-90.03246896929446"
    }
  },
  {
    "service_request": "2022-956530",
    "request_type": "Trash/Recycling",
    "request_reason": "Request a Large Item Pick Up",
    "date_created": "2022-12-27T17:18:59.000",
    "date_modified": "2022-12-27T17:18:59.000",
    "case_close_date": "2022-12-22T18:00:00.000",
    "request_status": "Pending",
    "responsible_agency": "Department of Sanitation",
    "final_address": "4954 Warren Dr",
    "address_councildis": "E",
    "status": "Assigned to Contractor",
    "contractor": "Waste Pro",
    "rowid": "956530",
    "final_x": "3713273.37861",
    "final_y": "557391.219995",
    "longitude": "-89.96676822799627",
    "latitude": "30.025628726979832",
    "geocoded_column": {
      "latitude": "30.025628726979832",
      "longitude": "-89.96676822799627"
    }
  },
  {
    "service_request": "2022-956529",
    "request_type": "Trash/Recycling",
    "request_reason": "Illegal Dumping",
    "date_created": "2022-12-27T17:17:55.000",
    "date_modified": "2022-12-27T17:17:55.000",
    "request_status": "Pending",
    "responsible_agency": "Department of Sanitation",
    "final_address": "3114 Urquhart St",
    "address_councildis": "C",
    "status": "Pending",
    "rowid": "956529",
    "final_x": "3689302.7382",
    "final_y": "536662.775111",
    "longitude": "-90.04324932798569",
    "latitude": "29.969397306666934",
    "geocoded_column": {
      "latitude": "29.969397306666934",
      "longitude": "-90.04324932798569"
    }
  },
  {
    "service_request": "2022-956528",
    "request_type": "Trash/Recycling",
    "request_reason": "Replace Trash Cart",
    "date_created": "2022-12-27T17:17:35.000",
    "date_modified": "2022-12-27T17:17:36.000",
    "request_status": "Pending",
    "responsible_agency": "Department of Sanitation",
    "final_address": "306 River Oaks Dr",
    "address_councildis": "C",
    "status": "Assigned to Contractor",
    "contractor": "Richards Disposal",
    "rowid": "956528",
    "final_x": "3701627.35287",
    "final_y": "522634.040506",
    "longitude": "-90.0048411394969",
    "latitude": "29.930435955472543",
    "geocoded_column": {
      "latitude": "29.930435955472543",
      "longitude": "-90.0048411394969"
    }
  },
  {
    "service_request": "2022-956527",
    "request_type": "Trash/Recycling",
    "request_reason": "Replace Trash Cart",
    "date_created": "2022-12-27T17:17:01.000",
    "date_modified": "2022-12-27T17:17:01.000",
    "request_status": "Pending",
    "responsible_agency": "Department of Sanitation",
    "final_address": "4349 Vixen St",
    "address_councildis": "C",
    "status": "Assigned to Contractor",
    "contractor": "Richards Disposal",
    "rowid": "956527",
    "final_x": "3699742.62116",
    "final_y": "520641.702328",
    "longitude": "-90.01086350171144",
    "latitude": "29.925017661815442",
    "geocoded_column": {
      "latitude": "29.925017661815442",
      "longitude": "-90.01086350171144"
    }
  },
  {
    "service_request": "2022-956526",
    "request_type": "Trash/Recycling",
    "request_reason": "Request a Large Item Pick Up",
    "date_created": "2022-12-27T17:15:47.000",
    "date_modified": "2022-12-27T17:15:48.000",
    "request_status": "Pending",
    "responsible_agency": "Department of Sanitation",
    "final_address": "2401 State St",
    "address_councildis": "A",
    "status": "Assigned to Contractor",
    "contractor": "Richards Disposal",
    "rowid": "956526",
    "final_x": "3666744.15879",
    "final_y": "525363.394941",
    "longitude": "-90.11487085436053",
    "latitude": "29.939006786832163",
    "geocoded_column": {
      "latitude": "29.939006786832163",
      "longitude": "-90.11487085436053"
    }
  },
  {
    "service_request": "2022-956525",
    "request_type": "Trash/Recycling",
    "request_reason": "Request a Large Item Pick Up",
    "date_created": "2022-12-27T17:10:50.000",
    "date_modified": "2022-12-27T17:10:51.000",
    "request_status": "Pending",
    "responsible_agency": "Department of Sanitation",
    "final_address": "2736 Jonquil St",
    "address_councildis": "D",
    "status": "Assigned to Contractor",
    "contractor": "IV Waste",
    "rowid": "956525",
    "final_x": "3688046.51881",
    "final_y": "547215.230225",
    "longitude": "-90.04684239697757",
    "latitude": "29.998451632988573",
    "geocoded_column": {
      "latitude": "29.998451632988573",
      "longitude": "-90.04684239697757"
    }
  },
  {
    "service_request": "2022-956524",
    "request_type": "Trash/Recycling",
    "request_reason": "MIssed Recycling Pick-Up",
    "date_created": "2022-12-27T17:08:05.000",
    "date_modified": "2022-12-27T17:08:05.000",
    "request_status": "Pending",
    "responsible_agency": "Department of Sanitation",
    "final_address": "2546 Dumaine St",
    "address_councildis": "D",
    "status": "Assigned to Contractor",
    "contractor": "Richards Disposal",
    "rowid": "956524",
    "final_x": "3677631.4349",
    "final_y": "537108.97012",
    "longitude": "-90.08009284159667",
    "latitude": "29.97098034853283",
    "geocoded_column": {
      "latitude": "29.97098034853283",
      "longitude": "-90.08009284159667"
    }
  },
  {
    "service_request": "2022-956523",
    "request_type": "Abandoned Vehicles",
    "request_reason": "Abandoned/Junk Vehicles",
    "date_created": "2022-12-27T17:02:26.000",
    "date_modified": "2022-12-27T17:02:26.000",
    "request_status": "Pending",
    "responsible_agency": "Department of Public Works",
    "final_address": "101 Sherwood Forest Dr",
    "address_councildis": "A",
    "status": "Pending",
    "rowid": "956523",
    "final_x": "3673257.85006",
    "final_y": "541313.731212",
    "longitude": "-90.09376156084629",
    "latitude": "29.982672814865065",
    "geocoded_column": {
      "latitude": "29.982672814865065",
      "longitude": "-90.09376156084629"
    }
  },
  {
    "service_request": "2022-956522",
    "request_type": "Trash/Recycling",
    "request_reason": "Missed Trash Pick-Up",
    "date_created": "2022-12-27T17:01:46.000",
    "date_modified": "2022-12-27T17:01:47.000",
    "request_status": "Pending",
    "responsible_agency": "Department of Sanitation",
    "final_address": "816 N Solomon St",
    "address_councildis": "A",
    "status": "Assigned to Contractor",
    "contractor": "Richards Disposal",
    "rowid": "956522",
    "final_x": "3672315.81454",
    "final_y": "540934.956107",
    "longitude": "-90.09674989730101",
    "latitude": "29.981659300832803",
    "geocoded_column": {
      "latitude": "29.981659300832803",
      "longitude": "-90.09674989730101"
    }
  },
  {
    "service_request": "2022-956521",
    "request_type": "Trash/Recycling",
    "request_reason": "Illegal Dumping",
    "date_created": "2022-12-27T16:59:10.000",
    "date_modified": "2022-12-27T16:59:10.000",
    "request_status": "Pending",
    "responsible_agency": "Department of Sanitation",
    "final_address": "7400 Adventure Ave",
    "address_councildis": "E",
    "status": "Pending",
    "rowid": "956521",
    "final_x": "3726016.75372",
    "final_y": "570013.408102",
    "longitude": "-89.92601168817511",
    "latitude": "30.059910456844264",
    "geocoded_column": {
      "latitude": "30.059910456844264",
      "longitude": "-89.92601168817511"
    }
  },
  {
    "service_request": "2022-956520",
    "request_type": "Trash/Recycling",
    "request_reason": "Missed Trash Pick-Up",
    "date_created": "2022-12-27T16:59:04.000",
    "date_modified": "2022-12-27T16:59:05.000",
    "request_status": "Pending",
    "responsible_agency": "Department of Sanitation",
    "final_address": "1129 N Miro St",
    "address_councildis": "D",
    "status": "Assigned to Contractor",
    "contractor": "Richards Disposal",
    "rowid": "956520",
    "final_x": "3679110.13282",
    "final_y": "537324.419912",
    "longitude": "-90.07541545158738",
    "latitude": "29.971528208544346",
    "geocoded_column": {
      "latitude": "29.971528208544346",
      "longitude": "-90.07541545158738"
    }
  },
  {
    "service_request": "2022-956519",
    "request_type": "Trash/Recycling",
    "request_reason": "Request a Large Item Pick Up",
    "date_created": "2022-12-27T16:56:55.000",
    "date_modified": "2022-12-27T16:56:55.000",
    "request_status": "Pending",
    "responsible_agency": "Department of Sanitation",
    "final_address": "209 26Th St",
    "address_councildis": "A",
    "status": "Assigned to Contractor",
    "contractor": "IV Waste",
    "rowid": "956519",
    "final_x": "3665682.66292",
    "final_y": "549950.205588",
    "longitude": "-90.11739841524482",
    "latitude": "30.006643322657716",
    "geocoded_column": {
      "latitude": "30.006643322657716",
      "longitude": "-90.11739841524482"
    }
  },
  {
    "service_request": "2022-956518",
    "request_type": "Roads/Drainage",
    "request_reason": "Street Subsidence (Sinking)",
    "date_created": "2022-12-27T16:56:52.000",
    "date_modified": "2022-12-27T16:56:53.000",
    "request_status": "Pending",
    "responsible_agency": "Department of Public Works",
    "final_address": "4734 Gawain Dr",
    "address_councildis": "E",
    "status": "Pending",
    "rowid": "956518",
    "final_x": "3706903.53329",
    "final_y": "555390.562073",
    "longitude": "-89.98697015742967",
    "latitude": "30.02033504300511",
    "geocoded_column": {
      "latitude": "30.02033504300511",
      "longitude": "-89.98697015742967"
    }
  },
  {
    "service_request": "2022-956517",
    "request_type": "Parks & Parkways",
    "request_reason": "Request Tree Service (Right of Way/Public Property)",
    "date_created": "2022-12-27T16:55:54.000",
    "date_modified": "2022-12-27T16:55:55.000",
    "request_status": "Pending",
    "responsible_agency": "Department of Parks & Parkway",
    "final_address": "400 BLK Eleonore St",
    "address_councildis": "A",
    "status": "Pending",
    "rowid": "956517",
    "final_x": "3664933.48571",
    "final_y": "517740.681826",
    "longitude": "-90.12084204471243",
    "latitude": "29.9180995497323",
    "geocoded_column": {
      "latitude": "29.9180995497323",
      "longitude": "-90.12084204471243"
    }
  },
  {
    "service_request": "2022-956516",
    "request_type": "Traffic Signals/Signs/Striping/Streetlights",
    "request_reason": "Street Light Outage/Malfunction",
    "date_created": "2022-12-27T16:54:01.000",
    "date_modified": "2022-12-27T16:54:02.000",
    "request_status": "Pending",
    "responsible_agency": "Department of Public Works",
    "final_address": "4734 Gawain Dr",
    "address_councildis": "E",
    "status": "Assigned to Contractor",
    "contractor": "Legacy Professional Services",
    "rowid": "956516",
    "final_x": "3706903.53329",
    "final_y": "555390.562073",
    "longitude": "-89.98697015742967",
    "latitude": "30.02033504300511",
    "geocoded_column": {
      "latitude": "30.02033504300511",
      "longitude": "-89.98697015742967"
    }
  },
  {
    "service_request": "2022-956515",
    "request_type": "Abandoned Vehicles",
    "request_reason": "Abandoned/Junk Vehicles",
    "date_created": "2022-12-27T16:53:19.000",
    "date_modified": "2022-12-27T16:54:52.000",
    "request_status": "Pending",
    "responsible_agency": "Department of Public Works",
    "final_address": "328 S Cortez St",
    "address_councildis": "A",
    "status": "Pending",
    "rowid": "956515",
    "final_x": "3671470.93006",
    "final_y": "536745.793928",
    "longitude": "-90.09956091129263",
    "latitude": "29.97016556825699",
    "geocoded_column": {
      "latitude": "29.97016556825699",
      "longitude": "-90.09956091129263"
    }
  },
  {
    "service_request": "2022-956514",
    "request_type": "Trash/Recycling",
    "request_reason": "Missed Trash Pick-Up",
    "date_created": "2022-12-27T16:52:50.000",
    "date_modified": "2022-12-27T16:52:51.000",
    "request_status": "Pending",
    "responsible_agency": "Department of Sanitation",
    "final_address": "816 Solomon Pl",
    "address_councildis": "A",
    "status": "Assigned to Contractor",
    "contractor": "Richards Disposal",
    "rowid": "956514",
    "final_x": "3672541.61339",
    "final_y": "540715.572171",
    "longitude": "-90.09604419962777",
    "latitude": "29.98104936769916",
    "geocoded_column": {
      "latitude": "29.98104936769916",
      "longitude": "-90.09604419962777"
    }
  },
  {
    "service_request": "2022-956513",
    "request_type": "Abandoned Vehicles",
    "request_reason": "Vehicle Blocking Your Driveway",
    "date_created": "2022-12-27T16:51:37.000",
    "date_modified": "2022-12-27T16:51:37.000",
    "request_status": "Pending",
    "responsible_agency": "Department of Public Works",
    "final_address": "6066 Pasteur Blvd",
    "address_councildis": "D",
    "status": "Pending",
    "rowid": "956513",
    "final_x": "3682583.24149",
    "final_y": "555572.748377",
    "longitude": "-90.06380835792325",
    "latitude": "30.021599309636542",
    "geocoded_column": {
      "latitude": "30.021599309636542",
      "longitude": "-90.06380835792325"
    }
  },
  {
    "service_request": "2022-956512",
    "request_type": "Trash/Recycling",
    "request_reason": "Missed Trash Pick-Up",
    "date_created": "2022-12-27T16:49:02.000",
    "date_modified": "2022-12-27T16:49:02.000",
    "request_status": "Pending",
    "responsible_agency": "Department of Sanitation",
    "final_address": "1831 Bordeaux St",
    "address_councildis": "B",
    "status": "Assigned to Contractor",
    "contractor": "Richards Disposal",
    "rowid": "956512",
    "final_x": "3669331.87892",
    "final_y": "521703.529722",
    "longitude": "-90.10682477262996",
    "latitude": "29.928867415105458",
    "geocoded_column": {
      "latitude": "29.928867415105458",
      "longitude": "-90.10682477262996"
    }
  },
  {
    "service_request": "2022-956511",
    "request_type": "Trash/Recycling",
    "request_reason": "Request a Large Item Pick Up",
    "date_created": "2022-12-27T16:49:01.000",
    "date_modified": "2022-12-27T16:49:02.000",
    "request_status": "Pending",
    "responsible_agency": "Department of Sanitation",
    "final_address": "4735 Sherwood Dr",
    "address_councildis": "E",
    "status": "Assigned to Contractor",
    "contractor": "Waste Pro",
    "rowid": "956511",
    "final_x": "3718084.70431",
    "final_y": "556817.537562",
    "longitude": "-89.95158715701086",
    "latitude": "30.023892674773005",
    "geocoded_column": {
      "latitude": "30.023892674773005",
      "longitude": "-89.95158715701086"
    }
  },
  {
    "service_request": "2022-956510",
    "request_type": "Trash/Recycling",
    "request_reason": "Order Recycling Cart",
    "date_created": "2022-12-27T16:45:20.000",
    "date_modified": "2022-12-27T16:45:21.000",
    "request_status": "Pending",
    "responsible_agency": "Department of Sanitation",
    "final_address": "2809 Cherry St",
    "address_councildis": "A",
    "status": "Pending",
    "rowid": "956510",
    "final_x": "3662787.59949",
    "final_y": "535510.967622",
    "longitude": "-90.12702496245377",
    "latitude": "29.967024429719444",
    "geocoded_column": {
      "latitude": "29.967024429719444",
      "longitude": "-90.12702496245377"
    }
  },
  {
    "service_request": "2022-956509",
    "request_type": "Trash/Recycling",
    "request_reason": "Missed Trash Pick-Up",
    "date_created": "2022-12-27T16:42:02.000",
    "date_modified": "2022-12-27T16:42:03.000",
    "request_status": "Pending",
    "responsible_agency": "Department of Sanitation",
    "final_address": "860 Taft Pl",
    "address_councildis": "A",
    "status": "Assigned to Contractor",
    "contractor": "Richards Disposal",
    "rowid": "956509",
    "final_x": "3673862.46452",
    "final_y": "539858.93569",
    "longitude": "-90.09190166604417",
    "latitude": "29.978654627086406",
    "geocoded_column": {
      "latitude": "29.978654627086406",
      "longitude": "-90.09190166604417"
    }
  },
  {
    "service_request": "2022-956506",
    "request_type": "Trash/Recycling",
    "request_reason": "MIssed Recycling Pick-Up",
    "date_created": "2022-12-27T16:39:43.000",
    "date_modified": "2022-12-27T16:39:44.000",
    "request_status": "Pending",
    "responsible_agency": "Department of Sanitation",
    "final_address": "134 N Alexander St",
    "address_councildis": "A",
    "status": "Assigned to Contractor",
    "contractor": "Richards Disposal",
    "rowid": "956506",
    "final_x": "3670253.93831",
    "final_y": "539432.27457",
    "longitude": "-90.10331323336244",
    "latitude": "29.97758845966334",
    "geocoded_column": {
      "latitude": "29.97758845966334",
      "longitude": "-90.10331323336244"
    }
  },
  {
    "service_request": "2022-956505",
    "request_type": "Trash/Recycling",
    "request_reason": "Request a Large Item Pick Up",
    "date_created": "2022-12-27T16:39:04.000",
    "date_modified": "2022-12-27T16:39:05.000",
    "request_status": "Pending",
    "responsible_agency": "Department of Sanitation",
    "final_address": "11412 Tanner S Davis Dr",
    "address_councildis": "E",
    "status": "Assigned to Contractor",
    "contractor": "Waste Pro",
    "rowid": "956505",
    "final_x": "3718186.78661",
    "final_y": "561065.731998",
    "longitude": "-89.95110267376931",
    "latitude": "30.035570116515377",
    "geocoded_column": {
      "latitude": "30.035570116515377",
      "longitude": "-89.95110267376931"
    }
  },
  {
    "service_request": "2022-956503",
    "request_type": "Trash/Recycling",
    "request_reason": "Request a Large Item Pick Up",
    "date_created": "2022-12-27T16:30:42.000",
    "date_modified": "2022-12-27T16:30:42.000",
    "request_status": "Pending",
    "responsible_agency": "Department of Sanitation",
    "final_address": "3440 Timber Wolf Ln",
    "address_councildis": "C",
    "status": "Assigned to Contractor",
    "contractor": "Richards Disposal",
    "rowid": "956503",
    "final_x": "3704611.95114",
    "final_y": "511361.220976",
    "longitude": "-89.99583468135039",
    "latitude": "29.899344095272802",
    "geocoded_column": {
      "latitude": "29.899344095272802",
      "longitude": "-89.99583468135039"
    }
  },
  {
    "service_request": "2022-956502",
    "request_type": "Trash/Recycling",
    "request_reason": "Request a Large Item Pick Up",
    "date_created": "2022-12-27T16:29:11.000",
    "date_modified": "2022-12-27T16:29:11.000",
    "request_status": "Pending",
    "responsible_agency": "Department of Sanitation",
    "final_address": "4719 Mandeville St",
    "address_councildis": "D",
    "status": "Assigned to Contractor",
    "contractor": "IV Waste",
    "rowid": "956502",
    "final_x": "3684793.99663",
    "final_y": "550382.494228",
    "longitude": "-90.05700564800635",
    "latitude": "30.007260475269277",
    "geocoded_column": {
      "latitude": "30.007260475269277",
      "longitude": "-90.05700564800635"
    }
  },
  {
    "service_request": "2022-956501",
    "request_type": "Trash/Recycling",
    "request_reason": "Request a Large Item Pick Up",
    "date_created": "2022-12-27T16:25:11.000",
    "date_modified": "2022-12-27T16:25:11.000",
    "request_status": "Pending",
    "responsible_agency": "Department of Sanitation",
    "final_address": "86 Fontainebleau Dr",
    "address_councildis": "A",
    "status": "Assigned to Contractor",
    "contractor": "Richards Disposal",
    "rowid": "956501",
    "final_x": "3666910.29447",
    "final_y": "530715.840898",
    "longitude": "-90.11416654538185",
    "latitude": "29.953719422193565",
    "geocoded_column": {
      "latitude": "29.953719422193565",
      "longitude": "-90.11416654538185"
    }
  },
  {
    "service_request": "2022-956500",
    "request_type": "Trash/Recycling",
    "request_reason": "Order Recycling Cart",
    "date_created": "2022-12-27T16:24:35.000",
    "date_modified": "2022-12-27T16:24:35.000",
    "request_status": "Pending",
    "responsible_agency": "Department of Sanitation",
    "final_address": "2726 Pauger St",
    "address_councildis": "D",
    "status": "Pending",
    "rowid": "956500",
    "final_x": "3683558.10492",
    "final_y": "539751.134794",
    "longitude": "-90.06128303862418",
    "latitude": "29.978065812691963",
    "geocoded_column": {
      "latitude": "29.978065812691963",
      "longitude": "-90.06128303862418"
    }
  },
  {
    "service_request": "2022-956499",
    "request_type": "Trash/Recycling",
    "request_reason": "Order Trash Cart",
    "date_created": "2022-12-27T16:24:05.000",
    "date_modified": "2022-12-27T16:24:05.000",
    "request_status": "Pending",
    "responsible_agency": "Department of Sanitation",
    "final_address": "20309 Old Spanish Trl",
    "address_councildis": "E",
    "status": "Assigned to Contractor",
    "contractor": "Waste Pro",
    "rowid": "956499",
    "final_x": "3760591.94377",
    "final_y": "572627.128617",
    "longitude": "-89.81661493681592",
    "latitude": "30.065884030593143",
    "geocoded_column": {
      "latitude": "30.065884030593143",
      "longitude": "-89.81661493681592"
    }
  },
  {
    "service_request": "2022-956498",
    "request_type": "Trash/Recycling",
    "request_reason": "Missed Trash Pick-Up",
    "date_created": "2022-12-27T16:23:23.000",
    "date_modified": "2022-12-27T16:23:24.000",
    "request_status": "Pending",
    "responsible_agency": "Department of Sanitation",
    "final_address": "732 Pacific Ave",
    "address_councildis": "C",
    "status": "Assigned to Contractor",
    "contractor": "Richards Disposal",
    "rowid": "956498",
    "final_x": "3688510.70217",
    "final_y": "528792.5456",
    "longitude": "-90.04602986702261",
    "latitude": "29.94778139629566",
    "geocoded_column": {
      "latitude": "29.94778139629566",
      "longitude": "-90.04602986702261"
    }
  },
  {
    "service_request": "2022-956497",
    "request_type": "Roads/Drainage",
    "request_reason": "Catch Basin - Broken/Damage",
    "date_created": "2022-12-27T16:21:42.000",
    "date_modified": "2022-12-27T16:21:42.000",
    "request_status": "Pending",
    "responsible_agency": "Department of Public Works",
    "final_address": "5928 General Haig St",
    "address_councildis": "A",
    "status": "Pending",
    "rowid": "956497",
    "final_x": "3670435.13147",
    "final_y": "546685.038481",
    "longitude": "-90.10249490325195",
    "latitude": "29.997525725609407",
    "geocoded_column": {
      "latitude": "29.997525725609407",
      "longitude": "-90.10249490325195"
    }
  },
  {
    "service_request": "2022-956495",
    "request_type": "Trash/Recycling",
    "request_reason": "Order Recycling Cart",
    "date_created": "2022-12-27T16:18:51.000",
    "date_modified": "2022-12-27T16:18:51.000",
    "request_status": "Pending",
    "responsible_agency": "Department of Sanitation",
    "final_address": "7801 Masefield St",
    "address_councildis": "E",
    "status": "Pending",
    "rowid": "956495",
    "final_x": "3697372.18173",
    "final_y": "559982.115805",
    "longitude": "-90.01691945533767",
    "latitude": "30.03326455735667",
    "geocoded_column": {
      "latitude": "30.03326455735667",
      "longitude": "-90.01691945533767"
    }
  },
  {
    "service_request": "2022-956493",
    "request_type": "Trash/Recycling",
    "request_reason": "Repair Trash Cart",
    "date_created": "2022-12-27T16:17:45.000",
    "date_modified": "2022-12-27T16:17:46.000",
    "request_status": "Pending",
    "responsible_agency": "Department of Sanitation",
    "final_address": "7801 Masefield St",
    "address_councildis": "E",
    "status": "Assigned to Contractor",
    "contractor": "Waste Pro",
    "rowid": "956493",
    "final_x": "3697372.18173",
    "final_y": "559982.115805",
    "longitude": "-90.01691945533767",
    "latitude": "30.03326455735667",
    "geocoded_column": {
      "latitude": "30.03326455735667",
      "longitude": "-90.01691945533767"
    }
  },
  {
    "service_request": "2022-956492",
    "request_type": "Trash/Recycling",
    "request_reason": "Missed Trash Pick-Up",
    "date_created": "2022-12-27T16:16:08.000",
    "date_modified": "2022-12-27T16:16:09.000",
    "request_status": "Pending",
    "responsible_agency": "Department of Sanitation",
    "final_address": "7670 Branch Dr",
    "address_councildis": "E",
    "status": "Assigned to Contractor",
    "contractor": "Waste Pro",
    "rowid": "956492",
    "final_x": "3714555.95851",
    "final_y": "568863.263397",
    "longitude": "-89.9622817526227",
    "latitude": "30.057130090056642",
    "geocoded_column": {
      "latitude": "30.057130090056642",
      "longitude": "-89.9622817526227"
    }
  },
  {
    "service_request": "2022-956491",
    "request_type": "Trash/Recycling",
    "request_reason": "Request a Large Item Pick Up",
    "date_created": "2022-12-27T16:15:26.000",
    "date_modified": "2022-12-27T16:15:27.000",
    "request_status": "Pending",
    "responsible_agency": "Department of Sanitation",
    "final_address": "3918 Dryades St",
    "address_councildis": "B",
    "status": "Assigned to Contractor",
    "contractor": "Richards Disposal",
    "rowid": "956491",
    "final_x": "3672272.6347",
    "final_y": "522069.960634",
    "longitude": "-90.09752890691419",
    "latitude": "29.92978810075048",
    "geocoded_column": {
      "latitude": "29.92978810075048",
      "longitude": "-90.09752890691419"
    }
  },
  {
    "service_request": "2022-956490",
    "request_type": "Trash/Recycling",
    "request_reason": "Missed Trash Pick-Up",
    "date_created": "2022-12-27T16:07:49.000",
    "date_modified": "2022-12-27T16:07:50.000",
    "request_status": "Pending",
    "responsible_agency": "Department of Sanitation",
    "final_address": "3031 College Ct",
    "address_councildis": "B",
    "status": "Assigned to Contractor",
    "contractor": "Richards Disposal",
    "rowid": "956490",
    "final_x": "3668388.19463",
    "final_y": "531609.227587",
    "longitude": "-90.1094698065596",
    "latitude": "29.956132621898124",
    "geocoded_column": {
      "latitude": "29.956132621898124",
      "longitude": "-90.1094698065596"
    }
  },
  {
    "service_request": "2022-956489",
    "request_type": "Trash/Recycling",
    "request_reason": "Repair Trash Cart",
    "date_created": "2022-12-27T16:06:32.000",
    "date_modified": "2022-12-27T16:06:33.000",
    "request_status": "Pending",
    "responsible_agency": "Department of Sanitation",
    "final_address": "3031 College Ct",
    "address_councildis": "B",
    "status": "Assigned to Contractor",
    "contractor": "Richards Disposal",
    "rowid": "956489",
    "final_x": "3668388.19463",
    "final_y": "531609.227587",
    "longitude": "-90.1094698065596",
    "latitude": "29.956132621898124",
    "geocoded_column": {
      "latitude": "29.956132621898124",
      "longitude": "-90.1094698065596"
    }
  },
  {
    "service_request": "2022-956488",
    "request_type": "Trash/Recycling",
    "request_reason": "Order Recycling Cart",
    "date_created": "2022-12-27T16:05:46.000",
    "date_modified": "2022-12-27T16:05:46.000",
    "request_status": "Pending",
    "responsible_agency": "Department of Sanitation",
    "final_address": "2101 Sere St",
    "address_councildis": "D",
    "status": "Pending",
    "rowid": "956488",
    "final_x": "3683489.82479",
    "final_y": "545903.18728",
    "longitude": "-90.06128298586947",
    "latitude": "29.994983869077675",
    "geocoded_column": {
      "latitude": "29.994983869077675",
      "longitude": "-90.06128298586947"
    }
  },
  {
    "service_request": "2022-956487",
    "request_type": "Roads/Drainage",
    "request_reason": "Street Flooding / Drainage",
    "date_created": "2022-12-27T16:03:39.000",
    "date_modified": "2022-12-27T16:03:39.000",
    "request_status": "Pending",
    "responsible_agency": "Department of Public Works",
    "final_address": "341 N Hennessey St",
    "address_councildis": "A",
    "status": "Pending",
    "rowid": "956487",
    "final_x": "3670916.66977",
    "final_y": "539855.801994",
    "longitude": "-90.10120571373457",
    "latitude": "29.978733438171705",
    "geocoded_column": {
      "latitude": "29.978733438171705",
      "longitude": "-90.10120571373457"
    }
  },
  {
    "service_request": "2022-956486",
    "request_type": "Trash/Recycling",
    "request_reason": "Request a Large Item Pick Up",
    "date_created": "2022-12-27T16:03:36.000",
    "date_modified": "2022-12-27T16:03:37.000",
    "request_status": "Pending",
    "responsible_agency": "Department of Sanitation",
    "final_address": "318 S Lopez St",
    "address_councildis": "B",
    "status": "Assigned to Contractor",
    "contractor": "Richards Disposal",
    "rowid": "956486",
    "final_x": "3673302.7282",
    "final_y": "535425.499206",
    "longitude": "-90.0938209966736",
    "latitude": "29.966480842448245",
    "geocoded_column": {
      "latitude": "29.966480842448245",
      "longitude": "-90.0938209966736"
    }
  },
  {
    "service_request": "2022-956485",
    "request_type": "Trash/Recycling",
    "request_reason": "Order Recycling Cart",
    "date_created": "2022-12-27T16:02:56.000",
    "date_modified": "2022-12-27T16:02:56.000",
    "request_status": "Pending",
    "responsible_agency": "Department of Sanitation",
    "final_address": "414 Delery St",
    "address_councildis": "E",
    "status": "Pending",
    "rowid": "956485",
    "final_x": "3699495.33661",
    "final_y": "530717.42925",
    "longitude": "-90.0112771233871",
    "latitude": "29.95273024733034",
    "geocoded_column": {
      "latitude": "29.95273024733034",
      "longitude": "-90.0112771233871"
    }
  },
  {
    "service_request": "2022-956484",
    "request_type": "Trash/Recycling",
    "request_reason": "Replace Trash Cart",
    "date_created": "2022-12-27T15:57:38.000",
    "date_modified": "2022-12-27T15:57:39.000",
    "request_status": "Pending",
    "responsible_agency": "Department of Sanitation",
    "final_address": "3536 Iberville St",
    "address_councildis": "B",
    "status": "Assigned to Contractor",
    "contractor": "Richards Disposal",
    "rowid": "956484",
    "final_x": "3672872.45998",
    "final_y": "537466.408264",
    "longitude": "-90.09511013284276",
    "latitude": "29.972105445010904",
    "geocoded_column": {
      "latitude": "29.972105445010904",
      "longitude": "-90.09511013284276"
    }
  },
  {
    "service_request": "2022-956483",
    "request_type": "Trash/Recycling",
    "request_reason": "Order Recycling Cart",
    "date_created": "2022-12-27T15:51:18.000",
    "date_modified": "2022-12-27T15:51:18.000",
    "request_status": "Pending",
    "responsible_agency": "Department of Sanitation",
    "final_address": "2021 Piety St",
    "address_councildis": "D",
    "status": "Pending",
    "rowid": "956483",
    "final_x": "3690761.20969",
    "final_y": "539330.008522",
    "longitude": "-90.03854819246872",
    "latitude": "29.976686023097066",
    "geocoded_column": {
      "latitude": "29.976686023097066",
      "longitude": "-90.03854819246872"
    }
  },
  {
    "service_request": "2022-956482",
    "request_type": "Trash/Recycling",
    "request_reason": "Missed Trash Pick-Up",
    "date_created": "2022-12-27T15:49:46.000",
    "date_modified": "2022-12-27T15:49:46.000",
    "request_status": "Pending",
    "responsible_agency": "Department of Sanitation",
    "final_address": "5900 Cartier Ave",
    "address_councildis": "D",
    "status": "Assigned to Contractor",
    "contractor": "IV Waste",
    "rowid": "956482",
    "final_x": "3677391.86248",
    "final_y": "553991.860376",
    "longitude": "-90.08026636434666",
    "latitude": "30.017409570200122",
    "geocoded_column": {
      "latitude": "30.017409570200122",
      "longitude": "-90.08026636434666"
    }
  },
  {
    "service_request": "2022-956481",
    "request_type": "Trash/Recycling",
    "request_reason": "Missed Trash Pick-Up",
    "date_created": "2022-12-27T15:47:39.000",
    "date_modified": "2022-12-27T15:47:39.000",
    "request_status": "Pending",
    "responsible_agency": "Department of Sanitation",
    "final_address": "222 Bermuda St",
    "address_councildis": "C",
    "status": "Assigned to Contractor",
    "contractor": "Richards Disposal",
    "rowid": "956481",
    "final_x": "3686189.28252",
    "final_y": "530959.197314",
    "longitude": "-90.05328306967309",
    "latitude": "29.953810456675818",
    "geocoded_column": {
      "latitude": "29.953810456675818",
      "longitude": "-90.05328306967309"
    }
  },
  {
    "service_request": "2022-956480",
    "request_type": "Trash/Recycling",
    "request_reason": "Missed Trash Pick-Up",
    "date_created": "2022-12-27T15:46:26.000",
    "date_modified": "2022-12-27T15:46:27.000",
    "request_status": "Pending",
    "responsible_agency": "Department of Sanitation",
    "final_address": "412 Park Blvd",
    "address_councildis": "C",
    "status": "Assigned to Contractor",
    "contractor": "Richards Disposal",
    "rowid": "956480",
    "final_x": "3686879.10806",
    "final_y": "525880.254461",
    "longitude": "-90.0512843265207",
    "latitude": "29.939823884738082",
    "geocoded_column": {
      "latitude": "29.939823884738082",
      "longitude": "-90.0512843265207"
    }
  },
  {
    "service_request": "2022-956479",
    "request_type": "Trash/Recycling",
    "request_reason": "Change Size of Trash Cart",
    "date_created": "2022-12-27T15:44:50.000",
    "date_modified": "2022-12-27T15:44:50.000",
    "request_status": "Pending",
    "responsible_agency": "Department of Sanitation",
    "final_address": "615 Mandeville St",
    "address_councildis": "C",
    "status": "Assigned to Contractor",
    "contractor": "IV Waste",
    "rowid": "956479",
    "final_x": "3685934.32182",
    "final_y": "534722.49767",
    "longitude": "-90.05395545061225",
    "latitude": "29.964166066696286",
    "geocoded_column": {
      "latitude": "29.964166066696286",
      "longitude": "-90.05395545061225"
    }
  },
  {
    "service_request": "2022-956478",
    "request_type": "Abandoned Vehicles",
    "request_reason": "Abandoned/Junk Vehicles",
    "date_created": "2022-12-27T15:41:24.000",
    "date_modified": "2022-12-27T15:44:57.000",
    "request_status": "Pending",
    "responsible_agency": "Department of Public Works",
    "final_address": "838 N Rendon St",
    "address_councildis": "A",
    "status": "Pending",
    "rowid": "956478",
    "final_x": "3675402.30312",
    "final_y": "538783.881609",
    "longitude": "-90.0870752058956",
    "latitude": "29.975652634254892",
    "geocoded_column": {
      "latitude": "29.975652634254892",
      "longitude": "-90.0870752058956"
    }
  },
  {
    "service_request": "2022-956477",
    "request_type": "Trash/Recycling",
    "request_reason": "Missed Trash Pick-Up",
    "date_created": "2022-12-27T15:39:52.000",
    "date_modified": "2022-12-27T15:39:53.000",
    "request_status": "Pending",
    "responsible_agency": "Department of Sanitation",
    "final_address": "2828 Upperline St",
    "address_councildis": "B",
    "status": "Assigned to Contractor",
    "contractor": "Richards Disposal",
    "rowid": "956477",
    "final_x": "3669160.05127",
    "final_y": "525203.114365",
    "longitude": "-90.10724898782733",
    "latitude": "29.938495206542953",
    "geocoded_column": {
      "latitude": "29.938495206542953",
      "longitude": "-90.10724898782733"
    }
  },
  {
    "service_request": "2022-956476",
    "request_type": "Roads/Drainage",
    "request_reason": "Debris in Roadway",
    "date_created": "2022-12-27T15:39:44.000",
    "date_modified": "2022-12-27T15:39:44.000",
    "request_status": "Pending",
    "responsible_agency": "Department of Public Works",
    "final_address": "S CLAIBORNE AVE & TOLEDANO ST",
    "address_councildis": "B",
    "status": "Pending",
    "rowid": "956476",
    "final_x": "3672686.1",
    "final_y": "526316.28",
    "longitude": "-90.09607892276615",
    "latitude": "29.941451833708907",
    "geocoded_column": {
      "latitude": "29.941451833708907",
      "longitude": "-90.09607892276615"
    }
  },
  {
    "service_request": "2022-956475",
    "request_type": "Trash/Recycling",
    "request_reason": "Order Recycling Cart",
    "date_created": "2022-12-27T15:39:30.000",
    "date_modified": "2022-12-27T15:39:30.000",
    "request_status": "Pending",
    "responsible_agency": "Department of Sanitation",
    "final_address": "615 Mandeville St",
    "address_councildis": "C",
    "status": "Pending",
    "rowid": "956475",
    "final_x": "3685934.32182",
    "final_y": "534722.49767",
    "longitude": "-90.05395545061225",
    "latitude": "29.964166066696286",
    "geocoded_column": {
      "latitude": "29.964166066696286",
      "longitude": "-90.05395545061225"
    }
  },
  {
    "service_request": "2022-956474",
    "request_type": "Trash/Recycling",
    "request_reason": "Order Trash Cart",
    "date_created": "2022-12-27T15:39:19.000",
    "date_modified": "2022-12-27T15:39:20.000",
    "request_status": "Pending",
    "responsible_agency": "Department of Sanitation",
    "final_address": "1718 Oriole St",
    "address_councildis": "D",
    "status": "Assigned to Contractor",
    "contractor": "IV Waste",
    "rowid": "956474",
    "final_x": "3678523.76514",
    "final_y": "557908.566363",
    "longitude": "-90.07655427006472",
    "latitude": "30.028145000599466",
    "geocoded_column": {
      "latitude": "30.028145000599466",
      "longitude": "-90.07655427006472"
    }
  },
  {
    "service_request": "2022-956473",
    "request_type": "Trash/Recycling",
    "request_reason": "Order Recycling Cart",
    "date_created": "2022-12-27T15:38:49.000",
    "date_modified": "2022-12-27T15:38:49.000",
    "request_status": "Pending",
    "responsible_agency": "Department of Sanitation",
    "final_address": "1718 Oriole St",
    "address_councildis": "D",
    "status": "Pending",
    "rowid": "956473",
    "final_x": "3678523.76514",
    "final_y": "557908.566363",
    "longitude": "-90.07655427006472",
    "latitude": "30.028145000599466",
    "geocoded_column": {
      "latitude": "30.028145000599466",
      "longitude": "-90.07655427006472"
    }
  },
  {
    "service_request": "2022-956472",
    "request_type": "Trash/Recycling",
    "request_reason": "MIssed Recycling Pick-Up",
    "date_created": "2022-12-27T15:34:30.000",
    "date_modified": "2022-12-27T15:34:31.000",
    "request_status": "Pending",
    "responsible_agency": "Department of Sanitation",
    "final_address": "8321 Grant St",
    "address_councildis": "E",
    "status": "Assigned to Contractor",
    "contractor": "Waste Pro",
    "rowid": "956472",
    "final_x": "3706046.929",
    "final_y": "554487.875224",
    "longitude": "-89.98971018634757",
    "latitude": "30.017880650419887",
    "geocoded_column": {
      "latitude": "30.017880650419887",
      "longitude": "-89.98971018634757"
    }
  },
  {
    "service_request": "2022-956471",
    "request_type": "Trash/Recycling",
    "request_reason": "Repair Trash Cart",
    "date_created": "2022-12-27T15:32:52.000",
    "date_modified": "2022-12-27T15:32:53.000",
    "request_status": "Pending",
    "responsible_agency": "Department of Sanitation",
    "final_address": "4650 Cardenas Dr",
    "address_councildis": "E",
    "status": "Assigned to Contractor",
    "contractor": "Waste Pro",
    "rowid": "956471",
    "final_x": "3713656.11493",
    "final_y": "555911.498137",
    "longitude": "-89.96561465866324",
    "latitude": "30.02154752000667",
    "geocoded_column": {
      "latitude": "30.02154752000667",
      "longitude": "-89.96561465866324"
    }
  },
  {
    "service_request": "2022-956470",
    "request_type": "Trash/Recycling",
    "request_reason": "Repair Trash Cart",
    "date_created": "2022-12-27T15:29:08.000",
    "date_modified": "2022-12-27T15:29:08.000",
    "request_status": "Pending",
    "responsible_agency": "Department of Sanitation",
    "final_address": "7630 Hayne Blvd",
    "address_councildis": "E",
    "status": "Assigned to Contractor",
    "contractor": "Waste Pro",
    "rowid": "956470",
    "final_x": "3700596.69546",
    "final_y": "562183.436063",
    "longitude": "-90.00664918642241",
    "latitude": "30.039215076682833",
    "geocoded_column": {
      "latitude": "30.039215076682833",
      "longitude": "-90.00664918642241"
    }
  },
  {
    "service_request": "2022-956469",
    "request_type": "Trash/Recycling",
    "request_reason": "Order Trash Cart",
    "date_created": "2022-12-27T15:28:23.000",
    "date_modified": "2022-12-27T15:28:24.000",
    "request_status": "Pending",
    "responsible_agency": "Department of Sanitation",
    "final_address": "2724 Amelia St",
    "address_councildis": "B",
    "status": "Assigned to Contractor",
    "contractor": "Richards Disposal",
    "rowid": "956469",
    "final_x": "3672113.83355",
    "final_y": "525134.417213",
    "longitude": "-90.09792591418358",
    "latitude": "29.938219074043875",
    "geocoded_column": {
      "latitude": "29.938219074043875",
      "longitude": "-90.09792591418358"
    }
  },
  {
    "service_request": "2022-956468",
    "request_type": "Trash/Recycling",
    "request_reason": "Order Trash Cart",
    "date_created": "2022-12-27T15:28:02.000",
    "date_modified": "2022-12-27T15:28:03.000",
    "request_status": "Pending",
    "responsible_agency": "Department of Sanitation",
    "final_address": "2722 Amelia St",
    "address_councildis": "B",
    "status": "Assigned to Contractor",
    "contractor": "Richards Disposal",
    "rowid": "956468",
    "final_x": "3672116.26407",
    "final_y": "525122.958845",
    "longitude": "-90.09791863081972",
    "latitude": "29.93818749519827",
    "geocoded_column": {
      "latitude": "29.93818749519827",
      "longitude": "-90.09791863081972"
    }
  },
  {
    "service_request": "2022-956467",
    "request_type": "Trash/Recycling",
    "request_reason": "Request a Large Item Pick Up",
    "date_created": "2022-12-27T15:26:04.000",
    "date_modified": "2022-12-27T15:26:04.000",
    "request_status": "Pending",
    "responsible_agency": "Department of Sanitation",
    "final_address": "4754 E Adams Ct",
    "address_councildis": "E",
    "status": "Assigned to Contractor",
    "contractor": "Waste Pro",
    "rowid": "956467",
    "final_x": "3718678.00857",
    "final_y": "557259.076635",
    "longitude": "-89.94969560732036",
    "latitude": "30.025087044925503",
    "geocoded_column": {
      "latitude": "30.025087044925503",
      "longitude": "-89.94969560732036"
    }
  },
  {
    "service_request": "2022-956466",
    "request_type": "Trash/Recycling",
    "request_reason": "MIssed Recycling Pick-Up",
    "date_created": "2022-12-27T15:25:04.000",
    "date_modified": "2022-12-27T16:01:52.000",
    "request_status": "Pending",
    "responsible_agency": "Department of Sanitation",
    "final_address": "7111 Memphis St",
    "address_councildis": "A",
    "status": "Assigned to Contractor",
    "contractor": "IV Waste",
    "rowid": "956466",
    "final_x": "3669916.80193",
    "final_y": "554343.384856",
    "longitude": "-90.10387271528714",
    "latitude": "30.018598790521263",
    "geocoded_column": {
      "latitude": "30.018598790521263",
      "longitude": "-90.10387271528714"
    }
  },
  {
    "service_request": "2022-956465",
    "request_type": "Trash/Recycling",
    "request_reason": "Request a Large Item Pick Up",
    "date_created": "2022-12-27T15:22:44.000",
    "date_modified": "2022-12-27T15:22:45.000",
    "request_status": "Pending",
    "responsible_agency": "Department of Sanitation",
    "final_address": "7714 Hickman St",
    "address_councildis": "E",
    "status": "Assigned to Contractor",
    "contractor": "Waste Pro",
    "rowid": "956465",
    "final_x": "3705932.78801",
    "final_y": "563546.57264",
    "longitude": "-89.9897352078967",
    "latitude": "30.042792203849853",
    "geocoded_column": {
      "latitude": "30.042792203849853",
      "longitude": "-89.9897352078967"
    }
  },
  {
    "service_request": "2022-956464",
    "request_type": "Trash/Recycling",
    "request_reason": "MIssed Recycling Pick-Up",
    "date_created": "2022-12-27T15:19:40.000",
    "date_modified": "2022-12-27T15:19:41.000",
    "request_status": "Pending",
    "responsible_agency": "Department of Sanitation",
    "final_address": "107 Cambridge Ct",
    "address_councildis": "C",
    "status": "Assigned to Contractor",
    "contractor": "Richards Disposal",
    "rowid": "956464",
    "final_x": "3705851.24695",
    "final_y": "518358.605686",
    "longitude": "-89.99166509728747",
    "latitude": "29.918544667608202",
    "geocoded_column": {
      "latitude": "29.918544667608202",
      "longitude": "-89.99166509728747"
    }
  },
  {
    "service_request": "2022-956463",
    "request_type": "Trash/Recycling",
    "request_reason": "Request a Large Item Pick Up",
    "date_created": "2022-12-27T15:17:48.000",
    "date_modified": "2022-12-27T15:17:49.000",
    "request_status": "Pending",
    "responsible_agency": "Department of Sanitation",
    "final_address": "4636 Elysian Fields Ave",
    "address_councildis": "D",
    "status": "Assigned to Contractor",
    "contractor": "IV Waste",
    "rowid": "956463",
    "final_x": "3683810.72943",
    "final_y": "549871.518612",
    "longitude": "-90.06012999621332",
    "latitude": "30.005885555681047",
    "geocoded_column": {
      "latitude": "30.005885555681047",
      "longitude": "-90.06012999621332"
    }
  },
  {
    "service_request": "2022-956462",
    "request_type": "Trash/Recycling",
    "request_reason": "Request a Large Item Pick Up",
    "date_created": "2022-12-27T15:16:59.000",
    "date_modified": "2022-12-27T15:17:00.000",
    "request_status": "Pending",
    "responsible_agency": "Department of Sanitation",
    "final_address": "4620 Elysian Fields Ave",
    "address_councildis": "D",
    "status": "Assigned to Contractor",
    "contractor": "IV Waste",
    "rowid": "956462",
    "final_x": "3683815.57525",
    "final_y": "549811.197652",
    "longitude": "-90.06011680467307",
    "latitude": "30.005719546785514",
    "geocoded_column": {
      "latitude": "30.005719546785514",
      "longitude": "-90.06011680467307"
    }
  },
  {
    "service_request": "2022-956461",
    "request_type": "Trash/Recycling",
    "request_reason": "Illegal Dumping",
    "date_created": "2022-12-27T15:12:25.000",
    "date_modified": "2022-12-27T15:12:26.000",
    "request_status": "Pending",
    "responsible_agency": "Department of Code Enforcement",
    "final_address": "SAGE ST & PEOPLES AVE",
    "address_councildis": "D",
    "status": "Pending",
    "rowid": "956461",
    "final_x": "3688595.4",
    "final_y": "545595.58",
    "longitude": "-90.04516600641615",
    "latitude": "29.993981223923438",
    "geocoded_column": {
      "latitude": "29.993981223923438",
      "longitude": "-90.04516600641615"
    }
  },
  {
    "service_request": "2022-956460",
    "request_type": "Abandoned Vehicles",
    "request_reason": "Abandoned/Junk Vehicles",
    "date_created": "2022-12-27T15:12:08.000",
    "date_modified": "2022-12-27T15:12:08.000",
    "request_status": "Pending",
    "responsible_agency": "Department of Public Works",
    "final_address": "1229 Annette St",
    "address_councildis": "C",
    "status": "Pending",
    "rowid": "956460",
    "final_x": "3683164.11804",
    "final_y": "536396.676871",
    "longitude": "-90.06264487645976",
    "latitude": "29.968854239719544",
    "geocoded_column": {
      "latitude": "29.968854239719544",
      "longitude": "-90.06264487645976"
    }
  },
  {
    "service_request": "2022-956459",
    "request_type": "Abandoned Vehicles",
    "request_reason": "Abandoned/Junk Vehicles",
    "date_created": "2022-12-27T15:10:33.000",
    "date_modified": "2022-12-27T15:10:33.000",
    "request_status": "Pending",
    "responsible_agency": "Department of Public Works",
    "final_address": "1726 Urquhart St",
    "address_councildis": "C",
    "status": "Pending",
    "rowid": "956459",
    "final_x": "3683333.77564",
    "final_y": "536856.576008",
    "longitude": "-90.06209297442491",
    "latitude": "29.970113628813557",
    "geocoded_column": {
      "latitude": "29.970113628813557",
      "longitude": "-90.06209297442491"
    }
  },
  {
    "service_request": "2022-956458",
    "request_type": "Trash/Recycling",
    "request_reason": "Order Recycling Cart",
    "date_created": "2022-12-27T15:09:57.000",
    "date_modified": "2022-12-27T15:09:57.000",
    "request_status": "Pending",
    "responsible_agency": "Department of Sanitation",
    "final_address": "6620 Coventry St",
    "address_councildis": "E",
    "status": "Pending",
    "rowid": "956458",
    "final_x": "3697788.54781",
    "final_y": "559158.626652",
    "longitude": "-90.01563362954312",
    "latitude": "30.030987119760898",
    "geocoded_column": {
      "latitude": "30.030987119760898",
      "longitude": "-90.01563362954312"
    }
  },
  {
    "service_request": "2022-956457",
    "request_type": "Trash/Recycling",
    "request_reason": "Order Recycling Cart",
    "date_created": "2022-12-27T15:08:49.000",
    "date_modified": "2022-12-27T15:08:49.000",
    "request_status": "Pending",
    "responsible_agency": "Department of Sanitation",
    "final_address": "4401 San Remo Rd, New Orleans, Louisiana, 70129",
    "status": "Pending",
    "rowid": "956457",
    "longitude": "0.0",
    "latitude": "0.0",
    "geocoded_column": {
      "latitude": "0.0",
      "longitude": "0.0"
    }
  },
  {
    "service_request": "2022-956456",
    "request_type": "Trash/Recycling",
    "request_reason": "Missed Trash Pick-Up",
    "date_created": "2022-12-27T15:07:41.000",
    "date_modified": "2022-12-27T15:07:42.000",
    "request_status": "Pending",
    "responsible_agency": "Department of Sanitation",
    "final_address": "71 Westpark Ct",
    "address_councildis": "C",
    "status": "Assigned to Contractor",
    "contractor": "Richards Disposal",
    "rowid": "956456",
    "final_x": "3695750.69424",
    "final_y": "521720.31161",
    "longitude": "-90.02342573326777",
    "latitude": "29.928109551338746",
    "geocoded_column": {
      "latitude": "29.928109551338746",
      "longitude": "-90.02342573326777"
    }
  },
  {
    "service_request": "2022-956455",
    "request_type": "Abandoned Vehicles",
    "request_reason": "Abandoned/Junk Vehicles",
    "date_created": "2022-12-27T15:06:30.000",
    "date_modified": "2022-12-27T15:06:31.000",
    "request_status": "Pending",
    "responsible_agency": "Department of Public Works",
    "final_address": "4043 Ulloa St",
    "address_councildis": "A",
    "status": "Pending",
    "rowid": "956455",
    "final_x": "3669781.59879",
    "final_y": "536429.295431",
    "longitude": "-90.10490672619122",
    "latitude": "29.969345210773678",
    "geocoded_column": {
      "latitude": "29.969345210773678",
      "longitude": "-90.10490672619122"
    }
  },
  {
    "service_request": "2022-956454",
    "request_type": "Abandoned Vehicles",
    "request_reason": "Abandoned/Junk Vehicles",
    "date_created": "2022-12-27T15:06:07.000",
    "date_modified": "2022-12-27T15:08:02.000",
    "request_status": "Pending",
    "responsible_agency": "Department of Public Works",
    "final_address": "2749 Jonquil St",
    "address_councildis": "D",
    "status": "Pending",
    "rowid": "956454",
    "final_x": "3688259.73679",
    "final_y": "547364.812369",
    "longitude": "-90.04616353519967",
    "latitude": "29.998856345619068",
    "geocoded_column": {
      "latitude": "29.998856345619068",
      "longitude": "-90.04616353519967"
    }
  },