[
  {
    "service_request": "2023-1052983",
    "request_type": "Trash/Recycling",
    "request_reason": "Repair Trash Cart",
    "date_created": "2023-12-01T00:48:36.000",
    "date_modified": "2023-12-01T00:48:37.000",
    "request_status": "Pending",
    "responsible_agency": "Department of Sanitation",
    "final_address": "8631 Green St",
    "address_councildis": "A",
    "status": "Assigned to Contractor",
    "contractor": "Richards Disposal",
    "rowid": "1052983",
    "final_x": "3661663.43443",
    "final_y": "531067.443074",
    "longitude": "-90.13072237894397",
    "latitude": "29.95483867543019",
    "geocoded_column": {
      "latitude": "29.95483867543019",
      "longitude": "-90.13072237894397"
    }
  },
  {
    "service_request": "2023-1052982",
    "request_type": "Trash/Recycling",
    "request_reason": "Replace Trash Cart",
    "date_created": "2023-11-30T23:36:26.000",
    "date_modified": "2023-11-30T23:36:27.000",
    "request_status": "Pending",
    "responsible_agency": "Department of Sanitation",
    "final_address": "3029 Bruxelles St",
    "address_councildis": "D",
    "status": "Assigned to Contractor",
    "contractor": "IV Waste",
    "rowid": "1052982",
    "final_x": "3680280.97352",
    "final_y": "543577.394382",
    "longitude": "-90.0715002968251",
    "latitude": "29.988686318823458",
    "geocoded_column": {
      "latitude": "29.988686318823458",
      "longitude": "-90.0715002968251"
    }
  },
  {
    "service_request": "2023-1052981",
    "request_type": "Roads/Drainage",
    "request_reason": "Road Shoulder Repair",
    "date_created": "2023-11-30T23:28:14.000",
    "date_modified": "2023-11-30T23:28:14.000",
    "request_status": "Pending",
    "responsible_agency": "Department of Public Works",
    "final_address": "4000 BLK Coliseum St",
    "address_councildis": "B",
    "status": "Pending",
    "rowid": "1052981",
    "final_x": "3672238.14072",
    "final_y": "519950.432656",
    "longitude": "-90.09770995128646",
    "latitude": "29.923961101655525",
    "geocoded_column": {
      "latitude": "29.923961101655525",
      "longitude": "-90.09770995128646"
    }
  },
  {
    "service_request": "2023-1052980",
    "request_type": "Roads/Drainage",
    "request_reason": "Pothole",
    "date_created": "2023-11-30T22:29:11.000",
    "date_modified": "2023-11-30T22:29:11.000",
    "request_status": "Pending",
    "responsible_agency": "Department of Public Works",
    "final_address": "6030 Chestnut St",
    "address_councildis": "A",
    "status": "Pending",
    "rowid": "1052980",
    "final_x": "3664661.37773",
    "final_y": "519852.51884",
    "longitude": "-90.1216304547064",
    "latitude": "29.923914355909606",
    "geocoded_column": {
      "latitude": "29.923914355909606",
      "longitude": "-90.1216304547064"
    }
  },
  {
    "service_request": "2023-1052979",
    "request_type": "Roads/Drainage",
    "request_reason": "Pothole",
    "date_created": "2023-11-30T22:27:07.000",
    "date_modified": "2023-11-30T22:27:07.000",
    "request_status": "Pending",
    "responsible_agency": "Department of Public Works",
    "final_address": "4216 Chestnut St",
    "address_councildis": "B",
    "status": "Pending",
    "rowid": "1052979",
    "final_x": "3671574.31393",
    "final_y": "519539.203703",
    "longitude": "-90.09981939416457",
    "latitude": "29.922850019854593",
    "geocoded_column": {
      "latitude": "29.922850019854593",
      "longitude": "-90.09981939416457"
    }
  },
  {
    "service_request": "2023-1052978",
    "request_type": "Roads/Drainage",
    "request_reason": "Pothole",
    "date_created": "2023-11-30T22:26:44.000",
    "date_modified": "2023-11-30T22:26:44.000",
    "request_status": "Pending",
    "responsible_agency": "Department of Public Works",
    "final_address": "6215 Hurst St",
    "address_councildis": "A",
    "status": "Pending",
    "rowid": "1052978",
    "final_x": "3664668.32039",
    "final_y": "522243.373626",
    "longitude": "-90.12152872358996",
    "latitude": "29.93048825206563",
    "geocoded_column": {
      "latitude": "29.93048825206563",
      "longitude": "-90.12152872358996"
    }
  },
  {
    "service_request": "2023-1052977",
    "request_type": "Roads/Drainage",
    "request_reason": "Pothole",
    "date_created": "2023-11-30T22:23:50.000",
    "date_modified": "2023-11-30T22:23:50.000",
    "request_status": "Pending",
    "responsible_agency": "Department of Public Works",
    "final_address": "5902 Hurst St",
    "address_councildis": "A",
    "status": "Pending",
    "rowid": "1052977",
    "final_x": "3665757.45908",
    "final_y": "521688.420601",
    "longitude": "-90.11810904350683",
    "latitude": "29.92893059016598",
    "geocoded_column": {
      "latitude": "29.92893059016598",
      "longitude": "-90.11810904350683"
    }
  },
  {
    "service_request": "2023-1052976",
    "request_type": "Roads/Drainage",
    "request_reason": "Pothole",
    "date_created": "2023-11-30T22:21:53.000",
    "date_modified": "2023-11-30T22:21:53.000",
    "request_status": "Pending",
    "responsible_agency": "Department of Public Works",
    "final_address": " & BALDWIN ST",
    "address_councildis": "D",
    "status": "Pending",
    "rowid": "1052976",
    "final_x": "3687880.8",
    "final_y": "560035.64",
    "longitude": "-90.04691121641319",
    "latitude": "30.03370814054373",
    "geocoded_column": {
      "latitude": "30.03370814054373",
      "longitude": "-90.04691121641319"
    }
  },
  {
    "service_request": "2023-1052975",
    "request_type": "Trash/Recycling",
    "request_reason": "Replace Trash Cart",
    "date_created": "2023-11-30T22:07:09.000",
    "date_modified": "2023-11-30T22:07:10.000",
    "request_status": "Pending",
    "responsible_agency": "Department of Sanitation",
    "final_address": "4457 Spain St",
    "address_councildis": "D",
    "status": "Assigned to Contractor",
    "contractor": "IV Waste",
    "rowid": "1052975",
    "final_x": "3685134.6061",
    "final_y": "549364.272019",
    "longitude": "-90.05596543069721",
    "latitude": "30.004450296833514",
    "geocoded_column": {
      "latitude": "30.004450296833514",
      "longitude": "-90.05596543069721"
    }
  },
  {
    "service_request": "2023-1052974",
    "request_type": "Roads/Drainage",
    "request_reason": "Catch Basin - Clogged",
    "date_created": "2023-11-30T22:06:10.000",
    "date_modified": "2023-11-30T22:06:10.000",
    "request_status": "Pending",
    "responsible_agency": "Department of Public Works",
    "final_address": "2730 St Philip St",
    "address_councildis": "A",
    "status": "Pending",
    "rowid": "1052974",
    "final_x": "3677130.90933",
    "final_y": "538008.271369",
    "longitude": "-90.0816425426227",
    "latitude": "29.973468162659156",
    "geocoded_column": {
      "latitude": "29.973468162659156",
      "longitude": "-90.0816425426227"
    }
  },
  {
    "service_request": "2023-1052973",
    "request_type": "Trash/Recycling",
    "request_reason": "Missed Trash Pick-Up",
    "date_created": "2023-11-30T21:40:22.000",
    "date_modified": "2023-11-30T21:40:23.000",
    "request_status": "Pending",
    "responsible_agency": "Department of Sanitation",
    "final_address": "2445 Charbonnet St",
    "address_councildis": "E",
    "status": "Assigned to Contractor",
    "contractor": "Waste Pro",
    "rowid": "1052973",
    "final_x": "3700065.72612",
    "final_y": "538809.251465",
    "longitude": "-90.00918083681147",
    "latitude": "29.974961751697144",
    "geocoded_column": {
      "latitude": "29.974961751697144",
      "longitude": "-90.00918083681147"
    }
  },
  {
    "service_request": "2023-1052972",
    "request_type": "Trash/Recycling",
    "request_reason": "Request a Large Item Pick Up",
    "date_created": "2023-11-30T21:32:39.000",
    "date_modified": "2023-11-30T21:32:40.000",
    "request_status": "Pending",
    "responsible_agency": "Department of Sanitation",
    "final_address": "291 Bellaire Dr",
    "address_councildis": "A",
    "status": "Assigned to Contractor",
    "contractor": "IV Waste",
    "rowid": "1052972",
    "final_x": "3663957.21338",
    "final_y": "541444.381964",
    "longitude": "-90.12313339720127",
    "latitude": "29.983305437336135",
    "geocoded_column": {
      "latitude": "29.983305437336135",
      "longitude": "-90.12313339720127"
    }
  },
  {
    "service_request": "2023-1052971",
    "request_type": "Trash/Recycling",
    "request_reason": "Missed Trash Pick-Up",
    "date_created": "2023-11-30T20:14:01.000",
    "date_modified": "2023-11-30T20:14:02.000",
    "request_status": "Pending",
    "responsible_agency": "Department of Sanitation",
    "final_address": "2222 Constance St",
    "address_councildis": "B",
    "status": "Assigned to Contractor",
    "contractor": "Richards Disposal",
    "rowid": "1052971",
    "final_x": "3678934.23131",
    "final_y": "521635.209081",
    "longitude": "-90.07651445262637",
    "latitude": "29.928393441669865",
    "geocoded_column": {
      "latitude": "29.928393441669865",
      "longitude": "-90.07651445262637"
    }
  },
  {
    "service_request": "2023-1052970",
    "request_type": "Trash/Recycling",
    "request_reason": "Request a Large Item Pick Up",
    "date_created": "2023-11-30T20:00:27.000",
    "date_modified": "2023-11-30T20:00:28.000",
    "request_status": "Pending",
    "responsible_agency": "Department of Sanitation",
    "final_address": "3411 Coliseum St",
    "address_councildis": "B",
    "status": "Assigned to Contractor",
    "contractor": "Richards Disposal",
    "rowid": "1052970",
    "final_x": "3674419.98766",
    "final_y": "520548.178488",
    "longitude": "-90.09080216983864",
    "latitude": "29.925539835465116",
    "geocoded_column": {
      "latitude": "29.925539835465116",
      "longitude": "-90.09080216983864"
    }
  },
  {
    "service_request": "2023-1052969",
    "request_type": "Traffic Signals/Signs/Striping/Streetlights",
    "request_reason": "Street Light Outage/Malfunction",
    "date_created": "2023-11-30T19:17:07.000",
    "date_modified": "2023-11-30T19:17:08.000",
    "request_status": "Pending",
    "responsible_agency": "Department of Public Works",
    "final_address": "6128 Pratt Dr",
    "address_councildis": "D",
    "status": "Assigned to Contractor",
    "contractor": "Legacy Professional Services",
    "rowid": "1052969",
    "final_x": "3680048.11087",
    "final_y": "555188.631705",
    "longitude": "-90.07183205366428",
    "latitude": "30.020620116429228",
    "geocoded_column": {
      "latitude": "30.020620116429228",
      "longitude": "-90.07183205366428"
    }
  },
  {
    "service_request": "2023-1052968",
    "request_type": "Trash/Recycling",
    "request_reason": "Request a Large Item Pick Up",
    "date_created": "2023-11-30T19:06:28.000",
    "date_modified": "2023-11-30T19:06:29.000",
    "request_status": "Pending",
    "responsible_agency": "Department of Sanitation",
    "final_address": "4918 S Prieur St",
    "address_councildis": "B",
    "status": "Assigned to Contractor",
    "contractor": "Richards Disposal",
    "rowid": "1052968",
    "final_x": "3669090.91943",
    "final_y": "526637.515006",
    "longitude": "-90.10741879456256",
    "latitude": "29.942441378548565",
    "geocoded_column": {
      "latitude": "29.942441378548565",
      "longitude": "-90.10741879456256"
    }
  },
  {
    "service_request": "2023-1052967",
    "request_type": "Traffic Signals/Signs/Striping/Streetlights",
    "request_reason": "Street Light Outage/Malfunction",
    "date_created": "2023-11-30T19:05:13.000",
    "date_modified": "2023-11-30T19:05:14.000",
    "request_status": "Pending",
    "responsible_agency": "Department of Public Works",
    "final_address": "3910 Camp St",
    "address_councildis": "B",
    "status": "Assigned to Contractor",
    "contractor": "Legacy Professional Services",
    "rowid": "1052967",
    "final_x": "3672918.86452",
    "final_y": "519290.266423",
    "longitude": "-90.09558365622824",
    "latitude": "29.922125653871625",
    "geocoded_column": {
      "latitude": "29.922125653871625",
      "longitude": "-90.09558365622824"
    }
  },
  {
    "service_request": "2023-1052966",
    "request_type": "Trash/Recycling",
    "request_reason": "Order Recycling Cart",
    "date_created": "2023-11-30T18:26:42.000",
    "date_modified": "2023-11-30T18:26:42.000",
    "request_status": "Pending",
    "responsible_agency": "Department of Sanitation",
    "final_address": "7728 Spruce St",
    "address_councildis": "A",
    "status": "Pending",
    "rowid": "1052966",
    "final_x": "3664717.92295",
    "final_y": "529613.231297",
    "longitude": "-90.12112600417574",
    "latitude": "29.950751561680384",
    "geocoded_column": {
      "latitude": "29.950751561680384",
      "longitude": "-90.12112600417574"
    }
  },
  {
    "service_request": "2023-1052965",
    "request_type": "Trash/Recycling",
    "request_reason": "Order Recycling Cart",
    "date_created": "2023-11-30T18:25:43.000",
    "date_modified": "2023-11-30T18:25:43.000",
    "request_status": "Pending",
    "responsible_agency": "Department of Sanitation",
    "final_address": "7728 Spruce St",
    "address_councildis": "A",
    "status": "Pending",
    "rowid": "1052965",
    "final_x": "3664717.92295",
    "final_y": "529613.231297",
    "longitude": "-90.12112600417574",
    "latitude": "29.950751561680384",
    "geocoded_column": {
      "latitude": "29.950751561680384",
      "longitude": "-90.12112600417574"
    }
  },
  {
    "service_request": "2023-1052964",
    "request_type": "Trash/Recycling",
    "request_reason": "Order Recycling Cart",
    "date_created": "2023-11-30T18:18:19.000",
    "date_modified": "2023-11-30T18:18:19.000",
    "request_status": "Pending",
    "responsible_agency": "Department of Sanitation",
    "final_address": "2626 Republic St",
    "address_councildis": "D",
    "status": "Pending",
    "rowid": "1052964",
    "final_x": "3680733.52623",
    "final_y": "541747.979276",
    "longitude": "-90.07013452757691",
    "latitude": "29.98364235761993",
    "geocoded_column": {
      "latitude": "29.98364235761993",
      "longitude": "-90.07013452757691"
    }
  },
  {
    "service_request": "2023-1052963",
    "request_type": "Trash/Recycling",
    "request_reason": "Missed Trash Pick-Up",
    "date_created": "2023-11-30T18:08:34.000",
    "date_modified": "2023-11-30T18:08:35.000",
    "request_status": "Pending",
    "responsible_agency": "Department of Sanitation",
    "final_address": "5616 N Dorgenois St",
    "address_councildis": "E",
    "status": "Assigned to Contractor",
    "contractor": "Waste Pro",
    "rowid": "1052963",
    "final_x": "3699599.06621",
    "final_y": "538901.431242",
    "longitude": "-90.01065129834431",
    "latitude": "29.97523003274961",
    "geocoded_column": {
      "latitude": "29.97523003274961",
      "longitude": "-90.01065129834431"
    }
  },
  {
    "service_request": "2023-1052962",
    "request_type": "Abandoned Vehicles",
    "request_reason": "Vehicle Blocking Your Driveway",
    "date_created": "2023-11-30T18:01:13.000",
    "date_modified": "2023-11-30T18:01:13.000",
    "request_status": "Pending",
    "responsible_agency": "Department of Public Works",
    "final_address": "MAPLE ST & PINE ST",
    "address_councildis": "A",
    "status": "Pending",
    "rowid": "1052962",
    "final_x": "3663129.2",
    "final_y": "525484.38",
    "longitude": "-90.12627973745822",
    "latitude": "29.939444661617483",
    "geocoded_column": {
      "latitude": "29.939444661617483",
      "longitude": "-90.12627973745822"
    }
  },
  {
    "service_request": "2023-1052961",
    "request_type": "Abandoned Vehicles",
    "request_reason": "Abandoned/Junk Vehicles",
    "date_created": "2023-11-30T18:00:35.000",
    "date_modified": "2023-11-30T18:00:35.000",
    "request_status": "Pending",
    "responsible_agency": "Department of Public Works",
    "final_address": "7515 Lafourche St",
    "address_councildis": "E",
    "status": "Pending",
    "rowid": "1052961",
    "final_x": "3710563.014",
    "final_y": "565043.817698",
    "longitude": "-89.97504587336157",
    "latitude": "30.046758926882212",
    "geocoded_column": {
      "latitude": "30.046758926882212",
      "longitude": "-89.97504587336157"
    }
  },
  {
    "service_request": "2023-1052960",
    "request_type": "Mosquito, Termite & Rodent Control",
    "request_reason": "Rodent Complaint (Rats)",
    "date_created": "2023-11-30T17:56:24.000",
    "date_modified": "2023-11-30T17:56:24.000",
    "request_status": "Pending",
    "responsible_agency": "Mosquito, Termite & Rodent Control Board",
    "final_address": "3989 Tchoupitoulas St",
    "address_councildis": "B",
    "status": "Pending",
    "rowid": "1052960",
    "final_x": "3672697.1588",
    "final_y": "517654.19231",
    "longitude": "-90.09633924288366",
    "latitude": "29.917633554768873",
    "geocoded_column": {
      "latitude": "29.917633554768873",
      "longitude": "-90.09633924288366"
    }
  },
  {
    "service_request": "2023-1052959",
    "request_type": "Trash/Recycling",
    "request_reason": "Request a Large Item Pick Up",
    "date_created": "2023-11-30T17:49:44.000",
    "date_modified": "2023-11-30T17:49:45.000",
    "request_status": "Pending",
    "responsible_agency": "Department of Sanitation",
    "final_address": "7935 Zimple St",
    "address_councildis": "A",
    "status": "Assigned to Contractor",
    "contractor": "Richards Disposal",
    "rowid": "1052959",
    "final_x": "3662129.20064",
    "final_y": "527806.250047",
    "longitude": "-90.12935985982456",
    "latitude": "29.94585799267754",
    "geocoded_column": {
      "latitude": "29.94585799267754",
      "longitude": "-90.12935985982456"
    }
  },
  {
    "service_request": "2023-1052958",
    "request_type": "Abandoned Vehicles",
    "request_reason": "Abandoned/Junk Vehicles",
    "date_created": "2023-11-30T17:10:56.000",
    "date_modified": "2023-11-30T17:10:56.000",
    "request_status": "Pending",
    "responsible_agency": "Department of Public Works",
    "final_address": "1526 Bodenger Blvd",
    "address_councildis": "C",
    "status": "Pending",
    "rowid": "1052958",
    "final_x": "3688561.02198",
    "final_y": "525894.725821",
    "longitude": "-90.04597378379307",
    "latitude": "29.93981182440794",
    "geocoded_column": {
      "latitude": "29.93981182440794",
      "longitude": "-90.04597378379307"
    }
  },
  {
    "service_request": "2023-1052957",
    "request_type": "Abandoned Vehicles",
    "request_reason": "Abandoned/Junk Vehicles",
    "date_created": "2023-11-30T17:09:11.000",
    "date_modified": "2023-11-30T17:09:11.000",
    "request_status": "Pending",
    "responsible_agency": "Department of Public Works",
    "final_address": "1526 Bodenger Blvd",
    "address_councildis": "C",
    "status": "Pending",
    "rowid": "1052957",
    "final_x": "3688561.02198",
    "final_y": "525894.725821",
    "longitude": "-90.04597378379307",
    "latitude": "29.93981182440794",
    "geocoded_column": {
      "latitude": "29.93981182440794",
      "longitude": "-90.04597378379307"
    }
  },
  {
    "service_request": "2023-1052956",
    "request_type": "Trash/Recycling",
    "request_reason": "Order Recycling Cart",
    "date_created": "2023-11-30T16:55:40.000",
    "date_modified": "2023-11-30T16:55:41.000",
    "request_status": "Pending",
    "responsible_agency": "Department of Sanitation",
    "final_address": "721 S Salcedo St",
    "address_councildis": "B",
    "status": "Pending",
    "rowid": "1052956",
    "final_x": "3672384.43399",
    "final_y": "533962.644805",
    "longitude": "-90.09677081870713",
    "latitude": "29.96248576512759",
    "geocoded_column": {
      "latitude": "29.96248576512759",
      "longitude": "-90.09677081870713"
    }
  },
  {
    "service_request": "2023-1052955",
    "request_type": "Trash/Recycling",
    "request_reason": "Order Trash Cart",
    "date_created": "2023-11-30T16:55:15.000",
    "date_modified": "2023-11-30T16:55:16.000",
    "request_status": "Pending",
    "responsible_agency": "Department of Sanitation",
    "final_address": "721 S Salcedo St",
    "address_councildis": "B",
    "status": "Assigned to Contractor",
    "contractor": "Richards Disposal",
    "rowid": "1052955",
    "final_x": "3672384.43399",
    "final_y": "533962.644805",
    "longitude": "-90.09677081870713",
    "latitude": "29.96248576512759",
    "geocoded_column": {
      "latitude": "29.96248576512759",
      "longitude": "-90.09677081870713"
    }
  },
  {
    "service_request": "2023-1052954",
    "request_type": "Trash/Recycling",
    "request_reason": "MIssed Recycling Pick-Up",
    "date_created": "2023-11-30T16:45:26.000",
    "date_modified": "2023-11-30T16:45:26.000",
    "request_status": "Pending",
    "responsible_agency": "Department of Sanitation",
    "final_address": "1831 Bordeaux St",
    "address_councildis": "B",
    "status": "Assigned to Contractor",
    "contractor": "Richards Disposal",
    "rowid": "1052954",
    "final_x": "3669331.87892",
    "final_y": "521703.529722",
    "longitude": "-90.10682477262996",
    "latitude": "29.928867415105458",
    "geocoded_column": {
      "latitude": "29.928867415105458",
      "longitude": "-90.10682477262996"
    }
  },
  {
    "service_request": "2023-1052953",
    "request_type": "Trash/Recycling",
    "request_reason": "Missed Trash Pick-Up",
    "date_created": "2023-11-30T16:29:03.000",
    "date_modified": "2023-11-30T16:29:04.000",
    "request_status": "Pending",
    "responsible_agency": "Department of Sanitation",
    "final_address": "3028 Fern St",
    "address_councildis": "B",
    "status": "Assigned to Contractor",
    "contractor": "Richards Disposal",
    "rowid": "1052953",
    "final_x": "3666987.79085",
    "final_y": "532853.675524",
    "longitude": "-90.11385000072318",
    "latitude": "29.959595499568675",
    "geocoded_column": {
      "latitude": "29.959595499568675",
      "longitude": "-90.11385000072318"
    }
  },
  {
    "service_request": "2023-1052952",
    "request_type": "Property Maintenance",
    "request_reason": "Property Maintenance",
    "date_created": "2023-11-30T16:26:55.000",
    "date_modified": "2023-11-30T16:26:56.000",
    "request_status": "Pending",
    "responsible_agency": "Department of Code Enforcement",
    "final_address": "1409 Ptolemy St",
    "address_councildis": "C",
    "status": "Pending",
    "rowid": "1052952",
    "final_x": "3689794.94256",
    "final_y": "525950.140285",
    "longitude": "-90.04207616028097",
    "latitude": "29.93992601853862",
    "geocoded_column": {
      "latitude": "29.93992601853862",
      "longitude": "-90.04207616028097"
    }
  },
  {
    "service_request": "2023-1052951",
    "request_type": "Trash/Recycling",
    "request_reason": "Request a Large Item Pick Up",
    "date_created": "2023-11-30T16:22:26.000",
    "date_modified": "2023-11-30T16:22:26.000",
    "request_status": "Pending",
    "responsible_agency": "Department of Sanitation",
    "final_address": "9031 Bunker Hill Rd",
    "address_councildis": "E",
    "status": "Assigned to Contractor",
    "contractor": "Waste Pro",
    "rowid": "1052951",
    "final_x": "3706320.94212",
    "final_y": "561824.358431",
    "longitude": "-89.9885723720645",
    "latitude": "30.038044276506092",
    "geocoded_column": {
      "latitude": "30.038044276506092",
      "longitude": "-89.9885723720645"
    }
  },
  {
    "service_request": "2023-1052950",
    "request_type": "Trash/Recycling",
    "request_reason": "Request a Large Item Pick Up",
    "date_created": "2023-11-30T16:21:49.000",
    "date_modified": "2023-11-30T16:21:50.000",
    "request_status": "Pending",
    "responsible_agency": "Department of Sanitation",
    "final_address": "5601 Canal Blvd",
    "address_councildis": "A",
    "status": "Assigned to Contractor",
    "contractor": "IV Waste",
    "rowid": "1052950",
    "final_x": "3668398.38798",
    "final_y": "544624.446799",
    "longitude": "-90.1089984890539",
    "latitude": "29.99191980765331",
    "geocoded_column": {
      "latitude": "29.99191980765331",
      "longitude": "-90.1089984890539"
    }
  },
  {
    "service_request": "2023-1052949",
    "request_type": "Trash/Recycling",
    "request_reason": "MIssed Recycling Pick-Up",
    "date_created": "2023-11-30T16:18:29.000",
    "date_modified": "2023-11-30T16:18:29.000",
    "request_status": "Pending",
    "responsible_agency": "Department of Sanitation",
    "final_address": "5961 Winchester Park Dr",
    "address_councildis": "E",
    "status": "Assigned to Contractor",
    "contractor": "Waste Pro",
    "rowid": "1052949",
    "final_x": "3714637.25221",
    "final_y": "563090.419104",
    "longitude": "-89.96224313855335",
    "latitude": "30.041254446547015",
    "geocoded_column": {
      "latitude": "30.041254446547015",
      "longitude": "-89.96224313855335"
    }
  },
  {
    "service_request": "2023-1052948",
    "request_type": "Abandoned Vehicles",
    "request_reason": "Abandoned/Junk Vehicles",
    "date_created": "2023-11-30T16:07:25.000",
    "date_modified": "2023-11-30T16:07:25.000",
    "request_status": "Pending",
    "responsible_agency": "Department of Public Works",
    "final_address": "1222 N Villere St",
    "address_councildis": "C",
    "status": "Pending",
    "rowid": "1052948",
    "final_x": "3681646.18159",
    "final_y": "535871.974535",
    "longitude": "-90.0674569176154",
    "latitude": "29.967457687272717",
    "geocoded_column": {
      "latitude": "29.967457687272717",
      "longitude": "-90.0674569176154"
    }
  },
  {
    "service_request": "2023-1052947",
    "request_type": "Trash/Recycling",
    "request_reason": "Request a Large Item Pick Up",
    "date_created": "2023-11-30T16:07:16.000",
    "date_modified": "2023-11-30T16:07:38.000",
    "request_status": "Pending",
    "responsible_agency": "Department of Sanitation",
    "final_address": "3527 Camp St",
    "address_councildis": "B",
    "status": "Assigned to Contractor",
    "contractor": "Richards Disposal",
    "rowid": "1052947",
    "final_x": "3674088.25185",
    "final_y": "519723.452152",
    "longitude": "-90.09187756586013",
    "latitude": "29.92328199034976",
    "geocoded_column": {
      "latitude": "29.92328199034976",
      "longitude": "-90.09187756586013"
    }
  },
  {
    "service_request": "2023-1052946",
    "request_type": "Roads/Drainage",
    "request_reason": "Road Shoulder Repair",
    "date_created": "2023-11-30T16:06:24.000",
    "date_modified": "2023-11-30T16:06:24.000",
    "request_status": "Pending",
    "responsible_agency": "Department of Public Works",
    "final_address": "1811 Baronne St",
    "address_councildis": "B",
    "status": "Pending",
    "rowid": "1052946",
    "final_x": "3677772.31406",
    "final_y": "525124.958653",
    "longitude": "-90.08006188182834",
    "latitude": "29.938024101706638",
    "geocoded_column": {
      "latitude": "29.938024101706638",
      "longitude": "-90.08006188182834"
    }
  },
  {
    "service_request": "2023-1052945",
    "request_type": "Abandoned Vehicles",
    "request_reason": "Abandoned/Junk Vehicles",
    "date_created": "2023-11-30T16:05:28.000",
    "date_modified": "2023-11-30T16:05:28.000",
    "request_status": "Pending",
    "responsible_agency": "Department of Public Works",
    "final_address": "1222 N Villere St",
    "address_councildis": "C",
    "status": "Pending",
    "rowid": "1052945",
    "final_x": "3681646.18159",
    "final_y": "535871.974535",
    "longitude": "-90.0674569176154",
    "latitude": "29.967457687272717",
    "geocoded_column": {
      "latitude": "29.967457687272717",
      "longitude": "-90.0674569176154"
    }
  },
  {
    "service_request": "2023-1052944",
    "request_type": "Trash/Recycling",
    "request_reason": "Request a Large Item Pick Up",
    "date_created": "2023-11-30T16:02:36.000",
    "date_modified": "2023-11-30T16:02:42.000",
    "request_status": "Pending",
    "responsible_agency": "Department of Sanitation",
    "final_address": "6964 Neptune Ct",
    "address_councildis": "E",
    "status": "Assigned to Contractor",
    "contractor": "Waste Pro",
    "rowid": "1052944",
    "final_x": "3701976.63287",
    "final_y": "558652.857436",
    "longitude": "-90.00241781138857",
    "latitude": "30.0294633569712",
    "geocoded_column": {
      "latitude": "30.0294633569712",
      "longitude": "-90.00241781138857"
    }
  },
  {
    "service_request": "2023-1052943",
    "request_type": "Trash/Recycling",
    "request_reason": "Replace Trash Cart",
    "date_created": "2023-11-30T15:58:40.000",
    "date_modified": "2023-11-30T15:58:41.000",
    "request_status": "Pending",
    "responsible_agency": "Department of Sanitation",
    "final_address": "7024 Mayo Rd",
    "address_councildis": "E",
    "status": "Assigned to Contractor",
    "contractor": "Waste Pro",
    "rowid": "1052943",
    "final_x": "3701485.79761",
    "final_y": "558747.624732",
    "longitude": "-90.00396535697702",
    "latitude": "30.02973959724559",
    "geocoded_column": {
      "latitude": "30.02973959724559",
      "longitude": "-90.00396535697702"
    }
  },
  {
    "service_request": "2023-1052942",
    "request_type": "Trash/Recycling",
    "request_reason": "Damaged Caused By Contractor",
    "date_created": "2023-11-30T15:55:29.000",
    "date_modified": "2023-11-30T15:55:30.000",
    "request_status": "Pending",
    "responsible_agency": "Department of Sanitation",
    "final_address": "7024 Mayo Rd",
    "address_councildis": "E",
    "status": "Assigned to Contractor",
    "contractor": "Waste Pro",
    "rowid": "1052942",
    "final_x": "3701485.79761",
    "final_y": "558747.624732",
    "longitude": "-90.00396535697702",
    "latitude": "30.02973959724559",
    "geocoded_column": {
      "latitude": "30.02973959724559",
      "longitude": "-90.00396535697702"
    }
  },
  {
    "service_request": "2023-1052941",
    "request_type": "Roads/Drainage",
    "request_reason": "Damaged Sidewalk",
    "date_created": "2023-11-30T15:48:22.000",
    "date_modified": "2023-11-30T15:48:22.000",
    "request_status": "Pending",
    "responsible_agency": "Department of Public Works",
    "final_address": "2619 Somerset Dr",
    "address_councildis": "C",
    "status": "Pending",
    "rowid": "1052941",
    "final_x": "3702818.64478",
    "final_y": "521350.081401",
    "longitude": "-90.00112756556139",
    "latitude": "29.926867482147255",
    "geocoded_column": {
      "latitude": "29.926867482147255",
      "longitude": "-90.00112756556139"
    }
  },
  {
    "service_request": "2023-1052940",
    "request_type": "Trash/Recycling",
    "request_reason": "Return Trash Cart",
    "date_created": "2023-11-30T15:47:23.000",
    "date_modified": "2023-11-30T15:47:24.000",
    "request_status": "Pending",
    "responsible_agency": "Department of Sanitation",
    "final_address": "1225 Desire St",
    "address_councildis": "C",
    "status": "Assigned to Contractor",
    "contractor": "IV Waste",
    "rowid": "1052940",
    "final_x": "3690356.61443",
    "final_y": "536271.912775",
    "longitude": "-90.03993504742822",
    "latitude": "29.96828990481821",
    "geocoded_column": {
      "latitude": "29.96828990481821",
      "longitude": "-90.03993504742822"
    }
  },
  {
    "service_request": "2023-1052939",
    "request_type": "Traffic Signals/Signs/Striping/Streetlights",
    "request_reason": "Street Name Sign Damaged or Missing",
    "date_created": "2023-11-30T15:42:47.000",
    "date_modified": "2023-11-30T15:42:47.000",
    "request_status": "Pending",
    "responsible_agency": "Department of Public Works",
    "final_address": "MAYO RD & MORRISON RD",
    "address_councildis": "E",
    "status": "Pending",
    "rowid": "1052939",
    "final_x": "3701154.7",
    "final_y": "559646.78",
    "longitude": "-90.00497867630587",
    "latitude": "30.03222248395621",
    "geocoded_column": {
      "latitude": "30.03222248395621",
      "longitude": "-90.00497867630587"
    }
  },
  {
    "service_request": "2023-1052938",
    "request_type": "Parks & Parkways",
    "request_reason": "Request Tree Service (Right of Way/Public Property)",
    "date_created": "2023-11-30T15:41:10.000",
    "date_modified": "2023-11-30T15:41:10.000",
    "request_status": "Pending",
    "responsible_agency": "Department of Parks & Parkway",
    "final_address": "2619 Somerset Dr",
    "address_councildis": "C",
    "status": "Pending",
    "rowid": "1052938",
    "final_x": "3702818.64478",
    "final_y": "521350.081401",
    "longitude": "-90.00112756556139",
    "latitude": "29.926867482147255",
    "geocoded_column": {
      "latitude": "29.926867482147255",
      "longitude": "-90.00112756556139"
    }
  },
  {
    "service_request": "2023-1052937",
    "request_type": "Property Maintenance",
    "request_reason": "Property Maintenance",
    "date_created": "2023-11-30T15:39:44.000",
    "date_modified": "2023-11-30T15:39:45.000",
    "request_status": "Pending",
    "responsible_agency": "Department of Code Enforcement",
    "final_address": "9408 Hayne Blvd",
    "address_councildis": "E",
    "status": "Pending",
    "rowid": "1052937",
    "final_x": "3705726.99934",
    "final_y": "564772.670946",
    "longitude": "-89.99034016113903",
    "latitude": "30.046170120256388",
    "geocoded_column": {
      "latitude": "30.046170120256388",
      "longitude": "-89.99034016113903"
    }
  },
  {
    "service_request": "2023-1052936",
    "request_type": "Trash/Recycling",
    "request_reason": "Request a Large Item Pick Up",
    "date_created": "2023-11-30T15:38:04.000",
    "date_modified": "2023-11-30T15:38:04.000",
    "request_status": "Pending",
    "responsible_agency": "Department of Sanitation",
    "final_address": "7315 Ebbtide Dr",
    "address_councildis": "E",
    "status": "Assigned to Contractor",
    "contractor": "Waste Pro",
    "rowid": "1052936",
    "final_x": "3702619.54129",
    "final_y": "560583.791518",
    "longitude": "-90.0003152627618",
    "latitude": "30.034752125907602",
    "geocoded_column": {
      "latitude": "30.034752125907602",
      "longitude": "-90.0003152627618"
    }
  },
  {
    "service_request": "2023-1052935",
    "request_type": "Trash/Recycling",
    "request_reason": "Missed Trash Pick-Up",
    "date_created": "2023-11-30T15:36:26.000",
    "date_modified": "2023-11-30T15:36:26.000",
    "request_status": "Pending",
    "responsible_agency": "Department of Sanitation",
    "final_address": "5818 Hamlin St",
    "address_councildis": "E",
    "status": "Assigned to Contractor",
    "contractor": "Waste Pro",
    "rowid": "1052935",
    "final_x": "3700608.98807",
    "final_y": "539264.30593",
    "longitude": "-90.00744845797504",
    "latitude": "29.976195712590414",
    "geocoded_column": {
      "latitude": "29.976195712590414",
      "longitude": "-90.00744845797504"
    }
  },
  {
    "service_request": "2023-1052934",
    "request_type": "Trash/Recycling",
    "request_reason": "Request a Large Item Pick Up",
    "date_created": "2023-11-30T15:36:15.000",
    "date_modified": "2023-11-30T15:36:16.000",
    "request_status": "Pending",
    "responsible_agency": "Department of Sanitation",
    "final_address": "5423 Music St",
    "address_councildis": "D",
    "status": "Assigned to Contractor",
    "contractor": "IV Waste",
    "rowid": "1052934",
    "final_x": "3685559.81634",
    "final_y": "553027.298263",
    "longitude": "-90.05449295959745",
    "latitude": "30.014509243470567",
    "geocoded_column": {
      "latitude": "30.014509243470567",
      "longitude": "-90.05449295959745"
    }
  },
  {
    "service_request": "2023-1052933",
    "request_type": "Trash/Recycling",
    "request_reason": "Request a Large Item Pick Up",
    "date_created": "2023-11-30T15:27:50.000",
    "date_modified": "2023-11-30T15:27:51.000",
    "request_status": "Pending",
    "responsible_agency": "Department of Sanitation",
    "final_address": "4541 Bonita Dr",
    "address_councildis": "E",
    "status": "Assigned to Contractor",
    "contractor": "Waste Pro",
    "rowid": "1052933",
    "final_x": "3704653.45361",
    "final_y": "554006.61596",
    "longitude": "-89.99413076909279",
    "latitude": "30.01660222780017",
    "geocoded_column": {
      "latitude": "30.01660222780017",
      "longitude": "-89.99413076909279"
    }
  },
  {
    "service_request": "2023-1052932",
    "request_type": "Trash/Recycling",
    "request_reason": "Replace Recycling Cart",
    "date_created": "2023-11-30T15:24:55.000",
    "date_modified": "2023-11-30T15:24:56.000",
    "request_status": "Pending",
    "responsible_agency": "Department of Sanitation",
    "final_address": "2707 Carondelet St",
    "address_councildis": "B",
    "status": "Pending",
    "rowid": "1052932",
    "final_x": "3675892.09678",
    "final_y": "523017.576059",
    "longitude": "-90.08607031857464",
    "latitude": "29.932285901384283",
    "geocoded_column": {
      "latitude": "29.932285901384283",
      "longitude": "-90.08607031857464"
    }
  },
  {
    "service_request": "2023-1052931",
    "request_type": "Trash/Recycling",
    "request_reason": "Replace Trash Cart",
    "date_created": "2023-11-30T15:23:47.000",
    "date_modified": "2023-11-30T15:23:48.000",
    "request_status": "Pending",
    "responsible_agency": "Department of Sanitation",
    "final_address": "2707 Carondelet St",
    "address_councildis": "B",
    "status": "Assigned to Contractor",
    "contractor": "Richards Disposal",
    "rowid": "1052931",
    "final_x": "3675892.09678",
    "final_y": "523017.576059",
    "longitude": "-90.08607031857464",
    "latitude": "29.932285901384283",
    "geocoded_column": {
      "latitude": "29.932285901384283",
      "longitude": "-90.08607031857464"
    }
  },
  {
    "service_request": "2023-1052930",
    "request_type": "Trash/Recycling",
    "request_reason": "Repair Trash Cart",
    "date_created": "2023-11-30T15:15:57.000",
    "date_modified": "2023-11-30T15:15:58.000",
    "request_status": "Pending",
    "responsible_agency": "Department of Sanitation",
    "final_address": "9524 Stroelitz St",
    "address_councildis": "A",
    "status": "Assigned to Contractor",
    "contractor": "Richards Disposal",
    "rowid": "1052930",
    "final_x": "3664126.50996",
    "final_y": "538369.857865",
    "longitude": "-90.12270126882902",
    "latitude": "29.97484660571236",
    "geocoded_column": {
      "latitude": "29.97484660571236",
      "longitude": "-90.12270126882902"
    }
  },
  {
    "service_request": "2023-1052929",
    "request_type": "Trash/Recycling",
    "request_reason": "MIssed Recycling Pick-Up",
    "date_created": "2023-11-30T15:14:38.000",
    "date_modified": "2023-11-30T15:14:39.000",
    "request_status": "Pending",
    "responsible_agency": "Department of Sanitation",
    "final_address": "6787 Deanne St",
    "address_councildis": "D",
    "status": "Assigned to Contractor",
    "contractor": "Waste Pro",
    "rowid": "1052929",
    "final_x": "3695912.3032",
    "final_y": "555893.526937",
    "longitude": "-90.02168069752959",
    "latitude": "30.022068532640876",
    "geocoded_column": {
      "latitude": "30.022068532640876",
      "longitude": "-90.02168069752959"
    }
  },
  {
    "service_request": "2023-1052927",
    "request_type": "Parks & Parkways",
    "request_reason": "Request Tree Service (Right of Way/Public Property)",
    "date_created": "2023-11-30T15:05:39.000",
    "date_modified": "2023-11-30T15:05:39.000",
    "request_status": "Pending",
    "responsible_agency": "Department of Parks & Parkway",
    "final_address": "1247 Hagan St",
    "address_councildis": "A",
    "status": "Pending",
    "rowid": "1052927",
    "final_x": "3675642.68846",
    "final_y": "540022.109771",
    "longitude": "-90.08627344015109",
    "latitude": "29.979050146030538",
    "geocoded_column": {
      "latitude": "29.979050146030538",
      "longitude": "-90.08627344015109"
    }
  },
  {
    "service_request": "2023-1052926",
    "request_type": "Trash/Recycling",
    "request_reason": "Return Trash Cart",
    "date_created": "2023-11-30T15:04:31.000",
    "date_modified": "2023-11-30T15:04:31.000",
    "request_status": "Pending",
    "responsible_agency": "Department of Sanitation",
    "final_address": "5017 S Liberty St",
    "address_councildis": "B",
    "status": "Assigned to Contractor",
    "contractor": "Richards Disposal",
    "rowid": "1052926",
    "final_x": "3668642.7835",
    "final_y": "523253.604155",
    "longitude": "-90.10894782722583",
    "latitude": "29.933149888593128",
    "geocoded_column": {
      "latitude": "29.933149888593128",
      "longitude": "-90.10894782722583"
    }
  },
  {
    "service_request": "2023-1052925",
    "request_type": "Trash/Recycling",
    "request_reason": "Missed Trash Pick-Up",
    "date_created": "2023-11-30T15:00:10.000",
    "date_modified": "2023-11-30T15:00:11.000",
    "request_status": "Pending",
    "responsible_agency": "Department of Sanitation",
    "final_address": "3800 Virgil Blvd",
    "address_councildis": "D",
    "status": "Assigned to Contractor",
    "contractor": "IV Waste",
    "rowid": "1052925",
    "final_x": "3680558.95957",
    "final_y": "546500.607633",
    "longitude": "-90.0705204640828",
    "latitude": "29.996715702641783",
    "geocoded_column": {
      "latitude": "29.996715702641783",
      "longitude": "-90.0705204640828"
    }
  },
  {
    "service_request": "2023-1052924",
    "request_type": "Trash/Recycling",
    "request_reason": "MIssed Recycling Pick-Up",
    "date_created": "2023-11-30T14:59:29.000",
    "date_modified": "2023-11-30T14:59:30.000",
    "request_status": "Pending",
    "responsible_agency": "Department of Sanitation",
    "final_address": "5670 New England Dr",
    "address_councildis": "E",
    "status": "Assigned to Contractor",
    "contractor": "Waste Pro",
    "rowid": "1052924",
    "final_x": "3723553.15507",
    "final_y": "564478.714849",
    "longitude": "-89.9340125325536",
    "latitude": "30.04477532708266",
    "geocoded_column": {
      "latitude": "30.04477532708266",
      "longitude": "-89.9340125325536"
    }
  },
  {
    "service_request": "2023-1052923",
    "request_type": "Trash/Recycling",
    "request_reason": "Missed Trash Pick-Up",
    "date_created": "2023-11-30T14:57:40.000",
    "date_modified": "2023-11-30T14:57:41.000",
    "request_status": "Pending",
    "responsible_agency": "Department of Sanitation",
    "final_address": "2621 Fats Domino Ave",
    "address_councildis": "E",
    "status": "Assigned to Contractor",
    "contractor": "Waste Pro",
    "rowid": "1052923",
    "final_x": "3699695.32874",
    "final_y": "539553.356234",
    "longitude": "-90.01032350474644",
    "latitude": "29.977019534260414",
    "geocoded_column": {
      "latitude": "29.977019534260414",
      "longitude": "-90.01032350474644"
    }
  },
  {
    "service_request": "2023-1052922",
    "request_type": "Trash/Recycling",
    "request_reason": "Request a Large Item Pick Up",
    "date_created": "2023-11-30T14:57:21.000",
    "date_modified": "2023-11-30T14:57:22.000",
    "request_status": "Pending",
    "responsible_agency": "Department of Sanitation",
    "final_address": "221 N Alexander St",
    "address_councildis": "A",
    "status": "Assigned to Contractor",
    "contractor": "Richards Disposal",
    "rowid": "1052922",
    "final_x": "3670311.76058",
    "final_y": "539701.24225",
    "longitude": "-90.10312149011716",
    "latitude": "29.978326322848872",
    "geocoded_column": {
      "latitude": "29.978326322848872",
      "longitude": "-90.10312149011716"
    }
  },
  {
    "service_request": "2023-1052921",
    "request_type": "Trash/Recycling",
    "request_reason": "Missed Trash Pick-Up",
    "date_created": "2023-11-30T14:56:48.000",
    "date_modified": "2023-11-30T14:56:48.000",
    "request_status": "Pending",
    "responsible_agency": "Department of Sanitation",
    "final_address": "3923 Tchoupitoulas St",
    "address_councildis": "B",
    "status": "Assigned to Contractor",
    "contractor": "Richards Disposal",
    "rowid": "1052921",
    "final_x": "3673215.28942",
    "final_y": "517720.915702",
    "longitude": "-90.09470151386837",
    "latitude": "29.91780163239496",
    "geocoded_column": {
      "latitude": "29.91780163239496",
      "longitude": "-90.09470151386837"
    }
  },
  {
    "service_request": "2023-1052920",
    "request_type": "Roads/Drainage",
    "request_reason": "Road Shoulder Repair",
    "date_created": "2023-11-30T14:56:19.000",
    "date_modified": "2023-11-30T14:56:19.000",
    "request_status": "Pending",
    "responsible_agency": "Department of Public Works",
    "final_address": "2102 Dublin St",
    "address_councildis": "A",
    "status": "Pending",
    "rowid": "1052920",
    "final_x": "3663838.35571",
    "final_y": "531015.046082",
    "longitude": "-90.12385652100544",
    "latitude": "29.95463165544035",
    "geocoded_column": {
      "latitude": "29.95463165544035",
      "longitude": "-90.12385652100544"
    }
  },
  {
    "service_request": "2023-1052919",
    "request_type": "Trash/Recycling",
    "request_reason": "Request a Large Item Pick Up",
    "date_created": "2023-11-30T14:55:21.000",
    "date_modified": "2023-11-30T15:46:34.000",
    "case_close_date": "2023-11-30T09:46:34.000",
    "request_status": "Closed",
    "responsible_agency": "Department of Sanitation",
    "final_address": "1830 N Roman St",
    "address_councildis": "D",
    "status": "Assigned to Contractor",
    "contractor": "IV Waste",
    "contractor_action": "Completed",
    "rowid": "1052919",
    "final_x": "3683220.68328",
    "final_y": "538721.219017",
    "longitude": "-90.0623848143535",
    "latitude": "29.975244199101365",
    "geocoded_column": {
      "latitude": "29.975244199101365",
      "longitude": "-90.0623848143535"
    }
  },
  {
    "service_request": "2023-1052918",
    "request_type": "Trash/Recycling",
    "request_reason": "Order Recycling Cart",
    "date_created": "2023-11-30T14:52:36.000",
    "date_modified": "2023-11-30T14:52:37.000",
    "request_status": "Pending",
    "responsible_agency": "Department of Sanitation",
    "final_address": "11312 Midpoint Dr",
    "address_councildis": "E",
    "status": "Pending",
    "rowid": "1052918",
    "final_x": "3718726.69369",
    "final_y": "559635.258333",
    "longitude": "-89.94945109046446",
    "latitude": "30.031618973087294",
    "geocoded_column": {
      "latitude": "30.031618973087294",
      "longitude": "-89.94945109046446"
    }
  },
  {
    "service_request": "2023-1052917",
    "request_type": "Trash/Recycling",
    "request_reason": "Request a Large Item Pick Up",
    "date_created": "2023-11-30T14:51:39.000",
    "date_modified": "2023-11-30T14:51:40.000",
    "request_status": "Pending",
    "responsible_agency": "Department of Sanitation",
    "final_address": "4746 Friar Tuck Dr",
    "address_councildis": "E",
    "status": "Assigned to Contractor",
    "contractor": "Waste Pro",
    "rowid": "1052917",
    "final_x": "3717674.38322",
    "final_y": "557003.804826",
    "longitude": "-89.95287658525032",
    "latitude": "30.024418434116864",
    "geocoded_column": {
      "latitude": "30.024418434116864",
      "longitude": "-89.95287658525032"
    }
  },
  {
    "service_request": "2023-1052916",
    "request_type": "Trash/Recycling",
    "request_reason": "Request a Large Item Pick Up",
    "date_created": "2023-11-30T14:50:36.000",
    "date_modified": "2023-11-30T14:50:37.000",
    "request_status": "Pending",
    "responsible_agency": "Department of Sanitation",
    "final_address": "514 Flood St",
    "address_councildis": "E",
    "status": "Assigned to Contractor",
    "contractor": "Waste Pro",
    "rowid": "1052916",
    "final_x": "3697111.98583",
    "final_y": "531829.665923",
    "longitude": "-90.01876234576332",
    "latitude": "29.95586390382578",
    "geocoded_column": {
      "latitude": "29.95586390382578",
      "longitude": "-90.01876234576332"
    }
  },
  {
    "service_request": "2023-1052915",
    "request_type": "Roads/Drainage",
    "request_reason": "Pothole",
    "date_created": "2023-11-30T14:49:11.000",
    "date_modified": "2023-11-30T14:49:11.000",
    "request_status": "Pending",
    "responsible_agency": "Department of Public Works",
    "final_address": "1680 Soniat St",
    "address_councildis": "B",
    "status": "Pending",
    "rowid": "1052915",
    "final_x": "3668349.00737",
    "final_y": "521667.044793",
    "longitude": "-90.1099287389294",
    "latitude": "29.9287959849899",
    "geocoded_column": {
      "latitude": "29.9287959849899",
      "longitude": "-90.1099287389294"
    }
  },
  {
    "service_request": "2023-1052914",
    "request_type": "Trash/Recycling",
    "request_reason": "Request a Large Item Pick Up",
    "date_created": "2023-11-30T14:38:14.000",
    "date_modified": "2023-11-30T14:38:15.000",
    "request_status": "Pending",
    "responsible_agency": "Department of Sanitation",
    "final_address": "4911 St Claude Ave",
    "address_councildis": "E",
    "status": "Assigned to Contractor",
    "contractor": "Waste Pro",
    "rowid": "1052914",
    "final_x": "3695526.90326",
    "final_y": "534490.860613",
    "longitude": "-90.0236714138403",
    "latitude": "29.963231158057482",
    "geocoded_column": {
      "latitude": "29.963231158057482",
      "longitude": "-90.0236714138403"
    }
  },
  {
    "service_request": "2023-1052913",
    "request_type": "Trash/Recycling",
    "request_reason": "Request a Large Item Pick Up",
    "date_created": "2023-11-30T14:30:20.000",
    "date_modified": "2023-11-30T14:30:21.000",
    "request_status": "Pending",
    "responsible_agency": "Department of Sanitation",
    "final_address": "4911 St Claude Ave",
    "address_councildis": "E",
    "status": "Assigned to Contractor",
    "contractor": "Waste Pro",
    "rowid": "1052913",
    "final_x": "3695526.90326",
    "final_y": "534490.860613",
    "longitude": "-90.0236714138403",
    "latitude": "29.963231158057482",
    "geocoded_column": {
      "latitude": "29.963231158057482",
      "longitude": "-90.0236714138403"
    }
  },
  {
    "service_request": "2023-1052912",
    "request_type": "Trash/Recycling",
    "request_reason": "Order Trash Cart",
    "date_created": "2023-11-30T14:27:18.000",
    "date_modified": "2023-11-30T14:27:18.000",
    "request_status": "Pending",
    "responsible_agency": "Department of Sanitation",
    "final_address": "4748 Shalimar Dr",
    "address_councildis": "D",
    "status": "Assigned to Contractor",
    "contractor": "Waste Pro",
    "rowid": "1052912",
    "final_x": "3697076.5672",
    "final_y": "554321.803544",
    "longitude": "-90.01805894323192",
    "latitude": "30.01771019180384",
    "geocoded_column": {
      "latitude": "30.01771019180384",
      "longitude": "-90.01805894323192"
    }
  },
  {
    "service_request": "2023-1052911",
    "request_type": "Trash/Recycling",
    "request_reason": "Request a Large Item Pick Up",
    "date_created": "2023-11-30T14:21:45.000",
    "date_modified": "2023-11-30T14:21:45.000",
    "request_status": "Pending",
    "responsible_agency": "Department of Sanitation",
    "final_address": "2711 Peniston St",
    "address_councildis": "B",
    "status": "Assigned to Contractor",
    "contractor": "Richards Disposal",
    "rowid": "1052911",
    "final_x": "3671988.82247",
    "final_y": "525027.260733",
    "longitude": "-90.09832423298423",
    "latitude": "29.937928134007134",
    "geocoded_column": {
      "latitude": "29.937928134007134",
      "longitude": "-90.09832423298423"
    }
  },
  {
    "service_request": "2023-1052910",
    "request_type": "Trash/Recycling",
    "request_reason": "Replace Trash Cart",
    "date_created": "2023-11-30T14:19:41.000",
    "date_modified": "2023-11-30T14:19:42.000",
    "request_status": "Pending",
    "responsible_agency": "Department of Sanitation",
    "final_address": "1452 N Roman St",
    "address_councildis": "D",
    "status": "Assigned to Contractor",
    "contractor": "IV Waste",
    "rowid": "1052910",
    "final_x": "3681024.1188",
    "final_y": "537401.7282",
    "longitude": "-90.06936811211833",
    "latitude": "29.971682865141574",
    "geocoded_column": {
      "latitude": "29.971682865141574",
      "longitude": "-90.06936811211833"
    }
  },
  {
    "service_request": "2023-1052909",
    "request_type": "Trash/Recycling",
    "request_reason": "Order Recycling Cart",
    "date_created": "2023-11-30T14:17:51.000",
    "date_modified": "2023-11-30T14:17:51.000",
    "request_status": "Pending",
    "responsible_agency": "Department of Sanitation",
    "final_address": "2618 Gordon St",
    "address_councildis": "E",
    "status": "Pending",
    "rowid": "1052909",
    "final_x": "3701345.15044",
    "final_y": "538971.898186",
    "longitude": "-90.00513416087354",
    "latitude": "29.975368254751142",
    "geocoded_column": {
      "latitude": "29.975368254751142",
      "longitude": "-90.00513416087354"
    }
  },
  {
    "service_request": "2023-1052908",
    "request_type": "Trash/Recycling",
    "request_reason": "Request a Large Item Pick Up",
    "date_created": "2023-11-30T14:17:12.000",
    "date_modified": "2023-11-30T14:17:13.000",
    "request_status": "Pending",
    "responsible_agency": "Department of Sanitation",
    "final_address": "6221 Cameron Blvd",
    "address_councildis": "D",
    "status": "Assigned to Contractor",
    "contractor": "IV Waste",
    "rowid": "1052908",
    "final_x": "3682275.3156",
    "final_y": "555942.456857",
    "longitude": "-90.0647683876074",
    "latitude": "30.022625249396786",
    "geocoded_column": {
      "latitude": "30.022625249396786",
      "longitude": "-90.0647683876074"
    }
  },
  {
    "service_request": "2023-1052907",
    "request_type": "Trash/Recycling",
    "request_reason": "Illegal Dumping",
    "date_created": "2023-11-30T14:16:59.000",
    "date_modified": "2023-11-30T14:16:59.000",
    "request_status": "Pending",
    "responsible_agency": "Department of Sanitation",
    "final_address": "2642 Gordon St",
    "address_councildis": "E",
    "status": "Pending",
    "rowid": "1052907",
    "final_x": "3701414.46685",
    "final_y": "539142.209674",
    "longitude": "-90.0049090065503",
    "latitude": "29.975834339872655",
    "geocoded_column": {
      "latitude": "29.975834339872655",
      "longitude": "-90.0049090065503"
    }
  },
  {
    "service_request": "2023-1052905",
    "request_type": "Trash/Recycling",
    "request_reason": "Request a Large Item Pick Up",
    "date_created": "2023-11-30T14:13:02.000",
    "date_modified": "2023-11-30T14:13:03.000",
    "request_status": "Pending",
    "responsible_agency": "Department of Sanitation",
    "final_address": "2618 Gordon St",
    "address_councildis": "E",
    "status": "Assigned to Contractor",
    "contractor": "Waste Pro",
    "rowid": "1052905",
    "final_x": "3701345.15044",
    "final_y": "538971.898186",
    "longitude": "-90.00513416087354",
    "latitude": "29.975368254751142",
    "geocoded_column": {
      "latitude": "29.975368254751142",
      "longitude": "-90.00513416087354"
    }
  },
  {
    "service_request": "2023-1052904",
    "request_type": "Trash/Recycling",
    "request_reason": "Request a Large Item Pick Up",
    "date_created": "2023-11-30T14:12:51.000",
    "date_modified": "2023-11-30T14:12:52.000",
    "request_status": "Pending",
    "responsible_agency": "Department of Sanitation",
    "final_address": "1730 Flood St",
    "address_councildis": "E",
    "status": "Assigned to Contractor",
    "contractor": "Waste Pro",
    "rowid": "1052904",
    "final_x": "3698333.66711",
    "final_y": "536335.430407",
    "longitude": "-90.0147409986848",
    "latitude": "29.96821455696794",
    "geocoded_column": {
      "latitude": "29.96821455696794",
      "longitude": "-90.0147409986848"
    }
  },
  {
    "service_request": "2023-1052903",
    "request_type": "Traffic Signals/Signs/Striping/Streetlights",
    "request_reason": "Street Light Outage/Malfunction",
    "date_created": "2023-11-30T14:11:37.000",
    "date_modified": "2023-11-30T14:11:38.000",
    "request_status": "Pending",
    "responsible_agency": "Department of Public Works",
    "final_address": "3500 Inwood Ave",
    "address_councildis": "C",
    "status": "Assigned to Contractor",
    "contractor": "Legacy Professional Services",
    "rowid": "1052903",
    "final_x": "3703198.0641",
    "final_y": "515335.946868",
    "longitude": "-90.00015073824078",
    "latitude": "29.9103185469102",
    "geocoded_column": {
      "latitude": "29.9103185469102",
      "longitude": "-90.00015073824078"
    }
  },
  {
    "service_request": "2023-1052902",
    "request_type": "Roads/Drainage",
    "request_reason": "Pothole",
    "date_created": "2023-11-30T14:11:20.000",
    "date_modified": "2023-11-30T14:11:20.000",
    "request_status": "Pending",
    "responsible_agency": "Department of Public Works",
    "final_address": "1514 Dufossat St",
    "address_councildis": "B",
    "status": "Pending",
    "rowid": "1052902",
    "final_x": "3668008.28295",
    "final_y": "520557.524344",
    "longitude": "-90.11104170201737",
    "latitude": "29.9257551546516",
    "geocoded_column": {
      "latitude": "29.9257551546516",
      "longitude": "-90.11104170201737"
    }
  },
  {
    "service_request": "2023-1052901",
    "request_type": "Roads/Drainage",
    "request_reason": "Pothole",
    "date_created": "2023-11-30T14:11:19.000",
    "date_modified": "2023-11-30T14:11:19.000",
    "request_status": "Pending",
    "responsible_agency": "Department of Public Works",
    "final_address": "1514 Dufossat St",
    "address_councildis": "B",
    "status": "Pending",
    "rowid": "1052901",
    "final_x": "3668008.28295",
    "final_y": "520557.524344",
    "longitude": "-90.11104170201737",
    "latitude": "29.9257551546516",
    "geocoded_column": {
      "latitude": "29.9257551546516",
      "longitude": "-90.11104170201737"
    }
  },
  {
    "service_request": "2023-1052900",
    "request_type": "Property Maintenance",
    "request_reason": "Property Maintenance",
    "date_created": "2023-11-30T14:11:03.000",
    "date_modified": "2023-11-30T14:11:04.000",
    "request_status": "Pending",
    "responsible_agency": "Department of Code Enforcement",
    "final_address": "4964 Tulip St",
    "address_councildis": "E",
    "status": "Pending",
    "rowid": "1052900",
    "final_x": "3701900.18205",
    "final_y": "555565.948441",
    "longitude": "-90.0027726637043",
    "latitude": "30.020977988292646",
    "geocoded_column": {
      "latitude": "30.020977988292646",
      "longitude": "-90.0027726637043"
    }
  },
  {
    "service_request": "2023-1052899",
    "request_type": "Abandoned Vehicles",
    "request_reason": "Abandoned/Junk Vehicles",
    "date_created": "2023-11-30T14:08:59.000",
    "date_modified": "2023-11-30T14:12:31.000",
    "request_status": "Pending",
    "responsible_agency": "Department of Public Works",
    "final_address": "KERLEREC ST & N PRIEUR ST",
    "address_councildis": "D",
    "status": "Pending",
    "rowid": "1052899",
    "final_x": "3680659.6",
    "final_y": "537547.28",
    "longitude": "-90.07051425142005",
    "latitude": "29.972094133660182",
    "geocoded_column": {
      "latitude": "29.972094133660182",
      "longitude": "-90.07051425142005"
    }
  },
  {
    "service_request": "2023-1052898",
    "request_type": "Traffic Signals/Signs/Striping/Streetlights",
    "request_reason": "Street Light Outage/Malfunction",
    "date_created": "2023-11-30T14:07:21.000",
    "date_modified": "2023-11-30T14:07:22.000",
    "request_status": "Pending",
    "responsible_agency": "Department of Public Works",
    "final_address": "3532 Inwood Ave",
    "address_councildis": "C",
    "status": "Assigned to Contractor",
    "contractor": "Legacy Professional Services",
    "rowid": "1052898",
    "final_x": "3703414.06724",
    "final_y": "515332.809588",
    "longitude": "-89.99946910714138",
    "latitude": "29.91030300824209",
    "geocoded_column": {
      "latitude": "29.91030300824209",
      "longitude": "-89.99946910714138"
    }
  },
  {
    "service_request": "2023-1052897",
    "request_type": "Trash/Recycling",
    "request_reason": "MIssed Recycling Pick-Up",
    "date_created": "2023-11-30T14:04:14.000",
    "date_modified": "2023-11-30T14:04:45.000",
    "request_status": "Pending",
    "responsible_agency": "Department of Sanitation",
    "final_address": "915 Thalia St",
    "address_councildis": "B",
    "status": "Assigned to Contractor",
    "contractor": "Richards Disposal",
    "rowid": "1052897",
    "final_x": "3681195.47324",
    "final_y": "525113.379773",
    "longitude": "-90.06925507965235",
    "latitude": "29.93788886923079",
    "geocoded_column": {
      "latitude": "29.93788886923079",
      "longitude": "-90.06925507965235"
    }
  },
  {
    "service_request": "2023-1052896",
    "request_type": "Parks & Parkways",
    "request_reason": "Request Tree Service (Right of Way/Public Property)",
    "date_created": "2023-11-30T13:59:16.000",
    "date_modified": "2023-11-30T13:59:16.000",
    "request_status": "Pending",
    "responsible_agency": "Department of Parks & Parkway",
    "final_address": "936 Jefferson Ave",
    "address_councildis": "A",
    "status": "Pending",
    "rowid": "1052896",
    "final_x": "3666739.36903",
    "final_y": "519091.074743",
    "longitude": "-90.1150965126446",
    "latitude": "29.921760038521438",
    "geocoded_column": {
      "latitude": "29.921760038521438",
      "longitude": "-90.1150965126446"
    }
  },
  {
    "service_request": "2023-1052895",
    "request_type": "Trash/Recycling",
    "request_reason": "Missed Trash Pick-Up",
    "date_created": "2023-11-30T13:49:51.000",
    "date_modified": "2023-11-30T14:14:58.000",
    "case_close_date": "2023-11-30T08:14:58.000",
    "request_status": "Closed",
    "responsible_agency": "Department of Sanitation",
    "final_address": "6225 Mandeville St",
    "address_councildis": "D",
    "status": "Invalid Request",
    "contractor": "IV Waste",
    "contractor_action": "Invalid Pick-Up",
    "rowid": "1052895",
    "final_x": "3684274.00341",
    "final_y": "556113.206618",
    "longitude": "-90.05844700987609",
    "latitude": "30.02303375407042",
    "geocoded_column": {
      "latitude": "30.02303375407042",
      "longitude": "-90.05844700987609"
    }
  },
  {
    "service_request": "2023-1052894",
    "request_type": "Trash/Recycling",
    "request_reason": "Missed Trash Pick-Up",
    "date_created": "2023-11-30T13:46:28.000",
    "date_modified": "2023-11-30T13:46:29.000",
    "request_status": "Pending",
    "responsible_agency": "Department of Sanitation",
    "final_address": "2501 Somerset Dr",
    "address_councildis": "C",
    "status": "Assigned to Contractor",
    "contractor": "Richards Disposal",
    "rowid": "1052894",
    "final_x": "3702831.7505",
    "final_y": "521853.99161",
    "longitude": "-90.00106769948526",
    "latitude": "29.92825264137434",
    "geocoded_column": {
      "latitude": "29.92825264137434",
      "longitude": "-90.00106769948526"
    }
  },
  {
    "service_request": "2023-1052893",
    "request_type": "Property Maintenance",
    "request_reason": "Property Maintenance",
    "date_created": "2023-11-30T13:43:24.000",
    "date_modified": "2023-11-30T13:43:25.000",
    "request_status": "Pending",
    "responsible_agency": "Department of Code Enforcement",
    "final_address": "2227 Josephine St",
    "address_councildis": "B",
    "status": "Pending",
    "rowid": "1052893",
    "final_x": "3676407.35675",
    "final_y": "525951.961469",
    "longitude": "-90.08434271508013",
    "latitude": "29.940339067731973",
    "geocoded_column": {
      "latitude": "29.940339067731973",
      "longitude": "-90.08434271508013"
    }
  },
  {
    "service_request": "2023-1052892",
    "request_type": "Roads/Drainage",
    "request_reason": "Pothole",
    "date_created": "2023-11-30T13:42:03.000",
    "date_modified": "2023-11-30T13:42:03.000",
    "request_status": "Pending",
    "responsible_agency": "Department of Public Works",
    "final_address": "LAPEYROUSE ST & N ROMAN ST",
    "address_councildis": "D",
    "status": "Pending",
    "rowid": "1052892",
    "final_x": "3681601.5",
    "final_y": "538211.88",
    "longitude": "-90.06751639095073",
    "latitude": "29.973892977060967",
    "geocoded_column": {
      "latitude": "29.973892977060967",
      "longitude": "-90.06751639095073"
    }
  },
  {
    "service_request": "2023-1052891",
    "request_type": "Trash/Recycling",
    "request_reason": "Return Trash Cart",
    "date_created": "2023-11-30T13:30:51.000",
    "date_modified": "2023-11-30T13:30:51.000",
    "request_status": "Pending",
    "responsible_agency": "Department of Sanitation",
    "final_address": "4319 Baudin St",
    "address_councildis": "A",
    "status": "Assigned to Contractor",
    "contractor": "Richards Disposal",
    "rowid": "1052891",
    "final_x": "3669196.84807",
    "final_y": "537808.436808",
    "longitude": "-90.1067067950383",
    "latitude": "29.973154611993422",
    "geocoded_column": {
      "latitude": "29.973154611993422",
      "longitude": "-90.1067067950383"
    }
  },
  {
    "service_request": "2023-1052890",
    "request_type": "Trash/Recycling",
    "request_reason": "MIssed Recycling Pick-Up",
    "date_created": "2023-11-30T13:30:35.000",
    "date_modified": "2023-11-30T17:02:37.000",
    "case_close_date": "2023-11-30T11:02:37.000",
    "request_status": "Closed",
    "responsible_agency": "Department of Sanitation",
    "final_address": "6579 Milne Blvd",
    "address_councildis": "A",
    "status": "Assigned to Contractor",
    "contractor": "IV Waste",
    "contractor_action": "Completed",
    "rowid": "1052890",
    "final_x": "3667534.00858",
    "final_y": "551426.601429",
    "longitude": "-90.11149977761865",
    "latitude": "30.01064874635556",
    "geocoded_column": {
      "latitude": "30.01064874635556",
      "longitude": "-90.11149977761865"
    }
  },
  {
    "service_request": "2023-1052888",
    "request_type": "Property Maintenance",
    "request_reason": "Property Maintenance",
    "date_created": "2023-11-30T13:26:59.000",
    "date_modified": "2023-11-30T13:27:00.000",
    "request_status": "Pending",
    "responsible_agency": "Department of Code Enforcement",
    "final_address": "7811 Windward Ct",
    "address_councildis": "E",
    "status": "Pending",
    "rowid": "1052888",
    "final_x": "3715408.96408",
    "final_y": "570102.188647",
    "longitude": "-89.95953860206139",
    "latitude": "30.060508531279",
    "geocoded_column": {
      "latitude": "30.060508531279",
      "longitude": "-89.95953860206139"
    }
  },
  {
    "service_request": "2023-1052887",
    "request_type": "Trash/Recycling",
    "request_reason": "Missed Trash Pick-Up",
    "date_created": "2023-11-30T13:25:29.000",
    "date_modified": "2023-11-30T13:25:30.000",
    "request_status": "Pending",
    "responsible_agency": "Department of Sanitation",
    "final_address": "6335 N Tonti St",
    "address_councildis": "E",
    "status": "Assigned to Contractor",
    "contractor": "Waste Pro",
    "rowid": "1052887",
    "final_x": "3702026.87633",
    "final_y": "537318.694536",
    "longitude": "-90.00304171991374",
    "latitude": "29.970800799845",
    "geocoded_column": {
      "latitude": "29.970800799845",
      "longitude": "-90.00304171991374"
    }
  },
  {
    "service_request": "2023-1052886",
    "request_type": "Trash/Recycling",
    "request_reason": "Order Trash Cart",
    "date_created": "2023-11-30T13:18:01.000",
    "date_modified": "2023-11-30T13:18:02.000",
    "request_status": "Pending",
    "responsible_agency": "Department of Sanitation",
    "final_address": "8820 Cohn St",
    "address_councildis": "A",
    "status": "Assigned to Contractor",
    "contractor": "Richards Disposal",
    "rowid": "1052886",
    "final_x": "3661635.55866",
    "final_y": "531939.196995",
    "longitude": "-90.13078151136318",
    "latitude": "29.957236521504615",
    "geocoded_column": {
      "latitude": "29.957236521504615",
      "longitude": "-90.13078151136318"
    }
  },
  {
    "service_request": "2023-1052885",
    "request_type": "Abandoned Vehicles",
    "request_reason": "Abandoned/Junk Vehicles",
    "date_created": "2023-11-30T13:17:44.000",
    "date_modified": "2023-11-30T13:17:44.000",
    "request_status": "Pending",
    "responsible_agency": "Department of Public Works",
    "final_address": "2305 Decatur St",
    "address_councildis": "C",
    "status": "Inspected",
    "rowid": "1052885",
    "final_x": "3685642.68156",
    "final_y": "534222.718469",
    "longitude": "-90.05489403272219",
    "latitude": "29.962800797086427",
    "geocoded_column": {
      "latitude": "29.962800797086427",
      "longitude": "-90.05489403272219"
    }
  },
  {
    "service_request": "2023-1052884",
    "request_type": "Abandoned Vehicles",
    "request_reason": "Abandoned/Junk Vehicles",
    "date_created": "2023-11-30T13:17:30.000",
    "date_modified": "2023-11-30T13:17:30.000",
    "request_status": "Pending",
    "responsible_agency": "Department of Public Works",
    "final_address": "7600 Scottwood Dr",
    "address_councildis": "E",
    "status": "Pending",
    "rowid": "1052884",
    "final_x": "3717390.43116",
    "final_y": "570442.852327",
    "longitude": "-89.95326235825206",
    "latitude": "30.061379744552553",
    "geocoded_column": {
      "latitude": "30.061379744552553",
      "longitude": "-89.95326235825206"
    }
  },
  {
    "service_request": "2023-1052883",
    "request_type": "Trash/Recycling",
    "request_reason": "Order Recycling Cart",
    "date_created": "2023-11-30T13:11:03.000",
    "date_modified": "2023-11-30T13:11:32.000",
    "request_status": "Pending",
    "responsible_agency": "Department of Sanitation",
    "final_address": "4346 America St",
    "address_councildis": "E",
    "status": "Pending",
    "rowid": "1052883",
    "final_x": "3699864.49629",
    "final_y": "552947.653975",
    "longitude": "-90.00930040167579",
    "latitude": "30.013843514152054",
    "geocoded_column": {
      "latitude": "30.013843514152054",
      "longitude": "-90.00930040167579"
    }
  },
  {
    "service_request": "2023-1052882",
    "request_type": "Trash/Recycling",
    "request_reason": "Request a Large Item Pick Up",
    "date_created": "2023-11-30T13:10:49.000",
    "date_modified": "2023-11-30T13:10:51.000",
    "request_status": "Pending",
    "responsible_agency": "Department of Sanitation",
    "final_address": "8330 Lomond Rd",
    "address_councildis": "E",
    "status": "Assigned to Contractor",
    "contractor": "Waste Pro",
    "rowid": "1052882",
    "final_x": "3703271.02948",
    "final_y": "561769.138975",
    "longitude": "-89.99821283163604",
    "latitude": "30.03799051147088",
    "geocoded_column": {
      "latitude": "30.03799051147088",
      "longitude": "-89.99821283163604"
    }
  },
  {
    "service_request": "2023-1052881",
    "request_type": "Trash/Recycling",
    "request_reason": "Order Trash Cart",
    "date_created": "2023-11-30T13:10:32.000",
    "date_modified": "2023-11-30T13:10:33.000",
    "request_status": "Pending",
    "responsible_agency": "Department of Sanitation",
    "final_address": "4346 America St",
    "address_councildis": "E",
    "status": "Assigned to Contractor",
    "contractor": "Waste Pro",
    "rowid": "1052881",
    "final_x": "3699864.49629",
    "final_y": "552947.653975",
    "longitude": "-90.00930040167579",
    "latitude": "30.013843514152054",
    "geocoded_column": {
      "latitude": "30.013843514152054",
      "longitude": "-90.00930040167579"
    }
  },
  {
    "service_request": "2023-1052880",
    "request_type": "Trash/Recycling",
    "request_reason": "Order Trash Cart",
    "date_created": "2023-11-30T13:09:40.000",
    "date_modified": "2023-11-30T13:09:41.000",
    "request_status": "Pending",
    "responsible_agency": "Department of Sanitation",
    "final_address": "4346 America St",
    "address_councildis": "E",
    "status": "Assigned to Contractor",
    "contractor": "Waste Pro",
    "rowid": "1052880",
    "final_x": "3699864.49629",
    "final_y": "552947.653975",
    "longitude": "-90.00930040167579",
    "latitude": "30.013843514152054",
    "geocoded_column": {
      "latitude": "30.013843514152054",
      "longitude": "-90.00930040167579"
    }
  },
  {
    "service_request": "2023-1052879",
    "request_type": "Trash/Recycling",
    "request_reason": "MIssed Recycling Pick-Up",
    "date_created": "2023-11-30T13:07:48.000",
    "date_modified": "2023-11-30T13:07:49.000",
    "request_status": "Pending",
    "responsible_agency": "Department of Sanitation",
    "final_address": "917 Thalia St",
    "address_councildis": "B",
    "status": "Assigned to Contractor",
    "contractor": "Richards Disposal",
    "rowid": "1052879",
    "final_x": "3681183.92591",
    "final_y": "525116.528957",
    "longitude": "-90.06929142583014",
    "latitude": "29.937897878712683",
    "geocoded_column": {
      "latitude": "29.937897878712683",
      "longitude": "-90.06929142583014"
    }
  },
  {
    "service_request": "2023-1052878",
    "request_type": "Parks & Parkways",
    "request_reason": "Request Tree Service (Right of Way/Public Property)",
    "date_created": "2023-11-30T13:06:37.000",
    "date_modified": "2023-11-30T13:06:38.000",
    "request_status": "Pending",
    "responsible_agency": "Department of Parks & Parkway",
    "final_address": "3675 Gentilly Blvd",
    "address_councildis": "D",
    "status": "Pending",
    "rowid": "1052878",
    "final_x": "3686800.87209",
    "final_y": "548978.645779",
    "longitude": "-90.0507150295379",
    "latitude": "30.003338783992007",
    "geocoded_column": {
      "latitude": "30.003338783992007",
      "longitude": "-90.0507150295379"
    }
  },
  {
    "service_request": "2023-1052877",
    "request_type": "Trash/Recycling",
    "request_reason": "Return Trash Cart",
    "date_created": "2023-11-30T13:06:33.000",
    "date_modified": "2023-11-30T13:06:34.000",
    "request_status": "Pending",
    "responsible_agency": "Department of Sanitation",
    "final_address": "340 Elmira Ave",
    "address_councildis": "C",
    "status": "Assigned to Contractor",
    "contractor": "Richards Disposal",
    "rowid": "1052877",
    "final_x": "3688272.79503",
    "final_y": "530419.90829",
    "longitude": "-90.04672333726965",
    "latitude": "29.95226343309295",
    "geocoded_column": {
      "latitude": "29.95226343309295",
      "longitude": "-90.04672333726965"
    }
  },
  {
    "service_request": "2023-1052876",
    "request_type": "Trash/Recycling",
    "request_reason": "Request a Large Item Pick Up",
    "date_created": "2023-11-30T12:56:46.000",
    "date_modified": "2023-11-30T12:56:47.000",
    "request_status": "Pending",
    "responsible_agency": "Department of Sanitation",
    "final_address": "1807 Audubon St",
    "address_councildis": "A",
    "status": "Assigned to Contractor",
    "contractor": "Richards Disposal",
    "rowid": "1052876",
    "final_x": "3665679.00461",
    "final_y": "528141.866431",
    "longitude": "-90.11814065656843",
    "latitude": "29.946677792143184",
    "geocoded_column": {
      "latitude": "29.946677792143184",
      "longitude": "-90.11814065656843"
    }
  },
  {
    "service_request": "2023-1052875",
    "request_type": "Abandoned Vehicles",
    "request_reason": "Abandoned/Junk Vehicles",
    "date_created": "2023-11-30T12:56:00.000",
    "date_modified": "2023-11-30T12:56:00.000",
    "request_status": "Pending",
    "responsible_agency": "Department of Public Works",
    "final_address": "2400 BLK N Peters St",
    "address_councildis": "C",
    "status": "Inspected",
    "rowid": "1052875",
    "final_x": "3686150.27202",
    "final_y": "533949.675655",
    "longitude": "-90.05330076301068",
    "latitude": "29.96203444183404",
    "geocoded_column": {
      "latitude": "29.96203444183404",
      "longitude": "-90.05330076301068"
    }
  },
  {
    "service_request": "2023-1052874",
    "request_type": "Property Maintenance",
    "request_reason": "Property Maintenance",
    "date_created": "2023-11-30T12:52:07.000",
    "date_modified": "2023-11-30T12:52:07.000",
    "request_status": "Pending",
    "responsible_agency": "Department of Code Enforcement",
    "final_address": "2525 Pressburg St",
    "address_councildis": "D",
    "status": "Pending",
    "rowid": "1052874",
    "final_x": "3685938.09468",
    "final_y": "554824.423448",
    "longitude": "-90.05323435527293",
    "latitude": "30.01943906243818",
    "geocoded_column": {
      "latitude": "30.01943906243818",
      "longitude": "-90.05323435527293"
    }
  },
  {
    "service_request": "2023-1052873",
    "request_type": "Traffic Signals/Signs/Striping/Streetlights",
    "request_reason": "Street Light Outage/Malfunction",
    "date_created": "2023-11-30T12:48:50.000",
    "date_modified": "2023-11-30T12:48:51.000",
    "request_status": "Pending",
    "responsible_agency": "Department of Public Works",
    "final_address": "3046 Ridgeway Blvd",
    "address_councildis": "E",
    "status": "Assigned to Contractor",
    "contractor": "Legacy Professional Services",
    "rowid": "1052873",
    "final_x": "3744381.95336",
    "final_y": "596803.332351",
    "longitude": "-89.86687775423142",
    "latitude": "30.132937472791802",
    "geocoded_column": {
      "latitude": "30.132937472791802",
      "longitude": "-89.86687775423142"
    }
  },
  {
    "service_request": "2023-1052872",
    "request_type": "Trash/Recycling",
    "request_reason": "Request a Large Item Pick Up",
    "date_created": "2023-11-30T12:45:52.000",
    "date_modified": "2023-11-30T12:45:53.000",
    "request_status": "Pending",
    "responsible_agency": "Department of Sanitation",
    "final_address": "620 Congress St",
    "address_councildis": "C",
    "status": "Assigned to Contractor",
    "contractor": "IV Waste",
    "rowid": "1052872",
    "final_x": "3690270.05046",
    "final_y": "533900.693637",
    "longitude": "-90.04029292342726",
    "latitude": "29.9617725690235",
    "geocoded_column": {
      "latitude": "29.9617725690235",
      "longitude": "-90.04029292342726"
    }
  },
  {
    "service_request": "2023-1052871",
    "request_type": "Roads/Drainage",
    "request_reason": "Pothole",
    "date_created": "2023-11-30T12:42:47.000",
    "date_modified": "2023-11-30T12:42:47.000",
    "request_status": "Pending",
    "responsible_agency": "Department of Public Works",
    "final_address": "4200 Perrier St",
    "address_councildis": "B",
    "status": "Pending",
    "rowid": "1052871",
    "final_x": "3671579.76411",
    "final_y": "520095.16844",
    "longitude": "-90.09978329705561",
    "latitude": "29.924378584144126",
    "geocoded_column": {
      "latitude": "29.924378584144126",
      "longitude": "-90.09978329705561"
    }
  },
  {
    "service_request": "2023-1052870",
    "request_type": "Traffic Signals/Signs/Striping/Streetlights",
    "request_reason": "Additional signage",
    "date_created": "2023-11-30T12:41:17.000",
    "date_modified": "2023-11-30T12:41:18.000",
    "request_status": "Pending",
    "responsible_agency": "Department of Public Works",
    "final_address": "DREUX AVE & CORINNE ST",
    "address_councildis": "E",
    "status": "Pending",
    "rowid": "1052870",
    "final_x": "3715124.3",
    "final_y": "555995.28",
    "longitude": "-89.96097247057045",
    "latitude": "30.021729618586303",
    "geocoded_column": {
      "latitude": "30.021729618586303",
      "longitude": "-89.96097247057045"
    }
  },
  {
    "service_request": "2023-1052869",
    "request_type": "Trash/Recycling",
    "request_reason": "Missed Trash Pick-Up",
    "date_created": "2023-11-30T12:37:58.000",
    "date_modified": "2023-11-30T12:37:58.000",
    "request_status": "Pending",
    "responsible_agency": "Department of Sanitation",
    "final_address": "7901 Haney Dr",
    "address_councildis": "E",
    "status": "Assigned to Contractor",
    "contractor": "Waste Pro",
    "rowid": "1052869",
    "final_x": "3712126.80958",
    "final_y": "568037.545189",
    "longitude": "-89.96999092408602",
    "latitude": "30.0549393984319",
    "geocoded_column": {
      "latitude": "30.0549393984319",
      "longitude": "-89.96999092408602"
    }
  },
  {
    "service_request": "2023-1052868",
    "request_type": "Trash/Recycling",
    "request_reason": "Missed Trash Pick-Up",
    "date_created": "2023-11-30T12:36:15.000",
    "date_modified": "2023-11-30T12:36:15.000",
    "request_status": "Pending",
    "responsible_agency": "Department of Sanitation",
    "final_address": "11700 BLK Morrison Rd",
    "address_councildis": "E",
    "status": "Assigned to Contractor",
    "contractor": "Waste Pro",
    "rowid": "1052868",
    "final_x": "3713384.86847",
    "final_y": "566462.699539",
    "longitude": "-89.96607390383481",
    "latitude": "30.050567997720172",
    "geocoded_column": {
      "latitude": "30.050567997720172",
      "longitude": "-89.96607390383481"
    }
  },
  {
    "service_request": "2023-1052867",
    "request_type": "Traffic Signals/Signs/Striping/Streetlights",
    "request_reason": "Traffic Sign Missing/Damaged",
    "date_created": "2023-11-30T12:35:14.000",
    "date_modified": "2023-11-30T12:35:15.000",
    "request_status": "Pending",
    "responsible_agency": "Department of Public Works",
    "final_address": "DREUX AVE & CORINNE ST",
    "address_councildis": "E",
    "status": "Pending",
    "rowid": "1052867",
    "final_x": "3715124.3",
    "final_y": "555995.28",
    "longitude": "-89.96097247057045",
    "latitude": "30.021729618586303",
    "geocoded_column": {
      "latitude": "30.021729618586303",
      "longitude": "-89.96097247057045"
    }
  },
  {
    "service_request": "2023-1052866",
    "request_type": "Traffic Signals/Signs/Striping/Streetlights",
    "request_reason": "Street Light Outage/Malfunction",
    "date_created": "2023-11-30T12:34:25.000",
    "date_modified": "2023-11-30T12:34:26.000",
    "request_status": "Pending",
    "responsible_agency": "Department of Public Works",
    "final_address": "E HERMES ST & PANDORA ST",
    "address_councildis": "D",
    "status": "Assigned to Contractor",
    "contractor": "Legacy Professional Services",
    "rowid": "1052866",
    "final_x": "3697260.9",
    "final_y": "557501.98",
    "longitude": "-90.0173611266353",
    "latitude": "30.026448649576697",
    "geocoded_column": {
      "latitude": "30.026448649576697",
      "longitude": "-90.0173611266353"
    }
  },
  {
    "service_request": "2023-1052865",
    "request_type": "Trash/Recycling",
    "request_reason": "Replace Trash Cart",
    "date_created": "2023-11-30T12:32:33.000",
    "date_modified": "2023-11-30T12:32:34.000",
    "request_status": "Pending",
    "responsible_agency": "Department of Sanitation",
    "final_address": "608 Forstall St",
    "address_councildis": "E",
    "status": "Assigned to Contractor",
    "contractor": "Waste Pro",
    "rowid": "1052865",
    "final_x": "3695728.82506",
    "final_y": "532468.332228",
    "longitude": "-90.02310680319609",
    "latitude": "29.957663571677404",
    "geocoded_column": {
      "latitude": "29.957663571677404",
      "longitude": "-90.02310680319609"
    }
  },
  {
    "service_request": "2023-1052864",
    "request_type": "Trash/Recycling",
    "request_reason": "Request a Large Item Pick Up",
    "date_created": "2023-11-30T12:29:29.000",
    "date_modified": "2023-11-30T12:29:30.000",
    "request_status": "Pending",
    "responsible_agency": "Department of Sanitation",
    "final_address": "4652 Bonita Dr",
    "address_councildis": "E",
    "status": "Assigned to Contractor",
    "contractor": "Waste Pro",
    "rowid": "1052864",
    "final_x": "3704478.2931",
    "final_y": "554746.31452",
    "longitude": "-89.99465689294493",
    "latitude": "30.01864174241478",
    "geocoded_column": {
      "latitude": "30.01864174241478",
      "longitude": "-89.99465689294493"
    }
  },
  {
    "service_request": "2023-1052863",
    "request_type": "Trash/Recycling",
    "request_reason": "Missed Trash Pick-Up",
    "date_created": "2023-11-30T12:29:03.000",
    "date_modified": "2023-11-30T12:29:04.000",
    "request_status": "Pending",
    "responsible_agency": "Department of Sanitation",
    "final_address": "5015 St Claude Ave",
    "address_councildis": "E",
    "status": "Assigned to Contractor",
    "contractor": "Waste Pro",
    "rowid": "1052863",
    "final_x": "3696113.05085",
    "final_y": "534351.361221",
    "longitude": "-90.02182547915295",
    "latitude": "29.962829149857008",
    "geocoded_column": {
      "latitude": "29.962829149857008",
      "longitude": "-90.02182547915295"
    }
  },
  {
    "service_request": "2023-1052862",
    "request_type": "Abandoned Vehicles",
    "request_reason": "Abandoned/Junk Vehicles",
    "date_created": "2023-11-30T12:28:28.000",
    "date_modified": "2023-11-30T12:28:28.000",
    "request_status": "Pending",
    "responsible_agency": "Department of Public Works",
    "final_address": "6217 Mandeville St",
    "address_councildis": "D",
    "status": "Pending",
    "rowid": "1052862",
    "final_x": "3684247.57589",
    "final_y": "556001.466777",
    "longitude": "-90.05853444294803",
    "latitude": "30.0227273192247",
    "geocoded_column": {
      "latitude": "30.0227273192247",
      "longitude": "-90.05853444294803"
    }
  },
  {
    "service_request": "2023-1052861",
    "request_type": "Traffic Signals/Signs/Striping/Streetlights",
    "request_reason": "Street Name Sign Damaged or Missing",
    "date_created": "2023-11-30T12:26:56.000",
    "date_modified": "2023-11-30T12:26:57.000",
    "request_status": "Pending",
    "responsible_agency": "Department of Public Works",
    "final_address": "CORINNE ST & PRENTISS AVE",
    "address_councildis": "E",
    "status": "Pending",
    "rowid": "1052861",
    "final_x": "3715065.2",
    "final_y": "556557.48",
    "longitude": "-89.9611379357499",
    "latitude": "30.023277392127948",
    "geocoded_column": {
      "latitude": "30.023277392127948",
      "longitude": "-89.9611379357499"
    }
  },
  {
    "service_request": "2023-1052860",
    "request_type": "Traffic Signals/Signs/Striping/Streetlights",
    "request_reason": "Street Light Outage/Malfunction",
    "date_created": "2023-11-30T12:19:16.000",
    "date_modified": "2023-11-30T12:19:16.000",
    "request_status": "Pending",
    "responsible_agency": "Department of Public Works",
    "final_address": "923 N Tonti St",
    "address_councildis": "D",
    "status": "Assigned to Contractor",
    "contractor": "Legacy Professional Services",
    "rowid": "1052860",
    "final_x": "3678317.16942",
    "final_y": "536882.432648",
    "longitude": "-90.07793504070254",
    "latitude": "29.97033680755068",
    "geocoded_column": {
      "latitude": "29.97033680755068",
      "longitude": "-90.07793504070254"
    }
  },
  {
    "service_request": "2023-1052859",
    "request_type": "Trash/Recycling",
    "request_reason": "MIssed Recycling Pick-Up",
    "date_created": "2023-11-30T12:15:39.000",
    "date_modified": "2023-11-30T17:03:14.000",
    "case_close_date": "2023-11-30T11:03:14.000",
    "request_status": "Closed",
    "responsible_agency": "Department of Sanitation",
    "final_address": "4641 Franklin Ave",
    "address_councildis": "D",
    "status": "Assigned to Contractor",
    "contractor": "IV Waste",
    "contractor_action": "Completed",
    "rowid": "1052859",
    "final_x": "3686939.22799",
    "final_y": "550015.02914",
    "longitude": "-90.05024128020234",
    "latitude": "30.006184202306017",
    "geocoded_column": {
      "latitude": "30.006184202306017",
      "longitude": "-90.05024128020234"
    }
  },
  {
    "service_request": "2023-1052858",
    "request_type": "Abandoned Vehicles",
    "request_reason": "Abandoned/Junk Vehicles",
    "date_created": "2023-11-30T12:13:17.000",
    "date_modified": "2023-11-30T12:13:17.000",
    "request_status": "Pending",
    "responsible_agency": "Department of Public Works",
    "final_address": "3443 Magnolia St",
    "address_councildis": "B",
    "status": "Pending",
    "rowid": "1052858",
    "final_x": "3672265.70862",
    "final_y": "525040.958205",
    "longitude": "-90.09744961186843",
    "latitude": "29.937957588767382",
    "geocoded_column": {
      "latitude": "29.937957588767382",
      "longitude": "-90.09744961186843"
    }
  },
  {
    "service_request": "2023-1052857",
    "request_type": "Trash/Recycling",
    "request_reason": "Repair Trash Cart",
    "date_created": "2023-11-30T12:13:02.000",
    "date_modified": "2023-11-30T12:13:02.000",
    "request_status": "Pending",
    "responsible_agency": "Department of Sanitation",
    "final_address": "3719 Preston Pl",
    "address_councildis": "C",
    "status": "Assigned to Contractor",
    "contractor": "Richards Disposal",
    "rowid": "1052857",
    "final_x": "3708340.08388",
    "final_y": "517377.583221",
    "longitude": "-89.98384569600852",
    "latitude": "29.915766832335102",
    "geocoded_column": {
      "latitude": "29.915766832335102",
      "longitude": "-89.98384569600852"
    }
  },
  {
    "service_request": "2023-1052856",
    "request_type": "Parks & Parkways",
    "request_reason": "Request Tree Service (Right of Way/Public Property)",
    "date_created": "2023-11-30T12:12:52.000",
    "date_modified": "2023-11-30T12:12:52.000",
    "request_status": "Pending",
    "responsible_agency": "Department of Parks & Parkway",
    "final_address": "5503 Wildair Dr",
    "address_councildis": "D",
    "status": "Pending",
    "rowid": "1052856",
    "final_x": "3681699.02082",
    "final_y": "552985.335191",
    "longitude": "-90.06669263134836",
    "latitude": "30.014511775046728",
    "geocoded_column": {
      "latitude": "30.014511775046728",
      "longitude": "-90.06669263134836"
    }
  },
  {
    "service_request": "2023-1052855",
    "request_type": "Property Maintenance",
    "request_reason": "Property Maintenance",
    "date_created": "2023-11-30T12:11:13.000",
    "date_modified": "2023-11-30T12:11:13.000",
    "request_status": "Pending",
    "responsible_agency": "Department of Code Enforcement",
    "final_address": "8523 Oak St",
    "address_councildis": "A",
    "status": "Pending",
    "rowid": "1052855",
    "final_x": "3660793.75469",
    "final_y": "529494.013249",
    "longitude": "-90.13352053449239",
    "latitude": "29.950537318127356",
    "geocoded_column": {
      "latitude": "29.950537318127356",
      "longitude": "-90.13352053449239"
    }
  },
  {
    "service_request": "2023-1052854",
    "request_type": "Trash/Recycling",
    "request_reason": "Request a Large Item Pick Up",
    "date_created": "2023-11-30T12:07:37.000",
    "date_modified": "2023-11-30T12:07:38.000",
    "request_status": "Pending",
    "responsible_agency": "Department of Sanitation",
    "final_address": "5946 Laurel St",
    "address_councildis": "A",
    "status": "Assigned to Contractor",
    "contractor": "Richards Disposal",
    "rowid": "1052854",
    "final_x": "3664600.57082",
    "final_y": "518061.238454",
    "longitude": "-90.12188218321586",
    "latitude": "29.918990662923353",
    "geocoded_column": {
      "latitude": "29.918990662923353",
      "longitude": "-90.12188218321586"
    }
  },
  {
    "service_request": "2023-1052853",
    "request_type": "Trash/Recycling",
    "request_reason": "Request a Large Item Pick Up",
    "date_created": "2023-11-30T12:04:52.000",
    "date_modified": "2023-11-30T12:05:08.000",
    "request_status": "Pending",
    "responsible_agency": "Department of Sanitation",
    "final_address": "822 N Dorgenois St",
    "address_councildis": "D",
    "status": "Assigned to Contractor",
    "contractor": "Richards Disposal",
    "rowid": "1052853",
    "final_x": "3677518.17416",
    "final_y": "537020.887944",
    "longitude": "-90.08045357552062",
    "latitude": "29.970741558350035",
    "geocoded_column": {
      "latitude": "29.970741558350035",
      "longitude": "-90.08045357552062"
    }
  },
  {
    "service_request": "2023-1052852",
    "request_type": "Trash/Recycling",
    "request_reason": "Request a Large Item Pick Up",
    "date_created": "2023-11-30T11:58:36.000",
    "date_modified": "2023-11-30T11:58:37.000",
    "request_status": "Pending",
    "responsible_agency": "Department of Sanitation",
    "final_address": "1917 Burdette St",
    "address_councildis": "A",
    "status": "Assigned to Contractor",
    "contractor": "Richards Disposal",
    "rowid": "1052852",
    "final_x": "3664583.54368",
    "final_y": "529521.966721",
    "longitude": "-90.12155335469774",
    "latitude": "29.950504521921964",
    "geocoded_column": {
      "latitude": "29.950504521921964",
      "longitude": "-90.12155335469774"
    }
  },
  {
    "service_request": "2023-1052851",
    "request_type": "Trash/Recycling",
    "request_reason": "Dead Animal Pick Up",
    "date_created": "2023-11-30T11:53:51.000",
    "date_modified": "2023-11-30T12:58:33.000",
    "case_close_date": "2023-11-30T06:58:33.000",
    "request_status": "Closed",
    "responsible_agency": "Department of Sanitation",
    "final_address": "1307 Constantinople St",
    "address_councildis": "B",
    "status": "Resolved",
    "contractor": "Richards Disposal",
    "rowid": "1052851",
    "final_x": "3672426.60135",
    "final_y": "520302.506296",
    "longitude": "-90.09710305683703",
    "latitude": "29.92492360202736",
    "geocoded_column": {
      "latitude": "29.92492360202736",
      "longitude": "-90.09710305683703"
    }
  },
  {
    "service_request": "2023-1052850",
    "request_type": "Trash/Recycling",
    "request_reason": "Missed Trash Pick-Up",
    "date_created": "2023-11-30T11:51:50.000",
    "date_modified": "2023-11-30T11:51:51.000",
    "request_status": "Pending",
    "responsible_agency": "Department of Sanitation",
    "final_address": "1620 Fourth St",
    "address_councildis": "B",
    "status": "Assigned to Contractor",
    "contractor": "Richards Disposal",
    "rowid": "1052850",
    "final_x": "3676043.77665",
    "final_y": "522866.967739",
    "longitude": "-90.08559665644712",
    "latitude": "29.931867236838222",
    "geocoded_column": {
      "latitude": "29.931867236838222",
      "longitude": "-90.08559665644712"
    }
  },
  {
    "service_request": "2023-1052849",
    "request_type": "Trash/Recycling",
    "request_reason": "Illegal Dumping",
    "date_created": "2023-11-30T11:50:29.000",
    "date_modified": "2023-11-30T11:50:29.000",
    "request_status": "Pending",
    "responsible_agency": "Department of Sanitation",
    "final_address": "4822 Dodt Ave",
    "address_councildis": "E",
    "status": "Pending",
    "rowid": "1052849",
    "final_x": "3705303.54756",
    "final_y": "555865.548377",
    "longitude": "-89.9920080110819",
    "latitude": "30.021692667268987",
    "geocoded_column": {
      "latitude": "30.021692667268987",
      "longitude": "-89.9920080110819"
    }
  },
  {
    "service_request": "2023-1052848",
    "request_type": "Trash/Recycling",
    "request_reason": "Request a Large Item Pick Up",
    "date_created": "2023-11-30T11:44:40.000",
    "date_modified": "2023-11-30T11:44:41.000",
    "request_status": "Pending",
    "responsible_agency": "Department of Sanitation",
    "final_address": "4703 Rosemont Pl",
    "address_councildis": "E",
    "status": "Assigned to Contractor",
    "contractor": "Waste Pro",
    "rowid": "1052848",
    "final_x": "3702795.81828",
    "final_y": "554648.91292",
    "longitude": "-89.99997644837131",
    "latitude": "30.018427865368288",
    "geocoded_column": {
      "latitude": "30.018427865368288",
      "longitude": "-89.99997644837131"
    }
  },
  {
    "service_request": "2023-1052847",
    "request_type": "Trash/Recycling",
    "request_reason": "Request a Large Item Pick Up",
    "date_created": "2023-11-30T11:43:16.000",
    "date_modified": "2023-11-30T11:43:17.000",
    "request_status": "Pending",
    "responsible_agency": "Department of Sanitation",
    "final_address": "340 Elmira Ave",
    "address_councildis": "C",
    "status": "Assigned to Contractor",
    "contractor": "Richards Disposal",
    "rowid": "1052847",
    "final_x": "3688272.79503",
    "final_y": "530419.90829",
    "longitude": "-90.04672333726965",
    "latitude": "29.95226343309295",
    "geocoded_column": {
      "latitude": "29.95226343309295",
      "longitude": "-90.04672333726965"
    }
  },
  {
    "service_request": "2023-1052846",
    "request_type": "Trash/Recycling",
    "request_reason": "Request a Large Item Pick Up",
    "date_created": "2023-11-30T11:41:14.000",
    "date_modified": "2023-11-30T11:41:14.000",
    "request_status": "Pending",
    "responsible_agency": "Department of Sanitation",
    "final_address": "5219 Lakeview Ct",
    "address_councildis": "E",
    "status": "Assigned to Contractor",
    "contractor": "Waste Pro",
    "rowid": "1052846",
    "final_x": "3699106.68823",
    "final_y": "556574.845274",
    "longitude": "-90.0115624757346",
    "latitude": "30.02384096699275",
    "geocoded_column": {
      "latitude": "30.02384096699275",
      "longitude": "-90.0115624757346"
    }
  },
  {
    "service_request": "2023-1052845",
    "request_type": "Trash/Recycling",
    "request_reason": "Repair Trash Cart",
    "date_created": "2023-11-30T11:39:24.000",
    "date_modified": "2023-11-30T11:39:25.000",
    "request_status": "Pending",
    "responsible_agency": "Department of Sanitation",
    "final_address": "14 Assumption Pl",
    "address_councildis": "E",
    "status": "Assigned to Contractor",
    "contractor": "Waste Pro",
    "rowid": "1052845",
    "final_x": "3726127.20505",
    "final_y": "564510.132065",
    "longitude": "-89.92587623450223",
    "latitude": "30.044775026721304",
    "geocoded_column": {
      "latitude": "30.044775026721304",
      "longitude": "-89.92587623450223"
    }
  },
  {
    "service_request": "2023-1052844",
    "request_type": "Trash/Recycling",
    "request_reason": "Replace Trash Cart",
    "date_created": "2023-11-30T11:26:49.000",
    "date_modified": "2023-11-30T11:26:49.000",
    "request_status": "Pending",
    "responsible_agency": "Department of Sanitation",
    "final_address": "1311 Arabella St",
    "address_councildis": "A",
    "status": "Assigned to Contractor",
    "contractor": "Richards Disposal",
    "rowid": "1052844",
    "final_x": "3666265.58247",
    "final_y": "520704.380025",
    "longitude": "-90.11653798146949",
    "latitude": "29.92620996218609",
    "geocoded_column": {
      "latitude": "29.92620996218609",
      "longitude": "-90.11653798146949"
    }
  },