[
  {
    "service_request": "2023-987731",
    "request_type": "Trash/Recycling",
    "request_reason": "Start Trash Service",
    "date_created": "2023-04-01T01:50:37.000",
    "date_modified": "2023-04-01T01:50:38.000",
    "request_status": "Pending",
    "responsible_agency": "Department of Sanitation",
    "final_address": "1446 N Derbigny St",
    "address_councildis": "D",
    "status": "Assigned to Contractor",
    "contractor": "IV Waste",
    "rowid": "987731",
    "final_x": "3681276.24002",
    "final_y": "537148.105096",
    "longitude": "-90.06858071647815",
    "latitude": "29.970977839579188",
    "geocoded_column": {
      "latitude": "29.970977839579188",
      "longitude": "-90.06858071647815"
    }
  },
  {
    "service_request": "2023-987730",
    "request_type": "Trash/Recycling",
    "request_reason": "Request a Large Item Pick Up",
    "date_created": "2023-04-01T00:06:51.000",
    "date_modified": "2023-04-01T00:06:52.000",
    "request_status": "Pending",
    "responsible_agency": "Department of Sanitation",
    "final_address": "3701 Somerset Dr",
    "address_councildis": "C",
    "status": "Assigned to Contractor",
    "contractor": "Richards Disposal",
    "rowid": "987730",
    "final_x": "3702393.5706",
    "final_y": "517008.646133",
    "longitude": "-90.00262855993716",
    "latitude": "29.914943612048948",
    "geocoded_column": {
      "latitude": "29.914943612048948",
      "longitude": "-90.00262855993716"
    }
  },
  {
    "service_request": "2023-987729",
    "request_type": "Health Related Request",
    "request_reason": "Noise Ordinance Complaint",
    "date_created": "2023-03-31T23:39:29.000",
    "date_modified": "2023-03-31T23:39:29.000",
    "request_status": "Pending",
    "responsible_agency": "Health Department",
    "final_address": "7979 Earhart Blvd",
    "address_councildis": "B",
    "status": "Pending",
    "rowid": "987729",
    "final_x": "3667067.36417",
    "final_y": "533204.433924",
    "longitude": "-90.11358693504131",
    "latitude": "29.960557640913034",
    "geocoded_column": {
      "latitude": "29.960557640913034",
      "longitude": "-90.11358693504131"
    }
  },
  {
    "service_request": "2023-987728",
    "request_type": "Trash/Recycling",
    "request_reason": "Illegal Dumping",
    "date_created": "2023-03-31T23:27:31.000",
    "date_modified": "2023-03-31T23:27:31.000",
    "request_status": "Pending",
    "responsible_agency": "Department of Sanitation",
    "final_address": "2525 Annunciation St",
    "address_councildis": "B",
    "status": "Pending",
    "rowid": "987728",
    "final_x": "3678237.78638",
    "final_y": "520347.724088",
    "longitude": "-90.07875747847147",
    "latitude": "29.92487426354185",
    "geocoded_column": {
      "latitude": "29.92487426354185",
      "longitude": "-90.07875747847147"
    }
  },
  {
    "service_request": "2023-987727",
    "request_type": "Roads/Drainage",
    "request_reason": "Catch Basin - Broken/Damage",
    "date_created": "2023-03-31T22:59:09.000",
    "date_modified": "2023-03-31T22:59:09.000",
    "request_status": "Pending",
    "responsible_agency": "Department of Public Works",
    "final_address": "2331 S Carrollton Ave",
    "address_councildis": "A",
    "status": "Pending",
    "rowid": "987727",
    "final_x": "3664907.98612",
    "final_y": "531355.822146",
    "longitude": "-90.12046763841364",
    "latitude": "29.955537590722443",
    "geocoded_column": {
      "latitude": "29.955537590722443",
      "longitude": "-90.12046763841364"
    }
  },
  {
    "service_request": "2023-987726",
    "request_type": "Roads/Drainage",
    "request_reason": "Catch Basin - Broken/Damage",
    "date_created": "2023-03-31T22:39:48.000",
    "date_modified": "2023-03-31T22:39:48.000",
    "request_status": "Pending",
    "responsible_agency": "Department of Public Works",
    "final_address": "4115 S Carrollton Ave",
    "address_councildis": "A",
    "status": "Pending",
    "rowid": "987726",
    "final_x": "3669231.28954",
    "final_y": "536574.153991",
    "longitude": "-90.1066397534481",
    "latitude": "29.96975973413392",
    "geocoded_column": {
      "latitude": "29.96975973413392",
      "longitude": "-90.1066397534481"
    }
  },
  {
    "service_request": "2023-987724",
    "request_type": "Traffic Signals/Signs/Striping/Streetlights",
    "request_reason": "Street Light Outage/Malfunction",
    "date_created": "2023-03-31T22:13:16.000",
    "date_modified": "2023-03-31T22:13:16.000",
    "request_status": "Pending",
    "responsible_agency": "Department of Public Works",
    "final_address": "4914 S Galvez St",
    "address_councildis": "B",
    "status": "Assigned to Contractor",
    "contractor": "Legacy Professional Services",
    "rowid": "987724",
    "final_x": "3669148.84206",
    "final_y": "527330.564543",
    "longitude": "-90.10721250491224",
    "latitude": "29.944345335888762",
    "geocoded_column": {
      "latitude": "29.944345335888762",
      "longitude": "-90.10721250491224"
    }
  },
  {
    "service_request": "2023-987725",
    "request_type": "Traffic Signals/Signs/Striping/Streetlights",
    "request_reason": "Street Light Outage/Malfunction",
    "date_created": "2023-03-31T22:13:16.000",
    "date_modified": "2023-03-31T22:13:17.000",
    "request_status": "Pending",
    "responsible_agency": "Department of Public Works",
    "final_address": "4914 S Galvez St",
    "address_councildis": "B",
    "status": "Assigned to Contractor",
    "contractor": "Legacy Professional Services",
    "rowid": "987725",
    "final_x": "3669148.84206",
    "final_y": "527330.564543",
    "longitude": "-90.10721250491224",
    "latitude": "29.944345335888762",
    "geocoded_column": {
      "latitude": "29.944345335888762",
      "longitude": "-90.10721250491224"
    }
  },
  {
    "service_request": "2023-987723",
    "request_type": "Traffic Signals/Signs/Striping/Streetlights",
    "request_reason": "Street Light Outage/Malfunction",
    "date_created": "2023-03-31T22:13:15.000",
    "date_modified": "2023-03-31T22:13:16.000",
    "request_status": "Pending",
    "responsible_agency": "Department of Public Works",
    "final_address": "4914 S Galvez St",
    "address_councildis": "B",
    "status": "Assigned to Contractor",
    "contractor": "Legacy Professional Services",
    "rowid": "987723",
    "final_x": "3669148.84206",
    "final_y": "527330.564543",
    "longitude": "-90.10721250491224",
    "latitude": "29.944345335888762",
    "geocoded_column": {
      "latitude": "29.944345335888762",
      "longitude": "-90.10721250491224"
    }
  },
  {
    "service_request": "2023-987722",
    "request_type": "Traffic Signals/Signs/Striping/Streetlights",
    "request_reason": "Street Light Outage/Malfunction",
    "date_created": "2023-03-31T22:11:58.000",
    "date_modified": "2023-03-31T22:11:59.000",
    "request_status": "Pending",
    "responsible_agency": "Department of Public Works",
    "final_address": "4912 S Galvez St",
    "address_councildis": "B",
    "status": "Assigned to Contractor",
    "contractor": "Legacy Professional Services",
    "rowid": "987722",
    "final_x": "3669158.22081",
    "final_y": "527330.596863",
    "longitude": "-90.10718289232474",
    "latitude": "29.94434514880224",
    "geocoded_column": {
      "latitude": "29.94434514880224",
      "longitude": "-90.10718289232474"
    }
  },
  {
    "service_request": "2023-987721",
    "request_type": "Abandoned Vehicles",
    "request_reason": "Abandoned/Junk Vehicles",
    "date_created": "2023-03-31T22:00:46.000",
    "date_modified": "2023-03-31T22:00:46.000",
    "request_status": "Pending",
    "responsible_agency": "Department of Public Works",
    "final_address": "1600 Filmore Ave",
    "address_councildis": "D",
    "status": "Pending",
    "rowid": "987721",
    "final_x": "3679305.24443",
    "final_y": "551797.25807",
    "longitude": "-90.07429703330367",
    "latitude": "30.01131753351933",
    "geocoded_column": {
      "latitude": "30.01131753351933",
      "longitude": "-90.07429703330367"
    }
  },
  {
    "service_request": "2023-987719",
    "request_type": "Trash/Recycling",
    "request_reason": "Missed Trash Pick-Up",
    "date_created": "2023-03-31T21:14:22.000",
    "date_modified": "2023-03-31T21:14:22.000",
    "request_status": "Pending",
    "responsible_agency": "Department of Sanitation",
    "final_address": "1729 Andry St",
    "address_councildis": "E",
    "status": "Assigned to Contractor",
    "contractor": "Waste Pro",
    "rowid": "987719",
    "final_x": "3697910.02986",
    "final_y": "536507.451975",
    "longitude": "-90.01607261010876",
    "latitude": "29.96870095261062",
    "geocoded_column": {
      "latitude": "29.96870095261062",
      "longitude": "-90.01607261010876"
    }
  },
  {
    "service_request": "2023-987718",
    "request_type": "Traffic Signals/Signs/Striping/Streetlights",
    "request_reason": "Street Light Outage/Malfunction",
    "date_created": "2023-03-31T21:06:33.000",
    "date_modified": "2023-03-31T21:06:34.000",
    "request_status": "Pending",
    "responsible_agency": "Department of Public Works",
    "final_address": "7141 Warfield St",
    "address_councildis": "E",
    "status": "Assigned to Contractor",
    "contractor": "Legacy Professional Services",
    "rowid": "987718",
    "final_x": "3701655.17841",
    "final_y": "553157.006807",
    "longitude": "-90.0036351282422",
    "latitude": "30.014362139088938",
    "geocoded_column": {
      "latitude": "30.014362139088938",
      "longitude": "-90.0036351282422"
    }
  },
  {
    "service_request": "2023-987717",
    "request_type": "Property Maintenance",
    "request_reason": "Property Maintenance",
    "date_created": "2023-03-31T21:05:22.000",
    "date_modified": "2023-03-31T21:05:22.000",
    "request_status": "Pending",
    "responsible_agency": "Department of Code Enforcement",
    "final_address": "3101 St Roch Ave",
    "address_councildis": "D",
    "status": "Pending",
    "rowid": "987717",
    "final_x": "3685943.83849",
    "final_y": "544221.823758",
    "longitude": "-90.05359036188364",
    "latitude": "29.990285583461027",
    "geocoded_column": {
      "latitude": "29.990285583461027",
      "longitude": "-90.05359036188364"
    }
  },
  {
    "service_request": "2023-987716",
    "request_type": "Abandoned Vehicles",
    "request_reason": "Abandoned/Junk Vehicles",
    "date_created": "2023-03-31T21:03:25.000",
    "date_modified": "2023-03-31T21:03:25.000",
    "request_status": "Pending",
    "responsible_agency": "Department of Public Works",
    "final_address": "2820 Baronne St",
    "address_councildis": "B",
    "status": "Pending",
    "rowid": "987716",
    "final_x": "3675365.93557",
    "final_y": "523012.819643",
    "longitude": "-90.08773152504045",
    "latitude": "29.93228856060108",
    "geocoded_column": {
      "latitude": "29.93228856060108",
      "longitude": "-90.08773152504045"
    }
  },
  {
    "service_request": "2023-987715",
    "request_type": "Traffic Signals/Signs/Striping/Streetlights",
    "request_reason": "Street Light Outage/Malfunction",
    "date_created": "2023-03-31T20:18:12.000",
    "date_modified": "2023-03-31T20:18:13.000",
    "request_status": "Pending",
    "responsible_agency": "Department of Public Works",
    "final_address": "1937 S Lopez St",
    "address_councildis": "B",
    "status": "Assigned to Contractor",
    "contractor": "Legacy Professional Services",
    "rowid": "987715",
    "final_x": "3669402.5051",
    "final_y": "529832.735489",
    "longitude": "-90.10632701868576",
    "latitude": "29.95121802381621",
    "geocoded_column": {
      "latitude": "29.95121802381621",
      "longitude": "-90.10632701868576"
    }
  },
  {
    "service_request": "2023-987714",
    "request_type": "Abandoned Vehicles",
    "request_reason": "Abandoned/Junk Vehicles",
    "date_created": "2023-03-31T19:51:06.000",
    "date_modified": "2023-03-31T19:51:06.000",
    "request_status": "Pending",
    "responsible_agency": "Department of Public Works",
    "final_address": "4910 Banks St",
    "address_councildis": "A",
    "status": "Pending",
    "rowid": "987714",
    "final_x": "3667626.85697",
    "final_y": "539365.54529",
    "longitude": "-90.11161272284218",
    "latitude": "29.97748225760335",
    "geocoded_column": {
      "latitude": "29.97748225760335",
      "longitude": "-90.11161272284218"
    }
  },
  {
    "service_request": "2023-987713",
    "request_type": "Abandoned Vehicles",
    "request_reason": "Abandoned/Junk Vehicles",
    "date_created": "2023-03-31T19:42:55.000",
    "date_modified": "2023-03-31T19:42:55.000",
    "request_status": "Pending",
    "responsible_agency": "Department of Public Works",
    "final_address": "4910 Banks St",
    "address_councildis": "A",
    "status": "Pending",
    "rowid": "987713",
    "final_x": "3667626.85697",
    "final_y": "539365.54529",
    "longitude": "-90.11161272284218",
    "latitude": "29.97748225760335",
    "geocoded_column": {
      "latitude": "29.97748225760335",
      "longitude": "-90.11161272284218"
    }
  },
  {
    "service_request": "2023-987712",
    "request_type": "Roads/Drainage",
    "request_reason": "Catch Basin - Clogged",
    "date_created": "2023-03-31T19:42:15.000",
    "date_modified": "2023-03-31T19:42:15.000",
    "request_status": "Pending",
    "responsible_agency": "Department of Public Works",
    "final_address": "5212 S Claiborne Ave",
    "address_councildis": "B",
    "status": "Pending",
    "rowid": "987712",
    "final_x": "3668494.46337",
    "final_y": "526081.829182",
    "longitude": "-90.10932068890092",
    "latitude": "29.940930955324554",
    "geocoded_column": {
      "latitude": "29.940930955324554",
      "longitude": "-90.10932068890092"
    }
  },
  {
    "service_request": "2023-987711",
    "request_type": "Trash/Recycling",
    "request_reason": "Dead Animal Pick Up",
    "date_created": "2023-03-31T18:49:18.000",
    "date_modified": "2023-03-31T18:49:19.000",
    "request_status": "Pending",
    "responsible_agency": "Department of Sanitation",
    "final_address": "1506 Mandolin St",
    "address_councildis": "D",
    "status": "Assigned to Contractor",
    "contractor": "IV Waste",
    "rowid": "987711",
    "final_x": "3678903.39867",
    "final_y": "547988.429458",
    "longitude": "-90.07569870486829",
    "latitude": "30.00085675079337",
    "geocoded_column": {
      "latitude": "30.00085675079337",
      "longitude": "-90.07569870486829"
    }
  },
  {
    "service_request": "2023-987710",
    "request_type": "Trash/Recycling",
    "request_reason": "Request a Large Item Pick Up",
    "date_created": "2023-03-31T18:40:40.000",
    "date_modified": "2023-03-31T18:40:41.000",
    "request_status": "Pending",
    "responsible_agency": "Department of Sanitation",
    "final_address": "455 Abalon Ct",
    "address_councildis": "C",
    "status": "Assigned to Contractor",
    "contractor": "Richards Disposal",
    "rowid": "987710",
    "final_x": "3689144.68022",
    "final_y": "530070.040577",
    "longitude": "-90.043982766142",
    "latitude": "29.951274469329526",
    "geocoded_column": {
      "latitude": "29.951274469329526",
      "longitude": "-90.043982766142"
    }
  },
  {
    "service_request": "2023-987709",
    "request_type": "Trash/Recycling",
    "request_reason": "Order Recycling Cart",
    "date_created": "2023-03-31T18:24:35.000",
    "date_modified": "2023-03-31T18:24:35.000",
    "request_status": "Pending",
    "responsible_agency": "Department of Sanitation",
    "final_address": "2228 Lapeyrouse St",
    "address_councildis": "D",
    "status": "Pending",
    "rowid": "987709",
    "final_x": "3680259.84111",
    "final_y": "539198.295178",
    "longitude": "-90.0717193455306",
    "latitude": "29.97664596319668",
    "geocoded_column": {
      "latitude": "29.97664596319668",
      "longitude": "-90.0717193455306"
    }
  },
  {
    "service_request": "2023-987708",
    "request_type": "Trash/Recycling",
    "request_reason": "Order Recycling Cart",
    "date_created": "2023-03-31T18:22:58.000",
    "date_modified": "2023-03-31T18:22:58.000",
    "request_status": "Pending",
    "responsible_agency": "Department of Sanitation",
    "final_address": "2230 Lapeyrouse St",
    "address_councildis": "D",
    "status": "Pending",
    "rowid": "987708",
    "final_x": "3680246.50779",
    "final_y": "539208.850698",
    "longitude": "-90.0717610892179",
    "latitude": "29.976675390877027",
    "geocoded_column": {
      "latitude": "29.976675390877027",
      "longitude": "-90.0717610892179"
    }
  },
  {
    "service_request": "2023-987707",
    "request_type": "Trash/Recycling",
    "request_reason": "Request a Large Item Pick Up",
    "date_created": "2023-03-31T18:16:31.000",
    "date_modified": "2023-03-31T18:16:32.000",
    "request_status": "Pending",
    "responsible_agency": "Department of Sanitation",
    "final_address": "5947 Brighton Pl",
    "address_councildis": "C",
    "status": "Assigned to Contractor",
    "contractor": "Richards Disposal",
    "rowid": "987707",
    "final_x": "3705975.53495",
    "final_y": "520033.599288",
    "longitude": "-89.991210861841",
    "latitude": "29.92314631596679",
    "geocoded_column": {
      "latitude": "29.92314631596679",
      "longitude": "-89.991210861841"
    }
  },
  {
    "service_request": "2023-987706",
    "request_type": "Trash/Recycling",
    "request_reason": "Repair Trash Cart",
    "date_created": "2023-03-31T18:09:11.000",
    "date_modified": "2023-03-31T18:09:12.000",
    "request_status": "Pending",
    "responsible_agency": "Department of Sanitation",
    "final_address": "10 Mars Pl",
    "address_councildis": "B",
    "status": "Assigned to Contractor",
    "contractor": "Richards Disposal",
    "rowid": "987706",
    "final_x": "3667403.50113",
    "final_y": "533358.518724",
    "longitude": "-90.11252029393044",
    "latitude": "29.960971480276495",
    "geocoded_column": {
      "latitude": "29.960971480276495",
      "longitude": "-90.11252029393044"
    }
  },
  {
    "service_request": "2023-987705",
    "request_type": "Trash/Recycling",
    "request_reason": "MIssed Recycling Pick-Up",
    "date_created": "2023-03-31T18:07:09.000",
    "date_modified": "2023-03-31T18:07:10.000",
    "request_status": "Pending",
    "responsible_agency": "Department of Sanitation",
    "final_address": "10 Mars Pl",
    "address_councildis": "B",
    "status": "Assigned to Contractor",
    "contractor": "Richards Disposal",
    "rowid": "987705",
    "final_x": "3667403.50113",
    "final_y": "533358.518724",
    "longitude": "-90.11252029393044",
    "latitude": "29.960971480276495",
    "geocoded_column": {
      "latitude": "29.960971480276495",
      "longitude": "-90.11252029393044"
    }
  },
  {
    "service_request": "2023-987704",
    "request_type": "Trash/Recycling",
    "request_reason": "Request a Large Item Pick Up",
    "date_created": "2023-03-31T18:05:43.000",
    "date_modified": "2023-03-31T18:05:44.000",
    "request_status": "Pending",
    "responsible_agency": "Department of Sanitation",
    "final_address": "2025 Broadway St",
    "address_councildis": "A",
    "status": "Assigned to Contractor",
    "contractor": "Richards Disposal",
    "rowid": "987704",
    "final_x": "3665913.14112",
    "final_y": "528994.450176",
    "longitude": "-90.11737283367306",
    "latitude": "29.94901529201033",
    "geocoded_column": {
      "latitude": "29.94901529201033",
      "longitude": "-90.11737283367306"
    }
  },
  {
    "service_request": "2023-987703",
    "request_type": "Trash/Recycling",
    "request_reason": "Request a Large Item Pick Up",
    "date_created": "2023-03-31T18:05:38.000",
    "date_modified": "2023-03-31T18:05:39.000",
    "request_status": "Pending",
    "responsible_agency": "Department of Sanitation",
    "final_address": "2025 Broadway St",
    "address_councildis": "A",
    "status": "Assigned to Contractor",
    "contractor": "Richards Disposal",
    "rowid": "987703",
    "final_x": "3665913.14112",
    "final_y": "528994.450176",
    "longitude": "-90.11737283367306",
    "latitude": "29.94901529201033",
    "geocoded_column": {
      "latitude": "29.94901529201033",
      "longitude": "-90.11737283367306"
    }
  },
  {
    "service_request": "2023-987701",
    "request_type": "Traffic Signals/Signs/Striping/Streetlights",
    "request_reason": "Road Surface Marking Maintenance-Bike Lane",
    "date_created": "2023-03-31T17:56:23.000",
    "date_modified": "2023-03-31T17:56:23.000",
    "request_status": "Pending",
    "responsible_agency": "Department of Public Works",
    "final_address": "WRIGHT RD & I 10 W SERVICE RD",
    "address_councildis": "E",
    "status": "Pending",
    "rowid": "987701",
    "final_x": "3712657.3",
    "final_y": "563329.08",
    "longitude": "-89.96849144171634",
    "latitude": "30.041975662492263",
    "geocoded_column": {
      "latitude": "30.041975662492263",
      "longitude": "-89.96849144171634"
    }
  },
  {
    "service_request": "2023-987698",
    "request_type": "Trash/Recycling",
    "request_reason": "Missed Trash Pick-Up",
    "date_created": "2023-03-31T17:52:51.000",
    "date_modified": "2023-03-31T17:52:52.000",
    "request_status": "Pending",
    "responsible_agency": "Department of Sanitation",
    "final_address": "4821 St Claude Ave",
    "address_councildis": "E",
    "status": "Assigned to Contractor",
    "contractor": "Waste Pro",
    "rowid": "987698",
    "final_x": "3695231.7624",
    "final_y": "534559.747013",
    "longitude": "-90.02460094543316",
    "latitude": "29.963429843598163",
    "geocoded_column": {
      "latitude": "29.963429843598163",
      "longitude": "-90.02460094543316"
    }
  },
  {
    "service_request": "2023-987697",
    "request_type": "Trash/Recycling",
    "request_reason": "Illegal Dumping",
    "date_created": "2023-03-31T17:47:33.000",
    "date_modified": "2023-03-31T17:48:24.000",
    "request_status": "Pending",
    "responsible_agency": "Department of Sanitation",
    "final_address": "4601 Bundy Rd",
    "address_councildis": "E",
    "status": "Pending",
    "rowid": "987697",
    "final_x": "3709558.57099",
    "final_y": "554859.392664",
    "longitude": "-89.97860097683011",
    "latitude": "30.018788487532298",
    "geocoded_column": {
      "latitude": "30.018788487532298",
      "longitude": "-89.97860097683011"
    }
  },
  {
    "service_request": "2023-987696",
    "request_type": "Trash/Recycling",
    "request_reason": "MIssed Recycling Pick-Up",
    "date_created": "2023-03-31T17:37:27.000",
    "date_modified": "2023-03-31T17:37:28.000",
    "request_status": "Pending",
    "responsible_agency": "Department of Sanitation",
    "final_address": "2920 College Ct",
    "address_councildis": "B",
    "status": "Assigned to Contractor",
    "contractor": "Richards Disposal",
    "rowid": "987696",
    "final_x": "3668172.05729",
    "final_y": "531292.434242",
    "longitude": "-90.11016297541529",
    "latitude": "29.955267890130102",
    "geocoded_column": {
      "latitude": "29.955267890130102",
      "longitude": "-90.11016297541529"
    }
  },
  {
    "service_request": "2023-987695",
    "request_type": "Property Maintenance",
    "request_reason": "Property Maintenance",
    "date_created": "2023-03-31T17:31:46.000",
    "date_modified": "2023-03-31T17:31:46.000",
    "request_status": "Pending",
    "responsible_agency": "Department of Code Enforcement",
    "final_address": "7733 Alabama St",
    "address_councildis": "D",
    "status": "Pending",
    "rowid": "987695",
    "final_x": "3694805.70115",
    "final_y": "559009.49078",
    "longitude": "-90.02506485089944",
    "latitude": "30.030671034214354",
    "geocoded_column": {
      "latitude": "30.030671034214354",
      "longitude": "-90.02506485089944"
    }
  },
  {
    "service_request": "2023-987694",
    "request_type": "Abandoned Vehicles",
    "request_reason": "Abandoned/Junk Vehicles",
    "date_created": "2023-03-31T17:27:14.000",
    "date_modified": "2023-03-31T17:27:14.000",
    "request_status": "Pending",
    "responsible_agency": "Department of Public Works",
    "final_address": "1524 Melpomene St",
    "address_councildis": "B",
    "status": "Pending",
    "rowid": "987694",
    "final_x": "3679424.24008",
    "final_y": "525308.875837",
    "longitude": "-90.07484023043668",
    "latitude": "29.93848002854146",
    "geocoded_column": {
      "latitude": "29.93848002854146",
      "longitude": "-90.07484023043668"
    }
  },
  {
    "service_request": "2023-987693",
    "request_type": "Traffic Signals/Signs/Striping/Streetlights",
    "request_reason": "Striping/Road Surface Markings",
    "date_created": "2023-03-31T17:21:59.000",
    "date_modified": "2023-03-31T17:21:59.000",
    "request_status": "Pending",
    "responsible_agency": "Department of Public Works",
    "final_address": "FRERET ST & VALENCE ST",
    "address_councildis": "B",
    "status": "Pending",
    "rowid": "987693",
    "final_x": "3669428.6",
    "final_y": "523937.68",
    "longitude": "-90.10644392655435",
    "latitude": "29.93500776557353",
    "geocoded_column": {
      "latitude": "29.93500776557353",
      "longitude": "-90.10644392655435"
    }
  },
  {
    "service_request": "2023-987692",
    "request_type": "Trash/Recycling",
    "request_reason": "Missed Trash Pick-Up",
    "date_created": "2023-03-31T17:16:42.000",
    "date_modified": "2023-03-31T17:16:43.000",
    "request_status": "Pending",
    "responsible_agency": "Department of Sanitation",
    "final_address": "1 Marlborough Gate Pl",
    "address_councildis": "B",
    "status": "Assigned to Contractor",
    "contractor": "Richards Disposal",
    "rowid": "987692",
    "final_x": "3669123.09089",
    "final_y": "523773.669947",
    "longitude": "-90.10741395885316",
    "latitude": "29.934565781757804",
    "geocoded_column": {
      "latitude": "29.934565781757804",
      "longitude": "-90.10741395885316"
    }
  },
  {
    "service_request": "2023-987691",
    "request_type": "Property Maintenance",
    "request_reason": "Property Maintenance",
    "date_created": "2023-03-31T17:12:28.000",
    "date_modified": "2023-03-31T17:12:28.000",
    "request_status": "Pending",
    "responsible_agency": "Department of Code Enforcement",
    "final_address": "1625 Franklin Ave",
    "address_councildis": "D",
    "status": "Pending",
    "rowid": "987691",
    "final_x": "3687678.50838",
    "final_y": "538514.821129",
    "longitude": "-90.04831316866435",
    "latitude": "29.974539966487622",
    "geocoded_column": {
      "latitude": "29.974539966487622",
      "longitude": "-90.04831316866435"
    }
  },
  {
    "service_request": "2023-987690",
    "request_type": "Traffic Signals/Signs/Striping/Streetlights",
    "request_reason": "Traffic Signal Malfunctioning/Damaged",
    "date_created": "2023-03-31T17:11:41.000",
    "date_modified": "2023-03-31T17:11:41.000",
    "request_status": "Pending",
    "responsible_agency": "Department of Public Works",
    "final_address": "POYDRAS ST & ST CHARLES AVE",
    "address_councildis": "B",
    "status": "Pending",
    "rowid": "987690",
    "final_x": "3680720.1",
    "final_y": "529331.08",
    "longitude": "-90.07060913253059",
    "latitude": "29.949500547686682",
    "geocoded_column": {
      "latitude": "29.949500547686682",
      "longitude": "-90.07060913253059"
    }
  },
  {
    "service_request": "2023-987689",
    "request_type": "Trash/Recycling",
    "request_reason": "Replace Recycling Cart",
    "date_created": "2023-03-31T17:08:13.000",
    "date_modified": "2023-03-31T17:08:13.000",
    "request_status": "Pending",
    "responsible_agency": "Department of Sanitation",
    "final_address": "5537 Freret St",
    "address_councildis": "A",
    "status": "Pending",
    "rowid": "987689",
    "final_x": "3667341.00743",
    "final_y": "524178.17702",
    "longitude": "-90.11302637651778",
    "latitude": "29.935730352562178",
    "geocoded_column": {
      "latitude": "29.935730352562178",
      "longitude": "-90.11302637651778"
    }
  },
  {
    "service_request": "2023-987688",
    "request_type": "Trash/Recycling",
    "request_reason": "Request a Large Item Pick Up",
    "date_created": "2023-03-31T17:03:25.000",
    "date_modified": "2023-03-31T17:03:26.000",
    "request_status": "Pending",
    "responsible_agency": "Department of Sanitation",
    "final_address": "4735 Charlmark Dr",
    "address_councildis": "E",
    "status": "Assigned to Contractor",
    "contractor": "Waste Pro",
    "rowid": "987688",
    "final_x": "3711518.70162",
    "final_y": "555981.488985",
    "longitude": "-89.97236561477192",
    "latitude": "30.021809945324176",
    "geocoded_column": {
      "latitude": "30.021809945324176",
      "longitude": "-89.97236561477192"
    }
  },
  {
    "service_request": "2023-987687",
    "request_type": "Trash/Recycling",
    "request_reason": "Repair Trash Cart",
    "date_created": "2023-03-31T17:01:21.000",
    "date_modified": "2023-03-31T17:01:22.000",
    "request_status": "Pending",
    "responsible_agency": "Department of Sanitation",
    "final_address": "1434 Forstall St",
    "address_councildis": "E",
    "status": "Assigned to Contractor",
    "contractor": "Waste Pro",
    "rowid": "987687",
    "final_x": "3696557.00784",
    "final_y": "535621.120006",
    "longitude": "-90.02037758207251",
    "latitude": "29.96630655550426",
    "geocoded_column": {
      "latitude": "29.96630655550426",
      "longitude": "-90.02037758207251"
    }
  },
  {
    "service_request": "2023-987686",
    "request_type": "Trash/Recycling",
    "request_reason": "Missed Trash Pick-Up",
    "date_created": "2023-03-31T17:00:59.000",
    "date_modified": "2023-03-31T17:00:59.000",
    "request_status": "Pending",
    "responsible_agency": "Department of Sanitation",
    "final_address": "5336 Dryades St",
    "address_councildis": "B",
    "status": "Assigned to Contractor",
    "contractor": "Richards Disposal",
    "rowid": "987686",
    "final_x": "3667609.66049",
    "final_y": "521793.283898",
    "longitude": "-90.11225846699281",
    "latitude": "29.929164787498774",
    "geocoded_column": {
      "latitude": "29.929164787498774",
      "longitude": "-90.11225846699281"
    }
  },
  {
    "service_request": "2023-987685",
    "request_type": "Roads/Drainage",
    "request_reason": "Pothole",
    "date_created": "2023-03-31T16:51:33.000",
    "date_modified": "2023-03-31T16:51:33.000",
    "request_status": "Pending",
    "responsible_agency": "Department of Public Works",
    "final_address": "2700 N Villere St",
    "address_councildis": "C",
    "status": "Pending",
    "rowid": "987685",
    "final_x": "3687730.79727",
    "final_y": "537463.54228",
    "longitude": "-90.04818526658384",
    "latitude": "29.971647706369954",
    "geocoded_column": {
      "latitude": "29.971647706369954",
      "longitude": "-90.04818526658384"
    }
  },
  {
    "service_request": "2023-987684",
    "request_type": "Mosquito, Termite & Rodent Control",
    "request_reason": "Rodent Complaint (Rats)",
    "date_created": "2023-03-31T16:50:49.000",
    "date_modified": "2023-03-31T16:50:49.000",
    "request_status": "Pending",
    "responsible_agency": "Mosquito, Termite & Rodent Control Board",
    "final_address": "5504 Wickfield Dr",
    "address_councildis": "D",
    "status": "Pending",
    "rowid": "987684",
    "final_x": "3681054.39573",
    "final_y": "552933.594775",
    "longitude": "-90.06873113273613",
    "latitude": "30.014389085421204",
    "geocoded_column": {
      "latitude": "30.014389085421204",
      "longitude": "-90.06873113273613"
    }
  },
  {
    "service_request": "2023-987683",
    "request_type": "Trash/Recycling",
    "request_reason": "Request a Large Item Pick Up",
    "date_created": "2023-03-31T16:36:25.000",
    "date_modified": "2023-03-31T16:36:26.000",
    "request_status": "Pending",
    "responsible_agency": "Department of Sanitation",
    "final_address": "2210 Camp St",
    "address_councildis": "B",
    "status": "Assigned to Contractor",
    "contractor": "Richards Disposal",
    "rowid": "987683",
    "final_x": "3678533.16104",
    "final_y": "522255.30393",
    "longitude": "-90.07775909483505",
    "latitude": "29.93011058996835",
    "geocoded_column": {
      "latitude": "29.93011058996835",
      "longitude": "-90.07775909483505"
    }
  },
  {
    "service_request": "2023-987682",
    "request_type": "Trash/Recycling",
    "request_reason": "Request a Large Item Pick Up",
    "date_created": "2023-03-31T16:34:09.000",
    "date_modified": "2023-03-31T16:34:09.000",
    "request_status": "Pending",
    "responsible_agency": "Department of Sanitation",
    "final_address": "2914 Banks St",
    "address_councildis": "B",
    "status": "Assigned to Contractor",
    "contractor": "Richards Disposal",
    "rowid": "987682",
    "final_x": "3673726.06062",
    "final_y": "534733.992134",
    "longitude": "-90.09250776393813",
    "latitude": "29.964566832133123",
    "geocoded_column": {
      "latitude": "29.964566832133123",
      "longitude": "-90.09250776393813"
    }
  },
  {
    "service_request": "2023-987681",
    "request_type": "Abandoned Vehicles",
    "request_reason": "Abandoned/Junk Vehicles",
    "date_created": "2023-03-31T16:31:39.000",
    "date_modified": "2023-03-31T16:31:39.000",
    "request_status": "Pending",
    "responsible_agency": "Department of Public Works",
    "final_address": "2107 Bienville Ave",
    "address_councildis": "B",
    "status": "Pending",
    "rowid": "987681",
    "final_x": "3677708.28872",
    "final_y": "534377.525957",
    "longitude": "-90.07994448629448",
    "latitude": "29.963467495565293",
    "geocoded_column": {
      "latitude": "29.963467495565293",
      "longitude": "-90.07994448629448"
    }
  },
  {
    "service_request": "2023-987680",
    "request_type": "Traffic Signals/Signs/Striping/Streetlights",
    "request_reason": "Request for Stop Sign",
    "date_created": "2023-03-31T16:25:04.000",
    "date_modified": "2023-03-31T16:25:04.000",
    "request_status": "Pending",
    "responsible_agency": "Department of Public Works",
    "final_address": "2601 Marais St",
    "address_councildis": "C",
    "status": "Pending",
    "rowid": "987680",
    "final_x": "3687261.0479",
    "final_y": "536841.084296",
    "longitude": "-90.04969082469282",
    "latitude": "29.96995064318127",
    "geocoded_column": {
      "latitude": "29.96995064318127",
      "longitude": "-90.04969082469282"
    }
  },
  {
    "service_request": "2023-987679",
    "request_type": "Roads/Drainage",
    "request_reason": "Leaking Hydrant",
    "date_created": "2023-03-31T16:24:57.000",
    "date_modified": "2023-03-31T16:24:57.000",
    "request_status": "Pending",
    "responsible_agency": "Department of Public Works",
    "final_address": "1503 Verna Ct, New Orleans, Louisiana, 70119",
    "status": "Pending",
    "rowid": "987679",
    "longitude": "0.0",
    "latitude": "0.0",
    "geocoded_column": {
      "latitude": "0.0",
      "longitude": "0.0"
    }
  },
  {
    "service_request": "2023-987678",
    "request_type": "Traffic Signals/Signs/Striping/Streetlights",
    "request_reason": "Traffic Sign Missing/Damaged",
    "date_created": "2023-03-31T16:23:33.000",
    "date_modified": "2023-03-31T16:23:33.000",
    "request_status": "Pending",
    "responsible_agency": "Department of Public Works",
    "final_address": "2832 Marais St",
    "address_councildis": "C",
    "status": "Pending",
    "rowid": "987678",
    "final_x": "3688037.30831",
    "final_y": "536520.439431",
    "longitude": "-90.04725069102672",
    "latitude": "29.969045047778174",
    "geocoded_column": {
      "latitude": "29.969045047778174",
      "longitude": "-90.04725069102672"
    }
  },
  {
    "service_request": "2023-987677",
    "request_type": "Traffic Signals/Signs/Striping/Streetlights",
    "request_reason": "Traffic Sign Missing/Damaged",
    "date_created": "2023-03-31T16:18:34.000",
    "date_modified": "2023-03-31T16:18:34.000",
    "request_status": "Pending",
    "responsible_agency": "Department of Public Works",
    "final_address": "3440 Florence Ave",
    "address_councildis": "C",
    "status": "Pending",
    "rowid": "987677",
    "final_x": "3692704.43971",
    "final_y": "521324.434745",
    "longitude": "-90.03305621054423",
    "latitude": "29.927116427735236",
    "geocoded_column": {
      "latitude": "29.927116427735236",
      "longitude": "-90.03305621054423"
    }
  },
  {
    "service_request": "2023-987676",
    "request_type": "Trash/Recycling",
    "request_reason": "Illegal Dumping",
    "date_created": "2023-03-31T16:15:00.000",
    "date_modified": "2023-03-31T16:15:00.000",
    "request_status": "Pending",
    "responsible_agency": "Department of Sanitation",
    "final_address": "1016 Pauline St",
    "address_councildis": "C",
    "status": "Pending",
    "rowid": "987676",
    "final_x": "3691106.30524",
    "final_y": "535168.248454",
    "longitude": "-90.03760691232867",
    "latitude": "29.96523192616618",
    "geocoded_column": {
      "latitude": "29.96523192616618",
      "longitude": "-90.03760691232867"
    }
  },
  {
    "service_request": "2023-987675",
    "request_type": "Trash/Recycling",
    "request_reason": "Order Recycling Cart",
    "date_created": "2023-03-31T16:13:32.000",
    "date_modified": "2023-03-31T16:13:32.000",
    "request_status": "Pending",
    "responsible_agency": "Department of Sanitation",
    "final_address": "640 Fats Domino Ave",
    "address_councildis": "E",
    "status": "Pending",
    "rowid": "987675",
    "final_x": "3697547.94704",
    "final_y": "532232.588803",
    "longitude": "-90.01737112816144",
    "latitude": "29.9569580396132",
    "geocoded_column": {
      "latitude": "29.9569580396132",
      "longitude": "-90.01737112816144"
    }
  },
  {
    "service_request": "2023-987674",
    "request_type": "Trash/Recycling",
    "request_reason": "Repair Trash Cart",
    "date_created": "2023-03-31T16:12:56.000",
    "date_modified": "2023-03-31T16:12:57.000",
    "request_status": "Pending",
    "responsible_agency": "Department of Sanitation",
    "final_address": "1808 Felicity St",
    "address_councildis": "B",
    "status": "Assigned to Contractor",
    "contractor": "Richards Disposal",
    "rowid": "987674",
    "final_x": "3677777.29518",
    "final_y": "525208.970557",
    "longitude": "-90.08004325494356",
    "latitude": "29.93825495695762",
    "geocoded_column": {
      "latitude": "29.93825495695762",
      "longitude": "-90.08004325494356"
    }
  },
  {
    "service_request": "2023-987673",
    "request_type": "Trash/Recycling",
    "request_reason": "Request a Large Item Pick Up",
    "date_created": "2023-03-31T16:09:21.000",
    "date_modified": "2023-03-31T16:09:22.000",
    "request_status": "Pending",
    "responsible_agency": "Department of Sanitation",
    "final_address": "8921 Birch St",
    "address_councildis": "A",
    "status": "Assigned to Contractor",
    "contractor": "Richards Disposal",
    "rowid": "987673",
    "final_x": "3660726.30112",
    "final_y": "531457.134275",
    "longitude": "-90.13366862215743",
    "latitude": "29.955937212163935",
    "geocoded_column": {
      "latitude": "29.955937212163935",
      "longitude": "-90.13366862215743"
    }
  },
  {
    "service_request": "2023-987672",
    "request_type": "Trash/Recycling",
    "request_reason": "Order Recycling Cart",
    "date_created": "2023-03-31T16:06:05.000",
    "date_modified": "2023-03-31T16:06:05.000",
    "request_status": "Pending",
    "responsible_agency": "Department of Sanitation",
    "final_address": "3414 N Rampart St",
    "address_councildis": "C",
    "status": "Pending",
    "rowid": "987672",
    "final_x": "3690182.00611",
    "final_y": "535216.250054",
    "longitude": "-90.04052408079178",
    "latitude": "29.965392620938854",
    "geocoded_column": {
      "latitude": "29.965392620938854",
      "longitude": "-90.04052408079178"
    }
  },
  {
    "service_request": "2023-987671",
    "request_type": "Trash/Recycling",
    "request_reason": "Order Recycling Cart",
    "date_created": "2023-03-31T16:05:37.000",
    "date_modified": "2023-03-31T16:05:38.000",
    "request_status": "Pending",
    "responsible_agency": "Department of Sanitation",
    "final_address": "3412 N Rampart St",
    "address_councildis": "C",
    "status": "Pending",
    "rowid": "987671",
    "final_x": "3690198.6728",
    "final_y": "535213.194502",
    "longitude": "-90.0404715572179",
    "latitude": "29.965383702174115",
    "geocoded_column": {
      "latitude": "29.965383702174115",
      "longitude": "-90.0404715572179"
    }
  },
  {
    "service_request": "2023-987670",
    "request_type": "Trash/Recycling",
    "request_reason": "Order Recycling Cart",
    "date_created": "2023-03-31T15:54:37.000",
    "date_modified": "2023-03-31T15:54:37.000",
    "request_status": "Pending",
    "responsible_agency": "Department of Sanitation",
    "final_address": "835 Montegut St",
    "address_councildis": "C",
    "status": "Pending",
    "rowid": "987670",
    "final_x": "3688246.0374",
    "final_y": "535267.634822",
    "longitude": "-90.04663594004876",
    "latitude": "29.96559382935748",
    "geocoded_column": {
      "latitude": "29.96559382935748",
      "longitude": "-90.04663594004876"
    }
  },
  {
    "service_request": "2023-987668",
    "request_type": "Trash/Recycling",
    "request_reason": "Missed Trash Pick-Up",
    "date_created": "2023-03-31T15:53:07.000",
    "date_modified": "2023-03-31T15:54:12.000",
    "request_status": "Pending",
    "responsible_agency": "Department of Sanitation",
    "final_address": "New Orleans,LA",
    "address_councildis": "B",
    "status": "Assigned to Contractor",
    "contractor": "Richards Disposal",
    "rowid": "987668",
    "final_x": "3679063.61397",
    "final_y": "521101.689977",
    "longitude": "-90.076124498656",
    "latitude": "29.926922535638944",
    "geocoded_column": {
      "latitude": "29.926922535638944",
      "longitude": "-90.076124498656"
    }
  },
  {
    "service_request": "2023-987667",
    "request_type": "Trash/Recycling",
    "request_reason": "Order Trash Cart",
    "date_created": "2023-03-31T15:52:56.000",
    "date_modified": "2023-03-31T15:53:06.000",
    "request_status": "Pending",
    "responsible_agency": "Department of Sanitation",
    "final_address": "2102 N Claiborne Ave Apt 2B",
    "address_councildis": "C",
    "status": "Assigned to Contractor",
    "contractor": "IV Waste",
    "rowid": "987667",
    "final_x": "3684501.85685",
    "final_y": "537925.324681",
    "longitude": "-90.0583665044651",
    "latitude": "29.973016630978968",
    "geocoded_column": {
      "latitude": "29.973016630978968",
      "longitude": "-90.0583665044651"
    }
  },
  {
    "service_request": "2023-987666",
    "request_type": "Trash/Recycling",
    "request_reason": "Replace Recycling Cart",
    "date_created": "2023-03-31T15:49:32.000",
    "date_modified": "2023-03-31T15:49:32.000",
    "request_status": "Pending",
    "responsible_agency": "Department of Sanitation",
    "final_address": "837 Montegut St",
    "address_councildis": "C",
    "status": "Pending",
    "rowid": "987666",
    "final_x": "3688252.28739",
    "final_y": "535282.912582",
    "longitude": "-90.04661566110596",
    "latitude": "29.965635644889634",
    "geocoded_column": {
      "latitude": "29.965635644889634",
      "longitude": "-90.04661566110596"
    }
  },
  {
    "service_request": "2023-987665",
    "request_type": "Trash/Recycling",
    "request_reason": "MIssed Recycling Pick-Up",
    "date_created": "2023-03-31T15:44:11.000",
    "date_modified": "2023-03-31T15:44:12.000",
    "request_status": "Pending",
    "responsible_agency": "Department of Sanitation",
    "final_address": "4826 Stemway Dr",
    "address_councildis": "D",
    "status": "Assigned to Contractor",
    "contractor": "Waste Pro",
    "rowid": "987665",
    "final_x": "3696802.33955",
    "final_y": "554625.842904",
    "longitude": "-90.01891437108576",
    "latitude": "30.018554837545157",
    "geocoded_column": {
      "latitude": "30.018554837545157",
      "longitude": "-90.01891437108576"
    }
  },
  {
    "service_request": "2023-987663",
    "request_type": "Property Maintenance",
    "request_reason": "Property Maintenance",
    "date_created": "2023-03-31T15:44:00.000",
    "date_modified": "2023-03-31T15:44:01.000",
    "request_status": "Pending",
    "responsible_agency": "Department of Code Enforcement",
    "final_address": "4814 Dodt Ave",
    "address_councildis": "E",
    "status": "Pending",
    "rowid": "987663",
    "final_x": "3705308.70871",
    "final_y": "555816.001689",
    "longitude": "-89.99199353599175",
    "latitude": "30.02155626691768",
    "geocoded_column": {
      "latitude": "30.02155626691768",
      "longitude": "-89.99199353599175"
    }
  },
  {
    "service_request": "2023-987662",
    "request_type": "Trash/Recycling",
    "request_reason": "Order Trash Cart",
    "date_created": "2023-03-31T15:42:50.000",
    "date_modified": "2023-03-31T15:42:51.000",
    "request_status": "Pending",
    "responsible_agency": "Department of Sanitation",
    "final_address": "2530 Music St",
    "address_councildis": "D",
    "status": "Assigned to Contractor",
    "contractor": "IV Waste",
    "rowid": "987662",
    "final_x": "3686351.04687",
    "final_y": "541893.420044",
    "longitude": "-90.05238631913609",
    "latitude": "29.98387078990624",
    "geocoded_column": {
      "latitude": "29.98387078990624",
      "longitude": "-90.05238631913609"
    }
  },
  {
    "service_request": "2023-987661",
    "request_type": "Trash/Recycling",
    "request_reason": "Repair Trash Cart",
    "date_created": "2023-03-31T15:42:17.000",
    "date_modified": "2023-03-31T15:42:18.000",
    "request_status": "Pending",
    "responsible_agency": "Department of Sanitation",
    "final_address": "2931 St Philip St",
    "address_councildis": "A",
    "status": "Assigned to Contractor",
    "contractor": "Richards Disposal",
    "rowid": "987661",
    "final_x": "3676481.30613",
    "final_y": "538657.266697",
    "longitude": "-90.08367177299525",
    "latitude": "29.97527217357073",
    "geocoded_column": {
      "latitude": "29.97527217357073",
      "longitude": "-90.08367177299525"
    }
  },
  {
    "service_request": "2023-987660",
    "request_type": "Trash/Recycling",
    "request_reason": "Missed Trash Pick-Up",
    "date_created": "2023-03-31T15:41:40.000",
    "date_modified": "2023-03-31T17:22:23.000",
    "case_close_date": "2023-03-31T12:22:23.000",
    "request_status": "Closed",
    "responsible_agency": "Department of Sanitation",
    "final_address": "6746 Bamberry St",
    "address_councildis": "E",
    "status": "Assigned to Contractor",
    "contractor": "Waste Pro",
    "contractor_action": "Completed",
    "rowid": "987660",
    "final_x": "3698517.30916",
    "final_y": "558900.880028",
    "longitude": "-90.01334011812354",
    "latitude": "30.030255351939946",
    "geocoded_column": {
      "latitude": "30.030255351939946",
      "longitude": "-90.01334011812354"
    }
  },
  {
    "service_request": "2023-987659",
    "request_type": "Traffic Signals/Signs/Striping/Streetlights",
    "request_reason": "Street Light Knocked Down/Leaning",
    "date_created": "2023-03-31T15:41:27.000",
    "date_modified": "2023-03-31T15:41:27.000",
    "request_status": "Pending",
    "responsible_agency": "Department of Public Works",
    "final_address": "1549 Verna St",
    "address_councildis": "A",
    "status": "Pending",
    "contractor": "Legacy Professional Services",
    "rowid": "987659",
    "final_x": "3675937.4436",
    "final_y": "541789.369228",
    "longitude": "-90.08528169306148",
    "latitude": "29.983900676384817",
    "geocoded_column": {
      "latitude": "29.983900676384817",
      "longitude": "-90.08528169306148"
    }
  },
  {
    "service_request": "2023-987658",
    "request_type": "Trash/Recycling",
    "request_reason": "Request a Large Item Pick Up",
    "date_created": "2023-03-31T15:40:38.000",
    "date_modified": "2023-03-31T15:40:39.000",
    "request_status": "Pending",
    "responsible_agency": "Department of Sanitation",
    "final_address": "420 Pacific Ave",
    "address_councildis": "C",
    "status": "Assigned to Contractor",
    "contractor": "Richards Disposal",
    "rowid": "987658",
    "final_x": "3688565.30102",
    "final_y": "530119.541441",
    "longitude": "-90.04581039814488",
    "latitude": "29.95142849321886",
    "geocoded_column": {
      "latitude": "29.95142849321886",
      "longitude": "-90.04581039814488"
    }
  },
  {
    "service_request": "2023-987657",
    "request_type": "Trash/Recycling",
    "request_reason": "Replace Trash Cart",
    "date_created": "2023-03-31T15:36:41.000",
    "date_modified": "2023-03-31T15:37:27.000",
    "request_status": "Pending",
    "responsible_agency": "Department of Sanitation",
    "final_address": "739 Bourbon St",
    "address_councildis": "C",
    "status": "Assigned to Contractor",
    "contractor": "Empire Services",
    "rowid": "987657",
    "final_x": "3682453.08591",
    "final_y": "532960.399812",
    "longitude": "-90.06501047802857",
    "latitude": "29.959427319255727",
    "geocoded_column": {
      "latitude": "29.959427319255727",
      "longitude": "-90.06501047802857"
    }
  },
  {
    "service_request": "2023-987656",
    "request_type": "Trash/Recycling",
    "request_reason": "Illegal Dumping",
    "date_created": "2023-03-31T15:29:43.000",
    "date_modified": "2023-03-31T15:29:43.000",
    "request_status": "Pending",
    "responsible_agency": "Department of Sanitation",
    "final_address": "9317 Apricot St",
    "address_councildis": "A",
    "status": "Pending",
    "rowid": "987656",
    "final_x": "3662612.33779",
    "final_y": "535606.695366",
    "longitude": "-90.12757526127872",
    "latitude": "29.96729272185434",
    "geocoded_column": {
      "latitude": "29.96729272185434",
      "longitude": "-90.12757526127872"
    }
  },
  {
    "service_request": "2023-987655",
    "request_type": "Roads/Drainage",
    "request_reason": "Pothole",
    "date_created": "2023-03-31T15:29:07.000",
    "date_modified": "2023-03-31T15:35:23.000",
    "request_status": "Pending",
    "responsible_agency": "Department of Public Works",
    "final_address": "New Orleans,LA",
    "address_councildis": "B",
    "rowid": "987655",
    "final_x": "3679063.61397",
    "final_y": "521101.689977",
    "longitude": "-90.076124498656",
    "latitude": "29.926922535638944",
    "geocoded_column": {
      "latitude": "29.926922535638944",
      "longitude": "-90.076124498656"
    }
  },
  {
    "service_request": "2023-987654",
    "request_type": "Trash/Recycling",
    "request_reason": "MIssed Recycling Pick-Up",
    "date_created": "2023-03-31T15:23:56.000",
    "date_modified": "2023-03-31T15:23:56.000",
    "request_status": "Pending",
    "responsible_agency": "Department of Sanitation",
    "final_address": "722 Alvar St",
    "address_councildis": "C",
    "status": "Assigned to Contractor",
    "contractor": "IV Waste",
    "rowid": "987654",
    "final_x": "3691130.01712",
    "final_y": "534088.827269",
    "longitude": "-90.03757057926335",
    "latitude": "29.962263158864836",
    "geocoded_column": {
      "latitude": "29.962263158864836",
      "longitude": "-90.03757057926335"
    }
  },
  {
    "service_request": "2023-987653",
    "request_type": "Trash/Recycling",
    "request_reason": "MIssed Recycling Pick-Up",
    "date_created": "2023-03-31T15:23:55.000",
    "date_modified": "2023-03-31T15:23:56.000",
    "request_status": "Pending",
    "responsible_agency": "Department of Sanitation",
    "final_address": "722 Alvar St",
    "address_councildis": "C",
    "status": "Assigned to Contractor",
    "contractor": "IV Waste",
    "rowid": "987653",
    "final_x": "3691130.01712",
    "final_y": "534088.827269",
    "longitude": "-90.03757057926335",
    "latitude": "29.962263158864836",
    "geocoded_column": {
      "latitude": "29.962263158864836",
      "longitude": "-90.03757057926335"
    }
  },
  {
    "service_request": "2023-987652",
    "request_type": "Trash/Recycling",
    "request_reason": "Order Trash Cart",
    "date_created": "2023-03-31T15:22:58.000",
    "date_modified": "2023-03-31T15:22:58.000",
    "request_status": "Pending",
    "responsible_agency": "Department of Sanitation",
    "final_address": "7721 S Coronet Ct",
    "address_councildis": "E",
    "status": "Assigned to Contractor",
    "contractor": "Waste Pro",
    "rowid": "987652",
    "final_x": "3702584.52631",
    "final_y": "557266.203035",
    "longitude": "-90.00054785988071",
    "latitude": "30.025631165453145",
    "geocoded_column": {
      "latitude": "30.025631165453145",
      "longitude": "-90.00054785988071"
    }
  },
  {
    "service_request": "2023-987651",
    "request_type": "Abandoned Vehicles",
    "request_reason": "Abandoned/Junk Vehicles",
    "date_created": "2023-03-31T15:21:53.000",
    "date_modified": "2023-03-31T15:21:53.000",
    "request_status": "Pending",
    "responsible_agency": "Department of Public Works",
    "final_address": "8425 Colapissa St",
    "address_councildis": "A",
    "status": "Pending",
    "rowid": "987651",
    "final_x": "3665610.13325",
    "final_y": "534296.206725",
    "longitude": "-90.11815203516811",
    "latitude": "29.96360223028469",
    "geocoded_column": {
      "latitude": "29.96360223028469",
      "longitude": "-90.11815203516811"
    }
  },
  {
    "service_request": "2023-987650",
    "request_type": "Trash/Recycling",
    "request_reason": "Return Recycling Cart",
    "date_created": "2023-03-31T15:18:25.000",
    "date_modified": "2023-03-31T15:18:25.000",
    "request_status": "Pending",
    "responsible_agency": "Department of Sanitation",
    "final_address": "1121 Eighth St",
    "address_councildis": "B",
    "status": "Pending",
    "rowid": "987650",
    "final_x": "3676038.46581",
    "final_y": "520394.83852",
    "longitude": "-90.085698397856",
    "latitude": "29.925069842697454",
    "geocoded_column": {
      "latitude": "29.925069842697454",
      "longitude": "-90.085698397856"
    }
  },
  {
    "service_request": "2023-987649",
    "request_type": "Trash/Recycling",
    "request_reason": "Request a Large Item Pick Up",
    "date_created": "2023-03-31T15:16:11.000",
    "date_modified": "2023-03-31T15:16:11.000",
    "request_status": "Pending",
    "responsible_agency": "Department of Sanitation",
    "final_address": "1121 Eighth St",
    "address_councildis": "B",
    "status": "Assigned to Contractor",
    "contractor": "Richards Disposal",
    "rowid": "987649",
    "final_x": "3676038.46581",
    "final_y": "520394.83852",
    "longitude": "-90.085698397856",
    "latitude": "29.925069842697454",
    "geocoded_column": {
      "latitude": "29.925069842697454",
      "longitude": "-90.085698397856"
    }
  },
  {
    "service_request": "2023-987648",
    "request_type": "Trash/Recycling",
    "request_reason": "Missed Trash Pick-Up",
    "date_created": "2023-03-31T15:14:22.000",
    "date_modified": "2023-03-31T15:14:22.000",
    "request_status": "Pending",
    "responsible_agency": "Department of Sanitation",
    "final_address": "6928 Dorian St",
    "address_councildis": "D",
    "status": "Assigned to Contractor",
    "contractor": "Waste Pro",
    "rowid": "987648",
    "final_x": "3696214.85303",
    "final_y": "556383.801114",
    "longitude": "-90.02070697512308",
    "latitude": "30.023407074363494",
    "geocoded_column": {
      "latitude": "30.023407074363494",
      "longitude": "-90.02070697512308"
    }
  },
  {
    "service_request": "2023-987647",
    "request_type": "Trash/Recycling",
    "request_reason": "Request a Large Item Pick Up",
    "date_created": "2023-03-31T15:13:52.000",
    "date_modified": "2023-03-31T15:13:52.000",
    "request_status": "Pending",
    "responsible_agency": "Department of Sanitation",
    "final_address": "4512 S Miro St",
    "address_councildis": "B",
    "status": "Assigned to Contractor",
    "contractor": "Richards Disposal",
    "rowid": "987647",
    "final_x": "3669626.14554",
    "final_y": "527725.079359",
    "longitude": "-90.10569217126428",
    "latitude": "29.94541607089053",
    "geocoded_column": {
      "latitude": "29.94541607089053",
      "longitude": "-90.10569217126428"
    }
  },
  {
    "service_request": "2023-987646",
    "request_type": "Abandoned Vehicles",
    "request_reason": "Abandoned/Junk Vehicles",
    "date_created": "2023-03-31T15:12:16.000",
    "date_modified": "2023-03-31T15:12:16.000",
    "request_status": "Pending",
    "responsible_agency": "Department of Public Works",
    "final_address": "1817 Dauphine St",
    "address_councildis": "C",
    "status": "Pending",
    "rowid": "987646",
    "final_x": "3683850.00764",
    "final_y": "535157.989062",
    "longitude": "-90.06052225043676",
    "latitude": "29.965427343967743",
    "geocoded_column": {
      "latitude": "29.965427343967743",
      "longitude": "-90.06052225043676"
    }
  },
  {
    "service_request": "2023-987645",
    "request_type": "Safety & Permits",
    "request_reason": "Licenses & Permits",
    "date_created": "2023-03-31T15:09:39.000",
    "date_modified": "2023-03-31T15:09:39.000",
    "request_status": "Pending",
    "responsible_agency": "Safety and Permits",
    "final_address": "1817 Dauphine St",
    "address_councildis": "C",
    "status": "Pending",
    "rowid": "987645",
    "final_x": "3683850.00764",
    "final_y": "535157.989062",
    "longitude": "-90.06052225043676",
    "latitude": "29.965427343967743",
    "geocoded_column": {
      "latitude": "29.965427343967743",
      "longitude": "-90.06052225043676"
    }
  },
  {
    "service_request": "2023-987644",
    "request_type": "Trash/Recycling",
    "request_reason": "Request a Large Item Pick Up",
    "date_created": "2023-03-31T15:04:58.000",
    "date_modified": "2023-03-31T15:04:59.000",
    "request_status": "Pending",
    "responsible_agency": "Department of Sanitation",
    "final_address": "1621 Monroe St",
    "address_councildis": "A",
    "status": "Assigned to Contractor",
    "contractor": "Richards Disposal",
    "rowid": "987644",
    "final_x": "3661494.45779",
    "final_y": "530968.621058",
    "longitude": "-90.1312592191754",
    "latitude": "29.95457182216671",
    "geocoded_column": {
      "latitude": "29.95457182216671",
      "longitude": "-90.1312592191754"
    }
  },
  {
    "service_request": "2023-987643",
    "request_type": "Trash/Recycling",
    "request_reason": "Order Trash Cart",
    "date_created": "2023-03-31T15:04:47.000",
    "date_modified": "2023-03-31T15:04:48.000",
    "request_status": "Pending",
    "responsible_agency": "Department of Sanitation",
    "final_address": "1622 Foy St",
    "address_councildis": "D",
    "status": "Assigned to Contractor",
    "contractor": "IV Waste",
    "rowid": "987643",
    "final_x": "3679840.13346",
    "final_y": "546595.652945",
    "longitude": "-90.07278789258105",
    "latitude": "29.99699880688323",
    "geocoded_column": {
      "latitude": "29.99699880688323",
      "longitude": "-90.07278789258105"
    }
  },
  {
    "service_request": "2023-987642",
    "request_type": "Roads/Drainage",
    "request_reason": "Alley Way",
    "date_created": "2023-03-31T15:02:59.000",
    "date_modified": "2023-03-31T15:02:59.000",
    "request_status": "Pending",
    "responsible_agency": "Department of Public Works",
    "final_address": "6800 Memphis St",
    "address_councildis": "A",
    "status": "Pending",
    "rowid": "987642",
    "final_x": "3669593.25518",
    "final_y": "552677.948566",
    "longitude": "-90.10495142124147",
    "latitude": "30.014028972123743",
    "geocoded_column": {
      "latitude": "30.014028972123743",
      "longitude": "-90.10495142124147"
    }
  },
  {
    "service_request": "2023-987641",
    "request_type": "Trash/Recycling",
    "request_reason": "Illegal Dumping",
    "date_created": "2023-03-31T15:02:29.000",
    "date_modified": "2023-03-31T15:04:09.000",
    "request_status": "Pending",
    "responsible_agency": "Department of Sanitation",
    "final_address": "1467 N Dorgenois St",
    "address_councildis": "D",
    "status": "Pending",
    "rowid": "987641",
    "final_x": "3679047.37538",
    "final_y": "539200.35329",
    "longitude": "-90.07554861610778",
    "latitude": "29.97668827367373",
    "geocoded_column": {
      "latitude": "29.97668827367373",
      "longitude": "-90.07554861610778"
    }
  },
  {
    "service_request": "2023-987640",
    "request_type": "Trash/Recycling",
    "request_reason": "Illegal Dumping",
    "date_created": "2023-03-31T14:58:37.000",
    "date_modified": "2023-03-31T14:58:37.000",
    "request_status": "Pending",
    "responsible_agency": "Department of Sanitation",
    "final_address": "4601 Iberville St",
    "address_councildis": "A",
    "status": "Pending",
    "rowid": "987640",
    "final_x": "3669685.52455",
    "final_y": "540067.124875",
    "longitude": "-90.10508698912976",
    "latitude": "29.97935084859557",
    "geocoded_column": {
      "latitude": "29.97935084859557",
      "longitude": "-90.10508698912976"
    }
  },
  {
    "service_request": "2023-987639",
    "request_type": "Abandoned Vehicles",
    "request_reason": "Abandoned/Junk Vehicles",
    "date_created": "2023-03-31T14:58:11.000",
    "date_modified": "2023-03-31T14:58:11.000",
    "request_status": "Pending",
    "responsible_agency": "Department of Public Works",
    "final_address": "5641 Canal Blvd",
    "address_councildis": "A",
    "status": "Pending",
    "rowid": "987639",
    "final_x": "3668444.98446",
    "final_y": "545127.667983",
    "longitude": "-90.10883431302736",
    "latitude": "29.993302124145785",
    "geocoded_column": {
      "latitude": "29.993302124145785",
      "longitude": "-90.10883431302736"
    }
  },
  {
    "service_request": "2023-987638",
    "request_type": "Property Maintenance",
    "request_reason": "Property Maintenance",
    "date_created": "2023-03-31T14:58:05.000",
    "date_modified": "2023-03-31T14:59:15.000",
    "request_status": "Pending",
    "responsible_agency": "Department of Code Enforcement",
    "final_address": "4301 Chef Menteur Hwy",
    "address_councildis": "D",
    "status": "Pending",
    "rowid": "987638",
    "final_x": "3690389.84374",
    "final_y": "549700.0157",
    "longitude": "-90.03935121726904",
    "latitude": "30.00521133518395",
    "geocoded_column": {
      "latitude": "30.00521133518395",
      "longitude": "-90.03935121726904"
    }
  },
  {
    "service_request": "2023-987637",
    "request_type": "Property Maintenance",
    "request_reason": "Property Maintenance",
    "date_created": "2023-03-31T14:57:39.000",
    "date_modified": "2023-03-31T14:57:39.000",
    "request_status": "Pending",
    "responsible_agency": "Department of Code Enforcement",
    "final_address": "4525 Chef Menteur Hwy",
    "address_councildis": "D",
    "status": "Pending",
    "rowid": "987637",
    "final_x": "3691232.07824",
    "final_y": "549838.73378",
    "longitude": "-90.03668546912071",
    "latitude": "30.005566579555065",
    "geocoded_column": {
      "latitude": "30.005566579555065",
      "longitude": "-90.03668546912071"
    }
  },
  {
    "service_request": "2023-987636",
    "request_type": "Property Maintenance",
    "request_reason": "Property Maintenance",
    "date_created": "2023-03-31T14:56:51.000",
    "date_modified": "2023-03-31T14:56:52.000",
    "request_status": "Pending",
    "responsible_agency": "Department of Code Enforcement",
    "final_address": "4301 Louisa Dr",
    "address_councildis": "D",
    "status": "Pending",
    "rowid": "987636",
    "final_x": "3691389.74083",
    "final_y": "550011.353364",
    "longitude": "-90.03618120581444",
    "latitude": "30.006036313262985",
    "geocoded_column": {
      "latitude": "30.006036313262985",
      "longitude": "-90.03618120581444"
    }
  },
  {
    "service_request": "2023-987635",
    "request_type": "Traffic Signals/Signs/Striping/Streetlights",
    "request_reason": "Road Surface Marking Maintenance-Parking Lane",
    "date_created": "2023-03-31T14:56:22.000",
    "date_modified": "2023-03-31T14:56:22.000",
    "request_status": "Pending",
    "responsible_agency": "Department of Public Works",
    "final_address": "1827 Dauphine St",
    "address_councildis": "C",
    "status": "Pending",
    "rowid": "987635",
    "final_x": "3683930.05525",
    "final_y": "535175.059398",
    "longitude": "-90.0602688651886",
    "latitude": "29.96547183632802",
    "geocoded_column": {
      "latitude": "29.96547183632802",
      "longitude": "-90.0602688651886"
    }
  },
  {
    "service_request": "2023-987634",
    "request_type": "Trash/Recycling",
    "request_reason": "Missed Trash Pick-Up",
    "date_created": "2023-03-31T14:50:31.000",
    "date_modified": "2023-03-31T17:23:36.000",
    "case_close_date": "2023-03-31T12:23:36.000",
    "request_status": "Closed",
    "responsible_agency": "Department of Sanitation",
    "final_address": "6744 Coventry St",
    "address_councildis": "E",
    "status": "Assigned to Contractor",
    "contractor": "Waste Pro",
    "contractor_action": "Completed",
    "rowid": "987634",
    "final_x": "3698290.38775",
    "final_y": "559485.849181",
    "longitude": "-90.01403590386757",
    "latitude": "30.03187097786705",
    "geocoded_column": {
      "latitude": "30.03187097786705",
      "longitude": "-90.01403590386757"
    }
  },
  {
    "service_request": "2023-987633",
    "request_type": "Traffic Signals/Signs/Striping/Streetlights",
    "request_reason": "Additional signage",
    "date_created": "2023-03-31T14:48:46.000",
    "date_modified": "2023-03-31T14:51:11.000",
    "request_status": "Pending",
    "responsible_agency": "Department of Public Works",
    "final_address": "CHEF MENTEUR HWY & LOUISA ST",
    "address_councildis": "D",
    "status": "Pending",
    "rowid": "987633",
    "final_x": "3691347.4",
    "final_y": "549732.88",
    "longitude": "-90.03632492843472",
    "latitude": "30.00527193180098",
    "geocoded_column": {
      "latitude": "30.00527193180098",
      "longitude": "-90.03632492843472"
    }
  },
  {
    "service_request": "2023-987632",
    "request_type": "Trash/Recycling",
    "request_reason": "Missed Trash Pick-Up",
    "date_created": "2023-03-31T14:46:01.000",
    "date_modified": "2023-03-31T14:46:02.000",
    "request_status": "Pending",
    "responsible_agency": "Department of Sanitation",
    "final_address": "1432 Touro St",
    "address_councildis": "C",
    "status": "Assigned to Contractor",
    "contractor": "IV Waste",
    "rowid": "987632",
    "final_x": "3684097.95157",
    "final_y": "537611.196104",
    "longitude": "-90.05965314158549",
    "latitude": "29.972165238059002",
    "geocoded_column": {
      "latitude": "29.972165238059002",
      "longitude": "-90.05965314158549"
    }
  },
  {
    "service_request": "2023-987631",
    "request_type": "Trash/Recycling",
    "request_reason": "Order Trash Cart",
    "date_created": "2023-03-31T14:42:47.000",
    "date_modified": "2023-03-31T14:42:48.000",
    "request_status": "Pending",
    "responsible_agency": "Department of Sanitation",
    "final_address": "1901 Alvar St",
    "address_councildis": "D",
    "status": "Assigned to Contractor",
    "contractor": "IV Waste",
    "rowid": "987631",
    "final_x": "3692293.22416",
    "final_y": "538409.511689",
    "longitude": "-90.03374260754252",
    "latitude": "29.97410729480938",
    "geocoded_column": {
      "latitude": "29.97410729480938",
      "longitude": "-90.03374260754252"
    }
  },
  {
    "service_request": "2023-987628",
    "request_type": "Trash/Recycling",
    "request_reason": "Request a Large Item Pick Up",
    "date_created": "2023-03-31T14:38:40.000",
    "date_modified": "2023-03-31T14:38:41.000",
    "request_status": "Pending",
    "responsible_agency": "Department of Sanitation",
    "status": "Assigned to Contractor",
    "rowid": "987628",
    "longitude": "0.0",
    "latitude": "0.0",
    "geocoded_column": {
      "latitude": "0.0",
      "longitude": "0.0"
    }
  },
  {
    "service_request": "2023-987627",
    "request_type": "Trash/Recycling",
    "request_reason": "Missed Trash Pick-Up",
    "date_created": "2023-03-31T14:38:24.000",
    "date_modified": "2023-03-31T14:38:24.000",
    "request_status": "Pending",
    "responsible_agency": "Department of Sanitation",
    "final_address": "2227 Monticello St",
    "address_councildis": "E",
    "status": "Assigned to Contractor",
    "contractor": "Waste Pro",
    "rowid": "987627",
    "final_x": "3700683.97149",
    "final_y": "537635.031368",
    "longitude": "-90.00727119033746",
    "latitude": "29.97171341259305",
    "geocoded_column": {
      "latitude": "29.97171341259305",
      "longitude": "-90.00727119033746"
    }
  },
  {
    "service_request": "2023-987626",
    "request_type": "Property Maintenance",
    "request_reason": "Property Maintenance",
    "date_created": "2023-03-31T14:37:20.000",
    "date_modified": "2023-03-31T14:37:21.000",
    "request_status": "Pending",
    "responsible_agency": "Department of Code Enforcement",
    "final_address": "4521 Stephen Girard Ave",
    "address_councildis": "D",
    "status": "Pending",
    "rowid": "987626",
    "final_x": "3690973.43472",
    "final_y": "550423.289364",
    "longitude": "-90.03748169411762",
    "latitude": "30.007181937698014",
    "geocoded_column": {
      "latitude": "30.007181937698014",
      "longitude": "-90.03748169411762"
    }
  },
  {
    "service_request": "2023-987625",
    "request_type": "Trash/Recycling",
    "request_reason": "Request a Large Item Pick Up",
    "date_created": "2023-03-31T14:37:05.000",
    "date_modified": "2023-03-31T14:37:06.000",
    "request_status": "Pending",
    "responsible_agency": "Department of Sanitation",
    "final_address": "4871 Metropolitan Dr",
    "address_councildis": "D",
    "status": "Assigned to Contractor",
    "contractor": "IV Waste",
    "rowid": "987625",
    "final_x": "3690641.21385",
    "final_y": "551396.126549",
    "longitude": "-90.0384965368346",
    "latitude": "30.00986720823679",
    "geocoded_column": {
      "latitude": "30.00986720823679",
      "longitude": "-90.0384965368346"
    }
  },
  {
    "service_request": "2023-987624",
    "request_type": "Trash/Recycling",
    "request_reason": "Request a Large Item Pick Up",
    "date_created": "2023-03-31T14:34:17.000",
    "date_modified": "2023-03-31T14:34:18.000",
    "request_status": "Pending",
    "responsible_agency": "Department of Sanitation",
    "final_address": "4411 Elba St",
    "address_councildis": "B",
    "status": "Assigned to Contractor",
    "contractor": "Richards Disposal",
    "rowid": "987624",
    "final_x": "3669746.47706",
    "final_y": "530454.503874",
    "longitude": "-90.1052198805687",
    "latitude": "29.952917550353273",
    "geocoded_column": {
      "latitude": "29.952917550353273",
      "longitude": "-90.1052198805687"
    }
  },
  {
    "service_request": "2023-987623",
    "request_type": "Trash/Recycling",
    "request_reason": "MIssed Recycling Pick-Up",
    "date_created": "2023-03-31T14:29:42.000",
    "date_modified": "2023-03-31T14:29:43.000",
    "request_status": "Pending",
    "responsible_agency": "Department of Sanitation",
    "final_address": "4927 Evangeline Dr",
    "address_councildis": "E",
    "status": "Assigned to Contractor",
    "contractor": "Waste Pro",
    "rowid": "987623",
    "final_x": "3709003.30968",
    "final_y": "556772.89321",
    "longitude": "-89.98028399548865",
    "latitude": "30.024067907022584",
    "geocoded_column": {
      "latitude": "30.024067907022584",
      "longitude": "-89.98028399548865"
    }
  },
  {
    "service_request": "2023-987622",
    "request_type": "Abandoned Vehicles",
    "request_reason": "Abandoned/Junk Vehicles",
    "date_created": "2023-03-31T14:28:58.000",
    "date_modified": "2023-03-31T14:31:10.000",
    "request_status": "Pending",
    "responsible_agency": "Department of Public Works",
    "final_address": "7500 BLK Forum Blvd",
    "address_councildis": "E",
    "status": "Pending",
    "rowid": "987622",
    "final_x": "3720466.31887",
    "final_y": "572976.829884",
    "longitude": "-89.94344246581443",
    "latitude": "30.068244895695305",
    "geocoded_column": {
      "latitude": "30.068244895695305",
      "longitude": "-89.94344246581443"
    }
  },
  {
    "service_request": "2023-987621",
    "request_type": "Roads/Drainage",
    "request_reason": "Street Subsidence (Sinking)",
    "date_created": "2023-03-31T14:26:09.000",
    "date_modified": "2023-03-31T14:26:10.000",
    "request_status": "Pending",
    "responsible_agency": "Department of Public Works",
    "final_address": "217 S Pierce St",
    "address_councildis": "A",
    "status": "Pending",
    "rowid": "987621",
    "final_x": "3671049.43585",
    "final_y": "537620.35156",
    "longitude": "-90.10086232953597",
    "latitude": "29.972582779646924",
    "geocoded_column": {
      "latitude": "29.972582779646924",
      "longitude": "-90.10086232953597"
    }
  },
  {
    "service_request": "2023-987620",
    "request_type": "Abandoned Vehicles",
    "request_reason": "Vehicle Blocking Your Driveway",
    "date_created": "2023-03-31T14:25:38.000",
    "date_modified": "2023-03-31T14:25:38.000",
    "request_status": "Pending",
    "responsible_agency": "Department of Public Works",
    "final_address": "1028 Thalia St",
    "address_councildis": "B",
    "status": "Pending",
    "rowid": "987620",
    "final_x": "3680645.59279",
    "final_y": "525153.865085",
    "longitude": "-90.07098968894988",
    "latitude": "29.938016859046737",
    "geocoded_column": {
      "latitude": "29.938016859046737",
      "longitude": "-90.07098968894988"
    }
  },
  {
    "service_request": "2023-987619",
    "request_type": "Abandoned Vehicles",
    "request_reason": "Abandoned/Junk Vehicles",
    "date_created": "2023-03-31T14:23:24.000",
    "date_modified": "2023-03-31T14:23:25.000",
    "request_status": "Pending",
    "responsible_agency": "Department of Public Works",
    "final_address": "843 Poland Ave",
    "address_councildis": "C",
    "status": "Pending",
    "rowid": "987619",
    "final_x": "3692889.61769",
    "final_y": "534157.792837",
    "longitude": "-90.03201156754514",
    "latitude": "29.962397959207845",
    "geocoded_column": {
      "latitude": "29.962397959207845",
      "longitude": "-90.03201156754514"
    }
  },
  {
    "service_request": "2023-987618",
    "request_type": "Roads/Drainage",
    "request_reason": "Pothole",
    "date_created": "2023-03-31T14:22:11.000",
    "date_modified": "2023-03-31T14:22:11.000",
    "request_status": "Pending",
    "responsible_agency": "Department of Public Works",
    "final_address": "3811 Cleveland Ave",
    "address_councildis": "A",
    "status": "Pending",
    "rowid": "987618",
    "final_x": "3671735.78548",
    "final_y": "537372.847304",
    "longitude": "-90.09870313089804",
    "latitude": "29.971881909538084",
    "geocoded_column": {
      "latitude": "29.971881909538084",
      "longitude": "-90.09870313089804"
    }
  },
  {
    "service_request": "2023-987617",
    "request_type": "Property Maintenance",
    "request_reason": "Property Maintenance",
    "date_created": "2023-03-31T14:20:01.000",
    "date_modified": "2023-03-31T14:20:02.000",
    "request_status": "Pending",
    "responsible_agency": "Department of Code Enforcement",
    "final_address": "2622 Governor Nicholls St",
    "address_councildis": "D",
    "status": "Pending",
    "rowid": "987617",
    "final_x": "3678039.05646",
    "final_y": "538117.871497",
    "longitude": "-90.07877063363571",
    "latitude": "29.97374221645072",
    "geocoded_column": {
      "latitude": "29.97374221645072",
      "longitude": "-90.07877063363571"
    }
  },
  {
    "service_request": "2023-987616",
    "request_type": "Trash/Recycling",
    "request_reason": "Order Recycling Cart",
    "date_created": "2023-03-31T14:19:05.000",
    "date_modified": "2023-03-31T14:19:06.000",
    "request_status": "Pending",
    "responsible_agency": "Department of Sanitation",
    "final_address": "229 18Th St",
    "address_councildis": "A",
    "status": "Pending",
    "rowid": "987616",
    "final_x": "3665451.76704",
    "final_y": "548779.185619",
    "longitude": "-90.11816711206389",
    "latitude": "30.003430158007507",
    "geocoded_column": {
      "latitude": "30.003430158007507",
      "longitude": "-90.11816711206389"
    }
  },
  {
    "service_request": "2023-987615",
    "request_type": "Trash/Recycling",
    "request_reason": "Missed Trash Pick-Up",
    "date_created": "2023-03-31T14:17:47.000",
    "date_modified": "2023-03-31T14:17:48.000",
    "request_status": "Pending",
    "responsible_agency": "Department of Sanitation",
    "final_address": "1519 Clio St",
    "address_councildis": "B",
    "status": "Assigned to Contractor",
    "contractor": "Richards Disposal",
    "rowid": "987615",
    "final_x": "3680029.01269",
    "final_y": "526205.63603",
    "longitude": "-90.07289975933006",
    "latitude": "29.940927543440537",
    "geocoded_column": {
      "latitude": "29.940927543440537",
      "longitude": "-90.07289975933006"
    }
  },
  {
    "service_request": "2023-987614",
    "request_type": "Traffic Signals/Signs/Striping/Streetlights",
    "request_reason": "Street Light Outage/Malfunction",
    "date_created": "2023-03-31T14:17:33.000",
    "date_modified": "2023-03-31T14:17:34.000",
    "request_status": "Pending",
    "responsible_agency": "Department of Public Works",
    "final_address": "ALVAR ST & ALVAR ST OVERPASS",
    "address_councildis": "D",
    "status": "Assigned to Contractor",
    "contractor": "Legacy Professional Services",
    "rowid": "987614",
    "final_x": "3693362.73",
    "final_y": "542892.13",
    "longitude": "-90.0302038735231",
    "latitude": "29.986399489344116",
    "geocoded_column": {
      "latitude": "29.986399489344116",
      "longitude": "-90.0302038735231"
    }
  },
  {
    "service_request": "2023-987613",
    "request_type": "Tax and Revenue",
    "request_reason": "Occupational License Tax",
    "date_created": "2023-03-31T14:16:56.000",
    "date_modified": "2023-03-31T14:16:56.000",
    "request_status": "Pending",
    "responsible_agency": "Bureau of Revenue",
    "status": "Pending",
    "rowid": "987613",
    "longitude": "0.0",
    "latitude": "0.0",
    "geocoded_column": {
      "latitude": "0.0",
      "longitude": "0.0"
    }
  },
  {
    "service_request": "2023-987612",
    "request_type": "Property Maintenance",
    "request_reason": "Property Maintenance",
    "date_created": "2023-03-31T14:16:33.000",
    "date_modified": "2023-03-31T14:16:33.000",
    "request_status": "Pending",
    "responsible_agency": "Department of Code Enforcement",
    "status": "Pending",
    "rowid": "987612",
    "longitude": "0.0",
    "latitude": "0.0",
    "geocoded_column": {
      "latitude": "0.0",
      "longitude": "0.0"
    }
  },
  {
    "service_request": "2023-987611",
    "request_type": "Trash/Recycling",
    "request_reason": "Request a Large Item Pick Up",
    "date_created": "2023-03-31T14:16:15.000",
    "date_modified": "2023-03-31T14:16:16.000",
    "request_status": "Pending",
    "responsible_agency": "Department of Sanitation",
    "final_address": "3019 Ponce De Leon St",
    "address_councildis": "A",
    "status": "Assigned to Contractor",
    "contractor": "IV Waste",
    "rowid": "987611",
    "final_x": "3677011.10882",
    "final_y": "540553.824843",
    "longitude": "-90.08193309773708",
    "latitude": "29.980471157486612",
    "geocoded_column": {
      "latitude": "29.980471157486612",
      "longitude": "-90.08193309773708"
    }
  },
  {
    "service_request": "2023-987610",
    "request_type": "Trash/Recycling",
    "request_reason": "Request a Large Item Pick Up",
    "date_created": "2023-03-31T14:14:40.000",
    "date_modified": "2023-03-31T14:14:41.000",
    "request_status": "Pending",
    "responsible_agency": "Department of Sanitation",
    "final_address": "7814 Lafourche St",
    "address_councildis": "E",
    "status": "Assigned to Contractor",
    "contractor": "Waste Pro",
    "rowid": "987610",
    "final_x": "3709768.87992",
    "final_y": "566180.766499",
    "longitude": "-89.97751321552639",
    "latitude": "30.04991093829064",
    "geocoded_column": {
      "latitude": "30.04991093829064",
      "longitude": "-89.97751321552639"
    }
  },
  {
    "service_request": "2023-987609",
    "request_type": "Property Maintenance",
    "request_reason": "Property Maintenance",
    "date_created": "2023-03-31T14:12:36.000",
    "date_modified": "2023-03-31T14:12:36.000",
    "request_status": "Pending",
    "responsible_agency": "Department of Code Enforcement",
    "final_address": "8222 Apple St",
    "address_councildis": "A",
    "status": "Pending",
    "rowid": "987609",
    "final_x": "3664927.12525",
    "final_y": "532445.564932",
    "longitude": "-90.12037077772246",
    "latitude": "29.958533470968796",
    "geocoded_column": {
      "latitude": "29.958533470968796",
      "longitude": "-90.12037077772246"
    }
  },
  {
    "service_request": "2023-987608",
    "request_type": "Trash/Recycling",
    "request_reason": "Dead Animal Pick Up",
    "date_created": "2023-03-31T14:11:26.000",
    "date_modified": "2023-03-31T14:11:41.000",
    "request_status": "Pending",
    "responsible_agency": "Department of Sanitation",
    "final_address": "3500 BLK Magazine St",
    "address_councildis": "B",
    "contractor": "Richards Disposal",
    "rowid": "987608",
    "final_x": "3674312.93218",
    "final_y": "519350.493895",
    "longitude": "-90.09118109661328",
    "latitude": "29.922249779456",
    "geocoded_column": {
      "latitude": "29.922249779456",
      "longitude": "-90.09118109661328"
    }
  },
  {
    "service_request": "2023-987607",
    "request_type": "Traffic Signals/Signs/Striping/Streetlights",
    "request_reason": "Street Light Outage/Malfunction",
    "date_created": "2023-03-31T14:06:53.000",
    "date_modified": "2023-03-31T14:06:54.000",
    "request_status": "Pending",
    "responsible_agency": "Department of Public Works",
    "final_address": "2157 Sere St",
    "address_councildis": "D",
    "status": "Assigned to Contractor",
    "contractor": "Legacy Professional Services",
    "rowid": "987607",
    "final_x": "3683980.24617",
    "final_y": "545943.069072",
    "longitude": "-90.05973240071317",
    "latitude": "29.995078550498032",
    "geocoded_column": {
      "latitude": "29.995078550498032",
      "longitude": "-90.05973240071317"
    }
  },
  {
    "service_request": "2023-987606",
    "request_type": "Property Maintenance",
    "request_reason": "Property Maintenance",
    "date_created": "2023-03-31T14:06:11.000",
    "date_modified": "2023-03-31T14:07:30.000",
    "request_status": "Pending",
    "responsible_agency": "Department of Code Enforcement",
    "final_address": "4619 Camelot Dr",
    "address_councildis": "E",
    "status": "Pending",
    "rowid": "987606",
    "final_x": "3708519.55076",
    "final_y": "554867.7014",
    "longitude": "-89.98188357083373",
    "latitude": "30.01884506989142",
    "geocoded_column": {
      "latitude": "30.01884506989142",
      "longitude": "-89.98188357083373"
    }
  },
  {
    "service_request": "2023-987605",
    "request_type": "Abandoned Vehicles",
    "request_reason": "Abandoned/Junk Vehicles",
    "date_created": "2023-03-31T14:05:25.000",
    "date_modified": "2023-03-31T14:05:25.000",
    "request_status": "Pending",
    "responsible_agency": "Department of Public Works",
    "final_address": "8200 Apple St",
    "address_councildis": "A",
    "status": "Pending",
    "rowid": "987605",
    "final_x": "3665050.96429",
    "final_y": "532332.620291",
    "longitude": "-90.11998350170515",
    "latitude": "29.958219304894715",
    "geocoded_column": {
      "latitude": "29.958219304894715",
      "longitude": "-90.11998350170515"
    }
  },
  {
    "service_request": "2023-987604",
    "request_type": "Trash/Recycling",
    "request_reason": "Repair Trash Cart",
    "date_created": "2023-03-31T14:04:29.000",
    "date_modified": "2023-03-31T14:04:30.000",
    "request_status": "Pending",
    "responsible_agency": "Department of Sanitation",
    "final_address": "1570 Henry Clay Ave",
    "address_councildis": "A",
    "status": "Assigned to Contractor",
    "contractor": "Richards Disposal",
    "rowid": "987604",
    "final_x": "3664923.28135",
    "final_y": "522694.580474",
    "longitude": "-90.120708772836",
    "latitude": "29.931721511482117",
    "geocoded_column": {
      "latitude": "29.931721511482117",
      "longitude": "-90.120708772836"
    }
  },
  {
    "service_request": "2023-987603",
    "request_type": "Trash/Recycling",
    "request_reason": "Missed Trash Pick-Up",
    "date_created": "2023-03-31T14:03:45.000",
    "date_modified": "2023-03-31T14:03:46.000",
    "request_status": "Pending",
    "responsible_agency": "Department of Sanitation",
    "final_address": "2426 Congress St",
    "address_councildis": "D",
    "status": "Assigned to Contractor",
    "contractor": "IV Waste",
    "rowid": "987603",
    "final_x": "3691947.75414",
    "final_y": "540688.696907",
    "longitude": "-90.0347520996802",
    "latitude": "29.980385010993004",
    "geocoded_column": {
      "latitude": "29.980385010993004",
      "longitude": "-90.0347520996802"
    }
  },
  {
    "service_request": "2023-987602",
    "request_type": "Abandoned Vehicles",
    "request_reason": "Abandoned/Junk Vehicles",
    "date_created": "2023-03-31T14:00:44.000",
    "date_modified": "2023-03-31T14:00:44.000",
    "request_status": "Pending",
    "responsible_agency": "Department of Public Works",
    "final_address": "8200 Apple St",
    "address_councildis": "A",
    "status": "Pending",
    "rowid": "987602",
    "final_x": "3665050.96429",
    "final_y": "532332.620291",
    "longitude": "-90.11998350170515",
    "latitude": "29.958219304894715",
    "geocoded_column": {
      "latitude": "29.958219304894715",
      "longitude": "-90.11998350170515"
    }
  },
  {
    "service_request": "2023-987601",
    "request_type": "Traffic Signals/Signs/Striping/Streetlights",
    "request_reason": "Street Light Outage/Malfunction",
    "date_created": "2023-03-31T13:54:13.000",
    "date_modified": "2023-03-31T13:54:14.000",
    "request_status": "Pending",
    "responsible_agency": "Department of Public Works",
    "final_address": "4145 Toulouse St",
    "address_councildis": "A",
    "status": "Assigned to Contractor",
    "contractor": "Legacy Professional Services",
    "rowid": "987601",
    "final_x": "3671933.56955",
    "final_y": "540002.793483",
    "longitude": "-90.0979889503544",
    "latitude": "29.979107508690305",
    "geocoded_column": {
      "latitude": "29.979107508690305",
      "longitude": "-90.0979889503544"
    }
  },
  {
    "service_request": "2023-987600",
    "request_type": "Trash/Recycling",
    "request_reason": "Missed Trash Pick-Up",
    "date_created": "2023-03-31T13:42:53.000",
    "date_modified": "2023-03-31T13:43:12.000",
    "request_status": "Pending",
    "responsible_agency": "Department of Sanitation",
    "final_address": "7820 Mullet St",
    "address_councildis": "E",
    "status": "Assigned to Contractor",
    "contractor": "Waste Pro",
    "rowid": "987600",
    "final_x": "3698814.42416",
    "final_y": "560748.36387",
    "longitude": "-90.01233393347266",
    "latitude": "30.035325804735667",
    "geocoded_column": {
      "latitude": "30.035325804735667",
      "longitude": "-90.01233393347266"
    }
  },
  {
    "service_request": "2023-987599",
    "request_type": "Trash/Recycling",
    "request_reason": "Request a Large Item Pick Up",
    "date_created": "2023-03-31T13:40:11.000",
    "date_modified": "2023-03-31T13:40:12.000",
    "request_status": "Pending",
    "responsible_agency": "Department of Sanitation",
    "final_address": "2606 Annette St",
    "address_councildis": "D",
    "status": "Assigned to Contractor",
    "contractor": "IV Waste",
    "rowid": "987599",
    "final_x": "3682654.09685",
    "final_y": "541749.18638",
    "longitude": "-90.06406831034732",
    "latitude": "29.983587319194083",
    "geocoded_column": {
      "latitude": "29.983587319194083",
      "longitude": "-90.06406831034732"
    }
  },
  {
    "service_request": "2023-987598",
    "request_type": "Trash/Recycling",
    "request_reason": "Repair Trash Cart",
    "date_created": "2023-03-31T13:37:11.000",
    "date_modified": "2023-03-31T13:37:12.000",
    "request_status": "Pending",
    "responsible_agency": "Department of Sanitation",
    "final_address": "1822 Dante St",
    "address_councildis": "A",
    "status": "Assigned to Contractor",
    "contractor": "Richards Disposal",
    "rowid": "987598",
    "final_x": "3662958.47514",
    "final_y": "530610.095298",
    "longitude": "-90.12664832211064",
    "latitude": "29.95354367984651",
    "geocoded_column": {
      "latitude": "29.95354367984651",
      "longitude": "-90.12664832211064"
    }
  },
  {
    "service_request": "2023-987597",
    "request_type": "Trash/Recycling",
    "request_reason": "Missed Trash Pick-Up",
    "date_created": "2023-03-31T13:35:05.000",
    "date_modified": "2023-03-31T13:35:36.000",
    "request_status": "Pending",
    "responsible_agency": "Department of Sanitation",
    "final_address": "1459 N Villere St",
    "address_councildis": "C",
    "status": "Assigned to Contractor",
    "contractor": "IV Waste",
    "rowid": "987597",
    "final_x": "3682126.22402",
    "final_y": "536613.110151",
    "longitude": "-90.06591504755097",
    "latitude": "29.96948096377762",
    "geocoded_column": {
      "latitude": "29.96948096377762",
      "longitude": "-90.06591504755097"
    }
  },
  {
    "service_request": "2023-987596",
    "request_type": "Trash/Recycling",
    "request_reason": "Request a Large Item Pick Up",
    "date_created": "2023-03-31T13:32:28.000",
    "date_modified": "2023-03-31T13:32:48.000",
    "request_status": "Pending",
    "responsible_agency": "Department of Sanitation",
    "final_address": "2135 State St",
    "address_councildis": "A",
    "status": "Assigned to Contractor",
    "contractor": "Richards Disposal",
    "rowid": "987596",
    "final_x": "3666534.78413",
    "final_y": "524602.584252",
    "longitude": "-90.11555740509043",
    "latitude": "29.93692092139152",
    "geocoded_column": {
      "latitude": "29.93692092139152",
      "longitude": "-90.11555740509043"
    }
  },
  {
    "service_request": "2023-987595",
    "request_type": "Parks & Parkways",
    "request_reason": "Request Tree Service (Right of Way/Public Property)",
    "date_created": "2023-03-31T13:29:11.000",
    "date_modified": "2023-03-31T13:29:12.000",
    "request_status": "Pending",
    "responsible_agency": "Department of Parks & Parkway",
    "final_address": "4005 Hamilton St",
    "address_councildis": "A",
    "status": "Pending",
    "rowid": "987595",
    "final_x": "3666126.35072",
    "final_y": "538118.557065",
    "longitude": "-90.11639367173132",
    "latitude": "29.974097362713138",
    "geocoded_column": {
      "latitude": "29.974097362713138",
      "longitude": "-90.11639367173132"
    }
  },
  {
    "service_request": "2023-987593",
    "request_type": "Trash/Recycling",
    "request_reason": "MIssed Recycling Pick-Up",
    "date_created": "2023-03-31T13:23:18.000",
    "date_modified": "2023-03-31T13:23:29.000",
    "request_status": "Pending",
    "responsible_agency": "Department of Sanitation",
    "final_address": "4217 Lasalle St, New Orleans, Louisiana, 70115",
    "address_councildis": "B",
    "status": "Assigned to Contractor",
    "contractor": "Richards Disposal",
    "rowid": "987593",
    "final_x": "3671159.99828",
    "final_y": "523799.825979",
    "longitude": "-90.10098258387504",
    "latitude": "29.93457762272055",
    "geocoded_column": {
      "latitude": "29.93457762272055",
      "longitude": "-90.10098258387504"
    }
  },
  {
    "service_request": "2023-987592",
    "request_type": "Trash/Recycling",
    "request_reason": "Repair Trash Cart",
    "date_created": "2023-03-31T13:22:25.000",
    "date_modified": "2023-03-31T13:22:25.000",
    "request_status": "Pending",
    "responsible_agency": "Department of Sanitation",
    "final_address": "3930 General Taylor St",
    "address_councildis": "B",
    "status": "Assigned to Contractor",
    "contractor": "Richards Disposal",
    "rowid": "987592",
    "final_x": "3670688.3707",
    "final_y": "529133.707584",
    "longitude": "-90.10229059490663",
    "latitude": "29.94925800227631",
    "geocoded_column": {
      "latitude": "29.94925800227631",
      "longitude": "-90.10229059490663"
    }
  },
  {
    "service_request": "2023-987591",
    "request_type": "Trash/Recycling",
    "request_reason": "MIssed Recycling Pick-Up",
    "date_created": "2023-03-31T13:20:48.000",
    "date_modified": "2023-03-31T13:21:10.000",
    "request_status": "Pending",
    "responsible_agency": "Department of Sanitation",
    "final_address": "1114 Robert St",
    "address_councildis": "B",
    "status": "Assigned to Contractor",
    "contractor": "Richards Disposal",
    "rowid": "987591",
    "final_x": "3668626.83329",
    "final_y": "519464.867447",
    "longitude": "-90.10912596942437",
    "latitude": "29.92273253705028",
    "geocoded_column": {
      "latitude": "29.92273253705028",
      "longitude": "-90.10912596942437"
    }
  },
  {
    "service_request": "2023-987590",
    "request_type": "Trash/Recycling",
    "request_reason": "Request a Large Item Pick Up",
    "date_created": "2023-03-31T13:20:33.000",
    "date_modified": "2023-03-31T13:20:33.000",
    "request_status": "Pending",
    "responsible_agency": "Department of Sanitation",
    "final_address": "3861 Pauger St",
    "address_councildis": "D",
    "status": "Assigned to Contractor",
    "contractor": "IV Waste",
    "rowid": "987590",
    "final_x": "3683227.16968",
    "final_y": "544850.815759",
    "longitude": "-90.06214956313549",
    "latitude": "29.99209823670265",
    "geocoded_column": {
      "latitude": "29.99209823670265",
      "longitude": "-90.06214956313549"
    }
  },
  {
    "service_request": "2023-987589",
    "request_type": "Trash/Recycling",
    "request_reason": "Missed Trash Pick-Up",
    "date_created": "2023-03-31T13:19:43.000",
    "date_modified": "2023-03-31T13:19:58.000",
    "request_status": "Pending",
    "responsible_agency": "Department of Sanitation",
    "final_address": "7020 Green St",
    "address_councildis": "A",
    "status": "Assigned to Contractor",
    "contractor": "Richards Disposal",
    "rowid": "987589",
    "final_x": "3665482.6466",
    "final_y": "527610.247743",
    "longitude": "-90.11877842393042",
    "latitude": "29.94522173663158",
    "geocoded_column": {
      "latitude": "29.94522173663158",
      "longitude": "-90.11877842393042"
    }
  },
  {
    "service_request": "2023-987588",
    "request_type": "Trash/Recycling",
    "request_reason": "Request a Large Item Pick Up",
    "date_created": "2023-03-31T13:17:19.000",
    "date_modified": "2023-03-31T14:02:22.000",
    "request_status": "Pending",
    "responsible_agency": "Department of Sanitation",
    "final_address": "718 Piety St",
    "address_councildis": "C",
    "status": "Assigned to Contractor",
    "contractor": "IV Waste",
    "rowid": "987588",
    "final_x": "3689474.26127",
    "final_y": "534455.121605",
    "longitude": "-90.04278617029769",
    "latitude": "29.963321721167194",
    "geocoded_column": {
      "latitude": "29.963321721167194",
      "longitude": "-90.04278617029769"
    }
  },
  {
    "service_request": "2023-987587",
    "request_type": "Trash/Recycling",
    "request_reason": "Request a Large Item Pick Up",
    "date_created": "2023-03-31T13:15:20.000",
    "date_modified": "2023-03-31T13:15:26.000",
    "request_status": "Pending",
    "responsible_agency": "Department of Sanitation",
    "final_address": "2215 Baronne St",
    "address_councildis": "B",
    "status": "Assigned to Contractor",
    "contractor": "Richards Disposal",
    "rowid": "987587",
    "final_x": "3676863.87387",
    "final_y": "524438.52998",
    "longitude": "-90.08295355703329",
    "latitude": "29.93616393804509",
    "geocoded_column": {
      "latitude": "29.93616393804509",
      "longitude": "-90.08295355703329"
    }
  },
  {
    "service_request": "2023-987586",
    "request_type": "Trash/Recycling",
    "request_reason": "Order Trash Cart",
    "date_created": "2023-03-31T13:14:21.000",
    "date_modified": "2023-03-31T13:14:38.000",
    "request_status": "Pending",
    "responsible_agency": "Department of Sanitation",
    "final_address": "14606 Beekman Rd",
    "address_councildis": "E",
    "status": "Assigned to Contractor",
    "contractor": "Waste Pro",
    "rowid": "987586",
    "final_x": "3721333.06591",
    "final_y": "573130.396201",
    "longitude": "-89.94069663185526",
    "latitude": "30.06863820159594",
    "geocoded_column": {
      "latitude": "30.06863820159594",
      "longitude": "-89.94069663185526"
    }
  },
  {
    "service_request": "2023-987585",
    "request_type": "Roads/Drainage",
    "request_reason": "Pothole",
    "date_created": "2023-03-31T13:04:34.000",
    "date_modified": "2023-03-31T13:04:34.000",
    "request_status": "Pending",
    "responsible_agency": "Department of Public Works",
    "final_address": "2531 Jena St",
    "address_councildis": "B",
    "status": "Pending",
    "rowid": "987585",
    "final_x": "3670143.81345",
    "final_y": "524299.49318",
    "longitude": "-90.10417374446295",
    "latitude": "29.935981558787663",
    "geocoded_column": {
      "latitude": "29.935981558787663",
      "longitude": "-90.10417374446295"
    }
  },
  {
    "service_request": "2023-987584",
    "request_type": "Trash/Recycling",
    "request_reason": "Order Recycling Cart",
    "date_created": "2023-03-31T13:04:21.000",
    "date_modified": "2023-03-31T13:04:21.000",
    "request_status": "Pending",
    "responsible_agency": "Department of Sanitation",
    "final_address": "3605 Banks St",
    "address_councildis": "B",
    "status": "Pending",
    "rowid": "987584",
    "final_x": "3671857.79201",
    "final_y": "536327.873159",
    "longitude": "-90.09835338341013",
    "latitude": "29.969004967438973",
    "geocoded_column": {
      "latitude": "29.969004967438973",
      "longitude": "-90.09835338341013"
    }
  },