[
  {
    "service_request": "2025-1214960",
    "request_type": "Trash/Recycling",
    "request_reason": "Request a Large Item Pick Up",
    "date_created": "2025-08-03T23:17:44.000",
    "date_modified": "2025-08-03T23:17:46.000",
    "request_status": "Pending",
    "responsible_agency": "Department of Sanitation",
    "final_address": "2608 DAbadie St",
    "address_councildis": "D",
    "status": "Assigned to Contractor",
    "contractor": "IV Waste",
    "rowid": "1214960",
    "final_x": "3679417.01685",
    "final_y": "540802.400267",
    "longitude": "-90.07432557879501",
    "latitude": "29.981082185683896",
    "geocoded_column": {
      "latitude": "29.981082185683896",
      "longitude": "-90.07432557879501"
    }
  },
  {
    "service_request": "2025-1214959",
    "request_type": "Trash/Recycling",
    "request_reason": "Order Trash Cart",
    "date_created": "2025-08-03T22:55:55.000",
    "date_modified": "2025-08-03T22:55:56.000",
    "request_status": "Pending",
    "responsible_agency": "Department of Sanitation",
    "final_address": "919 N Miro St",
    "address_councildis": "D",
    "status": "Assigned to Contractor",
    "contractor": "IV Waste",
    "rowid": "1214959",
    "final_x": "3678596.01045",
    "final_y": "536642.107015",
    "longitude": "-90.07706275122413",
    "latitude": "29.969667591120615",
    "geocoded_column": {
      "latitude": "29.969667591120615",
      "longitude": "-90.07706275122413"
    }
  },
  {
    "service_request": "2025-1214958",
    "request_type": "Graffiti Removal",
    "request_reason": "Graffiti Removal",
    "date_created": "2025-08-03T21:58:57.000",
    "date_modified": "2025-08-03T21:58:59.000",
    "request_status": "Pending",
    "responsible_agency": "Department of Code Enforcement",
    "final_address": "1232 St Ferdinand St",
    "address_councildis": "C",
    "status": "Pending",
    "rowid": "1214958",
    "final_x": "3687850.0998",
    "final_y": "536985.329864",
    "longitude": "-90.0478254357016",
    "latitude": "29.970329110060533",
    "geocoded_column": {
      "latitude": "29.970329110060533",
      "longitude": "-90.0478254357016"
    }
  },
  {
    "service_request": "2025-1214957",
    "request_type": "Trash/Recycling",
    "request_reason": "Order Trash Cart",
    "date_created": "2025-08-03T21:36:02.000",
    "date_modified": "2025-08-03T21:36:05.000",
    "request_status": "Pending",
    "responsible_agency": "Department of Sanitation",
    "final_address": "1618 N Johnson St",
    "address_councildis": "D",
    "status": "Assigned to Contractor",
    "contractor": "IV Waste",
    "rowid": "1214957",
    "final_x": "3681237.82018",
    "final_y": "538746.465161",
    "longitude": "-90.06864633736504",
    "latitude": "29.975373943082023",
    "geocoded_column": {
      "latitude": "29.975373943082023",
      "longitude": "-90.06864633736504"
    }
  },
  {
    "service_request": "2025-1214956",
    "request_type": "Trash/Recycling",
    "request_reason": "Request a Large Item Pick Up",
    "date_created": "2025-08-03T21:30:42.000",
    "date_modified": "2025-08-03T21:30:44.000",
    "request_status": "Pending",
    "responsible_agency": "Department of Sanitation",
    "final_address": "715 N Rendon St",
    "address_councildis": "A",
    "status": "Assigned to Contractor",
    "contractor": "IV Waste",
    "rowid": "1214956",
    "final_x": "3674929.30261",
    "final_y": "538289.551305",
    "longitude": "-90.08858603479935",
    "latitude": "29.974307531814098",
    "geocoded_column": {
      "latitude": "29.974307531814098",
      "longitude": "-90.08858603479935"
    }
  },
  {
    "service_request": "2025-1214955",
    "request_type": "Trash/Recycling",
    "request_reason": "Order Recycling Cart",
    "date_created": "2025-08-03T21:25:34.000",
    "date_modified": "2025-08-03T21:25:36.000",
    "request_status": "Pending",
    "responsible_agency": "Department of Sanitation",
    "final_address": "1507 N Miro St",
    "address_councildis": "D",
    "status": "Pending",
    "rowid": "1214955",
    "final_x": "3680032.04623",
    "final_y": "538605.750665",
    "longitude": "-90.07245938519726",
    "latitude": "29.975023565167284",
    "geocoded_column": {
      "latitude": "29.975023565167284",
      "longitude": "-90.07245938519726"
    }
  },
  {
    "service_request": "2025-1214954",
    "request_type": "Streetlights",
    "request_reason": "Streetlight Outage/Malfunction",
    "date_created": "2025-08-03T21:18:50.000",
    "date_modified": "2025-08-03T21:18:52.000",
    "request_status": "Pending",
    "responsible_agency": "Department of Public Works",
    "final_address": "2000 S Claiborne Ave",
    "address_councildis": "B",
    "status": "Pending",
    "contractor": "Legacy Professional Services",
    "rowid": "1214954",
    "final_x": "3674991.67361",
    "final_y": "527839.434367",
    "longitude": "-90.08874753355181",
    "latitude": "29.945571352231877",
    "geocoded_column": {
      "latitude": "29.945571352231877",
      "longitude": "-90.08874753355181"
    }
  },
  {
    "service_request": "2025-1214953",
    "request_type": "Trash/Recycling",
    "request_reason": "Illegal Dumping",
    "date_created": "2025-08-03T21:17:19.000",
    "date_modified": "2025-08-03T23:35:53.000",
    "request_status": "Pending",
    "responsible_agency": "Department of Sanitation",
    "final_address": "7514 Dominique Pl",
    "address_councildis": "E",
    "status": "Pending",
    "rowid": "1214953",
    "final_x": "3725483.30867",
    "final_y": "569860.015142",
    "longitude": "-89.92770380272081",
    "latitude": "30.059506695009446",
    "geocoded_column": {
      "latitude": "30.059506695009446",
      "longitude": "-89.92770380272081"
    }
  },
  {
    "service_request": "2025-1214952",
    "request_type": "General Services",
    "request_reason": "General Service Request",
    "date_created": "2025-08-03T21:16:01.000",
    "date_modified": "2025-08-03T21:16:03.000",
    "request_status": "Pending",
    "responsible_agency": "Orleans Parish Communication District",
    "final_address": "6301 Canal Blvd",
    "address_councildis": "A",
    "status": "Pending",
    "rowid": "1214952",
    "final_x": "3668805.38932",
    "final_y": "549369.744083",
    "longitude": "-90.10755250041724",
    "latitude": "30.004955769971186",
    "geocoded_column": {
      "latitude": "30.004955769971186",
      "longitude": "-90.10755250041724"
    }
  },
  {
    "service_request": "2025-1214951",
    "request_type": "Trash/Recycling",
    "request_reason": "Order Second Trash Cart",
    "date_created": "2025-08-03T20:52:36.000",
    "date_modified": "2025-08-03T20:52:38.000",
    "request_status": "Pending",
    "responsible_agency": "Department of Sanitation",
    "final_address": "1282 Owens Blvd",
    "address_councildis": "D",
    "status": "Assigned to Contractor",
    "contractor": "IV Waste",
    "rowid": "1214951",
    "final_x": "3677120.92507",
    "final_y": "548829.659859",
    "longitude": "-90.08130063967802",
    "latitude": "30.003223509540852",
    "geocoded_column": {
      "latitude": "30.003223509540852",
      "longitude": "-90.08130063967802"
    }
  },
  {
    "service_request": "2025-1214949",
    "request_type": "Streetlights",
    "request_reason": "Streetlight Outage/Malfunction",
    "date_created": "2025-08-03T20:39:27.000",
    "date_modified": "2025-08-03T20:39:28.000",
    "request_status": "Pending",
    "responsible_agency": "Department of Public Works",
    "final_address": "4524 Bancroft Dr",
    "address_councildis": "D",
    "status": "Pending",
    "contractor": "Legacy Professional Services",
    "rowid": "1214949",
    "final_x": "3676211.06273",
    "final_y": "548833.307795",
    "longitude": "-90.08417490897072",
    "latitude": "30.00326084524604",
    "geocoded_column": {
      "latitude": "30.00326084524604",
      "longitude": "-90.08417490897072"
    }
  },
  {
    "service_request": "2025-1214948",
    "request_type": "Trash/Recycling",
    "request_reason": "Order Trash Cart",
    "date_created": "2025-08-03T20:39:16.000",
    "date_modified": "2025-08-03T20:39:18.000",
    "request_status": "Pending",
    "responsible_agency": "Department of Sanitation",
    "final_address": "1714 Constantinople St",
    "address_councildis": "B",
    "status": "Assigned to Contractor",
    "contractor": "IV Waste",
    "rowid": "1214948",
    "final_x": "3672200.36283",
    "final_y": "521538.309369",
    "longitude": "-90.0977751545932",
    "latitude": "29.928328373796127",
    "geocoded_column": {
      "latitude": "29.928328373796127",
      "longitude": "-90.0977751545932"
    }
  },
  {
    "service_request": "2025-1214947",
    "request_type": "General Services",
    "request_reason": "General Service Request",
    "date_created": "2025-08-03T19:51:17.000",
    "date_modified": "2025-08-03T19:51:19.000",
    "request_status": "Pending",
    "responsible_agency": "Orleans Parish Communication District",
    "final_address": "3529 Republic St",
    "address_councildis": "D",
    "status": "Pending",
    "rowid": "1214947",
    "final_x": "3680513.52104",
    "final_y": "545451.437712",
    "longitude": "-90.07070052266663",
    "latitude": "29.9938322338053",
    "geocoded_column": {
      "latitude": "29.9938322338053",
      "longitude": "-90.07070052266663"
    }
  },
  {
    "service_request": "2025-1214946",
    "request_type": "Abandoned Vehicles",
    "request_reason": "Abandoned/Junk Vehicles",
    "date_created": "2025-08-03T19:45:19.000",
    "date_modified": "2025-08-03T19:45:21.000",
    "request_status": "Pending",
    "responsible_agency": "Department of Public Works",
    "final_address": "2705 N Roman St",
    "address_councildis": "D",
    "status": "Pending",
    "rowid": "1214946",
    "final_x": "3688159.27286",
    "final_y": "539029.030218",
    "longitude": "-90.04677656764456",
    "latitude": "29.975939026455233",
    "geocoded_column": {
      "latitude": "29.975939026455233",
      "longitude": "-90.04677656764456"
    }
  },
  {
    "service_request": "2025-1214945",
    "request_type": "Trash/Recycling",
    "request_reason": "Request a Large Item Pick Up",
    "date_created": "2025-08-03T19:41:29.000",
    "date_modified": "2025-08-03T19:41:31.000",
    "request_status": "Pending",
    "responsible_agency": "Department of Sanitation",
    "final_address": "14544 Duane Rd",
    "address_councildis": "E",
    "status": "Assigned to Contractor",
    "contractor": "Waste Pro",
    "rowid": "1214945",
    "final_x": "3720821.2183",
    "final_y": "573338.248874",
    "longitude": "-89.94230669864447",
    "latitude": "30.069226803721783",
    "geocoded_column": {
      "latitude": "30.069226803721783",
      "longitude": "-89.94230669864447"
    }
  },
  {
    "service_request": "2025-1214944",
    "request_type": "Roads and Streets",
    "request_reason": "Pothole",
    "date_created": "2025-08-03T19:40:03.000",
    "date_modified": "2025-08-03T19:40:04.000",
    "request_status": "Pending",
    "responsible_agency": "Department of Public Works",
    "final_address": "11040 Yardley Rd",
    "address_councildis": "E",
    "status": "Pending",
    "rowid": "1214944",
    "final_x": "3712157.56082",
    "final_y": "563807.114529",
    "longitude": "-89.97005281575592",
    "latitude": "30.043306422813252",
    "geocoded_column": {
      "latitude": "30.043306422813252",
      "longitude": "-89.97005281575592"
    }
  },
  {
    "service_request": "2025-1214943",
    "request_type": "Streetlights",
    "request_reason": "Streetlight Knocked Down/Leaning",
    "date_created": "2025-08-03T19:37:36.000",
    "date_modified": "2025-08-03T19:37:37.000",
    "request_status": "Pending",
    "responsible_agency": "Department of Public Works",
    "final_address": "0 BLK Caddo Pl",
    "address_councildis": "E",
    "status": "Pending",
    "contractor": "Legacy Professional Services",
    "rowid": "1214943",
    "final_x": "3725912.81225",
    "final_y": "564310.993213",
    "longitude": "-89.92656153267993",
    "latitude": "30.044234716842155",
    "geocoded_column": {
      "latitude": "30.044234716842155",
      "longitude": "-89.92656153267993"
    }
  },
  {
    "service_request": "2025-1214942",
    "request_type": "Trash/Recycling",
    "request_reason": "Request a Large Item Pick Up",
    "date_created": "2025-08-03T19:24:35.000",
    "date_modified": "2025-08-03T19:24:37.000",
    "request_status": "Pending",
    "responsible_agency": "Department of Sanitation",
    "final_address": "10911 Yardley Rd",
    "address_councildis": "E",
    "status": "Assigned to Contractor",
    "contractor": "Waste Pro",
    "rowid": "1214942",
    "final_x": "3711721.99192",
    "final_y": "563587.731296",
    "longitude": "-89.97143762339216",
    "latitude": "30.04271744913748",
    "geocoded_column": {
      "latitude": "30.04271744913748",
      "longitude": "-89.97143762339216"
    }
  },
  {
    "service_request": "2025-1214941",
    "request_type": "Trash/Recycling",
    "request_reason": "Request a Large Item Pick Up",
    "date_created": "2025-08-03T19:21:24.000",
    "date_modified": "2025-08-03T19:21:26.000",
    "request_status": "Pending",
    "responsible_agency": "Department of Sanitation",
    "final_address": "3160 Toulouse St",
    "address_councildis": "A",
    "status": "Assigned to Contractor",
    "contractor": "IV Waste",
    "rowid": "1214941",
    "final_x": "3674792.60763",
    "final_y": "537769.241288",
    "longitude": "-90.08903559488493",
    "latitude": "29.97288093885265",
    "geocoded_column": {
      "latitude": "29.97288093885265",
      "longitude": "-90.08903559488493"
    }
  },
  {
    "service_request": "2025-1214940",
    "request_type": "Roads and Streets",
    "request_reason": "Street Subsidence (Sinking)",
    "date_created": "2025-08-03T19:21:23.000",
    "date_modified": "2025-08-03T19:21:25.000",
    "request_status": "Pending",
    "responsible_agency": "Sewerage & Water Board",
    "final_address": "726 Louque Pl",
    "address_councildis": "A",
    "status": "Pending",
    "rowid": "1214940",
    "final_x": "3668444.11348",
    "final_y": "543495.275342",
    "longitude": "-90.10889216615112",
    "latitude": "29.98881362905192",
    "geocoded_column": {
      "latitude": "29.98881362905192",
      "longitude": "-90.10889216615112"
    }
  },
  {
    "service_request": "2025-1214939",
    "request_type": "Trash/Recycling",
    "request_reason": "Request a Large Item Pick Up",
    "date_created": "2025-08-03T19:17:26.000",
    "date_modified": "2025-08-03T19:17:28.000",
    "request_status": "Pending",
    "responsible_agency": "Department of Sanitation",
    "final_address": "2728 St Philip St",
    "address_councildis": "A",
    "status": "Assigned to Contractor",
    "contractor": "IV Waste",
    "rowid": "1214939",
    "final_x": "3677150.22376",
    "final_y": "538001.213257",
    "longitude": "-90.08158178709824",
    "latitude": "29.97344817511372",
    "geocoded_column": {
      "latitude": "29.97344817511372",
      "longitude": "-90.08158178709824"
    }
  },
  {
    "service_request": "2025-1214938",
    "request_type": "Trash/Recycling",
    "request_reason": "Replace Recycling Cart",
    "date_created": "2025-08-03T19:10:18.000",
    "date_modified": "2025-08-03T19:10:20.000",
    "request_status": "Pending",
    "responsible_agency": "Department of Sanitation",
    "final_address": "3418 Octavia St",
    "address_councildis": "A",
    "status": "Pending",
    "rowid": "1214938",
    "final_x": "3668445.1705",
    "final_y": "528166.988416",
    "longitude": "-90.10940599719243",
    "latitude": "29.946665915574027",
    "geocoded_column": {
      "latitude": "29.946665915574027",
      "longitude": "-90.10940599719243"
    }
  },
  {
    "service_request": "2025-1214937",
    "request_type": "Trash/Recycling",
    "request_reason": "Request a Large Item Pick Up",
    "date_created": "2025-08-03T19:05:56.000",
    "date_modified": "2025-08-03T19:05:58.000",
    "request_status": "Pending",
    "responsible_agency": "Department of Sanitation",
    "final_address": "3845 Peach Tree Ct",
    "address_councildis": "C",
    "status": "Assigned to Contractor",
    "contractor": "Richards Disposal",
    "rowid": "1214937",
    "final_x": "3704136.70686",
    "final_y": "512398.590129",
    "longitude": "-89.99729630411032",
    "latitude": "29.90221175383216",
    "geocoded_column": {
      "latitude": "29.90221175383216",
      "longitude": "-89.99729630411032"
    }
  },
  {
    "service_request": "2025-1214936",
    "request_type": "Trash/Recycling",
    "request_reason": "Request a Large Item Pick Up",
    "date_created": "2025-08-03T19:00:06.000",
    "date_modified": "2025-08-03T19:00:08.000",
    "request_status": "Pending",
    "responsible_agency": "Department of Sanitation",
    "final_address": "8739 Edinburgh St",
    "address_councildis": "A",
    "status": "Assigned to Contractor",
    "contractor": "IV Waste",
    "rowid": "1214936",
    "final_x": "3665701.89959",
    "final_y": "536099.489095",
    "longitude": "-90.11780183604512",
    "latitude": "29.96855798503516",
    "geocoded_column": {
      "latitude": "29.96855798503516",
      "longitude": "-90.11780183604512"
    }
  },
  {
    "service_request": "2025-1214935",
    "request_type": "Mosquito, Termite & Rodent Control",
    "request_reason": "Termite Complaint",
    "date_created": "2025-08-03T18:58:19.000",
    "date_modified": "2025-08-03T18:58:21.000",
    "request_status": "Pending",
    "responsible_agency": "Mosquito, Termite & Rodent Control Board",
    "final_address": "1417 Columbus St",
    "address_councildis": "C",
    "status": "Pending",
    "rowid": "1214935",
    "final_x": "3682183.20892",
    "final_y": "536874.698632",
    "longitude": "-90.06572594561824",
    "latitude": "29.970198508525606",
    "geocoded_column": {
      "latitude": "29.970198508525606",
      "longitude": "-90.06572594561824"
    }
  },
  {
    "service_request": "2025-1214934",
    "request_type": "Parks & Parkways",
    "request_reason": "Request Tree Service (Right of Way/Public Property)",
    "date_created": "2025-08-03T18:45:30.000",
    "date_modified": "2025-08-03T18:45:32.000",
    "request_status": "Pending",
    "responsible_agency": "Department of Parks & Parkway",
    "final_address": "3035 Banks St",
    "address_councildis": "B",
    "status": "Pending",
    "rowid": "1214934",
    "final_x": "3673424.19252",
    "final_y": "535128.147398",
    "longitude": "-90.09344757425409",
    "latitude": "29.96565961158535",
    "geocoded_column": {
      "latitude": "29.96565961158535",
      "longitude": "-90.09344757425409"
    }
  },
  {
    "service_request": "2025-1214933",
    "request_type": "Trash/Recycling",
    "request_reason": "Replace Trash Cart",
    "date_created": "2025-08-03T18:44:47.000",
    "date_modified": "2025-08-03T18:44:49.000",
    "request_status": "Pending",
    "responsible_agency": "Department of Sanitation",
    "final_address": "859 Olga St",
    "address_councildis": "A",
    "status": "Assigned to Contractor",
    "contractor": "IV Waste",
    "rowid": "1214933",
    "final_x": "3673320.59803",
    "final_y": "540236.164107",
    "longitude": "-90.09360019490741",
    "latitude": "29.979708007678617",
    "geocoded_column": {
      "latitude": "29.979708007678617",
      "longitude": "-90.09360019490741"
    }
  },
  {
    "service_request": "2025-1214932",
    "request_type": "Trash/Recycling",
    "request_reason": "Order Second Trash Cart",
    "date_created": "2025-08-03T18:33:22.000",
    "date_modified": "2025-08-03T18:33:24.000",
    "request_status": "Pending",
    "responsible_agency": "Department of Sanitation",
    "final_address": "4651 Gabriel Dr",
    "address_councildis": "E",
    "status": "Assigned to Contractor",
    "contractor": "Waste Pro",
    "rowid": "1214932",
    "final_x": "3709005.96715",
    "final_y": "555173.864281",
    "longitude": "-89.98033525927221",
    "latitude": "30.0196711151423",
    "geocoded_column": {
      "latitude": "30.0196711151423",
      "longitude": "-89.98033525927221"
    }
  },
  {
    "service_request": "2025-1214931",
    "request_type": "Trash/Recycling",
    "request_reason": "Order Recycling Cart",
    "date_created": "2025-08-03T18:30:21.000",
    "date_modified": "2025-08-03T18:30:23.000",
    "request_status": "Pending",
    "responsible_agency": "Department of Sanitation",
    "final_address": "2368 Laurel St",
    "address_councildis": "B",
    "status": "Pending",
    "rowid": "1214931",
    "final_x": "3678559.79522",
    "final_y": "520897.955257",
    "longitude": "-90.0777219692801",
    "latitude": "29.926377521777447",
    "geocoded_column": {
      "latitude": "29.926377521777447",
      "longitude": "-90.0777219692801"
    }
  },
  {
    "service_request": "2025-1214930",
    "request_type": "Trash/Recycling",
    "request_reason": "Missed Trash Pick-Up",
    "date_created": "2025-08-03T18:28:30.000",
    "date_modified": "2025-08-03T18:28:32.000",
    "request_status": "Pending",
    "responsible_agency": "Department of Sanitation",
    "final_address": "2368 Laurel St",
    "address_councildis": "B",
    "status": "Assigned to Contractor",
    "contractor": "IV Waste",
    "rowid": "1214930",
    "final_x": "3678559.79522",
    "final_y": "520897.955257",
    "longitude": "-90.0777219692801",
    "latitude": "29.926377521777447",
    "geocoded_column": {
      "latitude": "29.926377521777447",
      "longitude": "-90.0777219692801"
    }
  },
  {
    "service_request": "2025-1214929",
    "request_type": "Trash/Recycling",
    "request_reason": "Request a Large Item Pick Up",
    "date_created": "2025-08-03T18:16:01.000",
    "date_modified": "2025-08-03T18:16:03.000",
    "request_status": "Pending",
    "responsible_agency": "Department of Sanitation",
    "final_address": "3236 Sabine St",
    "address_councildis": "C",
    "status": "Assigned to Contractor",
    "contractor": "Richards Disposal",
    "rowid": "1214929",
    "final_x": "3695079.22742",
    "final_y": "517872.247158",
    "longitude": "-90.02568402005211",
    "latitude": "29.917549766596093",
    "geocoded_column": {
      "latitude": "29.917549766596093",
      "longitude": "-90.02568402005211"
    }
  },
  {
    "service_request": "2025-1214928",
    "request_type": "General Services",
    "request_reason": "General Service Request",
    "date_created": "2025-08-03T18:08:41.000",
    "date_modified": "2025-08-03T18:08:43.000",
    "request_status": "Pending",
    "responsible_agency": "Orleans Parish Communication District",
    "final_address": "1417 Columbus St",
    "address_councildis": "C",
    "status": "Pending",
    "rowid": "1214928",
    "final_x": "3682183.20892",
    "final_y": "536874.698632",
    "longitude": "-90.06572594561824",
    "latitude": "29.970198508525606",
    "geocoded_column": {
      "latitude": "29.970198508525606",
      "longitude": "-90.06572594561824"
    }
  },
  {
    "service_request": "2025-1214927",
    "request_type": "Mosquito, Termite & Rodent Control",
    "request_reason": "Non-Rodent Complaint (Possums & Snakes)",
    "date_created": "2025-08-03T18:03:02.000",
    "date_modified": "2025-08-03T18:03:04.000",
    "request_status": "Pending",
    "responsible_agency": "Mosquito, Termite & Rodent Control Board",
    "final_address": "1417 Columbus St",
    "address_councildis": "C",
    "status": "Pending",
    "rowid": "1214927",
    "final_x": "3682183.20892",
    "final_y": "536874.698632",
    "longitude": "-90.06572594561824",
    "latitude": "29.970198508525606",
    "geocoded_column": {
      "latitude": "29.970198508525606",
      "longitude": "-90.06572594561824"
    }
  },
  {
    "service_request": "2025-1214926",
    "request_type": "Healthy Homes",
    "request_reason": "Healthy Homes",
    "date_created": "2025-08-03T17:56:30.000",
    "date_modified": "2025-08-03T17:56:31.000",
    "request_status": "Pending",
    "responsible_agency": "Department of Code Enforcement",
    "final_address": "1547 Crete St",
    "address_councildis": "A",
    "status": "Pending",
    "rowid": "1214926",
    "final_x": "3678013.01282",
    "final_y": "540059.335243",
    "longitude": "-90.07878575240598",
    "latitude": "29.979081357190882",
    "geocoded_column": {
      "latitude": "29.979081357190882",
      "longitude": "-90.07878575240598"
    }
  },
  {
    "service_request": "2025-1214925",
    "request_type": "Trash/Recycling",
    "request_reason": "Request a Large Item Pick Up",
    "date_created": "2025-08-03T17:52:14.000",
    "date_modified": "2025-08-03T17:52:15.000",
    "request_status": "Pending",
    "responsible_agency": "Department of Sanitation",
    "final_address": "1403 Tennessee St",
    "address_councildis": "E",
    "status": "Assigned to Contractor",
    "contractor": "Waste Pro",
    "rowid": "1214925",
    "final_x": "3696085.44835",
    "final_y": "535438.43335",
    "longitude": "-90.02187335376989",
    "latitude": "29.96581908105865",
    "geocoded_column": {
      "latitude": "29.96581908105865",
      "longitude": "-90.02187335376989"
    }
  },
  {
    "service_request": "2025-1214924",
    "request_type": "Trash/Recycling",
    "request_reason": "Request a Large Item Pick Up",
    "date_created": "2025-08-03T17:51:15.000",
    "date_modified": "2025-08-03T17:51:18.000",
    "request_status": "Pending",
    "responsible_agency": "Department of Sanitation",
    "final_address": "834 Audubon St",
    "address_councildis": "A",
    "status": "Assigned to Contractor",
    "contractor": "IV Waste",
    "rowid": "1214924",
    "final_x": "3663745.7833",
    "final_y": "525401.800637",
    "longitude": "-90.12433584444115",
    "latitude": "29.939199720522865",
    "geocoded_column": {
      "latitude": "29.939199720522865",
      "longitude": "-90.12433584444115"
    }
  },
  {
    "service_request": "2025-1214923",
    "request_type": "Trash/Recycling",
    "request_reason": "Request a Large Item Pick Up",
    "date_created": "2025-08-03T17:44:04.000",
    "date_modified": "2025-08-03T17:44:06.000",
    "request_status": "Pending",
    "responsible_agency": "Department of Sanitation",
    "final_address": "4054 Fairmont Dr",
    "address_councildis": "D",
    "status": "Assigned to Contractor",
    "contractor": "IV Waste",
    "rowid": "1214923",
    "final_x": "3684584.4029",
    "final_y": "547300.264721",
    "longitude": "-90.05777621171484",
    "latitude": "29.998791874033913",
    "geocoded_column": {
      "latitude": "29.998791874033913",
      "longitude": "-90.05777621171484"
    }
  },
  {
    "service_request": "2025-1214922",
    "request_type": "Property Maintenance",
    "request_reason": "Property Maintenance",
    "date_created": "2025-08-03T17:42:40.000",
    "date_modified": "2025-08-03T17:42:42.000",
    "request_status": "Pending",
    "responsible_agency": "Department of Code Enforcement",
    "final_address": "2433 Amelia St",
    "address_councildis": "B",
    "status": "Pending",
    "rowid": "1214922",
    "final_x": "3672424.29166",
    "final_y": "524214.0503",
    "longitude": "-90.09697711916495",
    "latitude": "29.93567915628734",
    "geocoded_column": {
      "latitude": "29.93567915628734",
      "longitude": "-90.09697711916495"
    }
  },
  {
    "service_request": "2025-1214921",
    "request_type": "Trash/Recycling",
    "request_reason": "Order Recycling Cart",
    "date_created": "2025-08-03T17:35:14.000",
    "date_modified": "2025-08-03T17:35:16.000",
    "request_status": "Pending",
    "responsible_agency": "Department of Sanitation",
    "final_address": "4051 Fairmont Dr",
    "address_councildis": "D",
    "status": "Pending",
    "rowid": "1214921",
    "final_x": "3684704.19689",
    "final_y": "547261.346321",
    "longitude": "-90.05739915090471",
    "latitude": "29.998681195066542",
    "geocoded_column": {
      "latitude": "29.998681195066542",
      "longitude": "-90.05739915090471"
    }
  },
  {
    "service_request": "2025-1214920",
    "request_type": "Trash/Recycling",
    "request_reason": "Request a Large Item Pick Up",
    "date_created": "2025-08-03T17:17:48.000",
    "date_modified": "2025-08-03T17:17:50.000",
    "request_status": "Pending",
    "responsible_agency": "Department of Sanitation",
    "final_address": "1819 Cadiz St",
    "address_councildis": "B",
    "status": "Assigned to Contractor",
    "contractor": "IV Waste",
    "rowid": "1214920",
    "final_x": "3670046.21057",
    "final_y": "521682.180217",
    "longitude": "-90.10457048876643",
    "latitude": "29.928787666865535",
    "geocoded_column": {
      "latitude": "29.928787666865535",
      "longitude": "-90.10457048876643"
    }
  },
  {
    "service_request": "2025-1214919",
    "request_type": "Roads and Streets",
    "request_reason": "Sidewalk Damaged or Missing",
    "date_created": "2025-08-03T17:17:23.000",
    "date_modified": "2025-08-03T17:17:25.000",
    "request_status": "Pending",
    "responsible_agency": "Department of Public Works",
    "final_address": "0 BLK Blanc Pl",
    "address_councildis": "B",
    "status": "Pending",
    "rowid": "1214919",
    "final_x": "3667951.08401",
    "final_y": "520874.262829",
    "longitude": "-90.11121159835395",
    "latitude": "29.926627762655404",
    "geocoded_column": {
      "latitude": "29.926627762655404",
      "longitude": "-90.11121159835395"
    }
  },
  {
    "service_request": "2025-1214918",
    "request_type": "Streetlights",
    "request_reason": "Streetlight Outage/Malfunction",
    "date_created": "2025-08-03T17:13:08.000",
    "date_modified": "2025-08-03T17:13:10.000",
    "request_status": "Pending",
    "responsible_agency": "Department of Public Works",
    "final_address": "2263 Brainard St",
    "address_councildis": "B",
    "status": "Pending",
    "contractor": "Legacy Professional Services",
    "rowid": "1214918",
    "final_x": "3676774.98709",
    "final_y": "523976.401212",
    "longitude": "-90.08325009214515",
    "latitude": "29.934895902136613",
    "geocoded_column": {
      "latitude": "29.934895902136613",
      "longitude": "-90.08325009214515"
    }
  },
  {
    "service_request": "2025-1214917",
    "request_type": "Trash/Recycling",
    "request_reason": "Request a Large Item Pick Up",
    "date_created": "2025-08-03T17:08:43.000",
    "date_modified": "2025-08-03T17:08:44.000",
    "request_status": "Pending",
    "responsible_agency": "Department of Sanitation",
    "final_address": "3301 Grand-Route St John St",
    "address_councildis": "A",
    "status": "Assigned to Contractor",
    "contractor": "IV Waste",
    "rowid": "1214917",
    "final_x": "3675632.59259",
    "final_y": "540373.920331",
    "longitude": "-90.08629323393475",
    "latitude": "29.98001780628698",
    "geocoded_column": {
      "latitude": "29.98001780628698",
      "longitude": "-90.08629323393475"
    }
  },
  {
    "service_request": "2025-1214916",
    "request_type": "Health Related Request",
    "request_reason": "Noise Ordinance Complaint",
    "date_created": "2025-08-03T17:01:22.000",
    "date_modified": "2025-08-03T17:01:24.000",
    "request_status": "Pending",
    "responsible_agency": "Health Department",
    "final_address": "1725 Lesseps St",
    "address_councildis": "D",
    "status": "Pending",
    "rowid": "1214916",
    "final_x": "3693363.17033",
    "final_y": "537536.701384",
    "longitude": "-90.03039483194081",
    "latitude": "29.97167396638689",
    "geocoded_column": {
      "latitude": "29.97167396638689",
      "longitude": "-90.03039483194081"
    }
  },
  {
    "service_request": "2025-1214915",
    "request_type": "Trash/Recycling",
    "request_reason": "Request a Large Item Pick Up",
    "date_created": "2025-08-03T17:01:08.000",
    "date_modified": "2025-08-03T17:01:14.000",
    "request_status": "Pending",
    "responsible_agency": "Department of Sanitation",
    "final_address": "5401 Montegut Dr",
    "address_councildis": "D",
    "status": "Assigned to Contractor",
    "contractor": "IV Waste",
    "rowid": "1214915",
    "final_x": "3689735.2831",
    "final_y": "553243.428887",
    "longitude": "-90.04129288052063",
    "latitude": "30.014974725357302",
    "geocoded_column": {
      "latitude": "30.014974725357302",
      "longitude": "-90.04129288052063"
    }
  },
  {
    "service_request": "2025-1214914",
    "request_type": "Trash/Recycling",
    "request_reason": "Return Trash Cart",
    "date_created": "2025-08-03T16:36:15.000",
    "date_modified": "2025-08-03T16:36:17.000",
    "request_status": "Pending",
    "responsible_agency": "Department of Sanitation",
    "final_address": "613 Belleville St",
    "address_councildis": "C",
    "status": "Assigned to Contractor",
    "contractor": "Richards Disposal",
    "rowid": "1214914",
    "final_x": "3687795.07247",
    "final_y": "529354.992129",
    "longitude": "-90.04826947093319",
    "latitude": "29.949350019365475",
    "geocoded_column": {
      "latitude": "29.949350019365475",
      "longitude": "-90.04826947093319"
    }
  },
  {
    "service_request": "2025-1214913",
    "request_type": "Trash/Recycling",
    "request_reason": "Request a Large Item Pick Up",
    "date_created": "2025-08-03T16:34:02.000",
    "date_modified": "2025-08-03T16:34:05.000",
    "request_status": "Pending",
    "responsible_agency": "Department of Sanitation",
    "final_address": "612 Belleville St",
    "address_councildis": "C",
    "status": "Assigned to Contractor",
    "contractor": "Richards Disposal",
    "rowid": "1214913",
    "final_x": "3687881.58025",
    "final_y": "529366.343681",
    "longitude": "-90.04799592600762",
    "latitude": "29.949378564277566",
    "geocoded_column": {
      "latitude": "29.949378564277566",
      "longitude": "-90.04799592600762"
    }
  },
  {
    "service_request": "2025-1214912",
    "request_type": "Drainage",
    "request_reason": "Street Flooding",
    "date_created": "2025-08-03T16:25:25.000",
    "date_modified": "2025-08-03T16:25:27.000",
    "request_status": "Pending",
    "responsible_agency": "Sewerage & Water Board",
    "final_address": "10 Industrial Prkwy",
    "address_councildis": "E",
    "status": "Pending",
    "rowid": "1214912",
    "final_x": "3735334.51642",
    "final_y": "562725.158624",
    "longitude": "-89.8968480794658",
    "latitude": "30.03955292369001",
    "geocoded_column": {
      "latitude": "30.03955292369001",
      "longitude": "-89.8968480794658"
    }
  },
  {
    "service_request": "2025-1214911",
    "request_type": "Trash/Recycling",
    "request_reason": "Replace Recycling Cart",
    "date_created": "2025-08-03T16:20:48.000",
    "date_modified": "2025-08-03T16:20:50.000",
    "request_status": "Pending",
    "responsible_agency": "Department of Sanitation",
    "final_address": "1468 N Claiborne Ave Apt 2C",
    "address_councildis": "C",
    "status": "Pending",
    "rowid": "1214911",
    "final_x": "3681750.17128",
    "final_y": "536984.868936",
    "longitude": "-90.0670896780847",
    "latitude": "29.97051460413106",
    "geocoded_column": {
      "latitude": "29.97051460413106",
      "longitude": "-90.0670896780847"
    }
  },
  {
    "service_request": "2025-1214910",
    "request_type": "Trash/Recycling",
    "request_reason": "Request a Large Item Pick Up",
    "date_created": "2025-08-03T15:49:38.000",
    "date_modified": "2025-08-03T15:49:40.000",
    "request_status": "Pending",
    "responsible_agency": "Department of Sanitation",
    "final_address": "1343 Granada Dr",
    "address_councildis": "D",
    "status": "Assigned to Contractor",
    "contractor": "IV Waste",
    "rowid": "1214910",
    "final_x": "3677568.88558",
    "final_y": "550635.827092",
    "longitude": "-90.07982304298203",
    "latitude": "30.008176359798867",
    "geocoded_column": {
      "latitude": "30.008176359798867",
      "longitude": "-90.07982304298203"
    }
  },
  {
    "service_request": "2025-1214909",
    "request_type": "Trash/Recycling",
    "request_reason": "Replace Trash Cart",
    "date_created": "2025-08-03T15:34:21.000",
    "date_modified": "2025-08-03T15:34:23.000",
    "request_status": "Pending",
    "responsible_agency": "Department of Sanitation",
    "final_address": "6161 Marquette Pl",
    "address_councildis": "A",
    "status": "Assigned to Contractor",
    "contractor": "IV Waste",
    "rowid": "1214909",
    "final_x": "3665662.01882",
    "final_y": "523301.583035",
    "longitude": "-90.11835633349695",
    "latitude": "29.933369058321396",
    "geocoded_column": {
      "latitude": "29.933369058321396",
      "longitude": "-90.11835633349695"
    }
  },
  {
    "service_request": "2025-1214908",
    "request_type": "Trash/Recycling",
    "request_reason": "Request a Large Item Pick Up",
    "date_created": "2025-08-03T15:33:56.000",
    "date_modified": "2025-08-03T15:33:59.000",
    "request_status": "Pending",
    "responsible_agency": "Department of Sanitation",
    "final_address": "5505 Cameron Blvd",
    "address_councildis": "D",
    "status": "Assigned to Contractor",
    "contractor": "IV Waste",
    "rowid": "1214908",
    "final_x": "3682656.10716",
    "final_y": "553061.578455",
    "longitude": "-90.06366604300756",
    "latitude": "30.01469229071456",
    "geocoded_column": {
      "latitude": "30.01469229071456",
      "longitude": "-90.06366604300756"
    }
  },
  {
    "service_request": "2025-1214907",
    "request_type": "Roads and Streets",
    "request_reason": "Curb Damage",
    "date_created": "2025-08-03T15:19:57.000",
    "date_modified": "2025-08-03T15:20:00.000",
    "request_status": "Pending",
    "responsible_agency": "Department of Public Works",
    "final_address": "9524 Palmetto St",
    "address_councildis": "A",
    "status": "Pending",
    "rowid": "1214907",
    "final_x": "3664297.47252",
    "final_y": "538557.624073",
    "longitude": "-90.12215505525288",
    "latitude": "29.975357932513564",
    "geocoded_column": {
      "latitude": "29.975357932513564",
      "longitude": "-90.12215505525288"
    }
  },
  {
    "service_request": "2025-1214906",
    "request_type": "Trash/Recycling",
    "request_reason": "Request a Large Item Pick Up",
    "date_created": "2025-08-03T15:02:06.000",
    "date_modified": "2025-08-03T15:02:08.000",
    "request_status": "Pending",
    "responsible_agency": "Department of Sanitation",
    "final_address": "1335 Arabella St",
    "address_councildis": "A",
    "status": "Assigned to Contractor",
    "contractor": "IV Waste",
    "rowid": "1214906",
    "final_x": "3666297.08743",
    "final_y": "520834.883129",
    "longitude": "-90.11643415386365",
    "latitude": "29.926567884541946",
    "geocoded_column": {
      "latitude": "29.926567884541946",
      "longitude": "-90.11643415386365"
    }
  },
  {
    "service_request": "2025-1214905",
    "request_type": "General Services",
    "request_reason": "General Service Request",
    "date_created": "2025-08-03T14:59:28.000",
    "date_modified": "2025-08-03T14:59:30.000",
    "request_status": "Pending",
    "responsible_agency": "Orleans Parish Communication District",
    "final_address": "2817 Upperline St",
    "address_councildis": "B",
    "status": "Pending",
    "rowid": "1214905",
    "final_x": "3669242.88846",
    "final_y": "525114.562941",
    "longitude": "-90.10699045365841",
    "latitude": "29.93824928116572",
    "geocoded_column": {
      "latitude": "29.93824928116572",
      "longitude": "-90.10699045365841"
    }
  },
  {
    "service_request": "2025-1214904",
    "request_type": "General Services",
    "request_reason": "General Service Request",
    "date_created": "2025-08-03T14:57:26.000",
    "date_modified": "2025-08-03T14:57:28.000",
    "request_status": "Pending",
    "responsible_agency": "Orleans Parish Communication District",
    "final_address": "2820 Upperline St",
    "address_councildis": "B",
    "status": "Pending",
    "rowid": "1214904",
    "final_x": "3669170.08462",
    "final_y": "525141.137341",
    "longitude": "-90.10721940518002",
    "latitude": "29.93832449450625",
    "geocoded_column": {
      "latitude": "29.93832449450625",
      "longitude": "-90.10721940518002"
    }
  },
  {
    "service_request": "2025-1214903",
    "request_type": "Trash/Recycling",
    "request_reason": "Request a Large Item Pick Up",
    "date_created": "2025-08-03T14:45:44.000",
    "date_modified": "2025-08-03T14:45:46.000",
    "request_status": "Pending",
    "responsible_agency": "Department of Sanitation",
    "final_address": "5414 Canal Blvd",
    "address_councildis": "A",
    "status": "Assigned to Contractor",
    "contractor": "IV Waste",
    "rowid": "1214903",
    "final_x": "3667984.53434",
    "final_y": "543161.681293",
    "longitude": "-90.11035508769763",
    "latitude": "29.987909854843654",
    "geocoded_column": {
      "latitude": "29.987909854843654",
      "longitude": "-90.11035508769763"
    }
  },
  {
    "service_request": "2025-1214902",
    "request_type": "Property Maintenance",
    "request_reason": "Property Maintenance",
    "date_created": "2025-08-03T14:28:55.000",
    "date_modified": "2025-08-03T14:28:57.000",
    "request_status": "Pending",
    "responsible_agency": "Department of Code Enforcement",
    "final_address": "4928 Cartier Ave",
    "address_councildis": "D",
    "status": "Pending",
    "rowid": "1214902",
    "final_x": "3677673.11438",
    "final_y": "550467.417812",
    "longitude": "-90.07949957400453",
    "latitude": "30.007710158796847",
    "geocoded_column": {
      "latitude": "30.007710158796847",
      "longitude": "-90.07949957400453"
    }
  },
  {
    "service_request": "2025-1214901",
    "request_type": "Streetlights",
    "request_reason": "Streetlight Outage/Malfunction",
    "date_created": "2025-08-03T14:24:39.000",
    "date_modified": "2025-08-03T14:24:41.000",
    "request_status": "Pending",
    "responsible_agency": "Department of Public Works",
    "final_address": "8521 Panola St",
    "address_councildis": "A",
    "status": "Pending",
    "contractor": "Legacy Professional Services",
    "rowid": "1214901",
    "final_x": "3662927.15795",
    "final_y": "531825.076035",
    "longitude": "-90.12670680984873",
    "latitude": "29.956885390278096",
    "geocoded_column": {
      "latitude": "29.956885390278096",
      "longitude": "-90.12670680984873"
    }
  },
  {
    "service_request": "2025-1214900",
    "request_type": "Property Maintenance",
    "request_reason": "Property Maintenance",
    "date_created": "2025-08-03T14:22:18.000",
    "date_modified": "2025-08-03T14:22:21.000",
    "request_status": "Pending",
    "responsible_agency": "Department of Code Enforcement",
    "final_address": "3517 Louisiana Avenue Prkwy",
    "address_councildis": "B",
    "status": "Pending",
    "rowid": "1214900",
    "final_x": "3671646.30958",
    "final_y": "527976.267391",
    "longitude": "-90.09930530926513",
    "latitude": "29.946047087838142",
    "geocoded_column": {
      "latitude": "29.946047087838142",
      "longitude": "-90.09930530926513"
    }
  },
  {
    "service_request": "2025-1214899",
    "request_type": "Property Maintenance",
    "request_reason": "Property Maintenance",
    "date_created": "2025-08-03T13:15:53.000",
    "date_modified": "2025-08-03T13:15:55.000",
    "request_status": "Pending",
    "responsible_agency": "Department of Code Enforcement",
    "final_address": "4527 St Claude Ave",
    "address_councildis": "D",
    "status": "Pending",
    "rowid": "1214899",
    "final_x": "3693578.80925",
    "final_y": "534973.344838",
    "longitude": "-90.02980590977756",
    "latitude": "29.96461889996896",
    "geocoded_column": {
      "latitude": "29.96461889996896",
      "longitude": "-90.02980590977756"
    }
  },
  {
    "service_request": "2025-1214898",
    "request_type": "Trash/Recycling",
    "request_reason": "Order Recycling Cart",
    "date_created": "2025-08-03T13:07:51.000",
    "date_modified": "2025-08-03T13:07:54.000",
    "request_status": "Pending",
    "responsible_agency": "Department of Sanitation",
    "final_address": "5478 Hawthorne Pl",
    "address_councildis": "A",
    "status": "Pending",
    "rowid": "1214898",
    "final_x": "3667740.42586",
    "final_y": "543651.749454",
    "longitude": "-90.11110963592934",
    "latitude": "29.98926453695901",
    "geocoded_column": {
      "latitude": "29.98926453695901",
      "longitude": "-90.11110963592934"
    }
  },
  {
    "service_request": "2025-1214897",
    "request_type": "Roads and Streets",
    "request_reason": "Pothole",
    "date_created": "2025-08-03T13:06:52.000",
    "date_modified": "2025-08-03T13:06:53.000",
    "request_status": "Pending",
    "responsible_agency": "Department of Public Works",
    "final_address": "7321 Green St",
    "address_councildis": "A",
    "status": "Pending",
    "rowid": "1214897",
    "final_x": "3664774.87936",
    "final_y": "528255.59424",
    "longitude": "-90.1209915193309",
    "latitude": "29.947016841162572",
    "geocoded_column": {
      "latitude": "29.947016841162572",
      "longitude": "-90.1209915193309"
    }
  },
  {
    "service_request": "2025-1214896",
    "request_type": "Trash/Recycling",
    "request_reason": "Request a Large Item Pick Up",
    "date_created": "2025-08-03T13:02:37.000",
    "date_modified": "2025-08-03T13:02:39.000",
    "request_status": "Pending",
    "responsible_agency": "Department of Sanitation",
    "final_address": "504 S Murat St",
    "address_councildis": "A",
    "status": "Assigned to Contractor",
    "contractor": "IV Waste",
    "rowid": "1214896",
    "final_x": "3668723.52391",
    "final_y": "538043.335881",
    "longitude": "-90.1081937194886",
    "latitude": "29.973814429516555",
    "geocoded_column": {
      "latitude": "29.973814429516555",
      "longitude": "-90.1081937194886"
    }
  },
  {
    "service_request": "2025-1214895",
    "request_type": "Property Maintenance",
    "request_reason": "Property Maintenance",
    "date_created": "2025-08-03T13:01:00.000",
    "date_modified": "2025-08-03T13:01:02.000",
    "request_status": "Pending",
    "responsible_agency": "Department of Code Enforcement",
    "final_address": "4709 Flake Ave",
    "address_councildis": "E",
    "status": "Pending",
    "rowid": "1214895",
    "final_x": "3706170.69175",
    "final_y": "555238.787865",
    "longitude": "-89.98929131713705",
    "latitude": "30.019941379052614",
    "geocoded_column": {
      "latitude": "30.019941379052614",
      "longitude": "-89.98929131713705"
    }
  },
  {
    "service_request": "2025-1214894",
    "request_type": "Property Maintenance",
    "request_reason": "Property Maintenance",
    "date_created": "2025-08-03T12:56:50.000",
    "date_modified": "2025-08-03T12:56:56.000",
    "request_status": "Pending",
    "responsible_agency": "Department of Code Enforcement",
    "final_address": "2000 BLK Upperline St",
    "address_councildis": "B",
    "status": "Pending",
    "rowid": "1214894",
    "final_x": "3669113.38385",
    "final_y": "522311.062449",
    "longitude": "-90.10749400183047",
    "latitude": "29.930544365190382",
    "geocoded_column": {
      "latitude": "29.930544365190382",
      "longitude": "-90.10749400183047"
    }
  },
  {
    "service_request": "2025-1214893",
    "request_type": "General Services",
    "request_reason": "General Service Request",
    "date_created": "2025-08-03T12:52:02.000",
    "date_modified": "2025-08-03T12:52:04.000",
    "request_status": "Pending",
    "responsible_agency": "Orleans Parish Communication District",
    "final_address": "823 Bordeaux St",
    "address_councildis": "B",
    "status": "Pending",
    "rowid": "1214893",
    "final_x": "3669656.43905",
    "final_y": "518478.14399",
    "longitude": "-90.1059092675477",
    "latitude": "29.919989072827008",
    "geocoded_column": {
      "latitude": "29.919989072827008",
      "longitude": "-90.1059092675477"
    }
  },
  {
    "service_request": "2025-1214892",
    "request_type": "Property Maintenance",
    "request_reason": "Property Maintenance",
    "date_created": "2025-08-03T12:51:27.000",
    "date_modified": "2025-08-03T12:51:29.000",
    "request_status": "Pending",
    "responsible_agency": "Department of Code Enforcement",
    "final_address": "4709 Flake Ave",
    "address_councildis": "E",
    "status": "Pending",
    "rowid": "1214892",
    "final_x": "3706170.69175",
    "final_y": "555238.787865",
    "longitude": "-89.98929131713705",
    "latitude": "30.019941379052614",
    "geocoded_column": {
      "latitude": "30.019941379052614",
      "longitude": "-89.98929131713705"
    }
  },
  {
    "service_request": "2025-1214891",
    "request_type": "Property Maintenance",
    "request_reason": "Property Maintenance",
    "date_created": "2025-08-03T12:47:52.000",
    "date_modified": "2025-08-03T12:47:53.000",
    "request_status": "Pending",
    "responsible_agency": "Department of Code Enforcement",
    "final_address": "4709 Flake Ave",
    "address_councildis": "E",
    "status": "Pending",
    "rowid": "1214891",
    "final_x": "3706170.69175",
    "final_y": "555238.787865",
    "longitude": "-89.98929131713705",
    "latitude": "30.019941379052614",
    "geocoded_column": {
      "latitude": "30.019941379052614",
      "longitude": "-89.98929131713705"
    }
  },
  {
    "service_request": "2025-1214890",
    "request_type": "Trash/Recycling",
    "request_reason": "Request a Large Item Pick Up",
    "date_created": "2025-08-03T12:43:03.000",
    "date_modified": "2025-08-03T12:43:05.000",
    "request_status": "Pending",
    "responsible_agency": "Department of Sanitation",
    "final_address": "5659 Woodlawn Pl",
    "address_councildis": "A",
    "status": "Assigned to Contractor",
    "contractor": "IV Waste",
    "rowid": "1214890",
    "final_x": "3667611.01665",
    "final_y": "545152.403343",
    "longitude": "-90.1114678569873",
    "latitude": "29.99339461690932",
    "geocoded_column": {
      "latitude": "29.99339461690932",
      "longitude": "-90.1114678569873"
    }
  },
  {
    "service_request": "2025-1214889",
    "request_type": "Property Maintenance",
    "request_reason": "Property Maintenance",
    "date_created": "2025-08-03T12:42:56.000",
    "date_modified": "2025-08-03T12:42:58.000",
    "request_status": "Pending",
    "responsible_agency": "Department of Code Enforcement",
    "final_address": "4709 Flake Ave",
    "address_councildis": "E",
    "status": "Pending",
    "rowid": "1214889",
    "final_x": "3706170.69175",
    "final_y": "555238.787865",
    "longitude": "-89.98929131713705",
    "latitude": "30.019941379052614",
    "geocoded_column": {
      "latitude": "30.019941379052614",
      "longitude": "-89.98929131713705"
    }
  },
  {
    "service_request": "2025-1214888",
    "request_type": "Property Maintenance",
    "request_reason": "Property Maintenance",
    "date_created": "2025-08-03T12:34:37.000",
    "date_modified": "2025-08-03T12:34:39.000",
    "request_status": "Pending",
    "responsible_agency": "Department of Code Enforcement",
    "final_address": "4701 Flake Ave",
    "address_councildis": "E",
    "status": "Pending",
    "rowid": "1214888",
    "final_x": "3706178.60023",
    "final_y": "555160.186457",
    "longitude": "-89.98926924226443",
    "latitude": "30.019725000512892",
    "geocoded_column": {
      "latitude": "30.019725000512892",
      "longitude": "-89.98926924226443"
    }
  },
  {
    "service_request": "2025-1214887",
    "request_type": "Drainage",
    "request_reason": "Catch Basin Clogged",
    "date_created": "2025-08-03T12:34:15.000",
    "date_modified": "2025-08-03T12:34:17.000",
    "request_status": "Pending",
    "responsible_agency": "Sewerage & Water Board",
    "final_address": "7051 Curran Rd",
    "address_councildis": "E",
    "status": "Pending",
    "rowid": "1214887",
    "final_x": "3699165.61853",
    "final_y": "560442.258846",
    "longitude": "-90.0112352686101",
    "latitude": "30.03447299712617",
    "geocoded_column": {
      "latitude": "30.03447299712617",
      "longitude": "-90.0112352686101"
    }
  },
  {
    "service_request": "2025-1214886",
    "request_type": "Property Maintenance",
    "request_reason": "Property Maintenance",
    "date_created": "2025-08-03T12:30:59.000",
    "date_modified": "2025-08-03T12:31:01.000",
    "request_status": "Pending",
    "responsible_agency": "Department of Code Enforcement",
    "final_address": "4701 Flake Ave",
    "address_councildis": "E",
    "status": "Pending",
    "rowid": "1214886",
    "final_x": "3706178.60023",
    "final_y": "555160.186457",
    "longitude": "-89.98926924226443",
    "latitude": "30.019725000512892",
    "geocoded_column": {
      "latitude": "30.019725000512892",
      "longitude": "-89.98926924226443"
    }
  },
  {
    "service_request": "2025-1214885",
    "request_type": "Streetlights",
    "request_reason": "New Streetlight Request",
    "date_created": "2025-08-03T12:23:52.000",
    "date_modified": "2025-08-03T12:23:54.000",
    "request_status": "Pending",
    "responsible_agency": "Department of Public Works",
    "final_address": "228 N Clark St",
    "address_councildis": "B",
    "status": "Pending",
    "contractor": "Legacy Professional Services",
    "rowid": "1214885",
    "final_x": "3673294.2674",
    "final_y": "537514.146376",
    "longitude": "-90.09377636186073",
    "latitude": "29.972224168538926",
    "geocoded_column": {
      "latitude": "29.972224168538926",
      "longitude": "-90.09377636186073"
    }
  },
  {
    "service_request": "2025-1214884",
    "request_type": "Drainage",
    "request_reason": "Street Flooding",
    "date_created": "2025-08-03T12:19:41.000",
    "date_modified": "2025-08-03T12:19:42.000",
    "request_status": "Pending",
    "responsible_agency": "Sewerage & Water Board",
    "final_address": "231 N Clark St",
    "address_councildis": "B",
    "status": "Pending",
    "rowid": "1214884",
    "final_x": "3673247.80744",
    "final_y": "537572.385352",
    "longitude": "-90.09392110105597",
    "latitude": "29.972385687883314",
    "geocoded_column": {
      "latitude": "29.972385687883314",
      "longitude": "-90.09392110105597"
    }
  },
  {
    "service_request": "2025-1214883",
    "request_type": "Property Maintenance",
    "request_reason": "Property Maintenance",
    "date_created": "2025-08-03T12:18:25.000",
    "date_modified": "2025-08-03T12:18:27.000",
    "request_status": "Pending",
    "responsible_agency": "Department of Code Enforcement",
    "final_address": "2211 St Ann St",
    "address_councildis": "D",
    "status": "Pending",
    "rowid": "1214883",
    "final_x": "3678528.54203",
    "final_y": "536064.292103",
    "longitude": "-90.0772958253345",
    "latitude": "29.968080831381176",
    "geocoded_column": {
      "latitude": "29.968080831381176",
      "longitude": "-90.0772958253345"
    }
  },
  {
    "service_request": "2025-1214882",
    "request_type": "Property Maintenance",
    "request_reason": "Property Maintenance",
    "date_created": "2025-08-03T12:17:09.000",
    "date_modified": "2025-08-03T12:17:12.000",
    "request_status": "Pending",
    "responsible_agency": "Department of Code Enforcement",
    "final_address": "228 N Clark St",
    "address_councildis": "B",
    "status": "Pending",
    "rowid": "1214882",
    "final_x": "3673294.2674",
    "final_y": "537514.146376",
    "longitude": "-90.09377636186073",
    "latitude": "29.972224168538926",
    "geocoded_column": {
      "latitude": "29.972224168538926",
      "longitude": "-90.09377636186073"
    }
  },
  {
    "service_request": "2025-1214881",
    "request_type": "Abandoned Vehicles",
    "request_reason": "Abandoned/Junk Vehicles",
    "date_created": "2025-08-03T12:08:03.000",
    "date_modified": "2025-08-03T12:08:05.000",
    "request_status": "Pending",
    "responsible_agency": "Department of Public Works",
    "final_address": "228 N Clark St",
    "address_councildis": "B",
    "status": "Pending",
    "rowid": "1214881",
    "final_x": "3673294.2674",
    "final_y": "537514.146376",
    "longitude": "-90.09377636186073",
    "latitude": "29.972224168538926",
    "geocoded_column": {
      "latitude": "29.972224168538926",
      "longitude": "-90.09377636186073"
    }
  },
  {
    "service_request": "2025-1214879",
    "request_type": "Trash/Recycling",
    "request_reason": "Repair Trash Cart",
    "date_created": "2025-08-03T11:40:02.000",
    "date_modified": "2025-08-03T11:40:05.000",
    "request_status": "Pending",
    "responsible_agency": "Department of Sanitation",
    "final_address": "1730 Bienville Ave",
    "address_councildis": "B",
    "status": "Assigned to Contractor",
    "contractor": "IV Waste",
    "rowid": "1214879",
    "final_x": "3678571.89416",
    "final_y": "533559.076869",
    "longitude": "-90.07724564541074",
    "latitude": "29.96119103496334",
    "geocoded_column": {
      "latitude": "29.96119103496334",
      "longitude": "-90.07724564541074"
    }
  },
  {
    "service_request": "2025-1214878",
    "request_type": "Trash/Recycling",
    "request_reason": "Request a Large Item Pick Up",
    "date_created": "2025-08-03T11:15:57.000",
    "date_modified": "2025-08-03T11:15:59.000",
    "request_status": "Pending",
    "responsible_agency": "Department of Sanitation",
    "final_address": "4700 Lurline St",
    "address_councildis": "E",
    "status": "Assigned to Contractor",
    "contractor": "Waste Pro",
    "rowid": "1214878",
    "final_x": "3711927.63659",
    "final_y": "555815.727321",
    "longitude": "-89.97107972694417",
    "latitude": "30.021340804266707",
    "geocoded_column": {
      "latitude": "30.021340804266707",
      "longitude": "-89.97107972694417"
    }
  },
  {
    "service_request": "2025-1214877",
    "request_type": "Trash/Recycling",
    "request_reason": "Request a Large Item Pick Up",
    "date_created": "2025-08-03T11:05:14.000",
    "date_modified": "2025-08-03T11:05:16.000",
    "request_status": "Pending",
    "responsible_agency": "Department of Sanitation",
    "final_address": "18 Christopher Ct",
    "address_councildis": "E",
    "status": "Assigned to Contractor",
    "contractor": "Waste Pro",
    "rowid": "1214877",
    "final_x": "3716804.39026",
    "final_y": "570425.744871",
    "longitude": "-89.9551154582039",
    "latitude": "30.061352100903825",
    "geocoded_column": {
      "latitude": "30.061352100903825",
      "longitude": "-89.9551154582039"
    }
  },
  {
    "service_request": "2025-1214876",
    "request_type": "Roads and Streets",
    "request_reason": "Street Subsidence (Sinking)",
    "date_created": "2025-08-03T10:58:23.000",
    "date_modified": "2025-08-03T10:58:27.000",
    "request_status": "Pending",
    "responsible_agency": "Sewerage & Water Board",
    "final_address": "5880 Louis Xiv St",
    "address_councildis": "A",
    "status": "Pending",
    "rowid": "1214876",
    "final_x": "3667918.00961",
    "final_y": "546612.118353",
    "longitude": "-90.11044890177165",
    "latitude": "29.997399326376968",
    "geocoded_column": {
      "latitude": "29.997399326376968",
      "longitude": "-90.11044890177165"
    }
  },
  {
    "service_request": "2025-1214875",
    "request_type": "Abandoned Vehicles",
    "request_reason": "Abandoned/Junk Vehicles",
    "date_created": "2025-08-03T10:49:41.000",
    "date_modified": "2025-08-03T10:49:43.000",
    "request_status": "Pending",
    "responsible_agency": "Department of Public Works",
    "final_address": "1819 Sophie Wright Pl",
    "address_councildis": "B",
    "status": "Pending",
    "rowid": "1214875",
    "final_x": "3679592.83573",
    "final_y": "523146.531259",
    "longitude": "-90.07438296322455",
    "latitude": "29.932529201851622",
    "geocoded_column": {
      "latitude": "29.932529201851622",
      "longitude": "-90.07438296322455"
    }
  },
  {
    "service_request": "2025-1214874",
    "request_type": "Safety & Permits",
    "request_reason": "Licenses & Permits",
    "date_created": "2025-08-03T10:47:14.000",
    "date_modified": "2025-08-03T10:47:16.000",
    "request_status": "Pending",
    "responsible_agency": "Safety and Permits",
    "final_address": "21135 Chef Menteur Hwy",
    "address_councildis": "E",
    "status": "Pending",
    "rowid": "1214874",
    "final_x": "3765454.31888",
    "final_y": "574701.902955",
    "longitude": "-89.80115705151728",
    "latitude": "30.071410828363792",
    "geocoded_column": {
      "latitude": "30.071410828363792",
      "longitude": "-89.80115705151728"
    }
  },
  {
    "service_request": "2025-1214873",
    "request_type": "Mosquito, Termite & Rodent Control",
    "request_reason": "Rodent Complaint (Mice & Rats)",
    "date_created": "2025-08-03T10:40:05.000",
    "date_modified": "2025-08-03T10:40:07.000",
    "request_status": "Pending",
    "responsible_agency": "Mosquito, Termite & Rodent Control Board",
    "final_address": "NO HAMMOND HWY & DERBES ST",
    "address_councildis": "A",
    "status": "Pending",
    "rowid": "1214873",
    "final_x": "3665867.0",
    "final_y": "554592.78",
    "longitude": "-90.11666030639888",
    "latitude": "30.01940339888575",
    "geocoded_column": {
      "latitude": "30.01940339888575",
      "longitude": "-90.11666030639888"
    }
  },
  {
    "service_request": "2025-1214872",
    "request_type": "Safety & Permits",
    "request_reason": "Zoning Enforcement",
    "date_created": "2025-08-03T10:31:02.000",
    "date_modified": "2025-08-03T10:31:05.000",
    "request_status": "Pending",
    "responsible_agency": "Safety and Permits",
    "final_address": "1829 Marais St",
    "address_councildis": "C",
    "status": "Pending",
    "rowid": "1214872",
    "final_x": "3683735.76629",
    "final_y": "536600.654023",
    "longitude": "-90.06083242418292",
    "latitude": "29.969397662879082",
    "geocoded_column": {
      "latitude": "29.969397662879082",
      "longitude": "-90.06083242418292"
    }
  },
  {
    "service_request": "2025-1214871",
    "request_type": "Trash/Recycling",
    "request_reason": "Request a Large Item Pick Up",
    "date_created": "2025-08-03T10:18:28.000",
    "date_modified": "2025-08-03T10:18:30.000",
    "request_status": "Pending",
    "responsible_agency": "Department of Sanitation",
    "final_address": "143 Alix St",
    "address_councildis": "C",
    "status": "Assigned to Contractor",
    "contractor": "Richards Disposal",
    "rowid": "1214871",
    "final_x": "3685940.8525",
    "final_y": "529571.168193",
    "longitude": "-90.05411643717724",
    "latitude": "29.95000147927949",
    "geocoded_column": {
      "latitude": "29.95000147927949",
      "longitude": "-90.05411643717724"
    }
  },
  {
    "service_request": "2025-1214870",
    "request_type": "Parks & Parkways",
    "request_reason": "Park Maintenance/Clean Up",
    "date_created": "2025-08-03T10:03:12.000",
    "date_modified": "2025-08-03T10:03:14.000",
    "request_status": "Pending",
    "responsible_agency": "Department of Parks & Parkway",
    "final_address": "326 N Norman C Francis Prkwy",
    "address_councildis": "B",
    "status": "Pending",
    "rowid": "1214870",
    "final_x": "3673942.56187",
    "final_y": "537461.657928",
    "longitude": "-90.09173073114182",
    "latitude": "29.972060543359838",
    "geocoded_column": {
      "latitude": "29.972060543359838",
      "longitude": "-90.09173073114182"
    }
  },
  {
    "service_request": "2025-1214869",
    "request_type": "Trash/Recycling",
    "request_reason": "Order Trash Cart",
    "date_created": "2025-08-03T09:49:35.000",
    "date_modified": "2025-08-03T09:49:36.000",
    "request_status": "Pending",
    "responsible_agency": "Department of Sanitation",
    "final_address": "4604 Toulouse St",
    "address_councildis": "A",
    "status": "Assigned to Contractor",
    "contractor": "IV Waste",
    "rowid": "1214869",
    "final_x": "3670410.99143",
    "final_y": "541046.069324",
    "longitude": "-90.102762466925",
    "latitude": "29.98202121075726",
    "geocoded_column": {
      "latitude": "29.98202121075726",
      "longitude": "-90.102762466925"
    }
  },
  {
    "service_request": "2025-1214868",
    "request_type": "Trash/Recycling",
    "request_reason": "Order Trash Cart",
    "date_created": "2025-08-03T09:41:34.000",
    "date_modified": "2025-08-03T09:41:36.000",
    "request_status": "Pending",
    "responsible_agency": "Department of Sanitation",
    "final_address": "5820 Pembrook Dr",
    "address_councildis": "C",
    "status": "Assigned to Contractor",
    "contractor": "Richards Disposal",
    "rowid": "1214868",
    "final_x": "3705208.9603",
    "final_y": "520719.895289",
    "longitude": "-89.99360529511894",
    "latitude": "29.925058057909972",
    "geocoded_column": {
      "latitude": "29.925058057909972",
      "longitude": "-89.99360529511894"
    }
  },
  {
    "service_request": "2025-1214867",
    "request_type": "Drainage",
    "request_reason": "Street Flooding",
    "date_created": "2025-08-03T09:39:38.000",
    "date_modified": "2025-08-03T09:39:40.000",
    "request_status": "Pending",
    "responsible_agency": "Sewerage & Water Board",
    "final_address": "0 BLK Agriculture Pl",
    "address_councildis": "D",
    "status": "Pending",
    "rowid": "1214867",
    "final_x": "3689891.40135",
    "final_y": "543419.290574",
    "longitude": "-90.04114966127275",
    "latitude": "29.987957086684915",
    "geocoded_column": {
      "latitude": "29.987957086684915",
      "longitude": "-90.04114966127275"
    }
  },
  {
    "service_request": "2025-1214866",
    "request_type": "Trash/Recycling",
    "request_reason": "Request a Large Item Pick Up",
    "date_created": "2025-08-03T09:11:50.000",
    "date_modified": "2025-08-03T09:11:52.000",
    "request_status": "Pending",
    "responsible_agency": "Department of Sanitation",
    "final_address": "1903 S Dupre St",
    "address_councildis": "B",
    "status": "Assigned to Contractor",
    "contractor": "IV Waste",
    "rowid": "1214866",
    "final_x": "3670313.45102",
    "final_y": "529569.670081",
    "longitude": "-90.10345961061249",
    "latitude": "29.950467826552497",
    "geocoded_column": {
      "latitude": "29.950467826552497",
      "longitude": "-90.10345961061249"
    }
  },
  {
    "service_request": "2025-1214865",
    "request_type": "Trash/Recycling",
    "request_reason": "Request a Large Item Pick Up",
    "date_created": "2025-08-03T09:05:56.000",
    "date_modified": "2025-08-03T09:06:00.000",
    "request_status": "Pending",
    "responsible_agency": "Department of Sanitation",
    "final_address": "7950 Arcadia Ln",
    "address_councildis": "E",
    "status": "Assigned to Contractor",
    "contractor": "Waste Pro",
    "rowid": "1214865",
    "final_x": "3711729.18302",
    "final_y": "567986.627237",
    "longitude": "-89.9712496382031",
    "latitude": "30.054812397331297",
    "geocoded_column": {
      "latitude": "30.054812397331297",
      "longitude": "-89.9712496382031"
    }
  },
  {
    "service_request": "2025-1214864",
    "request_type": "Trash/Recycling",
    "request_reason": "Request a Large Item Pick Up",
    "date_created": "2025-08-03T08:57:47.000",
    "date_modified": "2025-08-03T08:57:50.000",
    "request_status": "Pending",
    "responsible_agency": "Department of Sanitation",
    "final_address": "7943 Arcadia Ln",
    "address_councildis": "E",
    "status": "Assigned to Contractor",
    "contractor": "Waste Pro",
    "rowid": "1214864",
    "final_x": "3711798.2828",
    "final_y": "567999.726693",
    "longitude": "-89.97103073860181",
    "latitude": "30.05484615677487",
    "geocoded_column": {
      "latitude": "30.05484615677487",
      "longitude": "-89.97103073860181"
    }
  },
  {
    "service_request": "2025-1214863",
    "request_type": "Roads and Streets",
    "request_reason": "Road Shoulder Damage",
    "date_created": "2025-08-03T08:45:33.000",
    "date_modified": "2025-08-03T08:45:36.000",
    "request_status": "Pending",
    "responsible_agency": "Department of Public Works",
    "final_address": "242 Roselyn Park Pl",
    "address_councildis": "C",
    "status": "Pending",
    "rowid": "1214863",
    "final_x": "3702687.22359",
    "final_y": "523230.760507",
    "longitude": "-90.00147341843538",
    "latitude": "29.932042896740132",
    "geocoded_column": {
      "latitude": "29.932042896740132",
      "longitude": "-90.00147341843538"
    }
  },
  {
    "service_request": "2025-1214862",
    "request_type": "Trash/Recycling",
    "request_reason": "Repair Trash Cart",
    "date_created": "2025-08-03T08:35:17.000",
    "date_modified": "2025-08-03T08:35:19.000",
    "request_status": "Pending",
    "responsible_agency": "Department of Sanitation",
    "final_address": "9005 Hickory St",
    "address_councildis": "A",
    "status": "Assigned to Contractor",
    "contractor": "IV Waste",
    "rowid": "1214862",
    "final_x": "3661006.47162",
    "final_y": "532144.078467",
    "longitude": "-90.1327612084773",
    "latitude": "29.957818018273002",
    "geocoded_column": {
      "latitude": "29.957818018273002",
      "longitude": "-90.1327612084773"
    }
  },
  {
    "service_request": "2025-1214861",
    "request_type": "Trash/Recycling",
    "request_reason": "Request a Large Item Pick Up",
    "date_created": "2025-08-03T08:33:10.000",
    "date_modified": "2025-08-03T08:33:12.000",
    "request_status": "Pending",
    "responsible_agency": "Department of Sanitation",
    "final_address": "3621 State Street Dr",
    "address_councildis": "A",
    "status": "Assigned to Contractor",
    "contractor": "IV Waste",
    "rowid": "1214861",
    "final_x": "3667973.21268",
    "final_y": "529168.49248",
    "longitude": "-90.11086240732065",
    "latitude": "29.949433579350597",
    "geocoded_column": {
      "latitude": "29.949433579350597",
      "longitude": "-90.11086240732065"
    }
  },
  {
    "service_request": "2025-1214860",
    "request_type": "Streetlights",
    "request_reason": "Streetlight Outage/Malfunction",
    "date_created": "2025-08-03T08:27:40.000",
    "date_modified": "2025-08-03T08:27:42.000",
    "request_status": "Pending",
    "responsible_agency": "Department of Public Works",
    "final_address": "2424 Marengo St",
    "address_councildis": "B",
    "status": "Pending",
    "contractor": "Legacy Professional Services",
    "rowid": "1214860",
    "final_x": "3671602.6955",
    "final_y": "524005.061756",
    "longitude": "-90.09957801885793",
    "latitude": "29.93512885559905",
    "geocoded_column": {
      "latitude": "29.93512885559905",
      "longitude": "-90.09957801885793"
    }
  },
  {
    "service_request": "2025-1214859",
    "request_type": "Roads and Streets",
    "request_reason": "Sidewalk Damaged or Missing",
    "date_created": "2025-08-03T08:09:58.000",
    "date_modified": "2025-08-03T08:09:59.000",
    "request_status": "Pending",
    "responsible_agency": "Department of Public Works",
    "final_address": "2620 St Louis St",
    "address_councildis": "B",
    "status": "Pending",
    "rowid": "1214859",
    "final_x": "3676479.18299",
    "final_y": "536014.628039",
    "longitude": "-90.08376949509744",
    "latitude": "29.96800588260674",
    "geocoded_column": {
      "latitude": "29.96800588260674",
      "longitude": "-90.08376949509744"
    }
  },
  {
    "service_request": "2025-1214858",
    "request_type": "Parks & Parkways",
    "request_reason": "Request Tree Service (Right of Way/Public Property)",
    "date_created": "2025-08-03T08:04:32.000",
    "date_modified": "2025-08-03T08:04:33.000",
    "request_status": "Pending",
    "responsible_agency": "Department of Parks & Parkway",
    "final_address": "3608 Banks St",
    "address_councildis": "B",
    "status": "Pending",
    "rowid": "1214858",
    "final_x": "3671753.1627",
    "final_y": "536243.186695",
    "longitude": "-90.09868669229873",
    "latitude": "29.968775208481716",
    "geocoded_column": {
      "latitude": "29.968775208481716",
      "longitude": "-90.09868669229873"
    }
  },
  {
    "service_request": "2025-1214857",
    "request_type": "Trash/Recycling",
    "request_reason": "Missed Trash Pick-Up",
    "date_created": "2025-08-03T07:21:36.000",
    "date_modified": "2025-08-03T07:33:44.000",
    "case_close_date": "2025-08-03T02:33:43.000",
    "request_status": "Closed",
    "responsible_agency": "Department of Sanitation",
    "final_address": "6321 Hewes St",
    "address_councildis": "A",
    "status": "Invalid Request",
    "contractor": "IV Waste",
    "contractor_action": "Invalid Request",
    "rowid": "1214857",
    "final_x": "3667689.93748",
    "final_y": "529831.456385",
    "longitude": "-90.11173452037725",
    "latitude": "29.951264821120333",
    "geocoded_column": {
      "latitude": "29.951264821120333",
      "longitude": "-90.11173452037725"
    }
  },
  {
    "service_request": "2025-1214856",
    "request_type": "Trash/Recycling",
    "request_reason": "Order Second Trash Cart",
    "date_created": "2025-08-03T07:19:22.000",
    "date_modified": "2025-08-03T07:19:24.000",
    "request_status": "Pending",
    "responsible_agency": "Department of Sanitation",
    "final_address": "6321 Hewes St",
    "address_councildis": "A",
    "status": "Assigned to Contractor",
    "contractor": "IV Waste",
    "rowid": "1214856",
    "final_x": "3667689.93748",
    "final_y": "529831.456385",
    "longitude": "-90.11173452037725",
    "latitude": "29.951264821120333",
    "geocoded_column": {
      "latitude": "29.951264821120333",
      "longitude": "-90.11173452037725"
    }
  },
  {
    "service_request": "2025-1214855",
    "request_type": "Roads and Streets",
    "request_reason": "Sidewalk Damaged or Missing",
    "date_created": "2025-08-03T07:03:29.000",
    "date_modified": "2025-08-03T07:03:30.000",
    "request_status": "Pending",
    "responsible_agency": "Department of Public Works",
    "final_address": "2500 BLK General Pershing St",
    "address_councildis": "B",
    "status": "Pending",
    "rowid": "1214855",
    "final_x": "3670914.45341",
    "final_y": "524257.380079",
    "longitude": "-90.1017422396926",
    "latitude": "29.93584300796722",
    "geocoded_column": {
      "latitude": "29.93584300796722",
      "longitude": "-90.1017422396926"
    }
  },
  {
    "service_request": "2025-1214854",
    "request_type": "Trash/Recycling",
    "request_reason": "Repair Recycling Cart",
    "date_created": "2025-08-03T06:54:06.000",
    "date_modified": "2025-08-03T06:54:08.000",
    "request_status": "Pending",
    "responsible_agency": "Department of Sanitation",
    "final_address": "448 Audubon Blvd",
    "address_councildis": "B",
    "status": "Pending",
    "rowid": "1214854",
    "final_x": "3667521.81492",
    "final_y": "530705.801346",
    "longitude": "-90.11223594947931",
    "latitude": "29.953673911728977",
    "geocoded_column": {
      "latitude": "29.953673911728977",
      "longitude": "-90.11223594947931"
    }
  },
  {
    "service_request": "2025-1214853",
    "request_type": "Property Maintenance",
    "request_reason": "Property Maintenance",
    "date_created": "2025-08-03T05:02:05.000",
    "date_modified": "2025-08-03T05:02:06.000",
    "request_status": "Pending",
    "responsible_agency": "Department of Code Enforcement",
    "final_address": "7011 Coventry St",
    "address_councildis": "E",
    "status": "Pending",
    "rowid": "1214853",
    "final_x": "3699186.30212",
    "final_y": "559827.066077",
    "longitude": "-90.01119233808276",
    "latitude": "30.032780798712942",
    "geocoded_column": {
      "latitude": "30.032780798712942",
      "longitude": "-90.01119233808276"
    }
  },
  {
    "service_request": "2025-1214852",
    "request_type": "Property Maintenance",
    "request_reason": "Property Maintenance",
    "date_created": "2025-08-03T04:52:40.000",
    "date_modified": "2025-08-03T04:52:42.000",
    "request_status": "Pending",
    "responsible_agency": "Department of Code Enforcement",
    "final_address": "7011 Coventry St",
    "address_councildis": "E",
    "status": "Pending",
    "rowid": "1214852",
    "final_x": "3699186.30212",
    "final_y": "559827.066077",
    "longitude": "-90.01119233808276",
    "latitude": "30.032780798712942",
    "geocoded_column": {
      "latitude": "30.032780798712942",
      "longitude": "-90.01119233808276"
    }
  },
  {
    "service_request": "2025-1214851",
    "request_type": "Trash/Recycling",
    "request_reason": "Request a Large Item Pick Up",
    "date_created": "2025-08-03T00:39:44.000",
    "date_modified": "2025-08-03T00:39:46.000",
    "request_status": "Pending",
    "responsible_agency": "Department of Sanitation",
    "final_address": "4943 Sierra Madre Dr",
    "address_councildis": "E",
    "status": "Assigned to Contractor",
    "contractor": "Waste Pro",
    "rowid": "1214851",
    "final_x": "3713846.89247",
    "final_y": "557639.682843",
    "longitude": "-89.96494664812984",
    "latitude": "30.026293081689786",
    "geocoded_column": {
      "latitude": "30.026293081689786",
      "longitude": "-89.96494664812984"
    }
  },
  {
    "service_request": "2025-1214850",
    "request_type": "Drainage",
    "request_reason": "Catch Basin Clogged",
    "date_created": "2025-08-02T23:36:29.000",
    "date_modified": "2025-08-02T23:36:30.000",
    "request_status": "Pending",
    "responsible_agency": "Sewerage & Water Board",
    "final_address": "1700 BLK Robert C Blakes Sr Dr",
    "address_councildis": "B",
    "status": "Pending",
    "rowid": "1214850",
    "final_x": "3678403.58312",
    "final_y": "525138.387503",
    "longitude": "-90.07806844544257",
    "latitude": "29.938042026281458",
    "geocoded_column": {
      "latitude": "29.938042026281458",
      "longitude": "-90.07806844544257"
    }
  },
  {
    "service_request": "2025-1214849",
    "request_type": "Abandoned Vehicles",
    "request_reason": "Abandoned/Junk Vehicles",
    "date_created": "2025-08-02T23:35:31.000",
    "date_modified": "2025-08-02T23:35:32.000",
    "request_status": "Pending",
    "responsible_agency": "Department of Public Works",
    "final_address": "2821 New Orleans St",
    "address_councildis": "D",
    "status": "Pending",
    "rowid": "1214849",
    "final_x": "3681896.25589",
    "final_y": "542934.399693",
    "longitude": "-90.06642058023269",
    "latitude": "29.986869300360787",
    "geocoded_column": {
      "latitude": "29.986869300360787",
      "longitude": "-90.06642058023269"
    }
  },
  {
    "service_request": "2025-1214848",
    "request_type": "Trash/Recycling",
    "request_reason": "Order Second Trash Cart",
    "date_created": "2025-08-02T23:18:02.000",
    "date_modified": "2025-08-02T23:18:04.000",
    "request_status": "Pending",
    "responsible_agency": "Department of Sanitation",
    "final_address": "4751 Major Dr",
    "address_councildis": "E",
    "status": "Assigned to Contractor",
    "contractor": "Waste Pro",
    "rowid": "1214848",
    "final_x": "3718278.33253",
    "final_y": "557009.417946",
    "longitude": "-89.95096802253137",
    "latitude": "30.024413847568635",
    "geocoded_column": {
      "latitude": "30.024413847568635",
      "longitude": "-89.95096802253137"
    }
  },
  {
    "service_request": "2025-1214847",
    "request_type": "Abandoned Vehicles",
    "request_reason": "Abandoned/Junk Vehicles",
    "date_created": "2025-08-02T23:16:36.000",
    "date_modified": "2025-08-02T23:16:38.000",
    "request_status": "Pending",
    "responsible_agency": "Department of Public Works",
    "final_address": "3204 LaSalle St",
    "address_councildis": "B",
    "status": "Pending",
    "rowid": "1214847",
    "final_x": "3673543.90401",
    "final_y": "524279.217276",
    "longitude": "-90.09344025620061",
    "latitude": "29.935825079221168",
    "geocoded_column": {
      "latitude": "29.935825079221168",
      "longitude": "-90.09344025620061"
    }
  },
  {
    "service_request": "2025-1214846",
    "request_type": "EMS",
    "request_reason": "EMS Complaint",
    "date_created": "2025-08-02T22:51:54.000",
    "date_modified": "2025-08-02T22:51:55.000",
    "request_status": "Pending",
    "responsible_agency": "Emergency Medical Services",
    "final_address": "4639 Magazine St",
    "address_councildis": "B",
    "status": "Pending",
    "rowid": "1214846",
    "final_x": "3670020.51322",
    "final_y": "518752.480247",
    "longitude": "-90.10475077336142",
    "latitude": "29.920732681998455",
    "geocoded_column": {
      "latitude": "29.920732681998455",
      "longitude": "-90.10475077336142"
    }
  },
  {
    "service_request": "2025-1214845",
    "request_type": "Family Reunification",
    "request_reason": "Misplaced Citizen",
    "date_created": "2025-08-02T22:44:06.000",
    "date_modified": "2025-08-02T22:44:08.000",
    "request_status": "Pending",
    "responsible_agency": "Health Department",
    "final_address": "4639 Magazine St",
    "address_councildis": "B",
    "status": "Pending",
    "rowid": "1214845",
    "final_x": "3670020.51322",
    "final_y": "518752.480247",
    "longitude": "-90.10475077336142",
    "latitude": "29.920732681998455",
    "geocoded_column": {
      "latitude": "29.920732681998455",
      "longitude": "-90.10475077336142"
    }
  },
  {
    "service_request": "2025-1214844",
    "request_type": "Streetlights",
    "request_reason": "Streetlight Outage/Malfunction",
    "date_created": "2025-08-02T22:31:44.000",
    "date_modified": "2025-08-02T22:31:46.000",
    "request_status": "Pending",
    "responsible_agency": "Department of Public Works",
    "final_address": "1618 S Liberty St",
    "address_councildis": "B",
    "status": "Pending",
    "contractor": "Legacy Professional Services",
    "rowid": "1214844",
    "final_x": "3676745.19873",
    "final_y": "526531.537982",
    "longitude": "-90.08325613022687",
    "latitude": "29.941922581934552",
    "geocoded_column": {
      "latitude": "29.941922581934552",
      "longitude": "-90.08325613022687"
    }
  },
  {
    "service_request": "2025-1214843",
    "request_type": "Health Related Request",
    "request_reason": "Noise Ordinance Complaint",
    "date_created": "2025-08-02T22:16:03.000",
    "date_modified": "2025-08-02T22:16:05.000",
    "request_status": "Pending",
    "responsible_agency": "Health Department",
    "final_address": "822 Howard Ave, New Orleans, Louisiana, 70113",
    "address_councildis": "B",
    "status": "Pending",
    "rowid": "1214843",
    "final_x": "3679578.88789",
    "final_y": "527406.069311",
    "longitude": "-90.07427923925704",
    "latitude": "29.944241942750015",
    "geocoded_column": {
      "latitude": "29.944241942750015",
      "longitude": "-90.07427923925704"
    }
  },
  {
    "service_request": "2025-1214842",
    "request_type": "Graffiti Removal",
    "request_reason": "Graffiti Removal",
    "date_created": "2025-08-02T21:52:43.000",
    "date_modified": "2025-08-02T21:52:45.000",
    "request_status": "Pending",
    "responsible_agency": "Department of Code Enforcement",
    "final_address": "1223 Royal St",
    "address_councildis": "C",
    "status": "Pending",
    "rowid": "1214842",
    "final_x": "3683746.34447",
    "final_y": "534069.877189",
    "longitude": "-90.06088777228473",
    "latitude": "29.962438576704958",
    "geocoded_column": {
      "latitude": "29.962438576704958",
      "longitude": "-90.06088777228473"
    }
  },
  {
    "service_request": "2025-1214841",
    "request_type": "Graffiti Removal",
    "request_reason": "Graffiti Removal",
    "date_created": "2025-08-02T21:50:20.000",
    "date_modified": "2025-08-02T21:50:21.000",
    "request_status": "Pending",
    "responsible_agency": "Department of Code Enforcement",
    "final_address": "1223 Royal St",
    "address_councildis": "C",
    "status": "Pending",
    "rowid": "1214841",
    "final_x": "3683746.34447",
    "final_y": "534069.877189",
    "longitude": "-90.06088777228473",
    "latitude": "29.962438576704958",
    "geocoded_column": {
      "latitude": "29.962438576704958",
      "longitude": "-90.06088777228473"
    }
  },
  {
    "service_request": "2025-1214840",
    "request_type": "Trash/Recycling",
    "request_reason": "Order Recycling Cart",
    "date_created": "2025-08-02T21:45:39.000",
    "date_modified": "2025-08-02T21:45:41.000",
    "request_status": "Pending",
    "responsible_agency": "Department of Sanitation",
    "final_address": "6 New Basin Way",
    "address_councildis": "A",
    "status": "Pending",
    "rowid": "1214840",
    "final_x": "3666547.36397",
    "final_y": "554308.472728",
    "longitude": "-90.1145201324613",
    "latitude": "30.018601772638288",
    "geocoded_column": {
      "latitude": "30.018601772638288",
      "longitude": "-90.1145201324613"
    }
  },
  {
    "service_request": "2025-1214839",
    "request_type": "Drainage",
    "request_reason": "Street Flooding",
    "date_created": "2025-08-02T21:16:15.000",
    "date_modified": "2025-08-02T21:16:17.000",
    "request_status": "Pending",
    "responsible_agency": "Sewerage & Water Board",
    "final_address": "1439 N Robertson St",
    "address_councildis": "C",
    "status": "Pending",
    "rowid": "1214839",
    "final_x": "3681725.14613",
    "final_y": "536668.553095",
    "longitude": "-90.06717974885534",
    "latitude": "29.969645605068088",
    "geocoded_column": {
      "latitude": "29.969645605068088",
      "longitude": "-90.06717974885534"
    }
  },
  {
    "service_request": "2025-1214838",
    "request_type": "Drainage",
    "request_reason": "Catch Basin Clogged",
    "date_created": "2025-08-02T21:13:01.000",
    "date_modified": "2025-08-02T21:13:03.000",
    "request_status": "Pending",
    "responsible_agency": "Sewerage & Water Board",
    "final_address": "1439 N Robertson St",
    "address_councildis": "C",
    "status": "Pending",
    "rowid": "1214838",
    "final_x": "3681725.14613",
    "final_y": "536668.553095",
    "longitude": "-90.06717974885534",
    "latitude": "29.969645605068088",
    "geocoded_column": {
      "latitude": "29.969645605068088",
      "longitude": "-90.06717974885534"
    }
  },
  {
    "service_request": "2025-1214837",
    "request_type": "Trash/Recycling",
    "request_reason": "Request a Large Item Pick Up",
    "date_created": "2025-08-02T20:15:23.000",
    "date_modified": "2025-08-02T20:15:25.000",
    "request_status": "Pending",
    "responsible_agency": "Department of Sanitation",
    "final_address": "6010 Perrier St",
    "address_councildis": "A",
    "status": "Assigned to Contractor",
    "contractor": "IV Waste",
    "rowid": "1214837",
    "final_x": "3664961.47642",
    "final_y": "520503.37132",
    "longitude": "-90.1206614034837",
    "latitude": "29.925695266285246",
    "geocoded_column": {
      "latitude": "29.925695266285246",
      "longitude": "-90.1206614034837"
    }
  },
  {
    "service_request": "2025-1214836",
    "request_type": "Trash/Recycling",
    "request_reason": "Replace Trash Cart",
    "date_created": "2025-08-02T20:09:17.000",
    "date_modified": "2025-08-02T20:09:18.000",
    "request_status": "Pending",
    "responsible_agency": "Department of Sanitation",
    "final_address": "4320 S Tonti St Apt 202",
    "address_councildis": "B",
    "status": "Assigned to Contractor",
    "contractor": "IV Waste",
    "rowid": "1214836",
    "final_x": "3670345.54855",
    "final_y": "528085.303487",
    "longitude": "-90.10340857096298",
    "latitude": "29.94638535675016",
    "geocoded_column": {
      "latitude": "29.94638535675016",
      "longitude": "-90.10340857096298"
    }
  },
  {
    "service_request": "2025-1214835",
    "request_type": "Drainage",
    "request_reason": "Street Flooding",
    "date_created": "2025-08-02T20:06:19.000",
    "date_modified": "2025-08-02T20:06:21.000",
    "request_status": "Pending",
    "responsible_agency": "Sewerage & Water Board",
    "final_address": "4320 S Tonti St",
    "address_councildis": "B",
    "status": "Pending",
    "rowid": "1214835",
    "final_x": "3670351.10426",
    "final_y": "528129.490303",
    "longitude": "-90.10338953205068",
    "latitude": "29.94650669209447",
    "geocoded_column": {
      "latitude": "29.94650669209447",
      "longitude": "-90.10338953205068"
    }
  },
  {
    "service_request": "2025-1214834",
    "request_type": "Trash/Recycling",
    "request_reason": "Request a Large Item Pick Up",
    "date_created": "2025-08-02T20:04:41.000",
    "date_modified": "2025-08-02T20:04:44.000",
    "request_status": "Pending",
    "responsible_agency": "Department of Sanitation",
    "final_address": "7419 Panola St",
    "address_councildis": "A",
    "status": "Assigned to Contractor",
    "contractor": "IV Waste",
    "rowid": "1214834",
    "final_x": "3665366.46413",
    "final_y": "529610.264193",
    "longitude": "-90.11907833287037",
    "latitude": "29.950724521570187",
    "geocoded_column": {
      "latitude": "29.950724521570187",
      "longitude": "-90.11907833287037"
    }
  },
  {
    "service_request": "2025-1214833",
    "request_type": "Abandoned Vehicles",
    "request_reason": "Abandoned/Junk Vehicles",
    "date_created": "2025-08-02T19:47:10.000",
    "date_modified": "2025-08-02T19:47:11.000",
    "request_status": "Pending",
    "responsible_agency": "Department of Public Works",
    "final_address": "4406 DHemecourt St",
    "address_councildis": "A",
    "status": "Pending",
    "rowid": "1214833",
    "final_x": "3668717.89729",
    "final_y": "537620.294984",
    "longitude": "-90.10822577448029",
    "latitude": "29.97265137439134",
    "geocoded_column": {
      "latitude": "29.97265137439134",
      "longitude": "-90.10822577448029"
    }
  },
  {
    "service_request": "2025-1214832",
    "request_type": "Safety & Permits",
    "request_reason": "Zoning Enforcement",
    "date_created": "2025-08-02T19:29:15.000",
    "date_modified": "2025-08-02T19:29:17.000",
    "request_status": "Pending",
    "responsible_agency": "Safety and Permits",
    "final_address": "5622 Painters St",
    "address_councildis": "D",
    "status": "Pending",
    "rowid": "1214832",
    "final_x": "3686126.4678",
    "final_y": "553787.306199",
    "longitude": "-90.05267578565932",
    "latitude": "30.01658158445548",
    "geocoded_column": {
      "latitude": "30.01658158445548",
      "longitude": "-90.05267578565932"
    }
  },
  {
    "service_request": "2025-1214831",
    "request_type": "Trash/Recycling",
    "request_reason": "Request a Large Item Pick Up",
    "date_created": "2025-08-02T19:20:50.000",
    "date_modified": "2025-08-02T19:21:01.000",
    "request_status": "Pending",
    "responsible_agency": "Department of Sanitation",
    "final_address": "4603 Arts St",
    "address_councildis": "D",
    "status": "Assigned to Contractor",
    "contractor": "IV Waste",
    "rowid": "1214831",
    "final_x": "3686075.61398",
    "final_y": "549639.599188",
    "longitude": "-90.05298289541811",
    "latitude": "30.00517846870325",
    "geocoded_column": {
      "latitude": "30.00517846870325",
      "longitude": "-90.05298289541811"
    }
  },
  {
    "service_request": "2025-1214830",
    "request_type": "Trash/Recycling",
    "request_reason": "Request a Large Item Pick Up",
    "date_created": "2025-08-02T19:17:28.000",
    "date_modified": "2025-08-02T19:17:30.000",
    "request_status": "Pending",
    "responsible_agency": "Department of Sanitation",
    "final_address": "31 Honeysuckle Ln",
    "address_councildis": "E",
    "status": "Assigned to Contractor",
    "contractor": "Waste Pro",
    "rowid": "1214830",
    "final_x": "3713101.01355",
    "final_y": "568474.356453",
    "longitude": "-89.96689523863546",
    "latitude": "30.05610854322975",
    "geocoded_column": {
      "latitude": "30.05610854322975",
      "longitude": "-89.96689523863546"
    }
  },
  {
    "service_request": "2025-1214829",
    "request_type": "Trash/Recycling",
    "request_reason": "Request a Large Item Pick Up",
    "date_created": "2025-08-02T19:03:52.000",
    "date_modified": "2025-08-02T19:03:53.000",
    "request_status": "Pending",
    "responsible_agency": "Department of Sanitation",
    "final_address": "815 N Salcedo St",
    "address_councildis": "A",
    "status": "Assigned to Contractor",
    "contractor": "IV Waste",
    "rowid": "1214829",
    "final_x": "3675729.68942",
    "final_y": "538300.804169",
    "longitude": "-90.08605783546777",
    "latitude": "29.97431454150123",
    "geocoded_column": {
      "latitude": "29.97431454150123",
      "longitude": "-90.08605783546777"
    }
  },
  {
    "service_request": "2025-1214828",
    "request_type": "Trash/Recycling",
    "request_reason": "Order Second Trash Cart",
    "date_created": "2025-08-02T18:39:23.000",
    "date_modified": "2025-08-02T18:39:25.000",
    "request_status": "Pending",
    "responsible_agency": "Department of Sanitation",
    "final_address": "2341 DAbadie St",
    "address_councildis": "D",
    "status": "Assigned to Contractor",
    "contractor": "IV Waste",
    "rowid": "1214828",
    "final_x": "3680465.34549",
    "final_y": "540137.802635",
    "longitude": "-90.07103761113474",
    "latitude": "29.97922305947724",
    "geocoded_column": {
      "latitude": "29.97922305947724",
      "longitude": "-90.07103761113474"
    }
  },
  {
    "service_request": "2025-1214827",
    "request_type": "Property Maintenance",
    "request_reason": "Property Maintenance",
    "date_created": "2025-08-02T18:28:39.000",
    "date_modified": "2025-08-02T18:28:41.000",
    "request_status": "Pending",
    "responsible_agency": "Department of Code Enforcement",
    "final_address": "5730 Louis Prima Ct",
    "address_councildis": "E",
    "status": "Pending",
    "rowid": "1214827",
    "final_x": "3715985.08536",
    "final_y": "561868.952159",
    "longitude": "-89.95802988895565",
    "latitude": "30.037851491975402",
    "geocoded_column": {
      "latitude": "30.037851491975402",
      "longitude": "-89.95802988895565"
    }
  },
  {
    "service_request": "2025-1214826",
    "request_type": "Roads and Streets",
    "request_reason": "Pothole",
    "date_created": "2025-08-02T18:27:30.000",
    "date_modified": "2025-08-02T18:27:32.000",
    "request_status": "Pending",
    "responsible_agency": "Department of Public Works",
    "final_address": "5226 Conti St",
    "address_councildis": "A",
    "status": "Pending",
    "rowid": "1214826",
    "final_x": "3668428.6955",
    "final_y": "541800.77422",
    "longitude": "-90.10899805779543",
    "latitude": "29.9841547811201",
    "geocoded_column": {
      "latitude": "29.9841547811201",
      "longitude": "-90.10899805779543"
    }
  },
  {
    "service_request": "2025-1214825",
    "request_type": "Trash/Recycling",
    "request_reason": "Request a Large Item Pick Up",
    "date_created": "2025-08-02T18:25:11.000",
    "date_modified": "2025-08-02T18:25:12.000",
    "request_status": "Pending",
    "responsible_agency": "Department of Sanitation",
    "final_address": "7632 Read Blvd",
    "address_councildis": "E",
    "status": "Assigned to Contractor",
    "contractor": "Waste Pro",
    "rowid": "1214825",
    "final_x": "3708336.85656",
    "final_y": "564668.384033",
    "longitude": "-89.98209563950212",
    "latitude": "30.045799006471658",
    "geocoded_column": {
      "latitude": "30.045799006471658",
      "longitude": "-89.98209563950212"
    }
  },
  {
    "service_request": "2025-1214824",
    "request_type": "Roads and Streets",
    "request_reason": "Pothole",
    "date_created": "2025-08-02T18:13:00.000",
    "date_modified": "2025-08-02T18:13:01.000",
    "request_status": "Pending",
    "responsible_agency": "Department of Public Works",
    "final_address": "1300 Richland Rd",
    "address_councildis": "C",
    "status": "Pending",
    "rowid": "1214824",
    "final_x": "3698275.4296",
    "final_y": "526291.108286",
    "longitude": "-90.01528978848724",
    "latitude": "29.94059805962883",
    "geocoded_column": {
      "latitude": "29.94059805962883",
      "longitude": "-90.01528978848724"
    }
  },
  {
    "service_request": "2025-1214823",
    "request_type": "Trash/Recycling",
    "request_reason": "Order Trash Cart",
    "date_created": "2025-08-02T17:37:28.000",
    "date_modified": "2025-08-02T17:37:39.000",
    "request_status": "Pending",
    "responsible_agency": "Department of Sanitation",
    "final_address": "8535 Forshey St",
    "address_councildis": "A",
    "status": "Assigned to Contractor",
    "contractor": "IV Waste",
    "rowid": "1214823",
    "final_x": "3665775.47168",
    "final_y": "535096.188678",
    "longitude": "-90.11760310793417",
    "latitude": "29.96579709446464",
    "geocoded_column": {
      "latitude": "29.96579709446464",
      "longitude": "-90.11760310793417"
    }
  },
  {
    "service_request": "2025-1214822",
    "request_type": "Trash/Recycling",
    "request_reason": "Request a Large Item Pick Up",
    "date_created": "2025-08-02T16:26:27.000",
    "date_modified": "2025-08-02T16:26:28.000",
    "request_status": "Pending",
    "responsible_agency": "Department of Sanitation",
    "final_address": "518 Red Allen Way",
    "address_councildis": "C",
    "status": "Assigned to Contractor",
    "contractor": "Richards Disposal",
    "rowid": "1214822",
    "final_x": "3687046.96508",
    "final_y": "528779.79776",
    "longitude": "-90.05065190390596",
    "latitude": "29.94779147966753",
    "geocoded_column": {
      "latitude": "29.94779147966753",
      "longitude": "-90.05065190390596"
    }
  },
  {
    "service_request": "2025-1214821",
    "request_type": "Drainage",
    "request_reason": "Ditch and Culvert Maintenance",
    "date_created": "2025-08-02T16:14:17.000",
    "date_modified": "2025-08-02T16:14:19.000",
    "request_status": "Pending",
    "responsible_agency": "Department of Public Works",
    "final_address": "1133 Casa Calvo St",
    "address_councildis": "C",
    "status": "Pending",
    "rowid": "1214821",
    "final_x": "3692060.52861",
    "final_y": "526985.558142",
    "longitude": "-90.03488635627258",
    "latitude": "29.942702666481143",
    "geocoded_column": {
      "latitude": "29.942702666481143",
      "longitude": "-90.03488635627258"
    }
  },
  {
    "service_request": "2025-1214820",
    "request_type": "Utility Poles",
    "request_reason": "Wires Sagging/Hanging Low",
    "date_created": "2025-08-02T15:45:42.000",
    "date_modified": "2025-08-02T15:45:44.000",
    "request_status": "Pending",
    "responsible_agency": "Utility Company Collective",
    "final_address": "1717 Painters St",
    "address_councildis": "D",
    "status": "Pending",
    "rowid": "1214820",
    "final_x": "3687405.51286",
    "final_y": "538875.892233",
    "longitude": "-90.04916257241621",
    "latitude": "29.97554120040513",
    "geocoded_column": {
      "latitude": "29.97554120040513",
      "longitude": "-90.04916257241621"
    }
  },