[
  {
    "service_request": "2022-910261",
    "request_type": "Trash/Recycling",
    "request_reason": "Missed Trash Pick-Up",
    "date_created": "2022-08-16T00:01:59.000",
    "date_modified": "2022-08-16T00:01:59.000",
    "request_status": "Pending",
    "responsible_agency": "Department of Sanitation",
    "final_address": "1503 Mandeville St",
    "address_councildis": "C",
    "status": "Assigned to Contractor",
    "contractor": "Metro Disposal",
    "rowid": "910261",
    "final_x": "3685689.10748",
    "final_y": "537892.205897",
    "longitude": "-90.05461811085982",
    "latitude": "29.972889188350138",
    "geocoded_column": {
      "latitude": "29.972889188350138",
      "longitude": "-90.05461811085982"
    }
  },
  {
    "service_request": "2022-910260",
    "request_type": "Trash/Recycling",
    "request_reason": "Missed Trash Pick-Up",
    "date_created": "2022-08-16T00:00:31.000",
    "date_modified": "2022-08-16T00:00:31.000",
    "request_status": "Pending",
    "responsible_agency": "Department of Sanitation",
    "final_address": "1501 Mandeville St",
    "address_councildis": "C",
    "status": "Assigned to Contractor",
    "contractor": "Metro Disposal",
    "rowid": "910260",
    "final_x": "3685693.2742",
    "final_y": "537873.872585",
    "longitude": "-90.05460559774029",
    "latitude": "29.972838650290722",
    "geocoded_column": {
      "latitude": "29.972838650290722",
      "longitude": "-90.05460559774029"
    }
  },
  {
    "service_request": "2022-910259",
    "request_type": "Abandoned Vehicles",
    "request_reason": "Abandoned/Junk Vehicles",
    "date_created": "2022-08-15T23:58:42.000",
    "date_modified": "2022-08-15T23:58:42.000",
    "request_status": "Pending",
    "responsible_agency": "Department of Public Works",
    "final_address": "1501 Mandeville St",
    "address_councildis": "C",
    "status": "Pending",
    "rowid": "910259",
    "final_x": "3685693.2742",
    "final_y": "537873.872585",
    "longitude": "-90.05460559774029",
    "latitude": "29.972838650290722",
    "geocoded_column": {
      "latitude": "29.972838650290722",
      "longitude": "-90.05460559774029"
    }
  },
  {
    "service_request": "2022-910258",
    "request_type": "Traffic Signals/Signs/Striping/Streetlights",
    "request_reason": "Street Light Outage/Malfunction",
    "date_created": "2022-08-15T23:53:35.000",
    "date_modified": "2022-08-15T23:53:35.000",
    "request_status": "Pending",
    "responsible_agency": "Department of Public Works",
    "final_address": "2324 N Robertson St",
    "address_councildis": "C",
    "status": "Pending",
    "contractor": "Legacy Professional Services",
    "rowid": "910258",
    "final_x": "3685855.4102",
    "final_y": "537817.851657",
    "longitude": "-90.0540955179075",
    "latitude": "29.97267963611057",
    "geocoded_column": {
      "latitude": "29.97267963611057",
      "longitude": "-90.0540955179075"
    }
  },
  {
    "service_request": "2022-910257",
    "request_type": "Traffic Signals/Signs/Striping/Streetlights",
    "request_reason": "Street Light Knocked Down/Leaning",
    "date_created": "2022-08-15T23:49:37.000",
    "date_modified": "2022-08-15T23:49:38.000",
    "request_status": "Pending",
    "responsible_agency": "Department of Public Works",
    "final_address": "1501 Mandeville St",
    "address_councildis": "C",
    "status": "Pending",
    "contractor": "Legacy Professional Services",
    "rowid": "910257",
    "final_x": "3685693.2742",
    "final_y": "537873.872585",
    "longitude": "-90.05460559774029",
    "latitude": "29.972838650290722",
    "geocoded_column": {
      "latitude": "29.972838650290722",
      "longitude": "-90.05460559774029"
    }
  },
  {
    "service_request": "2022-910256",
    "request_type": "Roads/Drainage",
    "request_reason": "Pothole",
    "date_created": "2022-08-15T23:19:55.000",
    "date_modified": "2022-08-15T23:19:55.000",
    "request_status": "Pending",
    "responsible_agency": "Department of Public Works",
    "final_address": "5619 Chestnut St",
    "address_councildis": "A",
    "status": "Pending",
    "rowid": "910256",
    "final_x": "3666103.83424",
    "final_y": "519636.329144",
    "longitude": "-90.11708436334695",
    "latitude": "29.92327788074409",
    "geocoded_column": {
      "latitude": "29.92327788074409",
      "longitude": "-90.11708436334695"
    }
  },
  {
    "service_request": "2022-910255",
    "request_type": "Roads/Drainage",
    "request_reason": "Pothole",
    "date_created": "2022-08-15T23:18:22.000",
    "date_modified": "2022-08-15T23:18:22.000",
    "request_status": "Pending",
    "responsible_agency": "Department of Public Works",
    "final_address": "5619 Chestnut St",
    "address_councildis": "A",
    "status": "Pending",
    "rowid": "910255",
    "final_x": "3666103.83424",
    "final_y": "519636.329144",
    "longitude": "-90.11708436334695",
    "latitude": "29.92327788074409",
    "geocoded_column": {
      "latitude": "29.92327788074409",
      "longitude": "-90.11708436334695"
    }
  },
  {
    "service_request": "2022-910254",
    "request_type": "Traffic Signals/Signs/Striping/Streetlights",
    "request_reason": "Street Light Outage/Malfunction",
    "date_created": "2022-08-15T23:17:35.000",
    "date_modified": "2022-08-15T23:17:36.000",
    "request_status": "Pending",
    "responsible_agency": "Department of Public Works",
    "final_address": "829 Pleasant St",
    "address_councildis": "B",
    "status": "Pending",
    "contractor": "Legacy Professional Services",
    "rowid": "910254",
    "final_x": "3675973.1444",
    "final_y": "519111.475319",
    "longitude": "-90.08594869846623",
    "latitude": "29.92154296342679",
    "geocoded_column": {
      "latitude": "29.92154296342679",
      "longitude": "-90.08594869846623"
    }
  },
  {
    "service_request": "2022-910253",
    "request_type": "Property Maintenance",
    "request_reason": "Property Maintenance",
    "date_created": "2022-08-15T22:45:10.000",
    "date_modified": "2022-08-15T22:45:10.000",
    "request_status": "Pending",
    "responsible_agency": "Department of Code Enforcement",
    "final_address": "2325 Seminole Ln",
    "address_councildis": "B",
    "status": "Pending",
    "rowid": "910253",
    "final_x": "3673769.72571",
    "final_y": "528269.845312",
    "longitude": "-90.0925909126147",
    "latitude": "29.94679127911618",
    "geocoded_column": {
      "latitude": "29.94679127911618",
      "longitude": "-90.0925909126147"
    }
  },
  {
    "service_request": "2022-910252",
    "request_type": "Property Maintenance",
    "request_reason": "Property Maintenance",
    "date_created": "2022-08-15T22:42:26.000",
    "date_modified": "2022-08-15T22:42:26.000",
    "request_status": "Pending",
    "responsible_agency": "Department of Code Enforcement",
    "final_address": "2325 Seminole Ln",
    "address_councildis": "B",
    "status": "Pending",
    "rowid": "910252",
    "final_x": "3673769.72571",
    "final_y": "528269.845312",
    "longitude": "-90.0925909126147",
    "latitude": "29.94679127911618",
    "geocoded_column": {
      "latitude": "29.94679127911618",
      "longitude": "-90.0925909126147"
    }
  },
  {
    "service_request": "2022-910251",
    "request_type": "Property Maintenance",
    "request_reason": "Property Maintenance",
    "date_created": "2022-08-15T22:34:44.000",
    "date_modified": "2022-08-15T22:34:44.000",
    "request_status": "Pending",
    "responsible_agency": "Department of Code Enforcement",
    "final_address": "4967 N Rampart St",
    "address_councildis": "E",
    "status": "Pending",
    "rowid": "910251",
    "final_x": "3695802.50192",
    "final_y": "533895.995461",
    "longitude": "-90.02282259427349",
    "latitude": "29.961586825108164",
    "geocoded_column": {
      "latitude": "29.961586825108164",
      "longitude": "-90.02282259427349"
    }
  },
  {
    "service_request": "2022-910250",
    "request_type": "Traffic Signals/Signs/Striping/Streetlights",
    "request_reason": "Traffic Sign Missing/Damaged",
    "date_created": "2022-08-15T22:27:53.000",
    "date_modified": "2022-08-15T22:27:53.000",
    "request_status": "Pending",
    "responsible_agency": "Department of Public Works",
    "final_address": "7329 Freret St",
    "address_councildis": "A",
    "status": "Pending",
    "rowid": "910250",
    "final_x": "3663336.63283",
    "final_y": "526232.57523",
    "longitude": "-90.12559994405672",
    "latitude": "29.941495950090044",
    "geocoded_column": {
      "latitude": "29.941495950090044",
      "longitude": "-90.12559994405672"
    }
  },
  {
    "service_request": "2022-910248",
    "request_type": "Trash/Recycling",
    "request_reason": "Change Size of Trash Cart",
    "date_created": "2022-08-15T22:05:48.000",
    "date_modified": "2022-08-15T22:05:49.000",
    "request_status": "Pending",
    "responsible_agency": "Department of Sanitation",
    "final_address": "4016 Royal St",
    "address_councildis": "C",
    "status": "Assigned to Contractor",
    "contractor": "Metro Disposal",
    "rowid": "910248",
    "final_x": "3691562.80316",
    "final_y": "533743.292741",
    "longitude": "-90.03621626132382",
    "latitude": "29.96129959561464",
    "geocoded_column": {
      "latitude": "29.96129959561464",
      "longitude": "-90.03621626132382"
    }
  },
  {
    "service_request": "2022-910247",
    "request_type": "Trash/Recycling",
    "request_reason": "Replace Trash Cart",
    "date_created": "2022-08-15T21:57:28.000",
    "date_modified": "2022-08-15T21:57:29.000",
    "request_status": "Pending",
    "responsible_agency": "Department of Sanitation",
    "final_address": "5128 Freret St",
    "address_councildis": "B",
    "status": "Assigned to Contractor",
    "contractor": "Richards Disposal",
    "rowid": "910247",
    "final_x": "3668300.21524",
    "final_y": "523886.84358",
    "longitude": "-90.11000795298118",
    "latitude": "29.93490115500853",
    "geocoded_column": {
      "latitude": "29.93490115500853",
      "longitude": "-90.11000795298118"
    }
  },
  {
    "service_request": "2022-910246",
    "request_type": "Trash/Recycling",
    "request_reason": "Replace Trash Cart",
    "date_created": "2022-08-15T21:34:42.000",
    "date_modified": "2022-08-15T21:34:42.000",
    "request_status": "Pending",
    "responsible_agency": "Department of Sanitation",
    "final_address": "6200 Brunswick Ct",
    "address_councildis": "C",
    "status": "Assigned to Contractor",
    "contractor": "Richards Disposal",
    "rowid": "910246",
    "final_x": "3706937.55959",
    "final_y": "517118.816117",
    "longitude": "-89.98828214955718",
    "latitude": "29.9151006567208",
    "geocoded_column": {
      "latitude": "29.9151006567208",
      "longitude": "-89.98828214955718"
    }
  },
  {
    "service_request": "2022-910245",
    "request_type": "Trash/Recycling",
    "request_reason": "Missed Trash Pick-Up",
    "date_created": "2022-08-15T21:28:46.000",
    "date_modified": "2022-08-15T21:28:46.000",
    "request_status": "Pending",
    "responsible_agency": "Department of Sanitation",
    "final_address": "2206 Ursulines Ave",
    "address_councildis": "D",
    "status": "Assigned to Contractor",
    "contractor": "Richards Disposal",
    "rowid": "910245",
    "final_x": "3679167.87272",
    "final_y": "536880.164936",
    "longitude": "-90.07524850507848",
    "latitude": "29.970304916736975",
    "geocoded_column": {
      "latitude": "29.970304916736975",
      "longitude": "-90.07524850507848"
    }
  },
  {
    "service_request": "2022-910244",
    "request_type": "Traffic Signals/Signs/Striping/Streetlights",
    "request_reason": "Street Light Outage/Malfunction",
    "date_created": "2022-08-15T21:27:32.000",
    "date_modified": "2022-08-15T21:27:33.000",
    "request_status": "Pending",
    "responsible_agency": "Department of Public Works",
    "final_address": "203 Vallette St",
    "address_councildis": "C",
    "status": "Pending",
    "contractor": "Legacy Professional Services",
    "rowid": "910244",
    "final_x": "3687546.35862",
    "final_y": "531174.007426",
    "longitude": "-90.04899039264599",
    "latitude": "29.954359355274423",
    "geocoded_column": {
      "latitude": "29.954359355274423",
      "longitude": "-90.04899039264599"
    }
  },
  {
    "service_request": "2022-910243",
    "request_type": "Traffic Signals/Signs/Striping/Streetlights",
    "request_reason": "Striping/Road Surface Markings",
    "date_created": "2022-08-15T21:26:08.000",
    "date_modified": "2022-08-15T21:26:08.000",
    "request_status": "Pending",
    "responsible_agency": "Department of Public Works",
    "final_address": "5514 Fontainebleau Dr",
    "address_councildis": "A",
    "status": "Pending",
    "rowid": "910243",
    "final_x": "3668713.0121",
    "final_y": "529655.461825",
    "longitude": "-90.10851008605732",
    "latitude": "29.950750862879964",
    "geocoded_column": {
      "latitude": "29.950750862879964",
      "longitude": "-90.10851008605732"
    }
  },
  {
    "service_request": "2022-910242",
    "request_type": "Trash/Recycling",
    "request_reason": "Order Trash Cart",
    "date_created": "2022-08-15T21:21:47.000",
    "date_modified": "2022-08-15T21:21:48.000",
    "request_status": "Pending",
    "responsible_agency": "Department of Sanitation",
    "final_address": "6818 Milne Blvd",
    "address_councildis": "A",
    "status": "Assigned to Contractor",
    "contractor": "Metro Disposal",
    "rowid": "910242",
    "final_x": "3667470.43175",
    "final_y": "552919.128791",
    "longitude": "-90.11165036616391",
    "latitude": "30.01475453688969",
    "geocoded_column": {
      "latitude": "30.01475453688969",
      "longitude": "-90.11165036616391"
    }
  },
  {
    "service_request": "2022-910241",
    "request_type": "Abandoned Vehicles",
    "request_reason": "Abandoned/Junk Vehicles",
    "date_created": "2022-08-15T21:21:33.000",
    "date_modified": "2022-08-15T21:21:33.000",
    "request_status": "Pending",
    "responsible_agency": "Department of Public Works",
    "final_address": "5500 Fontainebleau Dr",
    "address_councildis": "A",
    "status": "Pending",
    "rowid": "910241",
    "final_x": "3668764.19514",
    "final_y": "529637.707585",
    "longitude": "-90.108349074937",
    "latitude": "29.950700540049407",
    "geocoded_column": {
      "latitude": "29.950700540049407",
      "longitude": "-90.108349074937"
    }
  },
  {
    "service_request": "2022-910240",
    "request_type": "Traffic Signals/Signs/Striping/Streetlights",
    "request_reason": "Street Light Outage/Malfunction",
    "date_created": "2022-08-15T20:42:22.000",
    "date_modified": "2022-08-15T20:42:22.000",
    "request_status": "Pending",
    "responsible_agency": "Department of Public Works",
    "final_address": "833 St Ann St",
    "address_councildis": "C",
    "status": "Pending",
    "contractor": "Legacy Professional Services",
    "rowid": "910240",
    "final_x": "3682293.30895",
    "final_y": "533172.523332",
    "longitude": "-90.06550760407573",
    "latitude": "29.960015448494726",
    "geocoded_column": {
      "latitude": "29.960015448494726",
      "longitude": "-90.06550760407573"
    }
  },
  {
    "service_request": "2022-910239",
    "request_type": "Trash/Recycling",
    "request_reason": "Request a Large Item Pick Up",
    "date_created": "2022-08-15T20:36:57.000",
    "date_modified": "2022-08-15T20:36:58.000",
    "request_status": "Pending",
    "responsible_agency": "Department of Sanitation",
    "final_address": "1408 Bartholomew St",
    "address_councildis": "D",
    "status": "Assigned to Contractor",
    "contractor": "Metro Disposal",
    "rowid": "910239",
    "final_x": "3692050.43561",
    "final_y": "536520.376647",
    "longitude": "-90.03457701168983",
    "latitude": "29.968920412101543",
    "geocoded_column": {
      "latitude": "29.968920412101543",
      "longitude": "-90.03457701168983"
    }
  },
  {
    "service_request": "2022-910238",
    "request_type": "Trash/Recycling",
    "request_reason": "MIssed Recycling Pick-Up",
    "date_created": "2022-08-15T20:35:14.000",
    "date_modified": "2022-08-15T20:35:14.000",
    "request_status": "Pending",
    "responsible_agency": "Department of Sanitation",
    "final_address": "747 S Genois St",
    "address_councildis": "B",
    "status": "Assigned to Contractor",
    "contractor": "Richards Disposal",
    "rowid": "910238",
    "final_x": "3670901.85537",
    "final_y": "535018.57031",
    "longitude": "-90.10141675811427",
    "latitude": "29.965433118263814",
    "geocoded_column": {
      "latitude": "29.965433118263814",
      "longitude": "-90.10141675811427"
    }
  },
  {
    "service_request": "2022-910237",
    "request_type": "Traffic Signals/Signs/Striping/Streetlights",
    "request_reason": "Street Light Outage/Malfunction",
    "date_created": "2022-08-15T20:34:21.000",
    "date_modified": "2022-08-15T20:34:22.000",
    "request_status": "Pending",
    "responsible_agency": "Department of Public Works",
    "final_address": "5517 LaSalle St",
    "address_councildis": "A",
    "status": "Pending",
    "contractor": "Legacy Professional Services",
    "rowid": "910237",
    "final_x": "3667378.09025",
    "final_y": "523855.073979",
    "longitude": "-90.11292016937786",
    "latitude": "29.93484083658678",
    "geocoded_column": {
      "latitude": "29.93484083658678",
      "longitude": "-90.11292016937786"
    }
  },
  {
    "service_request": "2022-910236",
    "request_type": "Trash/Recycling",
    "request_reason": "Request a Large Item Pick Up",
    "date_created": "2022-08-15T20:30:55.000",
    "date_modified": "2022-08-15T20:30:55.000",
    "request_status": "Pending",
    "responsible_agency": "Department of Sanitation",
    "final_address": "819 N Robertson St",
    "address_councildis": "C",
    "status": "Assigned to Contractor",
    "contractor": "Richards Disposal",
    "rowid": "910236",
    "final_x": "3680352.81973",
    "final_y": "534792.254278",
    "longitude": "-90.07157892392334",
    "latitude": "29.96452805119721",
    "geocoded_column": {
      "latitude": "29.96452805119721",
      "longitude": "-90.07157892392334"
    }
  },
  {
    "service_request": "2022-910235",
    "request_type": "Trash/Recycling",
    "request_reason": "Missed Trash Pick-Up",
    "date_created": "2022-08-15T20:25:46.000",
    "date_modified": "2022-08-15T20:25:46.000",
    "request_status": "Pending",
    "responsible_agency": "Department of Sanitation",
    "final_address": "2017 Painters St",
    "address_councildis": "D",
    "status": "Assigned to Contractor",
    "contractor": "Metro Disposal",
    "rowid": "910235",
    "final_x": "3687366.49596",
    "final_y": "539989.266571",
    "longitude": "-90.04924639230596",
    "latitude": "29.97860378966462",
    "geocoded_column": {
      "latitude": "29.97860378966462",
      "longitude": "-90.04924639230596"
    }
  },
  {
    "service_request": "2022-910234",
    "request_type": "Traffic Signals/Signs/Striping/Streetlights",
    "request_reason": "Street Light Outage/Malfunction",
    "date_created": "2022-08-15T20:19:31.000",
    "date_modified": "2022-08-15T20:19:31.000",
    "request_status": "Pending",
    "responsible_agency": "Department of Public Works",
    "final_address": "15 Swan St, New Orleans, Louisiana, 70124",
    "address_councildis": "D",
    "status": "Pending",
    "contractor": "Legacy Professional Services",
    "rowid": "910234",
    "final_x": "3672971.97339",
    "final_y": "557581.736731",
    "longitude": "-90.09410880278945",
    "latitude": "30.027412602481554",
    "geocoded_column": {
      "latitude": "30.027412602481554",
      "longitude": "-90.09410880278945"
    }
  },
  {
    "service_request": "2022-910231",
    "request_type": "Trash/Recycling",
    "request_reason": "Illegal Dumping",
    "date_created": "2022-08-15T19:45:23.000",
    "date_modified": "2022-08-15T19:45:23.000",
    "request_status": "Pending",
    "responsible_agency": "Department of Sanitation",
    "final_address": "8921 Willow St",
    "address_councildis": "A",
    "status": "Pending",
    "rowid": "910231",
    "final_x": "3660251.46694",
    "final_y": "530939.107138",
    "longitude": "-90.13518509679909",
    "latitude": "29.954526465297267",
    "geocoded_column": {
      "latitude": "29.954526465297267",
      "longitude": "-90.13518509679909"
    }
  },
  {
    "service_request": "2022-910230",
    "request_type": "Trash/Recycling",
    "request_reason": "Request a Large Item Pick Up",
    "date_created": "2022-08-15T19:45:02.000",
    "date_modified": "2022-08-15T19:45:03.000",
    "request_status": "Pending",
    "responsible_agency": "Department of Sanitation",
    "final_address": "618 S Pierce St",
    "address_councildis": "B",
    "status": "Assigned to Contractor",
    "contractor": "Richards Disposal",
    "rowid": "910230",
    "final_x": "3670233.06894",
    "final_y": "536278.751111",
    "longitude": "-90.10348604720605",
    "latitude": "29.968917947993315",
    "geocoded_column": {
      "latitude": "29.968917947993315",
      "longitude": "-90.10348604720605"
    }
  },
  {
    "service_request": "2022-910229",
    "request_type": "Trash/Recycling",
    "request_reason": "Missed Trash Pick-Up",
    "date_created": "2022-08-15T19:43:08.000",
    "date_modified": "2022-08-15T19:43:09.000",
    "request_status": "Pending",
    "responsible_agency": "Department of Sanitation",
    "final_address": "1216 Short St",
    "address_councildis": "A",
    "status": "Assigned to Contractor",
    "contractor": "Richards Disposal",
    "rowid": "910229",
    "final_x": "3662387.34931",
    "final_y": "528227.16576",
    "longitude": "-90.1285308203422",
    "latitude": "29.947007915296023",
    "geocoded_column": {
      "latitude": "29.947007915296023",
      "longitude": "-90.1285308203422"
    }
  },
  {
    "service_request": "2022-910228",
    "request_type": "Trash/Recycling",
    "request_reason": "Request a Large Item Pick Up",
    "date_created": "2022-08-15T19:41:18.000",
    "date_modified": "2022-08-15T19:41:19.000",
    "request_status": "Pending",
    "responsible_agency": "Department of Sanitation",
    "final_address": "628 S Pierce St",
    "address_councildis": "B",
    "status": "Assigned to Contractor",
    "contractor": "Richards Disposal",
    "rowid": "910228",
    "final_x": "3670203.17198",
    "final_y": "536242.861703",
    "longitude": "-90.1035816804058",
    "latitude": "29.96882014644308",
    "geocoded_column": {
      "latitude": "29.96882014644308",
      "longitude": "-90.1035816804058"
    }
  },
  {
    "service_request": "2022-910227",
    "request_type": "Trash/Recycling",
    "request_reason": "Missed Trash Pick-Up",
    "date_created": "2022-08-15T19:40:59.000",
    "date_modified": "2022-08-15T19:40:59.000",
    "request_status": "Pending",
    "responsible_agency": "Department of Sanitation",
    "final_address": "2929 Pine St",
    "address_councildis": "B",
    "status": "Assigned to Contractor",
    "contractor": "Richards Disposal",
    "rowid": "910227",
    "final_x": "3667460.51994",
    "final_y": "531955.695875",
    "longitude": "-90.11238744072737",
    "latitude": "29.957112508302433",
    "geocoded_column": {
      "latitude": "29.957112508302433",
      "longitude": "-90.11238744072737"
    }
  },
  {
    "service_request": "2022-910226",
    "request_type": "Trash/Recycling",
    "request_reason": "Request a Large Item Pick Up",
    "date_created": "2022-08-15T19:39:01.000",
    "date_modified": "2022-08-15T19:39:01.000",
    "request_status": "Pending",
    "responsible_agency": "Department of Sanitation",
    "final_address": "630 S Pierce St",
    "address_councildis": "B",
    "status": "Assigned to Contractor",
    "contractor": "Richards Disposal",
    "rowid": "910226",
    "final_x": "3670152.23745",
    "final_y": "536250.884167",
    "longitude": "-90.1037422633502",
    "latitude": "29.968843708522623",
    "geocoded_column": {
      "latitude": "29.968843708522623",
      "longitude": "-90.1037422633502"
    }
  },
  {
    "service_request": "2022-910225",
    "request_type": "Trash/Recycling",
    "request_reason": "MIssed Recycling Pick-Up",
    "date_created": "2022-08-15T19:38:57.000",
    "date_modified": "2022-08-15T19:38:58.000",
    "request_status": "Pending",
    "responsible_agency": "Department of Sanitation",
    "final_address": "730 Burdette St",
    "address_councildis": "A",
    "status": "Assigned to Contractor",
    "contractor": "Richards Disposal",
    "rowid": "910225",
    "final_x": "3661752.26323",
    "final_y": "526526.275134",
    "longitude": "-90.1305924036594",
    "latitude": "29.942349354532865",
    "geocoded_column": {
      "latitude": "29.942349354532865",
      "longitude": "-90.1305924036594"
    }
  },
  {
    "service_request": "2022-910224",
    "request_type": "Property Maintenance",
    "request_reason": "Property Maintenance",
    "date_created": "2022-08-15T19:35:39.000",
    "date_modified": "2022-08-15T19:35:39.000",
    "request_status": "Pending",
    "responsible_agency": "Department of Code Enforcement",
    "final_address": "1401 St Roch Ave",
    "address_councildis": "C",
    "status": "Pending",
    "rowid": "910224",
    "final_x": "3686471.89986",
    "final_y": "537563.756872",
    "longitude": "-90.05215750720372",
    "latitude": "29.971962025153253",
    "geocoded_column": {
      "latitude": "29.971962025153253",
      "longitude": "-90.05215750720372"
    }
  },
  {
    "service_request": "2022-910223",
    "request_type": "Trash/Recycling",
    "request_reason": "Request a Large Item Pick Up",
    "date_created": "2022-08-15T19:27:32.000",
    "date_modified": "2022-08-15T19:27:33.000",
    "request_status": "Pending",
    "responsible_agency": "Department of Sanitation",
    "final_address": "168 Westpark Ct",
    "address_councildis": "C",
    "status": "Assigned to Contractor",
    "contractor": "Richards Disposal",
    "rowid": "910223",
    "final_x": "3695893.18416",
    "final_y": "522211.251386",
    "longitude": "-90.02295820395645",
    "latitude": "29.929454988349644",
    "geocoded_column": {
      "latitude": "29.929454988349644",
      "longitude": "-90.02295820395645"
    }
  },
  {
    "service_request": "2022-910222",
    "request_type": "Trash/Recycling",
    "request_reason": "Replace Trash Cart",
    "date_created": "2022-08-15T19:21:09.000",
    "date_modified": "2022-08-15T19:21:09.000",
    "request_status": "Pending",
    "responsible_agency": "Department of Sanitation",
    "final_address": "1811 Rivertree Ct",
    "address_councildis": "C",
    "status": "Assigned to Contractor",
    "contractor": "Richards Disposal",
    "rowid": "910222",
    "final_x": "3701380.03133",
    "final_y": "524109.199548",
    "longitude": "-90.00556792834956",
    "latitude": "29.93450001241801",
    "geocoded_column": {
      "latitude": "29.93450001241801",
      "longitude": "-90.00556792834956"
    }
  },
  {
    "service_request": "2022-910221",
    "request_type": "Trash/Recycling",
    "request_reason": "Request a Large Item Pick Up",
    "date_created": "2022-08-15T19:13:44.000",
    "date_modified": "2022-08-15T19:13:44.000",
    "request_status": "Pending",
    "responsible_agency": "Department of Sanitation",
    "final_address": "1618 N Miro St",
    "address_councildis": "D",
    "status": "Assigned to Contractor",
    "contractor": "Metro Disposal",
    "rowid": "910221",
    "final_x": "3680689.64373",
    "final_y": "539175.389066",
    "longitude": "-90.07036269394357",
    "latitude": "29.976569960166852",
    "geocoded_column": {
      "latitude": "29.976569960166852",
      "longitude": "-90.07036269394357"
    }
  },
  {
    "service_request": "2022-910220",
    "request_type": "Trash/Recycling",
    "request_reason": "Replace Trash Cart",
    "date_created": "2022-08-15T19:11:39.000",
    "date_modified": "2022-08-15T19:11:40.000",
    "request_status": "Pending",
    "responsible_agency": "Department of Sanitation",
    "final_address": "1522 N Prieur St",
    "address_councildis": "D",
    "status": "Assigned to Contractor",
    "contractor": "Metro Disposal",
    "rowid": "910220",
    "final_x": "3681058.53448",
    "final_y": "537953.249481",
    "longitude": "-90.06924020679288",
    "latitude": "29.973198314296173",
    "geocoded_column": {
      "latitude": "29.973198314296173",
      "longitude": "-90.06924020679288"
    }
  },
  {
    "service_request": "2022-910219",
    "request_type": "Trash/Recycling",
    "request_reason": "Repair Trash Cart",
    "date_created": "2022-08-15T19:11:36.000",
    "date_modified": "2022-08-15T19:11:37.000",
    "request_status": "Pending",
    "responsible_agency": "Department of Sanitation",
    "final_address": "1723 General Taylor St",
    "address_councildis": "B",
    "status": "Assigned to Contractor",
    "contractor": "Richards Disposal",
    "rowid": "910219",
    "final_x": "3672542.00711",
    "final_y": "521618.841657",
    "longitude": "-90.09669391274504",
    "latitude": "29.928539677615326",
    "geocoded_column": {
      "latitude": "29.928539677615326",
      "longitude": "-90.09669391274504"
    }
  },
  {
    "service_request": "2022-910218",
    "request_type": "Trash/Recycling",
    "request_reason": "Missed Trash Pick-Up",
    "date_created": "2022-08-15T19:10:31.000",
    "date_modified": "2022-08-15T19:10:32.000",
    "request_status": "Pending",
    "responsible_agency": "Department of Sanitation",
    "final_address": "928 N Gayoso St",
    "address_councildis": "A",
    "status": "Assigned to Contractor",
    "contractor": "Richards Disposal",
    "rowid": "910218",
    "final_x": "3676332.98248",
    "final_y": "538419.354249",
    "longitude": "-90.08414841050549",
    "latitude": "29.974622442886385",
    "geocoded_column": {
      "latitude": "29.974622442886385",
      "longitude": "-90.08414841050549"
    }
  },
  {
    "service_request": "2022-910217",
    "request_type": "Trash/Recycling",
    "request_reason": "Request a Large Item Pick Up",
    "date_created": "2022-08-15T19:04:09.000",
    "date_modified": "2022-08-15T19:04:10.000",
    "request_status": "Pending",
    "responsible_agency": "Department of Sanitation",
    "final_address": "7501 Briarwood Dr, New Orleans, Louisiana, 70128",
    "address_councildis": "E",
    "status": "Assigned to Contractor",
    "contractor": "Metro Disposal",
    "rowid": "910217",
    "final_x": "3718056.43378",
    "final_y": "570364.712743",
    "longitude": "-89.95116013354172",
    "latitude": "30.06114282056139",
    "geocoded_column": {
      "latitude": "30.06114282056139",
      "longitude": "-89.95116013354172"
    }
  },
  {
    "service_request": "2022-910216",
    "request_type": "Abandoned Vehicles",
    "request_reason": "Abandoned/Junk Vehicles",
    "date_created": "2022-08-15T18:39:09.000",
    "date_modified": "2022-08-15T18:39:09.000",
    "request_status": "Pending",
    "responsible_agency": "Department of Public Works",
    "final_address": "1214 Henriette Delille St",
    "address_councildis": "C",
    "status": "Pending",
    "rowid": "910216",
    "final_x": "3682256.42703",
    "final_y": "535136.889478",
    "longitude": "-90.0655554375473",
    "latitude": "29.965417904629128",
    "geocoded_column": {
      "latitude": "29.965417904629128",
      "longitude": "-90.0655554375473"
    }
  },
  {
    "service_request": "2022-910215",
    "request_type": "Abandoned Vehicles",
    "request_reason": "Abandoned/Junk Vehicles",
    "date_created": "2022-08-15T18:25:30.000",
    "date_modified": "2022-08-15T18:25:30.000",
    "request_status": "Pending",
    "responsible_agency": "Department of Public Works",
    "final_address": "8332 S Claiborne Ave",
    "address_councildis": "A",
    "status": "Pending",
    "rowid": "910215",
    "final_x": "3664030.70317",
    "final_y": "532142.057027",
    "longitude": "-90.12321157642126",
    "latitude": "29.95772498516554",
    "geocoded_column": {
      "latitude": "29.95772498516554",
      "longitude": "-90.12321157642126"
    }
  },
  {
    "service_request": "2022-910214",
    "request_type": "Trash/Recycling",
    "request_reason": "Request a Large Item Pick Up",
    "date_created": "2022-08-15T18:24:56.000",
    "date_modified": "2022-08-15T18:24:56.000",
    "request_status": "Pending",
    "responsible_agency": "Department of Sanitation",
    "final_address": "2401 Iberville St",
    "address_councildis": "B",
    "status": "Assigned to Contractor",
    "contractor": "Richards Disposal",
    "rowid": "910214",
    "final_x": "3676679.79777",
    "final_y": "534684.193926",
    "longitude": "-90.08318178642479",
    "latitude": "29.96434162300935",
    "geocoded_column": {
      "latitude": "29.96434162300935",
      "longitude": "-90.08318178642479"
    }
  },
  {
    "service_request": "2022-910213",
    "request_type": "Abandoned Vehicles",
    "request_reason": "Abandoned/Junk Vehicles",
    "date_created": "2022-08-15T18:20:43.000",
    "date_modified": "2022-08-15T18:22:03.000",
    "request_status": "Pending",
    "responsible_agency": "Department of Public Works",
    "final_address": "301 Homer St",
    "address_councildis": "C",
    "status": "Pending",
    "rowid": "910213",
    "final_x": "3686205.74614",
    "final_y": "528235.415872",
    "longitude": "-90.05332716052429",
    "latitude": "29.94632048072421",
    "geocoded_column": {
      "latitude": "29.94632048072421",
      "longitude": "-90.05332716052429"
    }
  },
  {
    "service_request": "2022-910212",
    "request_type": "Trash/Recycling",
    "request_reason": "Missed Trash Pick-Up",
    "date_created": "2022-08-15T18:14:34.000",
    "date_modified": "2022-08-15T18:14:35.000",
    "request_status": "Pending",
    "responsible_agency": "Department of Sanitation",
    "final_address": "1521 Mandeville St",
    "address_councildis": "C",
    "status": "Assigned to Contractor",
    "contractor": "Metro Disposal",
    "rowid": "910212",
    "final_x": "3685680.73724",
    "final_y": "538024.984905",
    "longitude": "-90.054639866008",
    "latitude": "29.97325454105964",
    "geocoded_column": {
      "latitude": "29.97325454105964",
      "longitude": "-90.054639866008"
    }
  },
  {
    "service_request": "2022-910211",
    "request_type": "Trash/Recycling",
    "request_reason": "Repair Trash Cart",
    "date_created": "2022-08-15T18:12:40.000",
    "date_modified": "2022-08-15T18:12:40.000",
    "request_status": "Pending",
    "responsible_agency": "Department of Sanitation",
    "final_address": "6310 Oxford St",
    "address_councildis": "C",
    "status": "Assigned to Contractor",
    "contractor": "Richards Disposal",
    "rowid": "910211",
    "final_x": "3707502.63761",
    "final_y": "519798.380152",
    "longitude": "-89.98639915485467",
    "latitude": "29.9224502740684",
    "geocoded_column": {
      "latitude": "29.9224502740684",
      "longitude": "-89.98639915485467"
    }
  },
  {
    "service_request": "2022-910210",
    "request_type": "Property Maintenance",
    "request_reason": "Property Maintenance",
    "date_created": "2022-08-15T18:08:47.000",
    "date_modified": "2022-08-15T18:08:48.000",
    "request_status": "Pending",
    "responsible_agency": "Department of Code Enforcement",
    "final_address": "DOWNMAN RD & DWYER RD",
    "address_councildis": "D",
    "status": "Pending",
    "rowid": "910210",
    "final_x": "3695928.6",
    "final_y": "554596.98",
    "longitude": "-90.02167610005444",
    "latitude": "30.018503005684007",
    "geocoded_column": {
      "latitude": "30.018503005684007",
      "longitude": "-90.02167610005444"
    }
  },
  {
    "service_request": "2022-910208",
    "request_type": "Health Related Questions",
    "request_reason": "Noise Ordinance Complaint",
    "date_created": "2022-08-15T17:58:55.000",
    "date_modified": "2022-08-15T17:58:55.000",
    "request_status": "Pending",
    "responsible_agency": "Health Department",
    "final_address": "5723 Eads St. NOLA 70122",
    "status": "Pending",
    "rowid": "910208",
    "longitude": "0.0",
    "latitude": "0.0",
    "geocoded_column": {
      "latitude": "0.0",
      "longitude": "0.0"
    }
  },
  {
    "service_request": "2022-910207",
    "request_type": "Property Maintenance",
    "request_reason": "Property Maintenance",
    "date_created": "2022-08-15T17:58:04.000",
    "date_modified": "2022-08-15T17:58:04.000",
    "request_status": "Pending",
    "responsible_agency": "Department of Code Enforcement",
    "final_address": "8640 Chase St",
    "address_councildis": "E",
    "status": "Pending",
    "rowid": "910207",
    "final_x": "3703864.20823",
    "final_y": "563461.51216",
    "longitude": "-89.99627584322542",
    "latitude": "30.042624853372025",
    "geocoded_column": {
      "latitude": "30.042624853372025",
      "longitude": "-89.99627584322542"
    }
  },
  {
    "service_request": "2022-910206",
    "request_type": "Trash/Recycling",
    "request_reason": "Request a Large Item Pick Up",
    "date_created": "2022-08-15T17:50:44.000",
    "date_modified": "2022-08-15T17:50:45.000",
    "request_status": "Pending",
    "responsible_agency": "Department of Sanitation",
    "final_address": "101 28th St, New Orleans, Louisiana, 70124",
    "address_councildis": "A",
    "status": "Assigned to Contractor",
    "contractor": "Metro Disposal",
    "rowid": "910206",
    "final_x": "3666168.93025",
    "final_y": "550227.056468",
    "longitude": "-90.11585287149754",
    "latitude": "30.007390368901522",
    "geocoded_column": {
      "latitude": "30.007390368901522",
      "longitude": "-90.11585287149754"
    }
  },
  {
    "service_request": "2022-910204",
    "request_type": "Trash/Recycling",
    "request_reason": "Repair Trash Cart",
    "date_created": "2022-08-15T17:38:35.000",
    "date_modified": "2022-08-15T17:38:36.000",
    "request_status": "Pending",
    "responsible_agency": "Department of Sanitation",
    "final_address": "4119 Walmsley Ave",
    "address_councildis": "B",
    "status": "Assigned to Contractor",
    "contractor": "Richards Disposal",
    "rowid": "910204",
    "final_x": "3670284.97959",
    "final_y": "529679.956417",
    "longitude": "-90.1035457714537",
    "latitude": "29.9507719180585",
    "geocoded_column": {
      "latitude": "29.9507719180585",
      "longitude": "-90.1035457714537"
    }
  },
  {
    "service_request": "2022-910203",
    "request_type": "Parks & Parkways",
    "request_reason": "Request Tree Service (Right of Way/Public Property)",
    "date_created": "2022-08-15T17:34:41.000",
    "date_modified": "2022-08-15T17:34:41.000",
    "request_status": "Pending",
    "responsible_agency": "Department of Parks & Parkway",
    "final_address": "6011 Paris Ave",
    "address_councildis": "D",
    "status": "Pending",
    "rowid": "910203",
    "final_x": "3679066.88904",
    "final_y": "554515.979224",
    "longitude": "-90.07495576347664",
    "latitude": "30.018800233434487",
    "geocoded_column": {
      "latitude": "30.018800233434487",
      "longitude": "-90.07495576347664"
    }
  },
  {
    "service_request": "2022-910202",
    "request_type": "Trash/Recycling",
    "request_reason": "Missed Trash Pick-Up",
    "date_created": "2022-08-15T17:30:02.000",
    "date_modified": "2022-08-15T17:30:03.000",
    "request_status": "Pending",
    "responsible_agency": "Department of Sanitation",
    "final_address": "5216 Atlanta St",
    "address_councildis": "B",
    "status": "Assigned to Contractor",
    "contractor": "Richards Disposal",
    "rowid": "910202",
    "final_x": "3667950.65569",
    "final_y": "520683.950457",
    "longitude": "-90.11121935799825",
    "latitude": "29.9261044765486",
    "geocoded_column": {
      "latitude": "29.9261044765486",
      "longitude": "-90.11121935799825"
    }
  },
  {
    "service_request": "2022-910201",
    "request_type": "Abandoned Vehicles",
    "request_reason": "Abandoned/Junk Vehicles",
    "date_created": "2022-08-15T17:23:40.000",
    "date_modified": "2022-08-15T17:23:40.000",
    "request_status": "Pending",
    "responsible_agency": "Department of Public Works",
    "final_address": "815 Clouet St",
    "address_councildis": "C",
    "status": "Pending",
    "rowid": "910201",
    "final_x": "3688781.60169",
    "final_y": "534974.43879",
    "longitude": "-90.0449550654809",
    "latitude": "29.964771095270454",
    "geocoded_column": {
      "latitude": "29.964771095270454",
      "longitude": "-90.0449550654809"
    }
  },
  {
    "service_request": "2022-910200",
    "request_type": "Trash/Recycling",
    "request_reason": "Missed Trash Pick-Up",
    "date_created": "2022-08-15T17:22:09.000",
    "date_modified": "2022-08-15T17:22:09.000",
    "request_status": "Pending",
    "responsible_agency": "Department of Sanitation",
    "final_address": "910 St Roch Ave",
    "address_councildis": "C",
    "status": "Assigned to Contractor",
    "contractor": "Metro Disposal",
    "rowid": "910200",
    "final_x": "3686509.7622",
    "final_y": "535806.873799",
    "longitude": "-90.05209997340415",
    "latitude": "29.9671300453487",
    "geocoded_column": {
      "latitude": "29.9671300453487",
      "longitude": "-90.05209997340415"
    }
  },
  {
    "service_request": "2022-910199",
    "request_type": "Trash/Recycling",
    "request_reason": "Request a Large Item Pick Up",
    "date_created": "2022-08-15T17:08:14.000",
    "date_modified": "2022-08-15T17:08:15.000",
    "request_status": "Pending",
    "responsible_agency": "Department of Sanitation",
    "final_address": "8625 Pritchard Pl",
    "address_councildis": "A",
    "status": "Assigned to Contractor",
    "contractor": "Richards Disposal",
    "rowid": "910199",
    "final_x": "3664610.74221",
    "final_y": "534258.531269",
    "longitude": "-90.12130928071578",
    "latitude": "29.963527740152053",
    "geocoded_column": {
      "latitude": "29.963527740152053",
      "longitude": "-90.12130928071578"
    }
  },
  {
    "service_request": "2022-910198",
    "request_type": "Trash/Recycling",
    "request_reason": "Request a Large Item Pick Up",
    "date_created": "2022-08-15T17:04:39.000",
    "date_modified": "2022-08-15T17:04:40.000",
    "request_status": "Pending",
    "responsible_agency": "Department of Sanitation",
    "final_address": "4 Kristen Ct",
    "address_councildis": "E",
    "status": "Assigned to Contractor",
    "contractor": "Metro Disposal",
    "rowid": "910198",
    "final_x": "3713782.4661",
    "final_y": "567119.850916",
    "longitude": "-89.96479244325366",
    "latitude": "30.05236184502637",
    "geocoded_column": {
      "latitude": "30.05236184502637",
      "longitude": "-89.96479244325366"
    }
  },
  {
    "service_request": "2022-910197",
    "request_type": "Abandoned Vehicles",
    "request_reason": "Abandoned/Junk Vehicles",
    "date_created": "2022-08-15T17:04:19.000",
    "date_modified": "2022-08-15T17:05:34.000",
    "request_status": "Pending",
    "responsible_agency": "Department of Public Works",
    "final_address": "6629 Maumus Ave",
    "address_councildis": "C",
    "status": "Pending",
    "rowid": "910197",
    "final_x": "3708447.51025",
    "final_y": "516587.182901",
    "longitude": "-89.98353600897964",
    "latitude": "29.91359002677198",
    "geocoded_column": {
      "latitude": "29.91359002677198",
      "longitude": "-89.98353600897964"
    }
  },
  {
    "service_request": "2022-910196",
    "request_type": "Roads/Drainage",
    "request_reason": "Street Subsidence (Sinking)",
    "date_created": "2022-08-15T17:04:01.000",
    "date_modified": "2022-08-15T17:04:01.000",
    "request_status": "Pending",
    "responsible_agency": "Department of Public Works",
    "final_address": "5401 Garfield St",
    "address_councildis": "A",
    "status": "Pending",
    "rowid": "910196",
    "final_x": "3667158.34503",
    "final_y": "521097.332089",
    "longitude": "-90.11370657253345",
    "latitude": "29.927264357556105",
    "geocoded_column": {
      "latitude": "29.927264357556105",
      "longitude": "-90.11370657253345"
    }
  },
  {
    "service_request": "2022-910195",
    "request_type": "Trash/Recycling",
    "request_reason": "Request a Large Item Pick Up",
    "date_created": "2022-08-15T17:03:46.000",
    "date_modified": "2022-08-15T17:03:47.000",
    "request_status": "Pending",
    "responsible_agency": "Department of Sanitation",
    "final_address": "1124 Independence St, New Orleans, Louisiana, 70117",
    "address_councildis": "C",
    "status": "Assigned to Contractor",
    "contractor": "Metro Disposal",
    "rowid": "910195",
    "final_x": "3690989.68899",
    "final_y": "535791.701447",
    "longitude": "-90.03795292129429",
    "latitude": "29.966949828398114",
    "geocoded_column": {
      "latitude": "29.966949828398114",
      "longitude": "-90.03795292129429"
    }
  },
  {
    "service_request": "2022-910194",
    "request_type": "Abandoned Vehicles",
    "request_reason": "Vehicle Blocking Your Driveway",
    "date_created": "2022-08-15T17:01:45.000",
    "date_modified": "2022-08-15T17:01:45.000",
    "request_status": "Pending",
    "responsible_agency": "Department of Public Works",
    "final_address": "5925 West End Blvd",
    "address_councildis": "A",
    "status": "Pending",
    "rowid": "910194",
    "final_x": "3666520.68634",
    "final_y": "547392.606545",
    "longitude": "-90.11483679687053",
    "latitude": "29.999586331256726",
    "geocoded_column": {
      "latitude": "29.999586331256726",
      "longitude": "-90.11483679687053"
    }
  },
  {
    "service_request": "2022-910193",
    "request_type": "Property Maintenance",
    "request_reason": "Property Maintenance",
    "date_created": "2022-08-15T16:59:02.000",
    "date_modified": "2022-08-15T16:59:03.000",
    "request_status": "Pending",
    "responsible_agency": "Department of Code Enforcement",
    "final_address": "2323 Ursulines Ave",
    "address_councildis": "D",
    "status": "Pending",
    "rowid": "910193",
    "final_x": "3678865.44328",
    "final_y": "537264.142728",
    "longitude": "-90.07619030582468",
    "latitude": "29.971369850917124",
    "geocoded_column": {
      "latitude": "29.971369850917124",
      "longitude": "-90.07619030582468"
    }
  },
  {
    "service_request": "2022-910192",
    "request_type": "Abandoned Vehicles",
    "request_reason": "Abandoned/Junk Vehicles",
    "date_created": "2022-08-15T16:57:58.000",
    "date_modified": "2022-08-15T16:57:58.000",
    "request_status": "Pending",
    "responsible_agency": "Department of Public Works",
    "final_address": "1225 Annunciation St",
    "address_councildis": "B",
    "status": "Pending",
    "rowid": "910192",
    "final_x": "3681326.4084",
    "final_y": "525212.588029",
    "longitude": "-90.0688382503422",
    "latitude": "29.9381576865199",
    "geocoded_column": {
      "latitude": "29.9381576865199",
      "longitude": "-90.0688382503422"
    }
  },
  {
    "service_request": "2022-910191",
    "request_type": "Parks & Parkways",
    "request_reason": "Request Grass Cutting Service (City Owned Property)",
    "date_created": "2022-08-15T16:56:36.000",
    "date_modified": "2022-08-15T16:56:37.000",
    "request_status": "Pending",
    "responsible_agency": "Department of Parks & Parkway",
    "final_address": "3014 Holiday Dr",
    "address_councildis": "C",
    "status": "Pending",
    "rowid": "910191",
    "final_x": "3698875.24714",
    "final_y": "519797.701432",
    "longitude": "-90.01363218845437",
    "latitude": "29.922724446032788",
    "geocoded_column": {
      "latitude": "29.922724446032788",
      "longitude": "-90.01363218845437"
    }
  },
  {
    "service_request": "2022-910190",
    "request_type": "Roads/Drainage",
    "request_reason": "Pothole",
    "date_created": "2022-08-15T16:56:12.000",
    "date_modified": "2022-08-15T16:56:13.000",
    "request_status": "Pending",
    "responsible_agency": "Department of Public Works",
    "final_address": "2100 BLK N Prieur St",
    "address_councildis": "D",
    "status": "Pending",
    "rowid": "910190",
    "final_x": "3684538.04559",
    "final_y": "539231.697571",
    "longitude": "-90.05820630063828",
    "latitude": "29.976607592998402",
    "geocoded_column": {
      "latitude": "29.976607592998402",
      "longitude": "-90.05820630063828"
    }
  },
  {
    "service_request": "2022-910189",
    "request_type": "Trash/Recycling",
    "request_reason": "Missed Trash Pick-Up",
    "date_created": "2022-08-15T16:48:51.000",
    "date_modified": "2022-08-15T16:48:51.000",
    "request_status": "Pending",
    "responsible_agency": "Department of Sanitation",
    "final_address": "2500 BLK N Tonti St",
    "address_councildis": "D",
    "status": "Assigned to Contractor",
    "contractor": "Metro Disposal",
    "rowid": "910189",
    "final_x": "3686674.6545",
    "final_y": "540885.378319",
    "longitude": "-90.05139981543756",
    "latitude": "29.981089080877076",
    "geocoded_column": {
      "latitude": "29.981089080877076",
      "longitude": "-90.05139981543756"
    }
  },
  {
    "service_request": "2022-910187",
    "request_type": "Property Maintenance",
    "request_reason": "Property Maintenance",
    "date_created": "2022-08-15T16:44:57.000",
    "date_modified": "2022-08-15T16:44:57.000",
    "request_status": "Pending",
    "responsible_agency": "Department of Code Enforcement",
    "final_address": "6700 Cindy Pl",
    "address_councildis": "E",
    "status": "Pending",
    "rowid": "910187",
    "final_x": "3707199.446",
    "final_y": "558627.075036",
    "longitude": "-89.98591491844806",
    "latitude": "30.02922462809095",
    "geocoded_column": {
      "latitude": "30.02922462809095",
      "longitude": "-89.98591491844806"
    }
  },
  {
    "service_request": "2022-910185",
    "request_type": "Trash/Recycling",
    "request_reason": "Illegal Dumping",
    "date_created": "2022-08-15T16:43:09.000",
    "date_modified": "2022-08-15T16:43:09.000",
    "request_status": "Pending",
    "responsible_agency": "Department of Sanitation",
    "final_address": "6747 Cindy Pl",
    "address_councildis": "E",
    "status": "Pending",
    "rowid": "910185",
    "final_x": "3707229.64196",
    "final_y": "558903.8191",
    "longitude": "-89.98580921656352",
    "latitude": "30.029984589396555",
    "geocoded_column": {
      "latitude": "30.029984589396555",
      "longitude": "-89.98580921656352"
    }
  },
  {
    "service_request": "2022-910184",
    "request_type": "Abandoned Vehicles",
    "request_reason": "Abandoned/Junk Vehicles",
    "date_created": "2022-08-15T16:43:03.000",
    "date_modified": "2022-08-15T16:47:05.000",
    "case_close_date": "2022-08-15T11:47:05.000",
    "request_status": "Closed",
    "responsible_agency": "Department of Public Works",
    "final_address": "3125 Industrial Ct",
    "address_councildis": "D",
    "status": "Not Enough Information - Resubmittal Required",
    "rowid": "910184",
    "final_x": "3689850.81315",
    "final_y": "538403.704393",
    "longitude": "-90.04145648218979",
    "latitude": "29.97416726987343",
    "geocoded_column": {
      "latitude": "29.97416726987343",
      "longitude": "-90.04145648218979"
    }
  },
  {
    "service_request": "2022-910183",
    "request_type": "Trash/Recycling",
    "request_reason": "MIssed Recycling Pick-Up",
    "date_created": "2022-08-15T16:42:25.000",
    "date_modified": "2022-08-15T16:42:26.000",
    "request_status": "Pending",
    "responsible_agency": "Department of Sanitation",
    "final_address": "1118 Valence St",
    "address_councildis": "B",
    "status": "Assigned to Contractor",
    "contractor": "Richards Disposal",
    "rowid": "910183",
    "final_x": "3669806.58439",
    "final_y": "519555.470136",
    "longitude": "-90.10539888754532",
    "latitude": "29.922946955015643",
    "geocoded_column": {
      "latitude": "29.922946955015643",
      "longitude": "-90.10539888754532"
    }
  },
  {
    "service_request": "2022-910182",
    "request_type": "Trash/Recycling",
    "request_reason": "Illegal Dumping",
    "date_created": "2022-08-15T16:41:29.000",
    "date_modified": "2022-08-15T16:42:19.000",
    "request_status": "Pending",
    "responsible_agency": "Department of Sanitation",
    "final_address": "2416 St Ann St",
    "address_councildis": "D",
    "status": "Pending",
    "rowid": "910182",
    "final_x": "3677844.67733",
    "final_y": "536437.885511",
    "longitude": "-90.07944258626746",
    "latitude": "29.969128680429044",
    "geocoded_column": {
      "latitude": "29.969128680429044",
      "longitude": "-90.07944258626746"
    }
  },
  {
    "service_request": "2022-910181",
    "request_type": "Trash/Recycling",
    "request_reason": "Missed Trash Pick-Up",
    "date_created": "2022-08-15T16:39:52.000",
    "date_modified": "2022-08-15T16:39:53.000",
    "request_status": "Pending",
    "responsible_agency": "Department of Sanitation",
    "final_address": "2100 BLK S Salcedo St",
    "address_councildis": "A",
    "status": "Assigned to Contractor",
    "contractor": "Richards Disposal",
    "rowid": "910181",
    "final_x": "3669378.3574",
    "final_y": "529192.521783",
    "longitude": "-90.10642491037153",
    "latitude": "29.949458356548796",
    "geocoded_column": {
      "latitude": "29.949458356548796",
      "longitude": "-90.10642491037153"
    }
  },
  {
    "service_request": "2022-910180",
    "request_type": "Roads/Drainage",
    "request_reason": "Ditch Issue",
    "date_created": "2022-08-15T16:39:41.000",
    "date_modified": "2022-08-15T16:39:41.000",
    "request_status": "Pending",
    "responsible_agency": "Department of Public Works",
    "final_address": "428 S Hennessey St",
    "address_councildis": "A",
    "status": "Pending",
    "rowid": "910180",
    "final_x": "3669412.15566",
    "final_y": "537742.064712",
    "longitude": "-90.10602905407805",
    "latitude": "29.972965771650248",
    "geocoded_column": {
      "latitude": "29.972965771650248",
      "longitude": "-90.10602905407805"
    }
  },
  {
    "service_request": "2022-910179",
    "request_type": "Property Maintenance",
    "request_reason": "Property Maintenance",
    "date_created": "2022-08-15T16:35:32.000",
    "date_modified": "2022-08-15T16:36:22.000",
    "request_status": "Pending",
    "responsible_agency": "Department of Code Enforcement",
    "final_address": "8921 Willow St",
    "address_councildis": "A",
    "status": "Pending",
    "rowid": "910179",
    "final_x": "3660251.46694",
    "final_y": "530939.107138",
    "longitude": "-90.13518509679909",
    "latitude": "29.954526465297267",
    "geocoded_column": {
      "latitude": "29.954526465297267",
      "longitude": "-90.13518509679909"
    }
  },
  {
    "service_request": "2022-910178",
    "request_type": "Trash/Recycling",
    "request_reason": "MIssed Recycling Pick-Up",
    "date_created": "2022-08-15T16:31:38.000",
    "date_modified": "2022-08-15T16:31:38.000",
    "request_status": "Pending",
    "responsible_agency": "Department of Sanitation",
    "final_address": "818 Evelina St, New Orleans, Louisiana, 70114",
    "address_councildis": "C",
    "status": "Assigned to Contractor",
    "contractor": "Richards Disposal",
    "rowid": "910178",
    "final_x": "3687938.0102",
    "final_y": "529529.651713",
    "longitude": "-90.04781196701107",
    "latitude": "29.949825864817743",
    "geocoded_column": {
      "latitude": "29.949825864817743",
      "longitude": "-90.04781196701107"
    }
  },
  {
    "service_request": "2022-910177",
    "request_type": "Trash/Recycling",
    "request_reason": "Request a Large Item Pick Up",
    "date_created": "2022-08-15T16:31:37.000",
    "date_modified": "2022-08-15T16:31:38.000",
    "request_status": "Pending",
    "responsible_agency": "Department of Sanitation",
    "final_address": "4301 Baudin St",
    "address_councildis": "A",
    "status": "Assigned to Contractor",
    "contractor": "Richards Disposal",
    "rowid": "910177",
    "final_x": "3669309.05012",
    "final_y": "537726.148552",
    "longitude": "-90.10635522046991",
    "latitude": "29.972925043761933",
    "geocoded_column": {
      "latitude": "29.972925043761933",
      "longitude": "-90.10635522046991"
    }
  },
  {
    "service_request": "2022-910175",
    "request_type": "Trash/Recycling",
    "request_reason": "Replace Trash Cart",
    "date_created": "2022-08-15T16:25:46.000",
    "date_modified": "2022-08-15T16:25:47.000",
    "request_status": "Pending",
    "responsible_agency": "Department of Sanitation",
    "final_address": "4724 Laurel St",
    "address_councildis": "B",
    "status": "Assigned to Contractor",
    "contractor": "Richards Disposal",
    "rowid": "910175",
    "final_x": "3669800.45351",
    "final_y": "517877.58591",
    "longitude": "-90.10547499583606",
    "latitude": "29.91833348525965",
    "geocoded_column": {
      "latitude": "29.91833348525965",
      "longitude": "-90.10547499583606"
    }
  },
  {
    "service_request": "2022-910174",
    "request_type": "Trash/Recycling",
    "request_reason": "Missed Trash Pick-Up",
    "date_created": "2022-08-15T16:11:01.000",
    "date_modified": "2022-08-15T16:11:02.000",
    "request_status": "Pending",
    "responsible_agency": "Department of Sanitation",
    "final_address": "5301 Marigny St",
    "address_councildis": "D",
    "status": "Assigned to Contractor",
    "contractor": "Metro Disposal",
    "rowid": "910174",
    "final_x": "3684172.10261",
    "final_y": "552431.941526",
    "longitude": "-90.05889836734252",
    "latitude": "30.012914742851507",
    "geocoded_column": {
      "latitude": "30.012914742851507",
      "longitude": "-90.05889836734252"
    }
  },
  {
    "service_request": "2022-910173",
    "request_type": "Trash/Recycling",
    "request_reason": "Order Trash Cart",
    "date_created": "2022-08-15T16:06:59.000",
    "date_modified": "2022-08-15T16:06:59.000",
    "request_status": "Pending",
    "responsible_agency": "Department of Sanitation",
    "final_address": "1437 St Andrew St",
    "address_councildis": "B",
    "status": "Assigned to Contractor",
    "contractor": "Richards Disposal",
    "rowid": "910173",
    "final_x": "3678674.63016",
    "final_y": "523626.303099",
    "longitude": "-90.0772650561403",
    "latitude": "29.933876124838466",
    "geocoded_column": {
      "latitude": "29.933876124838466",
      "longitude": "-90.0772650561403"
    }
  },
  {
    "service_request": "2022-910172",
    "request_type": "Traffic Signals/Signs/Striping/Streetlights",
    "request_reason": "Street Light Outage/Malfunction",
    "date_created": "2022-08-15T16:03:27.000",
    "date_modified": "2022-08-15T16:03:29.000",
    "request_status": "Pending",
    "responsible_agency": "Department of Public Works",
    "final_address": "2509 Burgundy St, New Orleans, Louisiana, 70117",
    "address_councildis": "C",
    "status": "Pending",
    "contractor": "Legacy Professional Services",
    "rowid": "910172",
    "final_x": "3686646.5245",
    "final_y": "535742.268871",
    "longitude": "-90.0516703600051",
    "latitude": "29.966948198729465",
    "geocoded_column": {
      "latitude": "29.966948198729465",
      "longitude": "-90.0516703600051"
    }
  },
  {
    "service_request": "2022-910170",
    "request_type": "Abandoned Vehicles",
    "request_reason": "Abandoned/Junk Vehicles",
    "date_created": "2022-08-15T16:02:22.000",
    "date_modified": "2022-08-15T16:02:22.000",
    "request_status": "Pending",
    "responsible_agency": "Department of Public Works",
    "final_address": "2901 Tchoupitoulas St",
    "address_councildis": "B",
    "status": "Pending",
    "rowid": "910170",
    "final_x": "3677839.04456",
    "final_y": "518629.007479",
    "longitude": "-90.08007551618797",
    "latitude": "29.92016034800976",
    "geocoded_column": {
      "latitude": "29.92016034800976",
      "longitude": "-90.08007551618797"
    }
  },
  {
    "service_request": "2022-910169",
    "request_type": "Property Maintenance",
    "request_reason": "Property Maintenance",
    "date_created": "2022-08-15T16:00:24.000",
    "date_modified": "2022-08-15T16:00:45.000",
    "request_status": "Pending",
    "responsible_agency": "Department of Code Enforcement",
    "final_address": "HENDEE ST & WALL BLVD & HENDEE CT",
    "address_councildis": "C",
    "status": "Pending",
    "rowid": "910169",
    "final_x": "3690619.2",
    "final_y": "523972.98",
    "longitude": "-90.03954434875418",
    "latitude": "29.934463933479986",
    "geocoded_column": {
      "latitude": "29.934463933479986",
      "longitude": "-90.03954434875418"
    }
  },
  {
    "service_request": "2022-910168",
    "request_type": "Property Maintenance",
    "request_reason": "Property Maintenance",
    "date_created": "2022-08-15T15:54:56.000",
    "date_modified": "2022-08-15T16:22:21.000",
    "case_close_date": "2022-08-15T11:22:21.000",
    "request_status": "Closed",
    "responsible_agency": "Department of Code Enforcement",
    "final_address": "2922 Piety St",
    "address_councildis": "D",
    "status": "Referred to Code Enforcement",
    "rowid": "910168",
    "final_x": "3691638.08483",
    "final_y": "543143.972749",
    "longitude": "-90.03564233910735",
    "latitude": "29.98714578469489",
    "geocoded_column": {
      "latitude": "29.98714578469489",
      "longitude": "-90.03564233910735"
    }
  },
  {
    "service_request": "2022-910167",
    "request_type": "Property Maintenance",
    "request_reason": "Property Maintenance",
    "date_created": "2022-08-15T15:52:03.000",
    "date_modified": "2022-08-15T15:52:03.000",
    "request_status": "Pending",
    "responsible_agency": "Department of Code Enforcement",
    "final_address": "617 First St",
    "address_councildis": "B",
    "status": "Pending",
    "rowid": "910167",
    "final_x": "3679028.40936",
    "final_y": "520117.103224",
    "longitude": "-90.07626972804592",
    "latitude": "29.92421630502302",
    "geocoded_column": {
      "latitude": "29.92421630502302",
      "longitude": "-90.07626972804592"
    }
  },
  {
    "service_request": "2022-910166",
    "request_type": "Traffic Signals/Signs/Striping/Streetlights",
    "request_reason": "Street Name Sign Damaged or Missing",
    "date_created": "2022-08-15T15:49:59.000",
    "date_modified": "2022-08-15T15:49:59.000",
    "request_status": "Pending",
    "responsible_agency": "Department of Public Works",
    "final_address": "600 First St",
    "address_councildis": "B",
    "status": "Pending",
    "rowid": "910166",
    "final_x": "3679030.64898",
    "final_y": "519985.956024",
    "longitude": "-90.07626720005887",
    "latitude": "29.923855625335953",
    "geocoded_column": {
      "latitude": "29.923855625335953",
      "longitude": "-90.07626720005887"
    }
  },
  {
    "service_request": "2022-910165",
    "request_type": "Trash/Recycling",
    "request_reason": "Missed Trash Pick-Up",
    "date_created": "2022-08-15T15:49:14.000",
    "date_modified": "2022-08-15T15:49:15.000",
    "request_status": "Pending",
    "responsible_agency": "Department of Sanitation",
    "final_address": "1931 Painters St",
    "address_councildis": "D",
    "status": "Assigned to Contractor",
    "contractor": "Metro Disposal",
    "rowid": "910165",
    "final_x": "3687390.41199",
    "final_y": "539703.095114",
    "longitude": "-90.04918098614257",
    "latitude": "29.977816182198044",
    "geocoded_column": {
      "latitude": "29.977816182198044",
      "longitude": "-90.04918098614257"
    }
  },
  {
    "service_request": "2022-910164",
    "request_type": "Trash/Recycling",
    "request_reason": "Order Trash Cart",
    "date_created": "2022-08-15T15:47:55.000",
    "date_modified": "2022-08-15T15:47:56.000",
    "request_status": "Pending",
    "responsible_agency": "Department of Sanitation",
    "final_address": "5 Jay St, New Orleans, Louisiana, 70124",
    "address_councildis": "D",
    "status": "Assigned to Contractor",
    "contractor": "Metro Disposal",
    "rowid": "910164",
    "final_x": "3684384.90908",
    "final_y": "557389.537307",
    "longitude": "-90.05805168806168",
    "latitude": "30.026539797712864",
    "geocoded_column": {
      "latitude": "30.026539797712864",
      "longitude": "-90.05805168806168"
    }
  },
  {
    "service_request": "2022-910162",
    "request_type": "Property Maintenance",
    "request_reason": "Property Maintenance",
    "date_created": "2022-08-15T15:43:43.000",
    "date_modified": "2022-08-15T15:58:12.000",
    "case_close_date": "2022-08-15T10:58:12.000",
    "request_status": "Closed",
    "responsible_agency": "Department of Code Enforcement",
    "final_address": "1318 Seville Dr",
    "address_councildis": "D",
    "status": "Referred to Code Enforcement",
    "rowid": "910162",
    "final_x": "3677355.91682",
    "final_y": "551038.491541",
    "longitude": "-90.08048196771887",
    "latitude": "30.00928994760355",
    "geocoded_column": {
      "latitude": "30.00928994760355",
      "longitude": "-90.08048196771887"
    }
  },
  {
    "service_request": "2022-910161",
    "request_type": "Property Maintenance",
    "request_reason": "Property Maintenance",
    "date_created": "2022-08-15T15:42:00.000",
    "date_modified": "2022-08-15T15:49:40.000",
    "case_close_date": "2022-08-15T10:49:40.000",
    "request_status": "Closed",
    "responsible_agency": "Department of Code Enforcement",
    "final_address": "7536 Surf St",
    "address_councildis": "E",
    "status": "Referred to Code Enforcement",
    "rowid": "910161",
    "final_x": "3715704.94655",
    "final_y": "568854.787941",
    "longitude": "-89.95865032683218",
    "latitude": "30.057068933861675",
    "geocoded_column": {
      "latitude": "30.057068933861675",
      "longitude": "-89.95865032683218"
    }
  },
  {
    "service_request": "2022-910160",
    "request_type": "Trash/Recycling",
    "request_reason": "Order Recycling Cart",
    "date_created": "2022-08-15T15:41:39.000",
    "date_modified": "2022-08-15T15:41:39.000",
    "request_status": "Pending",
    "responsible_agency": "Department of Sanitation",
    "final_address": "5 Jay St, New Orleans, Louisiana, 70124",
    "address_councildis": "D",
    "status": "Pending",
    "rowid": "910160",
    "final_x": "3684384.90908",
    "final_y": "557389.537307",
    "longitude": "-90.05805168806168",
    "latitude": "30.026539797712864",
    "geocoded_column": {
      "latitude": "30.026539797712864",
      "longitude": "-90.05805168806168"
    }
  },
  {
    "service_request": "2022-910158",
    "request_type": "Abandoned Vehicles",
    "request_reason": "Abandoned/Junk Vehicles",
    "date_created": "2022-08-15T15:38:47.000",
    "date_modified": "2022-08-15T15:38:47.000",
    "request_status": "Pending",
    "responsible_agency": "Department of Public Works",
    "final_address": "6754 Colbert St",
    "address_councildis": "A",
    "status": "Pending",
    "rowid": "910158",
    "final_x": "3667786.78529",
    "final_y": "552529.720534",
    "longitude": "-90.11066396705009",
    "latitude": "30.013674523016203",
    "geocoded_column": {
      "latitude": "30.013674523016203",
      "longitude": "-90.11066396705009"
    }
  },
  {
    "service_request": "2022-910157",
    "request_type": "Roads/Drainage",
    "request_reason": "Street Subsidence (Sinking)",
    "date_created": "2022-08-15T15:36:14.000",
    "date_modified": "2022-08-15T15:36:14.000",
    "request_status": "Pending",
    "responsible_agency": "Department of Public Works",
    "final_address": "1428 Burbank Dr",
    "address_councildis": "D",
    "status": "Pending",
    "rowid": "910157",
    "final_x": "3677703.71509",
    "final_y": "554186.946968",
    "longitude": "-90.07927428823565",
    "latitude": "30.01793660690265",
    "geocoded_column": {
      "latitude": "30.01793660690265",
      "longitude": "-90.07927428823565"
    }
  },
  {
    "service_request": "2022-910156",
    "request_type": "Trash/Recycling",
    "request_reason": "Start Trash Service",
    "date_created": "2022-08-15T15:35:34.000",
    "date_modified": "2022-08-15T15:35:34.000",
    "request_status": "Pending",
    "responsible_agency": "Department of Sanitation",
    "final_address": "4945 Desire Dr",
    "address_councildis": "D",
    "status": "Assigned to Contractor",
    "contractor": "Metro Disposal",
    "rowid": "910156",
    "final_x": "3691634.58006",
    "final_y": "552269.44175",
    "longitude": "-90.03532689094864",
    "latitude": "30.01223759860831",
    "geocoded_column": {
      "latitude": "30.01223759860831",
      "longitude": "-90.03532689094864"
    }
  },
  {
    "service_request": "2022-910155",
    "request_type": "Trash/Recycling",
    "request_reason": "Order Trash Cart",
    "date_created": "2022-08-15T15:35:11.000",
    "date_modified": "2022-08-15T15:35:11.000",
    "request_status": "Pending",
    "responsible_agency": "Department of Sanitation",
    "final_address": "4945 Desire Dr",
    "address_councildis": "D",
    "status": "Assigned to Contractor",
    "contractor": "Metro Disposal",
    "rowid": "910155",
    "final_x": "3691634.58006",
    "final_y": "552269.44175",
    "longitude": "-90.03532689094864",
    "latitude": "30.01223759860831",
    "geocoded_column": {
      "latitude": "30.01223759860831",
      "longitude": "-90.03532689094864"
    }
  },
  {
    "service_request": "2022-910154",
    "request_type": "Traffic Signals/Signs/Striping/Streetlights",
    "request_reason": "Street Light Outage/Malfunction",
    "date_created": "2022-08-15T15:31:06.000",
    "date_modified": "2022-08-15T15:31:07.000",
    "request_status": "Pending",
    "responsible_agency": "Department of Public Works",
    "final_address": "1582 Maura Pl",
    "address_councildis": "C",
    "status": "Pending",
    "contractor": "Legacy Professional Services",
    "rowid": "910154",
    "final_x": "3699299.71607",
    "final_y": "525094.149181",
    "longitude": "-90.01209953797773",
    "latitude": "29.937274401840494",
    "geocoded_column": {
      "latitude": "29.937274401840494",
      "longitude": "-90.01209953797773"
    }
  },
  {
    "service_request": "2022-910153",
    "request_type": "Roads/Drainage",
    "request_reason": "Street Subsidence (Sinking)",
    "date_created": "2022-08-15T15:30:48.000",
    "date_modified": "2022-08-15T15:30:48.000",
    "request_status": "Pending",
    "responsible_agency": "Department of Public Works",
    "final_address": "5017 S Prieur St",
    "address_councildis": "B",
    "status": "Pending",
    "rowid": "910153",
    "final_x": "3668760.66145",
    "final_y": "526651.865278",
    "longitude": "-90.10846101287234",
    "latitude": "29.942490548628783",
    "geocoded_column": {
      "latitude": "29.942490548628783",
      "longitude": "-90.10846101287234"
    }
  },
  {
    "service_request": "2022-910152",
    "request_type": "Roads/Drainage",
    "request_reason": "Street Flooding / Drainage",
    "date_created": "2022-08-15T15:27:43.000",
    "date_modified": "2022-08-15T15:27:43.000",
    "request_status": "Pending",
    "responsible_agency": "Department of Public Works",
    "final_address": "2509 S Dorgenois St",
    "address_councildis": "B",
    "status": "Pending",
    "rowid": "910152",
    "final_x": "3672177.08001",
    "final_y": "529734.301889",
    "longitude": "-90.0975696192476",
    "latitude": "29.950865376521218",
    "geocoded_column": {
      "latitude": "29.950865376521218",
      "longitude": "-90.0975696192476"
    }
  },
  {
    "service_request": "2022-910151",
    "request_type": "Traffic Signals/Signs/Striping/Streetlights",
    "request_reason": "Traffic Signal Malfunctioning/Damaged",
    "date_created": "2022-08-15T15:21:14.000",
    "date_modified": "2022-08-15T15:21:14.000",
    "request_status": "Pending",
    "responsible_agency": "Department of Public Works",
    "final_address": "7 Mcalister Dr",
    "address_councildis": "A",
    "status": "Pending",
    "rowid": "910151",
    "final_x": "3664914.93696",
    "final_y": "524951.676093",
    "longitude": "-90.12065970515542",
    "latitude": "29.93792805004395",
    "geocoded_column": {
      "latitude": "29.93792805004395",
      "longitude": "-90.12065970515542"
    }
  },
  {
    "service_request": "2022-910150",
    "request_type": "Traffic Signals/Signs/Striping/Streetlights",
    "request_reason": "Street Light Outage/Malfunction",
    "date_created": "2022-08-15T15:17:42.000",
    "date_modified": "2022-08-15T15:17:43.000",
    "request_status": "Pending",
    "responsible_agency": "Department of Public Works",
    "final_address": "1228 N Dorgenois St",
    "address_councildis": "D",
    "status": "Pending",
    "contractor": "Legacy Professional Services",
    "rowid": "910150",
    "final_x": "3678433.30325",
    "final_y": "538251.124169",
    "longitude": "-90.07752090398269",
    "latitude": "29.974096740589733",
    "geocoded_column": {
      "latitude": "29.974096740589733",
      "longitude": "-90.07752090398269"
    }
  },
  {
    "service_request": "2022-910149",
    "request_type": "Property Maintenance",
    "request_reason": "Property Maintenance",
    "date_created": "2022-08-15T15:16:01.000",
    "date_modified": "2022-08-15T15:27:42.000",
    "case_close_date": "2022-08-15T10:27:42.000",
    "request_status": "Closed",
    "responsible_agency": "Department of Code Enforcement",
    "final_address": "2719 New Orleans St",
    "address_councildis": "D",
    "status": "Referred to Code Enforcement",
    "rowid": "910149",
    "final_x": "3681927.38191",
    "final_y": "542540.780365",
    "longitude": "-90.06633601224631",
    "latitude": "29.985786039302035",
    "geocoded_column": {
      "latitude": "29.985786039302035",
      "longitude": "-90.06633601224631"
    }
  },
  {
    "service_request": "2022-910148",
    "request_type": "Parks & Parkways",
    "request_reason": "Request Tree Service (Right of Way/Public Property)",
    "date_created": "2022-08-15T15:15:14.000",
    "date_modified": "2022-08-15T15:15:15.000",
    "request_status": "Pending",
    "responsible_agency": "Department of Parks & Parkway",
    "final_address": "150 Huntlee Dr",
    "address_councildis": "C",
    "status": "Pending",
    "rowid": "910148",
    "final_x": "3702486.81681",
    "final_y": "523664.312763",
    "longitude": "-90.00209017625684",
    "latitude": "29.933241417914807",
    "geocoded_column": {
      "latitude": "29.933241417914807",
      "longitude": "-90.00209017625684"
    }
  },
  {
    "service_request": "2022-910147",
    "request_type": "Property Maintenance",
    "request_reason": "Property Maintenance",
    "date_created": "2022-08-15T15:15:07.000",
    "date_modified": "2022-08-15T15:15:07.000",
    "request_status": "Pending",
    "responsible_agency": "Department of Code Enforcement",
    "final_address": "10050 Morrison Rd",
    "address_councildis": "E",
    "status": "Pending",
    "rowid": "910147",
    "final_x": "3709332.94648",
    "final_y": "563686.685601",
    "longitude": "-89.9789841997004",
    "latitude": "30.043067393261303",
    "geocoded_column": {
      "latitude": "30.043067393261303",
      "longitude": "-89.9789841997004"
    }
  },
  {
    "service_request": "2022-910146",
    "request_type": "Trash/Recycling",
    "request_reason": "Illegal Dumping",
    "date_created": "2022-08-15T15:15:04.000",
    "date_modified": "2022-08-15T15:15:04.000",
    "request_status": "Pending",
    "responsible_agency": "Department of Sanitation",
    "final_address": "85 Allard Blvd",
    "address_councildis": "A",
    "status": "Pending",
    "rowid": "910146",
    "final_x": "3672766.23892",
    "final_y": "540290.684107",
    "longitude": "-90.09534922910164",
    "latitude": "29.97987439942383",
    "geocoded_column": {
      "latitude": "29.97987439942383",
      "longitude": "-90.09534922910164"
    }
  },
  {
    "service_request": "2022-910145",
    "request_type": "Roads/Drainage",
    "request_reason": "Unpermitted work in ROW",
    "date_created": "2022-08-15T15:13:28.000",
    "date_modified": "2022-08-15T15:13:28.000",
    "request_status": "Pending",
    "responsible_agency": "Department of Public Works",
    "final_address": "918 Melpomene St",
    "address_councildis": "B",
    "status": "Pending",
    "rowid": "910145",
    "final_x": "3681078.88059",
    "final_y": "524700.809212",
    "longitude": "-90.06963753700248",
    "latitude": "29.936757973332778",
    "geocoded_column": {
      "latitude": "29.936757973332778",
      "longitude": "-90.06963753700248"
    }
  },
  {
    "service_request": "2022-910144",
    "request_type": "Property Maintenance",
    "request_reason": "Property Maintenance",
    "date_created": "2022-08-15T15:13:17.000",
    "date_modified": "2022-08-15T15:13:17.000",
    "request_status": "Pending",
    "responsible_agency": "Department of Code Enforcement",
    "final_address": "85 Allard Blvd",
    "address_councildis": "A",
    "status": "Pending",
    "rowid": "910144",
    "final_x": "3672766.23892",
    "final_y": "540290.684107",
    "longitude": "-90.09534922910164",
    "latitude": "29.97987439942383",
    "geocoded_column": {
      "latitude": "29.97987439942383",
      "longitude": "-90.09534922910164"
    }
  },
  {
    "service_request": "2022-910143",
    "request_type": "Parks & Parkways",
    "request_reason": "Request Grass Cutting Service (City Owned Property)",
    "date_created": "2022-08-15T15:10:40.000",
    "date_modified": "2022-08-15T15:10:40.000",
    "request_status": "Pending",
    "responsible_agency": "Department of Parks & Parkway",
    "final_address": "7401 Read Blvd",
    "address_councildis": "E",
    "status": "Pending",
    "rowid": "910143",
    "final_x": "3709079.45572",
    "final_y": "563995.224545",
    "longitude": "-89.97977380896188",
    "latitude": "30.043923987873445",
    "geocoded_column": {
      "latitude": "30.043923987873445",
      "longitude": "-89.97977380896188"
    }
  },
  {
    "service_request": "2022-910142",
    "request_type": "Abandoned Vehicles",
    "request_reason": "Abandoned/Junk Vehicles",
    "date_created": "2022-08-15T15:10:00.000",
    "date_modified": "2022-08-15T15:10:50.000",
    "request_status": "Pending",
    "responsible_agency": "Department of Public Works",
    "final_address": "7530 Morel St",
    "address_councildis": "E",
    "status": "Pending",
    "rowid": "910142",
    "final_x": "3719095.83871",
    "final_y": "571453.938344",
    "longitude": "-89.94783299916979",
    "latitude": "30.064103220578456",
    "geocoded_column": {
      "latitude": "30.064103220578456",
      "longitude": "-89.94783299916979"
    }
  },
  {
    "service_request": "2022-910141",
    "request_type": "Traffic Signals/Signs/Striping/Streetlights",
    "request_reason": "Street Light Outage/Malfunction",
    "date_created": "2022-08-15T15:09:05.000",
    "date_modified": "2022-08-15T15:09:06.000",
    "request_status": "Pending",
    "responsible_agency": "Department of Public Works",
    "final_address": "5701 Canal Blvd",
    "address_councildis": "A",
    "status": "Pending",
    "contractor": "Legacy Professional Services",
    "rowid": "910141",
    "final_x": "3668431.73582",
    "final_y": "545460.056208",
    "longitude": "-90.1088649433518",
    "latitude": "29.994216466849256",
    "geocoded_column": {
      "latitude": "29.994216466849256",
      "longitude": "-90.1088649433518"
    }
  },
  {
    "service_request": "2022-910140",
    "request_type": "Traffic Signals/Signs/Striping/Streetlights",
    "request_reason": "Traffic Signal Malfunctioning/Damaged",
    "date_created": "2022-08-15T15:08:39.000",
    "date_modified": "2022-08-15T15:08:39.000",
    "request_status": "Pending",
    "responsible_agency": "Department of Public Works",
    "final_address": "65 Fontainebleau Dr",
    "address_councildis": "A",
    "status": "Pending",
    "rowid": "910140",
    "final_x": "3666736.24685",
    "final_y": "531139.893698",
    "longitude": "-90.11470187690455",
    "latitude": "29.954890519777674",
    "geocoded_column": {
      "latitude": "29.954890519777674",
      "longitude": "-90.11470187690455"
    }
  },
  {
    "service_request": "2022-910139",
    "request_type": "Trash/Recycling",
    "request_reason": "Illegal Dumping",
    "date_created": "2022-08-15T15:08:29.000",
    "date_modified": "2022-08-15T15:08:29.000",
    "request_status": "Pending",
    "responsible_agency": "Department of Sanitation",
    "final_address": "1423 St Philip St",
    "address_councildis": "C",
    "status": "Pending",
    "rowid": "910139",
    "final_x": "3681150.61519",
    "final_y": "534997.405254",
    "longitude": "-90.0690523984384",
    "latitude": "29.965067966244437",
    "geocoded_column": {
      "latitude": "29.965067966244437",
      "longitude": "-90.0690523984384"
    }
  },
  {
    "service_request": "2022-910138",
    "request_type": "Traffic Signals/Signs/Striping/Streetlights",
    "request_reason": "Street Light Outage/Malfunction",
    "date_created": "2022-08-15T15:07:24.000",
    "date_modified": "2022-08-15T15:07:25.000",
    "request_status": "Pending",
    "responsible_agency": "Department of Public Works",
    "final_address": "7548 Avalon Way",
    "address_councildis": "E",
    "status": "Pending",
    "contractor": "Legacy Professional Services",
    "rowid": "910138",
    "final_x": "3709167.65073",
    "final_y": "564259.161889",
    "longitude": "-89.9794852206957",
    "latitude": "30.044646844952634",
    "geocoded_column": {
      "latitude": "30.044646844952634",
      "longitude": "-89.9794852206957"
    }
  },
  {
    "service_request": "2022-910137",
    "request_type": "Trash/Recycling",
    "request_reason": "Replace Trash Cart",
    "date_created": "2022-08-15T15:07:08.000",
    "date_modified": "2022-08-15T15:07:09.000",
    "request_status": "Pending",
    "responsible_agency": "Department of Sanitation",
    "final_address": "2656 Hyman Pl",
    "address_councildis": "C",
    "status": "Assigned to Contractor",
    "contractor": "Richards Disposal",
    "rowid": "910137",
    "final_x": "3701105.29233",
    "final_y": "521186.602041",
    "longitude": "-90.00654210282562",
    "latitude": "29.926472633087375",
    "geocoded_column": {
      "latitude": "29.926472633087375",
      "longitude": "-90.00654210282562"
    }
  },
  {
    "service_request": "2022-910136",
    "request_type": "Traffic Signals/Signs/Striping/Streetlights",
    "request_reason": "Street Light Outage/Malfunction",
    "date_created": "2022-08-15T15:06:12.000",
    "date_modified": "2022-08-15T15:06:13.000",
    "request_status": "Pending",
    "responsible_agency": "Department of Public Works",
    "final_address": "MARTIN LUTHER KING JR BLVD & S GALVEZ ST & JACKSON AVE",
    "address_councildis": "B",
    "status": "Pending",
    "contractor": "Legacy Professional Services",
    "rowid": "910136",
    "final_x": "3673580.1",
    "final_y": "529021.78",
    "longitude": "-90.09316393532373",
    "latitude": "29.948864496224587",
    "geocoded_column": {
      "latitude": "29.948864496224587",
      "longitude": "-90.09316393532373"
    }
  },
  {
    "service_request": "2022-910135",
    "request_type": "Roads/Drainage",
    "request_reason": "Catch Basin - Broken/Damage",
    "date_created": "2022-08-15T15:04:02.000",
    "date_modified": "2022-08-15T15:04:02.000",
    "request_status": "Pending",
    "responsible_agency": "Department of Public Works",
    "final_address": "3103 Toulouse St",
    "address_councildis": "A",
    "status": "Pending",
    "rowid": "910135",
    "final_x": "3675163.26785",
    "final_y": "537584.634376",
    "longitude": "-90.08787131515871",
    "latitude": "29.972362259866248",
    "geocoded_column": {
      "latitude": "29.972362259866248",
      "longitude": "-90.08787131515871"
    }
  },
  {
    "service_request": "2022-910134",
    "request_type": "Safety & Permits",
    "request_reason": "Licenses & Permits",
    "date_created": "2022-08-15T15:03:41.000",
    "date_modified": "2022-08-15T15:03:41.000",
    "request_status": "Pending",
    "responsible_agency": "Safety and Permits",
    "status": "Pending",
    "rowid": "910134",
    "longitude": "0.0",
    "latitude": "0.0",
    "geocoded_column": {
      "latitude": "0.0",
      "longitude": "0.0"
    }
  },
  {
    "service_request": "2022-910133",
    "request_type": "Traffic Signals/Signs/Striping/Streetlights",
    "request_reason": "Street Light Outage/Malfunction",
    "date_created": "2022-08-15T15:01:16.000",
    "date_modified": "2022-08-15T15:01:16.000",
    "request_status": "Pending",
    "responsible_agency": "Department of Public Works",
    "final_address": "2426 S Galvez St",
    "address_councildis": "B",
    "status": "Pending",
    "contractor": "Legacy Professional Services",
    "rowid": "910133",
    "final_x": "3673140.12737",
    "final_y": "528659.989696",
    "longitude": "-90.09456547038725",
    "latitude": "29.947882778455153",
    "geocoded_column": {
      "latitude": "29.947882778455153",
      "longitude": "-90.09456547038725"
    }
  },
  {
    "service_request": "2022-910132",
    "request_type": "Traffic Signals/Signs/Striping/Streetlights",
    "request_reason": "Road Surface Marking Maintenance-Traffic Control",
    "date_created": "2022-08-15T15:00:03.000",
    "date_modified": "2022-08-15T15:00:03.000",
    "request_status": "Pending",
    "responsible_agency": "Department of Public Works",
    "final_address": "6321 Freret St",
    "address_councildis": "A",
    "status": "Pending",
    "rowid": "910132",
    "final_x": "3665489.18816",
    "final_y": "524920.239548",
    "longitude": "-90.11884779034419",
    "latitude": "29.937824886079497",
    "geocoded_column": {
      "latitude": "29.937824886079497",
      "longitude": "-90.11884779034419"
    }
  },
  {
    "service_request": "2022-910131",
    "request_type": "Roads/Drainage",
    "request_reason": "Debris in Roadway",
    "date_created": "2022-08-15T14:59:52.000",
    "date_modified": "2022-08-15T14:59:52.000",
    "request_status": "Pending",
    "responsible_agency": "Department of Public Works",
    "final_address": "2600 First St",
    "address_councildis": "B",
    "status": "Pending",
    "rowid": "910131",
    "final_x": "3674905.86145",
    "final_y": "526246.258494",
    "longitude": "-90.08907309321103",
    "latitude": "29.941193205394665",
    "geocoded_column": {
      "latitude": "29.941193205394665",
      "longitude": "-90.08907309321103"
    }
  },
  {
    "service_request": "2022-910130",
    "request_type": "Traffic Signals/Signs/Striping/Streetlights",
    "request_reason": "Street Light Outage/Malfunction",
    "date_created": "2022-08-15T14:58:33.000",
    "date_modified": "2022-08-15T14:58:34.000",
    "request_status": "Pending",
    "responsible_agency": "Department of Public Works",
    "final_address": "4915 Magazine St",
    "address_councildis": "B",
    "status": "Pending",
    "contractor": "Legacy Professional Services",
    "rowid": "910130",
    "final_x": "3668864.81793",
    "final_y": "518649.618871",
    "longitude": "-90.10840225440815",
    "latitude": "29.920483867726038",
    "geocoded_column": {
      "latitude": "29.920483867726038",
      "longitude": "-90.10840225440815"
    }
  },
  {
    "service_request": "2022-910129",
    "request_type": "Traffic Signals/Signs/Striping/Streetlights",
    "request_reason": "Street Light Outage/Malfunction",
    "date_created": "2022-08-15T14:58:06.000",
    "date_modified": "2022-08-15T14:58:07.000",
    "request_status": "Pending",
    "responsible_agency": "Department of Public Works",
    "final_address": "7548 Avalon Way",
    "address_councildis": "E",
    "status": "Pending",
    "contractor": "Legacy Professional Services",
    "rowid": "910129",
    "final_x": "3709167.65073",
    "final_y": "564259.161889",
    "longitude": "-89.9794852206957",
    "latitude": "30.044646844952634",
    "geocoded_column": {
      "latitude": "30.044646844952634",
      "longitude": "-89.9794852206957"
    }
  },
  {
    "service_request": "2022-910127",
    "request_type": "Roads/Drainage",
    "request_reason": "Alley Way",
    "date_created": "2022-08-15T14:56:42.000",
    "date_modified": "2022-08-15T14:56:42.000",
    "request_status": "Pending",
    "responsible_agency": "Department of Public Works",
    "final_address": "6712 Orleans Ave",
    "address_councildis": "A",
    "status": "Pending",
    "rowid": "910127",
    "final_x": "3671237.72161",
    "final_y": "552015.740246",
    "longitude": "-90.0997782526155",
    "latitude": "30.01215955701992",
    "geocoded_column": {
      "latitude": "30.01215955701992",
      "longitude": "-90.0997782526155"
    }
  },
  {
    "service_request": "2022-910126",
    "request_type": "Trash/Recycling",
    "request_reason": "Request a Large Item Pick Up",
    "date_created": "2022-08-15T14:55:46.000",
    "date_modified": "2022-08-15T14:55:47.000",
    "request_status": "Pending",
    "responsible_agency": "Department of Sanitation",
    "final_address": "3000 Saint Ann St, New Orleans, Louisiana, 70119",
    "status": "Assigned to Contractor",
    "rowid": "910126",
    "longitude": "0.0",
    "latitude": "0.0",
    "geocoded_column": {
      "latitude": "0.0",
      "longitude": "0.0"
    }
  },
  {
    "service_request": "2022-910125",
    "request_type": "Parks & Parkways",
    "request_reason": "Request Tree Service (Right of Way/Public Property)",
    "date_created": "2022-08-15T14:55:36.000",
    "date_modified": "2022-08-15T15:00:33.000",
    "request_status": "Pending",
    "responsible_agency": "Department of Parks & Parkway",
    "final_address": "4919 Magazine St",
    "address_councildis": "B",
    "status": "Pending",
    "rowid": "910125",
    "final_x": "3668795.43508",
    "final_y": "518639.690679",
    "longitude": "-90.10862159926621",
    "latitude": "29.920458607640075",
    "geocoded_column": {
      "latitude": "29.920458607640075",
      "longitude": "-90.10862159926621"
    }
  },
  {
    "service_request": "2022-910124",
    "request_type": "Trash/Recycling",
    "request_reason": "Replace Trash Cart",
    "date_created": "2022-08-15T14:53:05.000",
    "date_modified": "2022-08-15T14:53:06.000",
    "request_status": "Pending",
    "responsible_agency": "Department of Sanitation",
    "final_address": "3440 Annunciation St",
    "address_councildis": "B",
    "status": "Assigned to Contractor",
    "contractor": "Richards Disposal",
    "rowid": "910124",
    "final_x": "3675151.69825",
    "final_y": "518442.889206",
    "longitude": "-90.08856457704992",
    "latitude": "29.919729129431687",
    "geocoded_column": {
      "latitude": "29.919729129431687",
      "longitude": "-90.08856457704992"
    }
  },
  {
    "service_request": "2022-910123",
    "request_type": "Roads/Drainage",
    "request_reason": "Pothole",
    "date_created": "2022-08-15T14:52:02.000",
    "date_modified": "2022-08-15T14:52:03.000",
    "request_status": "Pending",
    "responsible_agency": "Department of Public Works",
    "final_address": "JACKSON AVE & LAUREL ST",
    "address_councildis": "B",
    "status": "Pending",
    "rowid": "910123",
    "final_x": "3679319.5",
    "final_y": "521512.58",
    "longitude": "-90.07530249333445",
    "latitude": "29.928044626533087",
    "geocoded_column": {
      "latitude": "29.928044626533087",
      "longitude": "-90.07530249333445"
    }
  },
  {
    "service_request": "2022-910122",
    "request_type": "Abandoned Vehicles",
    "request_reason": "Abandoned/Junk Vehicles",
    "date_created": "2022-08-15T14:51:13.000",
    "date_modified": "2022-08-15T14:51:26.000",
    "request_status": "Pending",
    "responsible_agency": "Department of Public Works",
    "final_address": "6700 Bundy Rd",
    "address_councildis": "E",
    "status": "Inspected",
    "rowid": "910122",
    "final_x": "3707873.14872",
    "final_y": "559000.702684",
    "longitude": "-89.9837721485914",
    "latitude": "30.030230157086496",
    "geocoded_column": {
      "latitude": "30.030230157086496",
      "longitude": "-89.9837721485914"
    }
  },
  {
    "service_request": "2022-910121",
    "request_type": "Traffic Signals/Signs/Striping/Streetlights",
    "request_reason": "Traffic Signal Malfunctioning/Damaged",
    "date_created": "2022-08-15T14:50:23.000",
    "date_modified": "2022-08-15T14:50:23.000",
    "request_status": "Pending",
    "responsible_agency": "Department of Public Works",
    "final_address": "7 Mcalister Dr",
    "address_councildis": "A",
    "status": "Pending",
    "rowid": "910121",
    "final_x": "3664914.93696",
    "final_y": "524951.676093",
    "longitude": "-90.12065970515542",
    "latitude": "29.93792805004395",
    "geocoded_column": {
      "latitude": "29.93792805004395",
      "longitude": "-90.12065970515542"
    }
  },
  {
    "service_request": "2022-910120",
    "request_type": "Trash/Recycling",
    "request_reason": "Illegal Dumping",
    "date_created": "2022-08-15T14:49:22.000",
    "date_modified": "2022-08-15T14:49:22.000",
    "request_status": "Pending",
    "responsible_agency": "Department of Sanitation",
    "final_address": "4317 Dryades St",
    "address_councildis": "B",
    "status": "Pending",
    "rowid": "910120",
    "final_x": "3670978.82286",
    "final_y": "522038.916154",
    "longitude": "-90.101614310199",
    "latitude": "29.929741043765045",
    "geocoded_column": {
      "latitude": "29.929741043765045",
      "longitude": "-90.101614310199"
    }
  },
  {
    "service_request": "2022-910119",
    "request_type": "Trash/Recycling",
    "request_reason": "Request a Large Item Pick Up",
    "date_created": "2022-08-15T14:49:17.000",
    "date_modified": "2022-08-15T14:49:17.000",
    "request_status": "Pending",
    "responsible_agency": "Department of Sanitation",
    "final_address": "1408 St Bernard Ave",
    "address_councildis": "C",
    "status": "Assigned to Contractor",
    "contractor": "Metro Disposal",
    "rowid": "910119",
    "final_x": "3682481.09359",
    "final_y": "537187.928712",
    "longitude": "-90.06477424386335",
    "latitude": "29.971050718339253",
    "geocoded_column": {
      "latitude": "29.971050718339253",
      "longitude": "-90.06477424386335"
    }
  },
  {
    "service_request": "2022-910118",
    "request_type": "Abandoned Vehicles",
    "request_reason": "Abandoned/Junk Vehicles",
    "date_created": "2022-08-15T14:49:15.000",
    "date_modified": "2022-08-15T14:49:15.000",
    "request_status": "Pending",
    "responsible_agency": "Department of Public Works",
    "final_address": "2400 Magnolia St",
    "address_councildis": "B",
    "status": "Pending",
    "rowid": "910118",
    "final_x": "3674767.72238",
    "final_y": "526451.215422",
    "longitude": "-90.0895022004695",
    "latitude": "29.941760893576593",
    "geocoded_column": {
      "latitude": "29.941760893576593",
      "longitude": "-90.0895022004695"
    }
  },
  {
    "service_request": "2022-910117",
    "request_type": "Trash/Recycling",
    "request_reason": "MIssed Recycling Pick-Up",
    "date_created": "2022-08-15T14:47:45.000",
    "date_modified": "2022-08-15T14:47:46.000",
    "request_status": "Pending",
    "responsible_agency": "Department of Sanitation",
    "final_address": "6600 Peony St",
    "address_councildis": "C",
    "status": "Assigned to Contractor",
    "contractor": "Richards Disposal",
    "rowid": "910117",
    "final_x": "3708071.22411",
    "final_y": "516465.260981",
    "longitude": "-89.98472820484612",
    "latitude": "29.9132669666957",
    "geocoded_column": {
      "latitude": "29.9132669666957",
      "longitude": "-89.98472820484612"
    }
  },
  {
    "service_request": "2022-910116",
    "request_type": "Traffic Signals/Signs/Striping/Streetlights",
    "request_reason": "Street Light Outage/Malfunction",
    "date_created": "2022-08-15T14:47:37.000",
    "date_modified": "2022-08-15T14:47:38.000",
    "request_status": "Pending",
    "responsible_agency": "Department of Public Works",
    "final_address": "425 Fairway Dr",
    "address_councildis": "A",
    "status": "Pending",
    "contractor": "Legacy Professional Services",
    "rowid": "910116",
    "final_x": "3664352.28141",
    "final_y": "542522.283981",
    "longitude": "-90.12184956516329",
    "latitude": "29.986257825966643",
    "geocoded_column": {
      "latitude": "29.986257825966643",
      "longitude": "-90.12184956516329"
    }
  },
  {
    "service_request": "2022-910115",
    "request_type": "Trash/Recycling",
    "request_reason": "Missed Trash Pick-Up",
    "date_created": "2022-08-15T14:47:13.000",
    "date_modified": "2022-08-15T14:47:14.000",
    "request_status": "Pending",
    "responsible_agency": "Department of Sanitation",
    "final_address": "1923 Painters St",
    "address_councildis": "D",
    "status": "Assigned to Contractor",
    "contractor": "Metro Disposal",
    "rowid": "910115",
    "final_x": "3687402.64828",
    "final_y": "539641.265738",
    "longitude": "-90.04914452836076",
    "latitude": "29.977645796152917",
    "geocoded_column": {
      "latitude": "29.977645796152917",
      "longitude": "-90.04914452836076"
    }
  },
  {
    "service_request": "2022-910114",
    "request_type": "Trash/Recycling",
    "request_reason": "Replace Trash Cart",
    "date_created": "2022-08-15T14:46:45.000",
    "date_modified": "2022-08-15T14:46:46.000",
    "request_status": "Pending",
    "responsible_agency": "Department of Sanitation",
    "final_address": "631 Aurora Oaks Dr",
    "address_councildis": "C",
    "status": "Assigned to Contractor",
    "contractor": "Richards Disposal",
    "rowid": "910114",
    "final_x": "3701230.47498",
    "final_y": "520534.17548",
    "longitude": "-90.00617079303574",
    "latitude": "29.92467469878807",
    "geocoded_column": {
      "latitude": "29.92467469878807",
      "longitude": "-90.00617079303574"
    }
  },
  {
    "service_request": "2022-910113",
    "request_type": "Roads/Drainage",
    "request_reason": "Pothole",
    "date_created": "2022-08-15T14:45:39.000",
    "date_modified": "2022-08-15T14:45:40.000",
    "request_status": "Pending",
    "responsible_agency": "Department of Public Works",
    "final_address": "2038 Andry St",
    "address_councildis": "E",
    "status": "Pending",
    "rowid": "910113",
    "final_x": "3698121.58807",
    "final_y": "537626.411272",
    "longitude": "-90.01536385526514",
    "latitude": "29.97177099988176",
    "geocoded_column": {
      "latitude": "29.97177099988176",
      "longitude": "-90.01536385526514"
    }
  },
  {
    "service_request": "2022-910112",
    "request_type": "Traffic Signals/Signs/Striping/Streetlights",
    "request_reason": "Traffic Signal Malfunctioning/Damaged",
    "date_created": "2022-08-15T14:45:14.000",
    "date_modified": "2022-08-15T14:45:14.000",
    "request_status": "Pending",
    "responsible_agency": "Department of Public Works",
    "final_address": "6321 Freret St",
    "address_councildis": "A",
    "status": "Pending",
    "rowid": "910112",
    "final_x": "3665489.18816",
    "final_y": "524920.239548",
    "longitude": "-90.11884779034419",
    "latitude": "29.937824886079497",
    "geocoded_column": {
      "latitude": "29.937824886079497",
      "longitude": "-90.11884779034419"
    }
  },