[
  {
    "service_request": "2025-1222874",
    "request_type": "Safety & Permits",
    "request_reason": "Licenses & Permits",
    "date_created": "2025-09-01T23:25:15.000",
    "date_modified": "2025-09-01T23:25:18.000",
    "request_status": "Pending",
    "responsible_agency": "Safety and Permits",
    "final_address": "5530 Willow St",
    "address_councildis": "A",
    "status": "Pending",
    "rowid": "1222874",
    "final_x": "3667642.75207",
    "final_y": "525376.073405",
    "longitude": "-90.11203345269419",
    "latitude": "29.939015343587098",
    "geocoded_column": {
      "latitude": "29.939015343587098",
      "longitude": "-90.11203345269419"
    }
  },
  {
    "service_request": "2025-1222873",
    "request_type": "Healthy Homes",
    "request_reason": "Healthy Homes",
    "date_created": "2025-09-01T23:17:28.000",
    "date_modified": "2025-09-01T23:17:32.000",
    "request_status": "Pending",
    "responsible_agency": "Department of Code Enforcement",
    "final_address": "5601 Paris Ave",
    "address_councildis": "D",
    "status": "Pending",
    "rowid": "1222873",
    "final_x": "3679204.602",
    "final_y": "553001.421079",
    "longitude": "-90.07457321012278",
    "latitude": "30.014631587891266",
    "geocoded_column": {
      "latitude": "30.014631587891266",
      "longitude": "-90.07457321012278"
    }
  },
  {
    "service_request": "2025-1222872",
    "request_type": "General Services",
    "request_reason": "General Service Request",
    "date_created": "2025-09-01T23:06:10.000",
    "date_modified": "2025-09-01T23:06:12.000",
    "request_status": "Pending",
    "responsible_agency": "Orleans Parish Communication District",
    "final_address": "2511 Banks St",
    "address_councildis": "B",
    "status": "Pending",
    "rowid": "1222872",
    "final_x": "3675362.61691",
    "final_y": "533668.913093",
    "longitude": "-90.08737620593153",
    "latitude": "29.961589392095338",
    "geocoded_column": {
      "latitude": "29.961589392095338",
      "longitude": "-90.08737620593153"
    }
  },
  {
    "service_request": "2025-1222871",
    "request_type": "Streetlights",
    "request_reason": "Streetlight Outage/Malfunction",
    "date_created": "2025-09-01T22:28:03.000",
    "date_modified": "2025-09-01T22:28:04.000",
    "request_status": "Pending",
    "responsible_agency": "Department of Public Works",
    "final_address": "4701 Warrington Dr",
    "address_councildis": "D",
    "status": "Pending",
    "rowid": "1222871",
    "final_x": "3681182.53775",
    "final_y": "549789.528404",
    "longitude": "-90.06843592605404",
    "latitude": "30.00574014860179",
    "geocoded_column": {
      "latitude": "30.00574014860179",
      "longitude": "-90.06843592605404"
    }
  },
  {
    "service_request": "2025-1222870",
    "request_type": "Streetlights",
    "request_reason": "Streetlight Knocked Down/Leaning",
    "date_created": "2025-09-01T22:26:36.000",
    "date_modified": "2025-09-01T22:26:38.000",
    "request_status": "Pending",
    "responsible_agency": "Department of Public Works",
    "final_address": "4701 Warrington Dr",
    "address_councildis": "D",
    "status": "Pending",
    "rowid": "1222870",
    "final_x": "3681182.53775",
    "final_y": "549789.528404",
    "longitude": "-90.06843592605404",
    "latitude": "30.00574014860179",
    "geocoded_column": {
      "latitude": "30.00574014860179",
      "longitude": "-90.06843592605404"
    }
  },
  {
    "service_request": "2025-1222869",
    "request_type": "Trash/Recycling",
    "request_reason": "Request a Large Item Pick Up",
    "date_created": "2025-09-01T21:27:20.000",
    "date_modified": "2025-09-01T21:27:23.000",
    "request_status": "Pending",
    "responsible_agency": "Department of Sanitation",
    "final_address": "8551 Huntington Park Dr",
    "address_councildis": "E",
    "status": "Assigned to Contractor",
    "contractor": "Waste Pro",
    "rowid": "1222869",
    "final_x": "3705328.02462",
    "final_y": "560272.266141",
    "longitude": "-89.991767646262",
    "latitude": "30.03380863667343",
    "geocoded_column": {
      "latitude": "30.03380863667343",
      "longitude": "-89.991767646262"
    }
  },
  {
    "service_request": "2025-1222868",
    "request_type": "Trash/Recycling",
    "request_reason": "Missed Trash Pick-Up",
    "date_created": "2025-09-01T21:21:39.000",
    "date_modified": "2025-09-01T21:21:41.000",
    "request_status": "Pending",
    "responsible_agency": "Department of Sanitation",
    "final_address": "13652 N Cavelier Dr",
    "address_councildis": "E",
    "status": "Assigned to Contractor",
    "contractor": "Waste Pro",
    "rowid": "1222868",
    "final_x": "3724065.73727",
    "final_y": "570056.767591",
    "longitude": "-89.93217698357395",
    "latitude": "30.060095419917687",
    "geocoded_column": {
      "latitude": "30.060095419917687",
      "longitude": "-89.93217698357395"
    }
  },
  {
    "service_request": "2025-1222867",
    "request_type": "Trash/Recycling",
    "request_reason": "Request a Large Item Pick Up",
    "date_created": "2025-09-01T20:29:00.000",
    "date_modified": "2025-09-01T20:29:03.000",
    "request_status": "Pending",
    "responsible_agency": "Department of Sanitation",
    "final_address": "3920 Annunciation St",
    "address_councildis": "B",
    "status": "Assigned to Contractor",
    "contractor": "IV Waste",
    "rowid": "1222867",
    "final_x": "3673171.54939",
    "final_y": "517908.574326",
    "longitude": "-90.0948331748861",
    "latitude": "29.91831893388864",
    "geocoded_column": {
      "latitude": "29.91831893388864",
      "longitude": "-90.0948331748861"
    }
  },
  {
    "service_request": "2025-1222866",
    "request_type": "Trash/Recycling",
    "request_reason": "Request a Large Item Pick Up",
    "date_created": "2025-09-01T20:19:55.000",
    "date_modified": "2025-09-01T20:19:58.000",
    "request_status": "Pending",
    "responsible_agency": "Department of Sanitation",
    "final_address": "4510 Pauger St",
    "address_councildis": "D",
    "status": "Assigned to Contractor",
    "contractor": "IV Waste",
    "rowid": "1222866",
    "final_x": "3682752.24584",
    "final_y": "549240.363987",
    "longitude": "-90.06349608854258",
    "latitude": "30.004182404845174",
    "geocoded_column": {
      "latitude": "30.004182404845174",
      "longitude": "-90.06349608854258"
    }
  },
  {
    "service_request": "2025-1222865",
    "request_type": "Trash/Recycling",
    "request_reason": "Request a Large Item Pick Up",
    "date_created": "2025-09-01T19:52:09.000",
    "date_modified": "2025-09-01T19:52:11.000",
    "request_status": "Pending",
    "responsible_agency": "Department of Sanitation",
    "final_address": "3615 Elysian Fields Ave",
    "address_councildis": "D",
    "status": "Assigned to Contractor",
    "contractor": "IV Waste",
    "rowid": "1222865",
    "final_x": "3684377.11714",
    "final_y": "546015.30152",
    "longitude": "-90.0584761911619",
    "latitude": "29.99526502865968",
    "geocoded_column": {
      "latitude": "29.99526502865968",
      "longitude": "-90.0584761911619"
    }
  },
  {
    "service_request": "2025-1222864",
    "request_type": "General Services",
    "request_reason": "General Service Request",
    "date_created": "2025-09-01T19:45:47.000",
    "date_modified": "2025-09-01T19:45:49.000",
    "request_status": "Pending",
    "responsible_agency": "Orleans Parish Communication District",
    "final_address": "3328 Vincennes Pl, New Orleans, Louisiana, 70125",
    "address_councildis": "A",
    "status": "Pending",
    "rowid": "1222864",
    "final_x": "3667881.42829",
    "final_y": "528404.954944",
    "longitude": "-90.11117792673241",
    "latitude": "29.947336791641188",
    "geocoded_column": {
      "latitude": "29.947336791641188",
      "longitude": "-90.11117792673241"
    }
  },
  {
    "service_request": "2025-1222863",
    "request_type": "Trash/Recycling",
    "request_reason": "Request a Large Item Pick Up",
    "date_created": "2025-09-01T19:22:25.000",
    "date_modified": "2025-09-01T19:22:27.000",
    "request_status": "Pending",
    "responsible_agency": "Department of Sanitation",
    "final_address": "783 Jewel St",
    "address_councildis": "D",
    "status": "Assigned to Contractor",
    "contractor": "IV Waste",
    "rowid": "1222863",
    "final_x": "3670139.83994",
    "final_y": "555977.350617",
    "longitude": "-90.10311256472204",
    "latitude": "30.023085031616354",
    "geocoded_column": {
      "latitude": "30.023085031616354",
      "longitude": "-90.10311256472204"
    }
  },
  {
    "service_request": "2025-1222862",
    "request_type": "Trash/Recycling",
    "request_reason": "Order Recycling Cart",
    "date_created": "2025-09-01T19:22:15.000",
    "date_modified": "2025-09-01T19:22:16.000",
    "request_status": "Pending",
    "responsible_agency": "Department of Sanitation",
    "final_address": "105 Brunswick Ct",
    "address_councildis": "C",
    "status": "Pending",
    "rowid": "1222862",
    "final_x": "3705719.5427",
    "final_y": "516976.637493",
    "longitude": "-89.99213187306889",
    "latitude": "29.91474897250017",
    "geocoded_column": {
      "latitude": "29.91474897250017",
      "longitude": "-89.99213187306889"
    }
  },
  {
    "service_request": "2025-1222861",
    "request_type": "Trash/Recycling",
    "request_reason": "Order Recycling Cart",
    "date_created": "2025-09-01T19:21:14.000",
    "date_modified": "2025-09-01T19:21:16.000",
    "request_status": "Pending",
    "responsible_agency": "Department of Sanitation",
    "final_address": "1662 Abundance St",
    "address_councildis": "D",
    "status": "Pending",
    "rowid": "1222861",
    "final_x": "3680434.6525",
    "final_y": "543303.392334",
    "longitude": "-90.07102440727711",
    "latitude": "29.987928255139828",
    "geocoded_column": {
      "latitude": "29.987928255139828",
      "longitude": "-90.07102440727711"
    }
  },
  {
    "service_request": "2025-1222860",
    "request_type": "Property Maintenance",
    "request_reason": "Property Maintenance",
    "date_created": "2025-09-01T19:17:46.000",
    "date_modified": "2025-09-01T19:17:48.000",
    "request_status": "Pending",
    "responsible_agency": "Department of Code Enforcement",
    "final_address": "4231 Hollygrove St",
    "address_councildis": "A",
    "status": "Pending",
    "rowid": "1222860",
    "final_x": "3666981.6546",
    "final_y": "538553.377737",
    "longitude": "-90.1136777994218",
    "latitude": "29.975267969102116",
    "geocoded_column": {
      "latitude": "29.975267969102116",
      "longitude": "-90.1136777994218"
    }
  },
  {
    "service_request": "2025-1222859",
    "request_type": "Trash/Recycling",
    "request_reason": "Replace Recycling Cart",
    "date_created": "2025-09-01T19:10:36.000",
    "date_modified": "2025-09-01T19:10:38.000",
    "request_status": "Pending",
    "responsible_agency": "Department of Sanitation",
    "final_address": "2000 Valentine Ct",
    "address_councildis": "C",
    "status": "Pending",
    "rowid": "1222859",
    "final_x": "3699807.24663",
    "final_y": "523984.55366",
    "longitude": "-90.0105376824472",
    "latitude": "29.934207298272508",
    "geocoded_column": {
      "latitude": "29.934207298272508",
      "longitude": "-90.0105376824472"
    }
  },
  {
    "service_request": "2025-1222858",
    "request_type": "Trash/Recycling",
    "request_reason": "Request a Large Item Pick Up",
    "date_created": "2025-09-01T18:41:28.000",
    "date_modified": "2025-09-01T18:41:30.000",
    "request_status": "Pending",
    "responsible_agency": "Department of Sanitation",
    "final_address": "4713 Marjorie Ln",
    "address_councildis": "D",
    "status": "Assigned to Contractor",
    "contractor": "IV Waste",
    "rowid": "1222858",
    "final_x": "3678503.53262",
    "final_y": "549930.970772",
    "longitude": "-90.07689462277085",
    "latitude": "30.006210109483792",
    "geocoded_column": {
      "latitude": "30.006210109483792",
      "longitude": "-90.07689462277085"
    }
  },
  {
    "service_request": "2025-1222857",
    "request_type": "Roads and Streets",
    "request_reason": "Pothole",
    "date_created": "2025-09-01T18:21:33.000",
    "date_modified": "2025-09-01T18:21:34.000",
    "request_status": "Pending",
    "responsible_agency": "Department of Public Works",
    "final_address": "5606 LaFaye Street",
    "address_councildis": "D",
    "status": "Pending",
    "rowid": "1222857",
    "final_x": "3687201.30703",
    "final_y": "553801.955927",
    "longitude": "-90.04927924126815",
    "latitude": "30.01658879056386",
    "geocoded_column": {
      "latitude": "30.01658879056386",
      "longitude": "-90.04927924126815"
    }
  },
  {
    "service_request": "2025-1222856",
    "request_type": "Parks & Parkways",
    "request_reason": "Request Tree Service (Right of Way/Public Property)",
    "date_created": "2025-09-01T18:17:55.000",
    "date_modified": "2025-09-01T18:17:57.000",
    "request_status": "Pending",
    "responsible_agency": "Department of Parks & Parkway",
    "final_address": "3118 Frenchmen St",
    "address_councildis": "D",
    "status": "Pending",
    "rowid": "1222856",
    "final_x": "3683900.50895",
    "final_y": "544167.662606",
    "longitude": "-90.0600466027088",
    "latitude": "29.990199251320387",
    "geocoded_column": {
      "latitude": "29.990199251320387",
      "longitude": "-90.0600466027088"
    }
  },
  {
    "service_request": "2025-1222855",
    "request_type": "Trash/Recycling",
    "request_reason": "Request a Large Item Pick Up",
    "date_created": "2025-09-01T18:11:35.000",
    "date_modified": "2025-09-01T18:11:37.000",
    "request_status": "Pending",
    "responsible_agency": "Department of Sanitation",
    "final_address": "4634 Sandalwood St",
    "address_councildis": "E",
    "status": "Assigned to Contractor",
    "contractor": "Waste Pro",
    "rowid": "1222855",
    "final_x": "3712221.32939",
    "final_y": "555477.479577",
    "longitude": "-89.9701644629762",
    "latitude": "30.020401151863343",
    "geocoded_column": {
      "latitude": "30.020401151863343",
      "longitude": "-89.9701644629762"
    }
  },
  {
    "service_request": "2025-1222854",
    "request_type": "Trash/Recycling",
    "request_reason": "Request a Large Item Pick Up",
    "date_created": "2025-09-01T17:38:57.000",
    "date_modified": "2025-09-01T17:39:00.000",
    "request_status": "Pending",
    "responsible_agency": "Department of Sanitation",
    "final_address": "14507 Beekman Rd",
    "address_councildis": "E",
    "status": "Assigned to Contractor",
    "contractor": "Waste Pro",
    "rowid": "1222854",
    "final_x": "3720766.15442",
    "final_y": "572845.040617",
    "longitude": "-89.94249969168273",
    "latitude": "30.067872527208547",
    "geocoded_column": {
      "latitude": "30.067872527208547",
      "longitude": "-89.94249969168273"
    }
  },
  {
    "service_request": "2025-1222853",
    "request_type": "Trash/Recycling",
    "request_reason": "Request a Large Item Pick Up",
    "date_created": "2025-09-01T17:36:32.000",
    "date_modified": "2025-09-01T17:36:34.000",
    "request_status": "Pending",
    "responsible_agency": "Department of Sanitation",
    "final_address": "722 Belleville St",
    "address_councildis": "C",
    "status": "Assigned to Contractor",
    "contractor": "Richards Disposal",
    "rowid": "1222853",
    "final_x": "3687856.09635",
    "final_y": "528892.767296",
    "longitude": "-90.04809316187752",
    "latitude": "29.948077177122965",
    "geocoded_column": {
      "latitude": "29.948077177122965",
      "longitude": "-90.04809316187752"
    }
  },
  {
    "service_request": "2025-1222852",
    "request_type": "Streetlights",
    "request_reason": "Streetlight Outage/Malfunction",
    "date_created": "2025-09-01T17:22:51.000",
    "date_modified": "2025-09-01T17:22:53.000",
    "request_status": "Pending",
    "responsible_agency": "Department of Public Works",
    "final_address": "6510 Spanish Fort Blvd",
    "address_councildis": "D",
    "status": "Pending",
    "rowid": "1222852",
    "final_x": "3673914.70376",
    "final_y": "556103.13897",
    "longitude": "-90.09118049792606",
    "latitude": "30.02331892540832",
    "geocoded_column": {
      "latitude": "30.02331892540832",
      "longitude": "-90.09118049792606"
    }
  },
  {
    "service_request": "2025-1222851",
    "request_type": "Abandoned Vehicles",
    "request_reason": "Abandoned/Junk Vehicles",
    "date_created": "2025-09-01T17:11:00.000",
    "date_modified": "2025-09-01T17:11:03.000",
    "request_status": "Pending",
    "responsible_agency": "Department of Public Works",
    "final_address": "102 Hathaway Pl, New Orleans, Louisiana, 70119",
    "address_councildis": "D",
    "status": "Pending",
    "rowid": "1222851",
    "final_x": "3678342.86901",
    "final_y": "543799.168782",
    "longitude": "-90.0776144936951",
    "latitude": "29.98935466419275",
    "geocoded_column": {
      "latitude": "29.98935466419275",
      "longitude": "-90.0776144936951"
    }
  },
  {
    "service_request": "2025-1222850",
    "request_type": "Trash/Recycling",
    "request_reason": "Request a Large Item Pick Up",
    "date_created": "2025-09-01T17:04:06.000",
    "date_modified": "2025-09-01T17:04:08.000",
    "request_status": "Pending",
    "responsible_agency": "Department of Sanitation",
    "final_address": "7312 Onyx St",
    "address_councildis": "D",
    "status": "Assigned to Contractor",
    "contractor": "IV Waste",
    "rowid": "1222850",
    "final_x": "3668815.22522",
    "final_y": "555696.395609",
    "longitude": "-90.10730756759968",
    "latitude": "30.022351543176477",
    "geocoded_column": {
      "latitude": "30.022351543176477",
      "longitude": "-90.10730756759968"
    }
  },
  {
    "service_request": "2025-1222849",
    "request_type": "Roads and Streets",
    "request_reason": "Pothole",
    "date_created": "2025-09-01T16:55:54.000",
    "date_modified": "2025-09-01T16:55:55.000",
    "request_status": "Pending",
    "responsible_agency": "Department of Public Works",
    "final_address": "1022 Euterpe St",
    "address_councildis": "B",
    "status": "Pending",
    "rowid": "1222849",
    "final_x": "3680456.88277",
    "final_y": "524129.475516",
    "longitude": "-90.07162107396468",
    "latitude": "29.93520584206468",
    "geocoded_column": {
      "latitude": "29.93520584206468",
      "longitude": "-90.07162107396468"
    }
  },
  {
    "service_request": "2025-1222848",
    "request_type": "Trash/Recycling",
    "request_reason": "Request a Large Item Pick Up",
    "date_created": "2025-09-01T16:27:35.000",
    "date_modified": "2025-09-01T16:27:37.000",
    "request_status": "Pending",
    "responsible_agency": "Department of Sanitation",
    "final_address": "4938 Maid Marion Dr",
    "address_councildis": "E",
    "status": "Assigned to Contractor",
    "contractor": "Waste Pro",
    "rowid": "1222848",
    "final_x": "3716804.16268",
    "final_y": "557864.244763",
    "longitude": "-89.95559360390517",
    "latitude": "30.026813099106562",
    "geocoded_column": {
      "latitude": "30.026813099106562",
      "longitude": "-89.95559360390517"
    }
  },
  {
    "service_request": "2025-1222847",
    "request_type": "General Services",
    "request_reason": "General Service Request",
    "date_created": "2025-09-01T16:26:13.000",
    "date_modified": "2025-09-01T16:26:15.000",
    "request_status": "Pending",
    "responsible_agency": "Orleans Parish Communication District",
    "final_address": "4911 Friar Tuck Dr",
    "address_councildis": "E",
    "status": "Pending",
    "rowid": "1222847",
    "final_x": "3717715.79801",
    "final_y": "557760.492955",
    "longitude": "-89.95271691457673",
    "latitude": "30.02649765206411",
    "geocoded_column": {
      "latitude": "30.02649765206411",
      "longitude": "-89.95271691457673"
    }
  },
  {
    "service_request": "2025-1222846",
    "request_type": "Property Maintenance",
    "request_reason": "Property Maintenance",
    "date_created": "2025-09-01T16:06:43.000",
    "date_modified": "2025-09-01T16:06:44.000",
    "request_status": "Pending",
    "responsible_agency": "Department of Code Enforcement",
    "final_address": "5823 General Haig St",
    "address_councildis": "A",
    "status": "Pending",
    "rowid": "1222846",
    "final_x": "3670495.41748",
    "final_y": "545970.591696",
    "longitude": "-90.10232870766532",
    "latitude": "29.995559463702495",
    "geocoded_column": {
      "latitude": "29.995559463702495",
      "longitude": "-90.10232870766532"
    }
  },
  {
    "service_request": "2025-1222845",
    "request_type": "Property Maintenance",
    "request_reason": "Property Maintenance",
    "date_created": "2025-09-01T16:05:02.000",
    "date_modified": "2025-09-01T16:05:04.000",
    "request_status": "Pending",
    "responsible_agency": "Department of Code Enforcement",
    "final_address": "5817 General Haig St",
    "address_councildis": "A",
    "status": "Pending",
    "rowid": "1222845",
    "final_x": "3670497.84871",
    "final_y": "545925.268688",
    "longitude": "-90.10232256574588",
    "latitude": "29.995434769293002",
    "geocoded_column": {
      "latitude": "29.995434769293002",
      "longitude": "-90.10232256574588"
    }
  },
  {
    "service_request": "2025-1222844",
    "request_type": "Property Maintenance",
    "request_reason": "Property Maintenance",
    "date_created": "2025-09-01T16:02:06.000",
    "date_modified": "2025-09-01T16:02:08.000",
    "request_status": "Pending",
    "responsible_agency": "Department of Code Enforcement",
    "final_address": "5811 General Haig St",
    "address_councildis": "A",
    "status": "Pending",
    "rowid": "1222844",
    "final_x": "3670494.03815",
    "final_y": "545892.2036",
    "longitude": "-90.1023357250917",
    "latitude": "29.99534396430441",
    "geocoded_column": {
      "latitude": "29.99534396430441",
      "longitude": "-90.1023357250917"
    }
  },
  {
    "service_request": "2025-1222843",
    "request_type": "Trash/Recycling",
    "request_reason": "Request a Large Item Pick Up",
    "date_created": "2025-09-01T16:01:41.000",
    "date_modified": "2025-09-01T16:01:44.000",
    "request_status": "Pending",
    "responsible_agency": "Department of Sanitation",
    "final_address": "4308 N Rampart St",
    "address_councildis": "C",
    "status": "Assigned to Contractor",
    "contractor": "IV Waste",
    "rowid": "1222843",
    "final_x": "3692685.78864",
    "final_y": "534580.430661",
    "longitude": "-90.03264007818603",
    "latitude": "29.963566428203418",
    "geocoded_column": {
      "latitude": "29.963566428203418",
      "longitude": "-90.03264007818603"
    }
  },
  {
    "service_request": "2025-1222842",
    "request_type": "Abandoned Vehicles",
    "request_reason": "Abandoned/Junk Vehicles",
    "date_created": "2025-09-01T16:00:12.000",
    "date_modified": "2025-09-01T16:00:14.000",
    "request_status": "Pending",
    "responsible_agency": "Department of Public Works",
    "final_address": "5621 Edenboro Rd",
    "address_councildis": "E",
    "status": "Pending",
    "rowid": "1222842",
    "final_x": "3708069.65336",
    "final_y": "558383.628572",
    "longitude": "-89.98317417485373",
    "latitude": "30.028527080366807",
    "geocoded_column": {
      "latitude": "30.028527080366807",
      "longitude": "-89.98317417485373"
    }
  },
  {
    "service_request": "2025-1222841",
    "request_type": "Property Maintenance",
    "request_reason": "Property Maintenance",
    "date_created": "2025-09-01T15:59:07.000",
    "date_modified": "2025-09-01T15:59:09.000",
    "request_status": "Pending",
    "responsible_agency": "Department of Code Enforcement",
    "final_address": "5863 General Haig St",
    "address_councildis": "A",
    "status": "Pending",
    "rowid": "1222841",
    "final_x": "3670509.17012",
    "final_y": "546272.668752",
    "longitude": "-90.10227501220321",
    "latitude": "29.99638966476328",
    "geocoded_column": {
      "latitude": "29.99638966476328",
      "longitude": "-90.10227501220321"
    }
  },
  {
    "service_request": "2025-1222840",
    "request_type": "General Services",
    "request_reason": "General Service Request",
    "date_created": "2025-09-01T15:57:50.000",
    "date_modified": "2025-09-01T15:57:51.000",
    "request_status": "Pending",
    "responsible_agency": "Orleans Parish Communication District",
    "final_address": "2221 General Pershing St",
    "address_councildis": "B",
    "status": "Pending",
    "rowid": "1222840",
    "final_x": "3671051.49908",
    "final_y": "523225.372091",
    "longitude": "-90.10134461319788",
    "latitude": "29.933001267865862",
    "geocoded_column": {
      "latitude": "29.933001267865862",
      "longitude": "-90.10134461319788"
    }
  },
  {
    "service_request": "2025-1222839",
    "request_type": "Trash/Recycling",
    "request_reason": "Replace Trash Cart",
    "date_created": "2025-09-01T15:56:50.000",
    "date_modified": "2025-09-01T15:56:51.000",
    "request_status": "Pending",
    "responsible_agency": "Department of Sanitation",
    "final_address": "728 Pelican Ave",
    "address_councildis": "C",
    "status": "Assigned to Contractor",
    "contractor": "Richards Disposal",
    "rowid": "1222839",
    "final_x": "3687813.27004",
    "final_y": "530820.26797",
    "longitude": "-90.04816012221066",
    "latitude": "29.953378464407095",
    "geocoded_column": {
      "latitude": "29.953378464407095",
      "longitude": "-90.04816012221066"
    }
  },
  {
    "service_request": "2025-1222838",
    "request_type": "Alley Ways",
    "request_reason": "Alley Way Issues",
    "date_created": "2025-09-01T15:55:20.000",
    "date_modified": "2025-09-01T15:55:22.000",
    "request_status": "Pending",
    "responsible_agency": "Department of Public Works",
    "final_address": "5808 Orleans Ave",
    "address_councildis": "A",
    "status": "Pending",
    "rowid": "1222838",
    "final_x": "3670724.15515",
    "final_y": "545846.088464",
    "longitude": "-90.10161037228227",
    "latitude": "29.995210363979112",
    "geocoded_column": {
      "latitude": "29.995210363979112",
      "longitude": "-90.10161037228227"
    }
  },
  {
    "service_request": "2025-1222837",
    "request_type": "Streetlights",
    "request_reason": "New Streetlight Request",
    "date_created": "2025-09-01T15:53:50.000",
    "date_modified": "2025-09-01T15:53:52.000",
    "request_status": "Pending",
    "responsible_agency": "Department of Public Works",
    "final_address": "5808 Orleans Ave",
    "address_councildis": "A",
    "status": "Pending",
    "rowid": "1222837",
    "final_x": "3670724.15515",
    "final_y": "545846.088464",
    "longitude": "-90.10161037228227",
    "latitude": "29.995210363979112",
    "geocoded_column": {
      "latitude": "29.995210363979112",
      "longitude": "-90.10161037228227"
    }
  },
  {
    "service_request": "2025-1222836",
    "request_type": "Trash/Recycling",
    "request_reason": "Illegal Dumping",
    "date_created": "2025-09-01T15:53:01.000",
    "date_modified": "2025-09-01T15:53:04.000",
    "request_status": "Pending",
    "responsible_agency": "Department of Sanitation",
    "final_address": "4211 St Charles Ave",
    "address_councildis": "B",
    "status": "Pending",
    "rowid": "1222836",
    "final_x": "3671486.70766",
    "final_y": "520992.512185",
    "longitude": "-90.10004655708657",
    "latitude": "29.92684874681495",
    "geocoded_column": {
      "latitude": "29.92684874681495",
      "longitude": "-90.10004655708657"
    }
  },
  {
    "service_request": "2025-1222835",
    "request_type": "Trash/Recycling",
    "request_reason": "Request a Large Item Pick Up",
    "date_created": "2025-09-01T15:38:54.000",
    "date_modified": "2025-09-01T15:38:56.000",
    "request_status": "Pending",
    "responsible_agency": "Department of Sanitation",
    "final_address": "7021 Wayside Dr",
    "address_councildis": "E",
    "status": "Assigned to Contractor",
    "contractor": "Waste Pro",
    "rowid": "1222835",
    "final_x": "3717762.22629",
    "final_y": "567773.500324",
    "longitude": "-89.95218883564827",
    "latitude": "30.05402781490846",
    "geocoded_column": {
      "latitude": "30.05402781490846",
      "longitude": "-89.95218883564827"
    }
  },
  {
    "service_request": "2025-1222834",
    "request_type": "Trash/Recycling",
    "request_reason": "Request a Large Item Pick Up",
    "date_created": "2025-09-01T15:34:44.000",
    "date_modified": "2025-09-01T15:34:46.000",
    "request_status": "Pending",
    "responsible_agency": "Department of Sanitation",
    "final_address": "10900 Roger Dr Apt C",
    "address_councildis": "E",
    "status": "Assigned to Contractor",
    "contractor": "Waste Pro",
    "rowid": "1222834",
    "final_x": "3711960.91794",
    "final_y": "563182.783456",
    "longitude": "-89.97069774822442",
    "latitude": "30.041596194904827",
    "geocoded_column": {
      "latitude": "30.041596194904827",
      "longitude": "-89.97069774822442"
    }
  },
  {
    "service_request": "2025-1222833",
    "request_type": "Trash/Recycling",
    "request_reason": "Request a Large Item Pick Up",
    "date_created": "2025-09-01T15:32:59.000",
    "date_modified": "2025-09-01T15:33:01.000",
    "request_status": "Pending",
    "responsible_agency": "Department of Sanitation",
    "final_address": "20 Curtis Dr",
    "address_councildis": "E",
    "status": "Assigned to Contractor",
    "contractor": "Waste Pro",
    "rowid": "1222833",
    "final_x": "3698301.71523",
    "final_y": "560688.457886",
    "longitude": "-90.01395634998768",
    "latitude": "30.03517732907263",
    "geocoded_column": {
      "latitude": "30.03517732907263",
      "longitude": "-90.01395634998768"
    }
  },
  {
    "service_request": "2025-1222832",
    "request_type": "Trash/Recycling",
    "request_reason": "Request a Large Item Pick Up",
    "date_created": "2025-09-01T15:30:07.000",
    "date_modified": "2025-09-01T15:30:08.000",
    "request_status": "Pending",
    "responsible_agency": "Department of Sanitation",
    "final_address": "19 Curtis Dr",
    "address_councildis": "E",
    "status": "Assigned to Contractor",
    "contractor": "Waste Pro",
    "rowid": "1222832",
    "final_x": "3698239.67261",
    "final_y": "560654.631262",
    "longitude": "-90.01415364431656",
    "latitude": "30.035086283089786",
    "geocoded_column": {
      "latitude": "30.035086283089786",
      "longitude": "-90.01415364431656"
    }
  },
  {
    "service_request": "2025-1222831",
    "request_type": "Trash/Recycling",
    "request_reason": "Replace Trash Cart",
    "date_created": "2025-09-01T15:26:56.000",
    "date_modified": "2025-09-01T15:26:58.000",
    "request_status": "Pending",
    "responsible_agency": "Department of Sanitation",
    "final_address": "13919 Dwyer Blvd",
    "address_councildis": "E",
    "status": "Assigned to Contractor",
    "contractor": "Waste Pro",
    "rowid": "1222831",
    "final_x": "3727795.96889",
    "final_y": "562769.227616",
    "longitude": "-89.92067007585995",
    "latitude": "30.03993179830851",
    "geocoded_column": {
      "latitude": "30.03993179830851",
      "longitude": "-89.92067007585995"
    }
  },
  {
    "service_request": "2025-1222830",
    "request_type": "Trash/Recycling",
    "request_reason": "Replace Recycling Cart",
    "date_created": "2025-09-01T15:16:43.000",
    "date_modified": "2025-09-01T15:16:46.000",
    "request_status": "Pending",
    "responsible_agency": "Department of Sanitation",
    "final_address": "1020 Marengo St",
    "address_councildis": "B",
    "status": "Pending",
    "rowid": "1222830",
    "final_x": "3672057.27105",
    "final_y": "519441.318455",
    "longitude": "-90.09829821530569",
    "latitude": "29.922566561974666",
    "geocoded_column": {
      "latitude": "29.922566561974666",
      "longitude": "-90.09829821530569"
    }
  },
  {
    "service_request": "2025-1222829",
    "request_type": "Abandoned Vehicles",
    "request_reason": "Abandoned/Junk Vehicles",
    "date_created": "2025-09-01T15:16:17.000",
    "date_modified": "2025-09-01T15:16:19.000",
    "request_status": "Pending",
    "responsible_agency": "Department of Public Works",
    "final_address": "5631 Edenboro Rd",
    "address_councildis": "E",
    "status": "Pending",
    "rowid": "1222829",
    "final_x": "3708037.5258",
    "final_y": "558439.923996",
    "longitude": "-89.98327359954374",
    "latitude": "30.02868291156465",
    "geocoded_column": {
      "latitude": "30.02868291156465",
      "longitude": "-89.98327359954374"
    }
  },
  {
    "service_request": "2025-1222828",
    "request_type": "Trash/Recycling",
    "request_reason": "Request a Large Item Pick Up",
    "date_created": "2025-09-01T15:10:07.000",
    "date_modified": "2025-09-01T15:10:09.000",
    "request_status": "Pending",
    "responsible_agency": "Department of Sanitation",
    "final_address": "1915 Mediamolle Dr",
    "address_councildis": "C",
    "status": "Assigned to Contractor",
    "contractor": "Richards Disposal",
    "rowid": "1222828",
    "final_x": "3699427.23792",
    "final_y": "524283.515132",
    "longitude": "-90.0117264638219",
    "latitude": "29.93504139585885",
    "geocoded_column": {
      "latitude": "29.93504139585885",
      "longitude": "-90.0117264638219"
    }
  },
  {
    "service_request": "2025-1222827",
    "request_type": "Trash/Recycling",
    "request_reason": "Request a Large Item Pick Up",
    "date_created": "2025-09-01T15:04:39.000",
    "date_modified": "2025-09-01T15:04:45.000",
    "request_status": "Pending",
    "responsible_agency": "Department of Sanitation",
    "final_address": "5510 Glouster Rd",
    "address_councildis": "E",
    "status": "Assigned to Contractor",
    "contractor": "Waste Pro",
    "rowid": "1222827",
    "final_x": "3707412.77016",
    "final_y": "557984.524699",
    "longitude": "-89.9852647133697",
    "latitude": "30.027450967090672",
    "geocoded_column": {
      "latitude": "30.027450967090672",
      "longitude": "-89.9852647133697"
    }
  },
  {
    "service_request": "2025-1222826",
    "request_type": "Trash/Recycling",
    "request_reason": "Request a Large Item Pick Up",
    "date_created": "2025-09-01T14:56:33.000",
    "date_modified": "2025-09-01T14:56:34.000",
    "request_status": "Pending",
    "responsible_agency": "Department of Sanitation",
    "final_address": "7400 Camberley Dr",
    "address_councildis": "E",
    "status": "Assigned to Contractor",
    "contractor": "Waste Pro",
    "rowid": "1222826",
    "final_x": "3712809.55864",
    "final_y": "565396.878498",
    "longitude": "-89.96793237978194",
    "latitude": "30.047656285523033",
    "geocoded_column": {
      "latitude": "30.047656285523033",
      "longitude": "-89.96793237978194"
    }
  },
  {
    "service_request": "2025-1222825",
    "request_type": "Trash/Recycling",
    "request_reason": "Request a Large Item Pick Up",
    "date_created": "2025-09-01T14:42:53.000",
    "date_modified": "2025-09-01T14:42:56.000",
    "request_status": "Pending",
    "responsible_agency": "Department of Sanitation",
    "final_address": "12960 Chanelle Ct",
    "address_councildis": "E",
    "status": "Assigned to Contractor",
    "contractor": "Waste Pro",
    "rowid": "1222825",
    "final_x": "3717140.82821",
    "final_y": "567696.807524",
    "longitude": "-89.95415582029591",
    "latitude": "30.053837521394176",
    "geocoded_column": {
      "latitude": "30.053837521394176",
      "longitude": "-89.95415582029591"
    }
  },
  {
    "service_request": "2025-1222824",
    "request_type": "Trash/Recycling",
    "request_reason": "Request a Large Item Pick Up",
    "date_created": "2025-09-01T14:36:16.000",
    "date_modified": "2025-09-01T14:36:18.000",
    "request_status": "Pending",
    "responsible_agency": "Department of Sanitation",
    "final_address": "12540 N Lake Carmel Dr",
    "address_councildis": "E",
    "status": "Assigned to Contractor",
    "contractor": "Waste Pro",
    "rowid": "1222824",
    "final_x": "3715844.74936",
    "final_y": "567899.210341",
    "longitude": "-89.9582446825664",
    "latitude": "30.05443687644844",
    "geocoded_column": {
      "latitude": "30.05443687644844",
      "longitude": "-89.9582446825664"
    }
  },
  {
    "service_request": "2025-1222823",
    "request_type": "Trash/Recycling",
    "request_reason": "Illegal Dumping",
    "date_created": "2025-09-01T14:10:20.000",
    "date_modified": "2025-09-01T14:10:22.000",
    "request_status": "Pending",
    "responsible_agency": "Department of Sanitation",
    "final_address": "54 Pinewood Ct",
    "address_councildis": "C",
    "status": "Pending",
    "rowid": "1222823",
    "final_x": "3695919.39798",
    "final_y": "523076.511675",
    "longitude": "-90.02284421263754",
    "latitude": "29.93183333382427",
    "geocoded_column": {
      "latitude": "29.93183333382427",
      "longitude": "-90.02284421263754"
    }
  },
  {
    "service_request": "2025-1222822",
    "request_type": "Trash/Recycling",
    "request_reason": "Request a Large Item Pick Up",
    "date_created": "2025-09-01T13:57:54.000",
    "date_modified": "2025-09-01T13:57:56.000",
    "request_status": "Pending",
    "responsible_agency": "Department of Sanitation",
    "final_address": "7921 Windward Ct",
    "address_councildis": "E",
    "status": "Assigned to Contractor",
    "contractor": "Waste Pro",
    "rowid": "1222822",
    "final_x": "3715158.56837",
    "final_y": "570386.961447",
    "longitude": "-89.96031929922889",
    "latitude": "30.061299790914955",
    "geocoded_column": {
      "latitude": "30.061299790914955",
      "longitude": "-89.96031929922889"
    }
  },
  {
    "service_request": "2025-1222821",
    "request_type": "Trash/Recycling",
    "request_reason": "Order Recycling Cart",
    "date_created": "2025-09-01T13:57:48.000",
    "date_modified": "2025-09-01T13:57:50.000",
    "request_status": "Pending",
    "responsible_agency": "Department of Sanitation",
    "final_address": "8308 Forshey St",
    "address_councildis": "A",
    "status": "Pending",
    "rowid": "1222821",
    "final_x": "3666376.89761",
    "final_y": "534432.663941",
    "longitude": "-90.11572608441307",
    "latitude": "29.963955061031992",
    "geocoded_column": {
      "latitude": "29.963955061031992",
      "longitude": "-90.11572608441307"
    }
  },
  {
    "service_request": "2025-1222820",
    "request_type": "Abandoned Vehicles",
    "request_reason": "Abandoned/Junk Vehicles",
    "date_created": "2025-09-01T13:32:53.000",
    "date_modified": "2025-09-01T13:32:54.000",
    "request_status": "Pending",
    "responsible_agency": "Department of Public Works",
    "final_address": "1302 Cambronne St",
    "address_councildis": "A",
    "status": "Pending",
    "rowid": "1222820",
    "final_x": "3661403.99379",
    "final_y": "529416.877121",
    "longitude": "-90.13159625912603",
    "latitude": "29.950307634484908",
    "geocoded_column": {
      "latitude": "29.950307634484908",
      "longitude": "-90.13159625912603"
    }
  },
  {
    "service_request": "2025-1222819",
    "request_type": "Trash/Recycling",
    "request_reason": "Request a Large Item Pick Up",
    "date_created": "2025-09-01T13:29:43.000",
    "date_modified": "2025-09-01T13:29:44.000",
    "request_status": "Pending",
    "responsible_agency": "Department of Sanitation",
    "final_address": "10136 Rosewood Pl",
    "address_councildis": "E",
    "status": "Assigned to Contractor",
    "contractor": "Waste Pro",
    "rowid": "1222819",
    "final_x": "3713002.49291",
    "final_y": "557595.788123",
    "longitude": "-89.96761647546153",
    "latitude": "30.02620008874544",
    "geocoded_column": {
      "latitude": "30.02620008874544",
      "longitude": "-89.96761647546153"
    }
  },
  {
    "service_request": "2025-1222818",
    "request_type": "Trash/Recycling",
    "request_reason": "Replace Trash Cart",
    "date_created": "2025-09-01T13:29:02.000",
    "date_modified": "2025-09-01T13:29:04.000",
    "request_status": "Pending",
    "responsible_agency": "Department of Sanitation",
    "final_address": "326 Belleville St",
    "address_councildis": "C",
    "status": "Assigned to Contractor",
    "contractor": "Richards Disposal",
    "rowid": "1222818",
    "final_x": "3687933.49167",
    "final_y": "530540.267714",
    "longitude": "-90.04779043379752",
    "latitude": "29.95260485169471",
    "geocoded_column": {
      "latitude": "29.95260485169471",
      "longitude": "-90.04779043379752"
    }
  },
  {
    "service_request": "2025-1222817",
    "request_type": "Abandoned Vehicles",
    "request_reason": "Abandoned/Junk Vehicles",
    "date_created": "2025-09-01T13:20:42.000",
    "date_modified": "2025-09-01T13:20:43.000",
    "request_status": "Pending",
    "responsible_agency": "Department of Public Works",
    "final_address": "1743 N Broad St",
    "address_councildis": "D",
    "status": "Pending",
    "rowid": "1222817",
    "final_x": "3679739.10927",
    "final_y": "541099.214796",
    "longitude": "-90.07329795722731",
    "latitude": "29.981888587344525",
    "geocoded_column": {
      "latitude": "29.981888587344525",
      "longitude": "-90.07329795722731"
    }
  },
  {
    "service_request": "2025-1222816",
    "request_type": "Trash/Recycling",
    "request_reason": "Request a Large Item Pick Up",
    "date_created": "2025-09-01T13:18:11.000",
    "date_modified": "2025-09-01T13:18:13.000",
    "request_status": "Pending",
    "responsible_agency": "Department of Sanitation",
    "final_address": "1461 Magazine St",
    "address_councildis": "B",
    "status": "Assigned to Contractor",
    "contractor": "IV Waste",
    "rowid": "1222816",
    "final_x": "3680202.78491",
    "final_y": "524023.150652",
    "longitude": "-90.0724269539209",
    "latitude": "29.934921174757065",
    "geocoded_column": {
      "latitude": "29.934921174757065",
      "longitude": "-90.0724269539209"
    }
  },
  {
    "service_request": "2025-1222815",
    "request_type": "Trash/Recycling",
    "request_reason": "Request a Large Item Pick Up",
    "date_created": "2025-09-01T13:17:57.000",
    "date_modified": "2025-09-01T13:17:58.000",
    "request_status": "Pending",
    "responsible_agency": "Department of Sanitation",
    "final_address": "7340 Perth St",
    "address_councildis": "E",
    "status": "Assigned to Contractor",
    "contractor": "Waste Pro",
    "rowid": "1222815",
    "final_x": "3698267.39978",
    "final_y": "559028.924636",
    "longitude": "-90.01412517047419",
    "latitude": "30.03061533897328",
    "geocoded_column": {
      "latitude": "30.03061533897328",
      "longitude": "-90.01412517047419"
    }
  },
  {
    "service_request": "2025-1222814",
    "request_type": "Trash/Recycling",
    "request_reason": "Order Second Trash Cart",
    "date_created": "2025-09-01T13:11:45.000",
    "date_modified": "2025-09-01T13:11:47.000",
    "request_status": "Pending",
    "responsible_agency": "Department of Sanitation",
    "final_address": "2419 Almonaster Ave",
    "address_councildis": "D",
    "status": "Assigned to Contractor",
    "contractor": "IV Waste",
    "rowid": "1222814",
    "final_x": "3688471.8223",
    "final_y": "541561.200396",
    "longitude": "-90.04569958017126",
    "latitude": "29.982891943979787",
    "geocoded_column": {
      "latitude": "29.982891943979787",
      "longitude": "-90.04569958017126"
    }
  },
  {
    "service_request": "2025-1222813",
    "request_type": "Trash/Recycling",
    "request_reason": "Request a Large Item Pick Up",
    "date_created": "2025-09-01T13:03:29.000",
    "date_modified": "2025-09-01T13:03:31.000",
    "request_status": "Pending",
    "responsible_agency": "Department of Sanitation",
    "final_address": "923 Alabo St",
    "address_councildis": "E",
    "status": "Assigned to Contractor",
    "contractor": "Waste Pro",
    "rowid": "1222813",
    "final_x": "3698791.10199",
    "final_y": "532939.224516",
    "longitude": "-90.01341995574398",
    "latitude": "29.958861721034296",
    "geocoded_column": {
      "latitude": "29.958861721034296",
      "longitude": "-90.01341995574398"
    }
  },
  {
    "service_request": "2025-1222812",
    "request_type": "Property Maintenance",
    "request_reason": "Property Maintenance",
    "date_created": "2025-09-01T12:54:50.000",
    "date_modified": "2025-09-01T12:54:51.000",
    "request_status": "Pending",
    "responsible_agency": "Department of Code Enforcement",
    "final_address": "4725 Babylon St",
    "address_councildis": "D",
    "status": "Pending",
    "rowid": "1222812",
    "final_x": "3696700.58243",
    "final_y": "554091.939608",
    "longitude": "-90.01925523106198",
    "latitude": "30.017090014266145",
    "geocoded_column": {
      "latitude": "30.017090014266145",
      "longitude": "-90.01925523106198"
    }
  },
  {
    "service_request": "2025-1222811",
    "request_type": "Trash/Recycling",
    "request_reason": "Repair Trash Cart",
    "date_created": "2025-09-01T12:53:16.000",
    "date_modified": "2025-09-01T12:53:18.000",
    "request_status": "Pending",
    "responsible_agency": "Department of Sanitation",
    "final_address": "0 BLK Allard Blvd",
    "address_councildis": "A",
    "status": "Assigned to Contractor",
    "contractor": "IV Waste",
    "rowid": "1222811",
    "final_x": "3672889.12367",
    "final_y": "541158.059532",
    "longitude": "-90.09493149945968",
    "latitude": "29.982255733983415",
    "geocoded_column": {
      "latitude": "29.982255733983415",
      "longitude": "-90.09493149945968"
    }
  },
  {
    "service_request": "2025-1222810",
    "request_type": "Trash/Recycling",
    "request_reason": "Return Recycling Cart",
    "date_created": "2025-09-01T12:52:20.000",
    "date_modified": "2025-09-01T12:52:21.000",
    "request_status": "Pending",
    "responsible_agency": "Department of Sanitation",
    "final_address": "1430 Ursulines Ave",
    "address_councildis": "C",
    "status": "Pending",
    "rowid": "1222810",
    "final_x": "3681249.31554",
    "final_y": "535290.157318",
    "longitude": "-90.06873050542485",
    "latitude": "29.965869939266074",
    "geocoded_column": {
      "latitude": "29.965869939266074",
      "longitude": "-90.06873050542485"
    }
  },
  {
    "service_request": "2025-1222809",
    "request_type": "Trash/Recycling",
    "request_reason": "Replace Recycling Cart",
    "date_created": "2025-09-01T12:50:06.000",
    "date_modified": "2025-09-01T12:50:08.000",
    "request_status": "Pending",
    "responsible_agency": "Department of Sanitation",
    "final_address": "1430 Ursulines Ave",
    "address_councildis": "C",
    "status": "Pending",
    "rowid": "1222809",
    "final_x": "3681249.31554",
    "final_y": "535290.157318",
    "longitude": "-90.06873050542485",
    "latitude": "29.965869939266074",
    "geocoded_column": {
      "latitude": "29.965869939266074",
      "longitude": "-90.06873050542485"
    }
  },
  {
    "service_request": "2025-1222808",
    "request_type": "Trash/Recycling",
    "request_reason": "Order Trash Cart",
    "date_created": "2025-09-01T12:46:29.000",
    "date_modified": "2025-09-01T12:46:32.000",
    "request_status": "Pending",
    "responsible_agency": "Department of Sanitation",
    "final_address": "1430 Ursulines Ave",
    "address_councildis": "C",
    "status": "Assigned to Contractor",
    "contractor": "IV Waste",
    "rowid": "1222808",
    "final_x": "3681249.31554",
    "final_y": "535290.157318",
    "longitude": "-90.06873050542485",
    "latitude": "29.965869939266074",
    "geocoded_column": {
      "latitude": "29.965869939266074",
      "longitude": "-90.06873050542485"
    }
  },
  {
    "service_request": "2025-1222807",
    "request_type": "Property Maintenance",
    "request_reason": "Property Maintenance",
    "date_created": "2025-09-01T12:43:14.000",
    "date_modified": "2025-09-01T12:43:17.000",
    "request_status": "Pending",
    "responsible_agency": "Department of Code Enforcement",
    "final_address": "4720 Stemway Dr",
    "address_councildis": "D",
    "status": "Pending",
    "rowid": "1222807",
    "final_x": "3696882.43018",
    "final_y": "554071.59356",
    "longitude": "-90.01868140742866",
    "latitude": "30.01702833476925",
    "geocoded_column": {
      "latitude": "30.01702833476925",
      "longitude": "-90.01868140742866"
    }
  },
  {
    "service_request": "2025-1222806",
    "request_type": "Trash/Recycling",
    "request_reason": "Request a Large Item Pick Up",
    "date_created": "2025-09-01T12:33:03.000",
    "date_modified": "2025-09-01T12:33:05.000",
    "request_status": "Pending",
    "responsible_agency": "Department of Sanitation",
    "final_address": "7310 Mayo Rd",
    "address_councildis": "E",
    "status": "Assigned to Contractor",
    "contractor": "Waste Pro",
    "rowid": "1222806",
    "final_x": "3700992.63626",
    "final_y": "559811.438237",
    "longitude": "-90.00548477570564",
    "latitude": "30.032680395195538",
    "geocoded_column": {
      "latitude": "30.032680395195538",
      "longitude": "-90.00548477570564"
    }
  },
  {
    "service_request": "2025-1222805",
    "request_type": "Trash/Recycling",
    "request_reason": "Order Second Trash Cart",
    "date_created": "2025-09-01T12:04:13.000",
    "date_modified": "2025-09-01T12:04:15.000",
    "request_status": "Pending",
    "responsible_agency": "Department of Sanitation",
    "final_address": "633 N Carrollton Ave",
    "address_councildis": "A",
    "status": "Assigned to Contractor",
    "contractor": "IV Waste",
    "rowid": "1222805",
    "final_x": "3672450.99227",
    "final_y": "539925.198986",
    "longitude": "-90.09635737141133",
    "latitude": "29.9788788014552",
    "geocoded_column": {
      "latitude": "29.9788788014552",
      "longitude": "-90.09635737141133"
    }
  },
  {
    "service_request": "2025-1222804",
    "request_type": "Street and Traffic Signs",
    "request_reason": "Street Name Sign Damaged or Missing",
    "date_created": "2025-09-01T11:59:39.000",
    "date_modified": "2025-09-01T11:59:41.000",
    "request_status": "Pending",
    "responsible_agency": "Department of Public Works",
    "final_address": "1000 BLK S Norman C Francis Pkwy",
    "address_councildis": "B",
    "status": "Pending",
    "rowid": "1222804",
    "final_x": "3670344.76328",
    "final_y": "532929.695083",
    "longitude": "-90.10324684999787",
    "latitude": "29.959705863267587",
    "geocoded_column": {
      "latitude": "29.959705863267587",
      "longitude": "-90.10324684999787"
    }
  },
  {
    "service_request": "2025-1222803",
    "request_type": "Parks & Parkways",
    "request_reason": "Request Tree Service (Right of Way/Public Property)",
    "date_created": "2025-09-01T11:33:17.000",
    "date_modified": "2025-09-01T11:33:19.000",
    "request_status": "Pending",
    "responsible_agency": "Department of Parks & Parkway",
    "final_address": "312 Audubon Blvd",
    "address_councildis": "A",
    "status": "Pending",
    "rowid": "1222803",
    "final_x": "3667060.99565",
    "final_y": "529906.108417",
    "longitude": "-90.11371790627784",
    "latitude": "29.951488512118665",
    "geocoded_column": {
      "latitude": "29.951488512118665",
      "longitude": "-90.11371790627784"
    }
  },
  {
    "service_request": "2025-1222802",
    "request_type": "Trash/Recycling",
    "request_reason": "Repair Trash Cart",
    "date_created": "2025-09-01T11:24:32.000",
    "date_modified": "2025-09-01T11:24:37.000",
    "request_status": "Pending",
    "responsible_agency": "Department of Sanitation",
    "final_address": "721 Burdette St",
    "address_councildis": "A",
    "status": "Assigned to Contractor",
    "contractor": "IV Waste",
    "rowid": "1222802",
    "final_x": "3661777.30176",
    "final_y": "526443.457918",
    "longitude": "-90.13051609575066",
    "latitude": "29.94212091083317",
    "geocoded_column": {
      "latitude": "29.94212091083317",
      "longitude": "-90.13051609575066"
    }
  },
  {
    "service_request": "2025-1222801",
    "request_type": "Parks & Parkways",
    "request_reason": "Request Tree Service (Right of Way/Public Property)",
    "date_created": "2025-09-01T11:23:30.000",
    "date_modified": "2025-09-01T11:23:32.000",
    "request_status": "Pending",
    "responsible_agency": "Department of Parks & Parkway",
    "final_address": "3925 Franklin Ave",
    "address_councildis": "D",
    "status": "Pending",
    "rowid": "1222801",
    "final_x": "3687110.03561",
    "final_y": "547444.679761",
    "longitude": "-90.049792620576",
    "latitude": "29.999111413816934",
    "geocoded_column": {
      "latitude": "29.999111413816934",
      "longitude": "-90.049792620576"
    }
  },
  {
    "service_request": "2025-1222800",
    "request_type": "Trash/Recycling",
    "request_reason": "Request a Large Item Pick Up",
    "date_created": "2025-09-01T11:01:23.000",
    "date_modified": "2025-09-01T11:01:25.000",
    "request_status": "Pending",
    "responsible_agency": "Department of Sanitation",
    "final_address": "7657 Anne Marie Ct",
    "address_councildis": "E",
    "status": "Assigned to Contractor",
    "contractor": "Waste Pro",
    "rowid": "1222800",
    "final_x": "3717858.35141",
    "final_y": "571381.805096",
    "longitude": "-89.95174749692524",
    "latitude": "30.063945968954243",
    "geocoded_column": {
      "latitude": "30.063945968954243",
      "longitude": "-89.95174749692524"
    }
  },
  {
    "service_request": "2025-1222799",
    "request_type": "Trash/Recycling",
    "request_reason": "Order Recycling Cart",
    "date_created": "2025-09-01T10:59:58.000",
    "date_modified": "2025-09-01T11:00:00.000",
    "request_status": "Pending",
    "responsible_agency": "Department of Sanitation",
    "final_address": "5128 Cunningham Ct",
    "address_councildis": "D",
    "status": "Pending",
    "rowid": "1222799",
    "final_x": "3690770.16617",
    "final_y": "552757.329942",
    "longitude": "-90.03804051684914",
    "latitude": "30.013606006754927",
    "geocoded_column": {
      "latitude": "30.013606006754927",
      "longitude": "-90.03804051684914"
    }
  },
  {
    "service_request": "2025-1222798",
    "request_type": "Trash/Recycling",
    "request_reason": "Request a Large Item Pick Up",
    "date_created": "2025-09-01T10:36:49.000",
    "date_modified": "2025-09-01T10:36:51.000",
    "request_status": "Pending",
    "responsible_agency": "Department of Sanitation",
    "final_address": "7576 Briarheath Dr",
    "address_councildis": "E",
    "status": "Assigned to Contractor",
    "contractor": "Waste Pro",
    "rowid": "1222798",
    "final_x": "3715184.62463",
    "final_y": "566536.105251",
    "longitude": "-89.9603827876604",
    "latitude": "30.050710661669463",
    "geocoded_column": {
      "latitude": "30.050710661669463",
      "longitude": "-89.9603827876604"
    }
  },
  {
    "service_request": "2025-1222797",
    "request_type": "Trash/Recycling",
    "request_reason": "Order Recycling Cart",
    "date_created": "2025-09-01T10:36:20.000",
    "date_modified": "2025-09-01T10:36:22.000",
    "request_status": "Pending",
    "responsible_agency": "Department of Sanitation",
    "final_address": "5844 Orleans Ave",
    "address_councildis": "A",
    "status": "Pending",
    "rowid": "1222797",
    "final_x": "3670742.59297",
    "final_y": "546117.778512",
    "longitude": "-90.10154290277305",
    "latitude": "29.995956872556164",
    "geocoded_column": {
      "latitude": "29.995956872556164",
      "longitude": "-90.10154290277305"
    }
  },
  {
    "service_request": "2025-1222796",
    "request_type": "Trash/Recycling",
    "request_reason": "Request a Large Item Pick Up",
    "date_created": "2025-09-01T10:32:25.000",
    "date_modified": "2025-09-01T10:32:26.000",
    "request_status": "Pending",
    "responsible_agency": "Department of Sanitation",
    "final_address": "7576 Briarheath Dr",
    "address_councildis": "E",
    "status": "Assigned to Contractor",
    "contractor": "Waste Pro",
    "rowid": "1222796",
    "final_x": "3715184.62463",
    "final_y": "566536.105251",
    "longitude": "-89.9603827876604",
    "latitude": "30.050710661669463",
    "geocoded_column": {
      "latitude": "30.050710661669463",
      "longitude": "-89.9603827876604"
    }
  },
  {
    "service_request": "2025-1222795",
    "request_type": "Trash/Recycling",
    "request_reason": "Order Recycling Cart",
    "date_created": "2025-09-01T10:27:05.000",
    "date_modified": "2025-09-01T10:27:12.000",
    "request_status": "Pending",
    "responsible_agency": "Department of Sanitation",
    "final_address": "3400 Louisiana Avenue Prkwy",
    "address_councildis": "B",
    "status": "Pending",
    "rowid": "1222795",
    "final_x": "3671643.00135",
    "final_y": "527587.897855",
    "longitude": "-90.09932896014054",
    "latitude": "29.944979296636163",
    "geocoded_column": {
      "latitude": "29.944979296636163",
      "longitude": "-90.09932896014054"
    }
  },
  {
    "service_request": "2025-1222794",
    "request_type": "Trash/Recycling",
    "request_reason": "Request a Large Item Pick Up",
    "date_created": "2025-09-01T10:19:44.000",
    "date_modified": "2025-09-01T10:19:47.000",
    "request_status": "Pending",
    "responsible_agency": "Department of Sanitation",
    "final_address": "1638 Tennessee St",
    "address_councildis": "E",
    "status": "Assigned to Contractor",
    "contractor": "Waste Pro",
    "rowid": "1222794",
    "final_x": "3696232.35376",
    "final_y": "536501.253639",
    "longitude": "-90.02137100441965",
    "latitude": "29.96873683420336",
    "geocoded_column": {
      "latitude": "29.96873683420336",
      "longitude": "-90.02137100441965"
    }
  },
  {
    "service_request": "2025-1222793",
    "request_type": "Trash/Recycling",
    "request_reason": "Missed Trash Pick-Up",
    "date_created": "2025-09-01T10:19:05.000",
    "date_modified": "2025-09-01T10:19:07.000",
    "request_status": "Pending",
    "responsible_agency": "Department of Sanitation",
    "final_address": "4531 Martin St",
    "address_councildis": "E",
    "status": "Assigned to Contractor",
    "contractor": "Waste Pro",
    "rowid": "1222793",
    "final_x": "3784788.67359",
    "final_y": "608378.382218",
    "longitude": "-89.73855563527093",
    "latitude": "30.1632789332878",
    "geocoded_column": {
      "latitude": "30.1632789332878",
      "longitude": "-89.73855563527093"
    }
  },
  {
    "service_request": "2025-1222792",
    "request_type": "Trash/Recycling",
    "request_reason": "Missed Trash Pick-Up",
    "date_created": "2025-09-01T10:09:42.000",
    "date_modified": "2025-09-01T10:09:45.000",
    "request_status": "Pending",
    "responsible_agency": "Department of Sanitation",
    "final_address": "4531 Martin St",
    "address_councildis": "E",
    "status": "Assigned to Contractor",
    "contractor": "Waste Pro",
    "rowid": "1222792",
    "final_x": "3784788.67359",
    "final_y": "608378.382218",
    "longitude": "-89.73855563527093",
    "latitude": "30.1632789332878",
    "geocoded_column": {
      "latitude": "30.1632789332878",
      "longitude": "-89.73855563527093"
    }
  },
  {
    "service_request": "2025-1222791",
    "request_type": "Abandoned Vehicles",
    "request_reason": "Abandoned/Junk Vehicles",
    "date_created": "2025-09-01T10:04:03.000",
    "date_modified": "2025-09-01T10:04:04.000",
    "request_status": "Pending",
    "responsible_agency": "Department of Public Works",
    "final_address": "930 Leboeuf St",
    "address_councildis": "C",
    "status": "Pending",
    "rowid": "1222791",
    "final_x": "3689815.11638",
    "final_y": "528005.725503",
    "longitude": "-90.0419393271646",
    "latitude": "29.945577551201538",
    "geocoded_column": {
      "latitude": "29.945577551201538",
      "longitude": "-90.0419393271646"
    }
  },
  {
    "service_request": "2025-1222790",
    "request_type": "Abandoned Vehicles",
    "request_reason": "Abandoned/Junk Vehicles",
    "date_created": "2025-09-01T10:03:49.000",
    "date_modified": "2025-09-01T10:03:50.000",
    "request_status": "Pending",
    "responsible_agency": "Department of Public Works",
    "final_address": "2418 St Andrew St",
    "address_councildis": "B",
    "status": "Pending",
    "rowid": "1222790",
    "final_x": "3676150.71253",
    "final_y": "526523.959358",
    "longitude": "-90.08513331067033",
    "latitude": "29.941919563255485",
    "geocoded_column": {
      "latitude": "29.941919563255485",
      "longitude": "-90.08513331067033"
    }
  },
  {
    "service_request": "2025-1222789",
    "request_type": "Trash/Recycling",
    "request_reason": "Missed Trash Pick-Up",
    "date_created": "2025-09-01T10:03:44.000",
    "date_modified": "2025-09-01T10:03:46.000",
    "request_status": "Pending",
    "responsible_agency": "Department of Sanitation",
    "final_address": "7532 Horizon Dr",
    "address_councildis": "E",
    "status": "Assigned to Contractor",
    "contractor": "Waste Pro",
    "rowid": "1222789",
    "final_x": "3725273.33702",
    "final_y": "569708.616998",
    "longitude": "-89.92837336730125",
    "latitude": "30.059097494703302",
    "geocoded_column": {
      "latitude": "30.059097494703302",
      "longitude": "-89.92837336730125"
    }
  },
  {
    "service_request": "2025-1222787",
    "request_type": "Trash/Recycling",
    "request_reason": "Missed Trash Pick-Up",
    "date_created": "2025-09-01T10:01:39.000",
    "date_modified": "2025-09-01T11:34:02.000",
    "case_close_date": "2025-09-01T06:34:01.000",
    "request_status": "Closed",
    "responsible_agency": "Department of Sanitation",
    "final_address": "318 S Pierce St",
    "address_councildis": "A",
    "status": "Invalid Request",
    "contractor": "IV Waste",
    "contractor_action": "Invalid",
    "rowid": "1222787",
    "final_x": "3670934.48327",
    "final_y": "537259.580104",
    "longitude": "-90.10123762296436",
    "latitude": "29.97159417893457",
    "geocoded_column": {
      "latitude": "29.97159417893457",
      "longitude": "-90.10123762296436"
    }
  },
  {
    "service_request": "2025-1222786",
    "request_type": "Abandoned Vehicles",
    "request_reason": "Abandoned/Junk Vehicles",
    "date_created": "2025-09-01T09:56:05.000",
    "date_modified": "2025-09-01T09:56:06.000",
    "request_status": "Pending",
    "responsible_agency": "Department of Public Works",
    "final_address": "930 Leboeuf St",
    "address_councildis": "C",
    "status": "Pending",
    "rowid": "1222786",
    "final_x": "3689815.11638",
    "final_y": "528005.725503",
    "longitude": "-90.0419393271646",
    "latitude": "29.945577551201538",
    "geocoded_column": {
      "latitude": "29.945577551201538",
      "longitude": "-90.0419393271646"
    }
  },
  {
    "service_request": "2025-1222785",
    "request_type": "Trash/Recycling",
    "request_reason": "Replace Trash Cart",
    "date_created": "2025-09-01T09:55:42.000",
    "date_modified": "2025-09-01T09:55:43.000",
    "request_status": "Pending",
    "responsible_agency": "Department of Sanitation",
    "final_address": "2030 Easter Ln",
    "address_councildis": "C",
    "status": "Assigned to Contractor",
    "contractor": "Richards Disposal",
    "rowid": "1222785",
    "final_x": "3699550.56484",
    "final_y": "523873.479036",
    "longitude": "-90.01135205875478",
    "latitude": "29.93391002690575",
    "geocoded_column": {
      "latitude": "29.93391002690575",
      "longitude": "-90.01135205875478"
    }
  },
  {
    "service_request": "2025-1222784",
    "request_type": "Trash/Recycling",
    "request_reason": "Request a Large Item Pick Up",
    "date_created": "2025-09-01T09:54:16.000",
    "date_modified": "2025-09-01T09:54:18.000",
    "request_status": "Pending",
    "responsible_agency": "Department of Sanitation",
    "final_address": "10330 Brookfield Dr",
    "address_councildis": "E",
    "status": "Assigned to Contractor",
    "contractor": "Waste Pro",
    "rowid": "1222784",
    "final_x": "3710578.56837",
    "final_y": "563195.200544",
    "longitude": "-89.97506597126291",
    "latitude": "30.041675465227694",
    "geocoded_column": {
      "latitude": "30.041675465227694",
      "longitude": "-89.97506597126291"
    }
  },
  {
    "service_request": "2025-1222783",
    "request_type": "Trash/Recycling",
    "request_reason": "Dead Animal Pick Up",
    "date_created": "2025-09-01T09:49:26.000",
    "date_modified": "2025-09-01T09:49:29.000",
    "request_status": "Pending",
    "responsible_agency": "Department of Sanitation",
    "final_address": "500 BLK Girod St",
    "address_councildis": "B",
    "status": "Assigned to Contractor",
    "contractor": "IV Waste",
    "rowid": "1222783",
    "final_x": "3681113.09771",
    "final_y": "528402.319295",
    "longitude": "-90.06940060998947",
    "latitude": "29.946934853531346",
    "geocoded_column": {
      "latitude": "29.946934853531346",
      "longitude": "-90.06940060998947"
    }
  },
  {
    "service_request": "2025-1222782",
    "request_type": "Trash/Recycling",
    "request_reason": "Request a Large Item Pick Up",
    "date_created": "2025-09-01T09:47:39.000",
    "date_modified": "2025-09-01T09:47:51.000",
    "request_status": "Pending",
    "responsible_agency": "Department of Sanitation",
    "final_address": "5331 Edenboro Rd",
    "address_councildis": "E",
    "status": "Assigned to Contractor",
    "contractor": "Waste Pro",
    "rowid": "1222782",
    "final_x": "3708428.40388",
    "final_y": "557702.064603",
    "longitude": "-89.98206594889406",
    "latitude": "30.02664141866644",
    "geocoded_column": {
      "latitude": "30.02664141866644",
      "longitude": "-89.98206594889406"
    }
  },
  {
    "service_request": "2025-1222781",
    "request_type": "General Services",
    "request_reason": "General Service Request",
    "date_created": "2025-09-01T09:36:46.000",
    "date_modified": "2025-09-01T09:36:48.000",
    "request_status": "Pending",
    "responsible_agency": "Orleans Parish Communication District",
    "final_address": "2521 General Taylor St., New Orleans",
    "address_councildis": "B",
    "status": "Pending",
    "rowid": "1222781",
    "final_x": "3671888.90177",
    "final_y": "524393.704764",
    "longitude": "-90.09866124429735",
    "latitude": "29.936189021422283",
    "geocoded_column": {
      "latitude": "29.936189021422283",
      "longitude": "-90.09866124429735"
    }
  },
  {
    "service_request": "2025-1222779",
    "request_type": "Property Maintenance",
    "request_reason": "Property Maintenance",
    "date_created": "2025-09-01T08:46:26.000",
    "date_modified": "2025-09-01T08:46:28.000",
    "request_status": "Pending",
    "responsible_agency": "Department of Code Enforcement",
    "final_address": "1738 Louisiana Ave",
    "address_councildis": "B",
    "status": "Pending",
    "rowid": "1222779",
    "final_x": "3673823.76513",
    "final_y": "522127.897722",
    "longitude": "-90.09263026865555",
    "latitude": "29.92990131817358",
    "geocoded_column": {
      "latitude": "29.92990131817358",
      "longitude": "-90.09263026865555"
    }
  },
  {
    "service_request": "2025-1222778",
    "request_type": "Property Maintenance",
    "request_reason": "Property Maintenance",
    "date_created": "2025-09-01T08:42:52.000",
    "date_modified": "2025-09-01T08:42:54.000",
    "request_status": "Pending",
    "responsible_agency": "Department of Code Enforcement",
    "final_address": "3429 Baronne St",
    "address_councildis": "B",
    "status": "Pending",
    "rowid": "1222778",
    "final_x": "3673647.2027",
    "final_y": "522155.025146",
    "longitude": "-90.09318672036167",
    "latitude": "29.929981165465783",
    "geocoded_column": {
      "latitude": "29.929981165465783",
      "longitude": "-90.09318672036167"
    }
  },
  {
    "service_request": "2025-1222777",
    "request_type": "Trash/Recycling",
    "request_reason": "Request a Large Item Pick Up",
    "date_created": "2025-09-01T08:39:46.000",
    "date_modified": "2025-09-01T08:39:48.000",
    "request_status": "Pending",
    "responsible_agency": "Department of Sanitation",
    "final_address": "7596 Pineridge St",
    "address_councildis": "E",
    "status": "Assigned to Contractor",
    "contractor": "Waste Pro",
    "rowid": "1222777",
    "final_x": "3719031.60697",
    "final_y": "571866.442408",
    "longitude": "-89.94802027357223",
    "latitude": "30.065239569319253",
    "geocoded_column": {
      "latitude": "30.065239569319253",
      "longitude": "-89.94802027357223"
    }
  },
  {
    "service_request": "2025-1222776",
    "request_type": "General Services",
    "request_reason": "General Service Request",
    "date_created": "2025-09-01T08:21:50.000",
    "date_modified": "2025-09-01T08:21:52.000",
    "request_status": "Pending",
    "responsible_agency": "Orleans Parish Communication District",
    "final_address": "7910 Dorsett Dr",
    "address_councildis": "E",
    "status": "Pending",
    "rowid": "1222776",
    "final_x": "3712241.97816",
    "final_y": "568174.780261",
    "longitude": "-89.96962174176603",
    "latitude": "30.055312970572025",
    "geocoded_column": {
      "latitude": "30.055312970572025",
      "longitude": "-89.96962174176603"
    }
  },
  {
    "service_request": "2025-1222775",
    "request_type": "Trash/Recycling",
    "request_reason": "Request a Large Item Pick Up",
    "date_created": "2025-09-01T08:09:19.000",
    "date_modified": "2025-09-01T08:09:21.000",
    "request_status": "Pending",
    "responsible_agency": "Department of Sanitation",
    "final_address": "1730 Delachaise St",
    "address_councildis": "B",
    "status": "Assigned to Contractor",
    "contractor": "IV Waste",
    "rowid": "1222775",
    "final_x": "3673518.04641",
    "final_y": "521970.705594",
    "longitude": "-90.09360074132539",
    "latitude": "29.929478189244346",
    "geocoded_column": {
      "latitude": "29.929478189244346",
      "longitude": "-90.09360074132539"
    }
  },
  {
    "service_request": "2025-1222774",
    "request_type": "Property Maintenance",
    "request_reason": "Property Maintenance",
    "date_created": "2025-09-01T08:08:00.000",
    "date_modified": "2025-09-01T08:08:02.000",
    "request_status": "Pending",
    "responsible_agency": "Department of Code Enforcement",
    "final_address": "7141 Ridgefield Dr",
    "address_councildis": "E",
    "status": "Pending",
    "rowid": "1222774",
    "final_x": "3719126.17285",
    "final_y": "570067.020967",
    "longitude": "-89.94779012447579",
    "latitude": "30.06028876868939",
    "geocoded_column": {
      "latitude": "30.06028876868939",
      "longitude": "-89.94779012447579"
    }
  },
  {
    "service_request": "2025-1222773",
    "request_type": "Trash/Recycling",
    "request_reason": "Request a Large Item Pick Up",
    "date_created": "2025-09-01T08:07:44.000",
    "date_modified": "2025-09-01T08:07:46.000",
    "request_status": "Pending",
    "responsible_agency": "Department of Sanitation",
    "final_address": "13020 Ashland Dr",
    "address_councildis": "E",
    "status": "Assigned to Contractor",
    "contractor": "Waste Pro",
    "rowid": "1222773",
    "final_x": "3717576.75954",
    "final_y": "567553.200996",
    "longitude": "-89.95278343391202",
    "latitude": "30.053428228146448",
    "geocoded_column": {
      "latitude": "30.053428228146448",
      "longitude": "-89.95278343391202"
    }
  },
  {
    "service_request": "2025-1222772",
    "request_type": "Abandoned Vehicles",
    "request_reason": "Abandoned/Junk Vehicles",
    "date_created": "2025-09-01T07:56:20.000",
    "date_modified": "2025-09-01T07:56:22.000",
    "request_status": "Pending",
    "responsible_agency": "Department of Public Works",
    "final_address": "1729 N Gayoso St",
    "address_councildis": "D",
    "status": "Pending",
    "rowid": "1222772",
    "final_x": "3678829.9645",
    "final_y": "541653.58126",
    "longitude": "-90.07615025783105",
    "latitude": "29.983440360773454",
    "geocoded_column": {
      "latitude": "29.983440360773454",
      "longitude": "-90.07615025783105"
    }
  },
  {
    "service_request": "2025-1222771",
    "request_type": "Trash/Recycling",
    "request_reason": "Replace Trash Cart",
    "date_created": "2025-09-01T07:47:11.000",
    "date_modified": "2025-09-01T07:47:13.000",
    "request_status": "Pending",
    "responsible_agency": "Department of Sanitation",
    "final_address": "3401 Delachaise St",
    "address_councildis": "B",
    "status": "Assigned to Contractor",
    "contractor": "IV Waste",
    "rowid": "1222771",
    "final_x": "3671511.91636",
    "final_y": "527447.172543",
    "longitude": "-90.09974762005206",
    "latitude": "29.944596229097872",
    "geocoded_column": {
      "latitude": "29.944596229097872",
      "longitude": "-90.09974762005206"
    }
  },
  {
    "service_request": "2025-1222770",
    "request_type": "Trash/Recycling",
    "request_reason": "Repair Recycling Cart",
    "date_created": "2025-09-01T07:34:16.000",
    "date_modified": "2025-09-01T07:34:17.000",
    "request_status": "Pending",
    "responsible_agency": "Department of Sanitation",
    "final_address": "132 S Scott St",
    "address_councildis": "A",
    "status": "Pending",
    "rowid": "1222770",
    "final_x": "3671610.26951",
    "final_y": "537532.18356",
    "longitude": "-90.0990941108146",
    "latitude": "29.972323748581616",
    "geocoded_column": {
      "latitude": "29.972323748581616",
      "longitude": "-90.0990941108146"
    }
  },
  {
    "service_request": "2025-1222769",
    "request_type": "Trash/Recycling",
    "request_reason": "Request a Large Item Pick Up",
    "date_created": "2025-09-01T07:30:23.000",
    "date_modified": "2025-09-01T07:30:25.000",
    "request_status": "Pending",
    "responsible_agency": "Department of Sanitation",
    "final_address": "7416 Edward St",
    "address_councildis": "E",
    "status": "Assigned to Contractor",
    "contractor": "Waste Pro",
    "rowid": "1222769",
    "final_x": "3701192.91805",
    "final_y": "560327.220893",
    "longitude": "-90.00483297536326",
    "latitude": "30.03409221390936",
    "geocoded_column": {
      "latitude": "30.03409221390936",
      "longitude": "-90.00483297536326"
    }
  },
  {
    "service_request": "2025-1222768",
    "request_type": "Trash/Recycling",
    "request_reason": "Request a Large Item Pick Up",
    "date_created": "2025-09-01T05:58:18.000",
    "date_modified": "2025-09-01T09:52:03.000",
    "case_close_date": "2025-09-01T04:52:02.000",
    "request_status": "Closed",
    "responsible_agency": "Department of Sanitation",
    "final_address": "3154 Toulouse St",
    "address_councildis": "A",
    "status": "Assigned to Contractor",
    "contractor": "IV Waste",
    "contractor_action": "Completed",
    "rowid": "1222768",
    "final_x": "3674829.67515",
    "final_y": "537743.750472",
    "longitude": "-90.08891940276143",
    "latitude": "29.972809740923744",
    "geocoded_column": {
      "latitude": "29.972809740923744",
      "longitude": "-90.08891940276143"
    }
  },
  {
    "service_request": "2025-1222767",
    "request_type": "Traffic Safety",
    "request_reason": "Request for Traffic Calming due to Speeding",
    "date_created": "2025-09-01T05:25:27.000",
    "date_modified": "2025-09-01T05:25:29.000",
    "request_status": "Pending",
    "responsible_agency": "Department of Public Works",
    "final_address": "3907 St Claude Ave",
    "address_councildis": "C",
    "status": "Pending",
    "rowid": "1222767",
    "final_x": "3691615.82064",
    "final_y": "535462.256582",
    "longitude": "-90.03598738308743",
    "latitude": "29.96602449277593",
    "geocoded_column": {
      "latitude": "29.96602449277593",
      "longitude": "-90.03598738308743"
    }
  },
  {
    "service_request": "2025-1222766",
    "request_type": "Trash/Recycling",
    "request_reason": "Replace Trash Cart",
    "date_created": "2025-09-01T04:20:17.000",
    "date_modified": "2025-09-01T04:20:18.000",
    "request_status": "Pending",
    "responsible_agency": "Department of Sanitation",
    "final_address": "3222 Banks St",
    "address_councildis": "B",
    "status": "Assigned to Contractor",
    "contractor": "IV Waste",
    "rowid": "1222766",
    "final_x": "3672958.42964",
    "final_y": "535329.726982",
    "longitude": "-90.09491155811754",
    "latitude": "29.966227737507666",
    "geocoded_column": {
      "latitude": "29.966227737507666",
      "longitude": "-90.09491155811754"
    }
  },
  {
    "service_request": "2025-1222765",
    "request_type": "Trash/Recycling",
    "request_reason": "Order Second Trash Cart",
    "date_created": "2025-09-01T00:42:13.000",
    "date_modified": "2025-09-01T00:42:18.000",
    "request_status": "Pending",
    "responsible_agency": "Department of Sanitation",
    "final_address": "7532 Horizon Dr",
    "address_councildis": "E",
    "status": "Assigned to Contractor",
    "contractor": "Waste Pro",
    "rowid": "1222765",
    "final_x": "3725273.33702",
    "final_y": "569708.616998",
    "longitude": "-89.92837336730125",
    "latitude": "30.059097494703302",
    "geocoded_column": {
      "latitude": "30.059097494703302",
      "longitude": "-89.92837336730125"
    }
  },
  {
    "service_request": "2025-1222764",
    "request_type": "Trash/Recycling",
    "request_reason": "Repair Recycling Cart",
    "date_created": "2025-09-01T00:35:02.000",
    "date_modified": "2025-09-01T00:35:04.000",
    "request_status": "Pending",
    "responsible_agency": "Department of Sanitation",
    "final_address": "7532 Horizon Dr",
    "address_councildis": "E",
    "status": "Pending",
    "rowid": "1222764",
    "final_x": "3725273.33702",
    "final_y": "569708.616998",
    "longitude": "-89.92837336730125",
    "latitude": "30.059097494703302",
    "geocoded_column": {
      "latitude": "30.059097494703302",
      "longitude": "-89.92837336730125"
    }
  },
  {
    "service_request": "2025-1222763",
    "request_type": "Trash/Recycling",
    "request_reason": "Request a Large Item Pick Up",
    "date_created": "2025-09-01T00:21:45.000",
    "date_modified": "2025-09-01T00:21:47.000",
    "request_status": "Pending",
    "responsible_agency": "Department of Sanitation",
    "final_address": "7532 Horizon Dr",
    "address_councildis": "E",
    "status": "Assigned to Contractor",
    "contractor": "Waste Pro",
    "rowid": "1222763",
    "final_x": "3725273.33702",
    "final_y": "569708.616998",
    "longitude": "-89.92837336730125",
    "latitude": "30.059097494703302",
    "geocoded_column": {
      "latitude": "30.059097494703302",
      "longitude": "-89.92837336730125"
    }
  },
  {
    "service_request": "2025-1222762",
    "request_type": "Trash/Recycling",
    "request_reason": "Request a Large Item Pick Up",
    "date_created": "2025-09-01T00:17:49.000",
    "date_modified": "2025-09-01T00:17:51.000",
    "request_status": "Pending",
    "responsible_agency": "Department of Sanitation",
    "final_address": "7532 Horizon Dr",
    "address_councildis": "E",
    "status": "Assigned to Contractor",
    "contractor": "Waste Pro",
    "rowid": "1222762",
    "final_x": "3725273.33702",
    "final_y": "569708.616998",
    "longitude": "-89.92837336730125",
    "latitude": "30.059097494703302",
    "geocoded_column": {
      "latitude": "30.059097494703302",
      "longitude": "-89.92837336730125"
    }
  },
  {
    "service_request": "2025-1222761",
    "request_type": "Streetlights",
    "request_reason": "Streetlight Outage/Malfunction",
    "date_created": "2025-08-31T23:26:33.000",
    "date_modified": "2025-08-31T23:26:35.000",
    "request_status": "Pending",
    "responsible_agency": "Department of Public Works",
    "final_address": "1558 N Rocheblave St",
    "address_councildis": "D",
    "status": "Pending",
    "rowid": "1222761",
    "final_x": "3679836.15343",
    "final_y": "539327.647178",
    "longitude": "-90.0730529886429",
    "latitude": "29.97701445666532",
    "geocoded_column": {
      "latitude": "29.97701445666532",
      "longitude": "-90.0730529886429"
    }
  },
  {
    "service_request": "2025-1222760",
    "request_type": "Trash/Recycling",
    "request_reason": "Replace Trash Cart",
    "date_created": "2025-08-31T22:48:58.000",
    "date_modified": "2025-08-31T22:49:00.000",
    "request_status": "Pending",
    "responsible_agency": "Department of Sanitation",
    "final_address": "205 West Robert E Lee Blvd",
    "address_councildis": "A",
    "status": "Assigned to Contractor",
    "contractor": "IV Waste",
    "rowid": "1222760",
    "final_x": "3666141.10106",
    "final_y": "554922.997912",
    "longitude": "-90.11578314920119",
    "latitude": "30.02030337607669",
    "geocoded_column": {
      "latitude": "30.02030337607669",
      "longitude": "-90.11578314920119"
    }
  },
  {
    "service_request": "2025-1222759",
    "request_type": "Trash/Recycling",
    "request_reason": "Replace Trash Cart",
    "date_created": "2025-08-31T22:17:48.000",
    "date_modified": "2025-08-31T22:17:50.000",
    "request_status": "Pending",
    "responsible_agency": "Department of Sanitation",
    "final_address": "3114 St Ann St",
    "address_councildis": "A",
    "status": "Assigned to Contractor",
    "contractor": "IV Waste",
    "rowid": "1222759",
    "final_x": "3675343.0875",
    "final_y": "538375.413321",
    "longitude": "-90.08727625436069",
    "latitude": "29.97453125679691",
    "geocoded_column": {
      "latitude": "29.97453125679691",
      "longitude": "-90.08727625436069"
    }
  },
  {
    "service_request": "2025-1222758",
    "request_type": "Roads and Streets",
    "request_reason": "Sidewalk Damaged or Missing",
    "date_created": "2025-08-31T22:01:48.000",
    "date_modified": "2025-08-31T22:01:49.000",
    "request_status": "Pending",
    "responsible_agency": "Department of Public Works",
    "final_address": "53 Gull St",
    "address_councildis": "D",
    "status": "Pending",
    "rowid": "1222758",
    "final_x": "3674798.38216",
    "final_y": "555722.626713",
    "longitude": "-90.08840132152201",
    "latitude": "30.022246284257395",
    "geocoded_column": {
      "latitude": "30.022246284257395",
      "longitude": "-90.08840132152201"
    }
  },
  {
    "service_request": "2025-1222757",
    "request_type": "Trash/Recycling",
    "request_reason": "Request a Large Item Pick Up",
    "date_created": "2025-08-31T21:56:57.000",
    "date_modified": "2025-08-31T21:56:58.000",
    "request_status": "Pending",
    "responsible_agency": "Department of Sanitation",
    "final_address": "1029 Burdette St",
    "address_councildis": "A",
    "status": "Assigned to Contractor",
    "contractor": "IV Waste",
    "rowid": "1222757",
    "final_x": "3662506.69619",
    "final_y": "527239.734975",
    "longitude": "-90.12818678660965",
    "latitude": "29.944289345400932",
    "geocoded_column": {
      "latitude": "29.944289345400932",
      "longitude": "-90.12818678660965"
    }
  },
  {
    "service_request": "2025-1222756",
    "request_type": "Streetlights",
    "request_reason": "Streetlight Outage/Malfunction",
    "date_created": "2025-08-31T21:52:56.000",
    "date_modified": "2025-08-31T21:53:00.000",
    "request_status": "Pending",
    "responsible_agency": "Department of Public Works",
    "final_address": "53 Gull St",
    "address_councildis": "D",
    "status": "Pending",
    "rowid": "1222756",
    "final_x": "3674798.38216",
    "final_y": "555722.626713",
    "longitude": "-90.08840132152201",
    "latitude": "30.022246284257395",
    "geocoded_column": {
      "latitude": "30.022246284257395",
      "longitude": "-90.08840132152201"
    }
  },
  {
    "service_request": "2025-1222755",
    "request_type": "Trash/Recycling",
    "request_reason": "Request a Large Item Pick Up",
    "date_created": "2025-08-31T21:33:41.000",
    "date_modified": "2025-08-31T21:33:42.000",
    "request_status": "Pending",
    "responsible_agency": "Department of Sanitation",
    "final_address": "4917 Alsace St",
    "address_councildis": "E",
    "status": "Assigned to Contractor",
    "contractor": "Waste Pro",
    "rowid": "1222755",
    "final_x": "3730523.18048",
    "final_y": "562981.832096",
    "longitude": "-89.91204303993383",
    "latitude": "30.040423640143302",
    "geocoded_column": {
      "latitude": "30.040423640143302",
      "longitude": "-89.91204303993383"
    }
  },
  {
    "service_request": "2025-1222754",
    "request_type": "Abandoned Vehicles",
    "request_reason": "Abandoned/Junk Vehicles",
    "date_created": "2025-08-31T21:33:18.000",
    "date_modified": "2025-09-01T13:05:19.000",
    "request_status": "Pending",
    "responsible_agency": "Department of Public Works",
    "final_address": "1500 Mithra St",
    "address_councildis": "D",
    "status": "Inspected",
    "rowid": "1222754",
    "final_x": "3678571.96014",
    "final_y": "552090.12943",
    "longitude": "-90.0766036289206",
    "latitude": "30.012144958602537",
    "geocoded_column": {
      "latitude": "30.012144958602537",
      "longitude": "-90.0766036289206"
    }
  },
  {
    "service_request": "2025-1222753",
    "request_type": "Trash/Recycling",
    "request_reason": "Request a Large Item Pick Up",
    "date_created": "2025-08-31T21:29:28.000",
    "date_modified": "2025-08-31T21:29:40.000",
    "request_status": "Pending",
    "responsible_agency": "Department of Sanitation",
    "final_address": "4917 Alsace St",
    "address_councildis": "E",
    "status": "Assigned to Contractor",
    "contractor": "Waste Pro",
    "rowid": "1222753",
    "final_x": "3730523.18048",
    "final_y": "562981.832096",
    "longitude": "-89.91204303993383",
    "latitude": "30.040423640143302",
    "geocoded_column": {
      "latitude": "30.040423640143302",
      "longitude": "-89.91204303993383"
    }
  },
  {
    "service_request": "2025-1222752",
    "request_type": "Trash/Recycling",
    "request_reason": "Request a Large Item Pick Up",
    "date_created": "2025-08-31T21:27:29.000",
    "date_modified": "2025-08-31T21:27:31.000",
    "request_status": "Pending",
    "responsible_agency": "Department of Sanitation",
    "final_address": "14000 BLK Intrepid St",
    "address_councildis": "E",
    "status": "Assigned to Contractor",
    "contractor": "Waste Pro",
    "rowid": "1222752",
    "final_x": "3726279.45488",
    "final_y": "570623.204342",
    "longitude": "-89.92515762801222",
    "latitude": "30.061578263911315",
    "geocoded_column": {
      "latitude": "30.061578263911315",
      "longitude": "-89.92515762801222"
    }
  },
  {
    "service_request": "2025-1222751",
    "request_type": "Trash/Recycling",
    "request_reason": "Replace Trash Cart",
    "date_created": "2025-08-31T20:58:48.000",
    "date_modified": "2025-08-31T20:58:50.000",
    "request_status": "Pending",
    "responsible_agency": "Department of Sanitation",
    "final_address": "1527 Hillary St",
    "address_councildis": "A",
    "status": "Assigned to Contractor",
    "contractor": "IV Waste",
    "rowid": "1222751",
    "final_x": "3664205.19796",
    "final_y": "528020.105023",
    "longitude": "-90.12279807832023",
    "latitude": "29.946385882725853",
    "geocoded_column": {
      "latitude": "29.946385882725853",
      "longitude": "-90.12279807832023"
    }
  },
  {
    "service_request": "2025-1222750",
    "request_type": "Streetlights",
    "request_reason": "Streetlight Outage/Malfunction",
    "date_created": "2025-08-31T20:54:58.000",
    "date_modified": "2025-08-31T20:55:00.000",
    "request_status": "Pending",
    "responsible_agency": "Department of Public Works",
    "final_address": "937 Burdette St",
    "address_councildis": "A",
    "status": "Pending",
    "rowid": "1222750",
    "final_x": "3662325.79219",
    "final_y": "527038.988478",
    "longitude": "-90.12876461801767",
    "latitude": "29.94374258707137",
    "geocoded_column": {
      "latitude": "29.94374258707137",
      "longitude": "-90.12876461801767"
    }
  },
  {
    "service_request": "2025-1222749",
    "request_type": "Streetlights",
    "request_reason": "Streetlight Outage/Malfunction",
    "date_created": "2025-08-31T20:45:31.000",
    "date_modified": "2025-08-31T20:45:34.000",
    "request_status": "Pending",
    "responsible_agency": "Department of Public Works",
    "final_address": "FRERET ST & BURDETTE ST",
    "address_councildis": "A",
    "status": "Pending",
    "rowid": "1222749",
    "final_x": "3662319.9",
    "final_y": "527095.68",
    "longitude": "-90.128781339715",
    "latitude": "29.94389864099057",
    "geocoded_column": {
      "latitude": "29.94389864099057",
      "longitude": "-90.128781339715"
    }
  },
  {
    "service_request": "2025-1222748",
    "request_type": "Trash/Recycling",
    "request_reason": "Request a Large Item Pick Up",
    "date_created": "2025-08-31T20:40:54.000",
    "date_modified": "2025-08-31T20:40:56.000",
    "request_status": "Pending",
    "responsible_agency": "Department of Sanitation",
    "final_address": "7427 Pitt St",
    "address_councildis": "A",
    "status": "Assigned to Contractor",
    "contractor": "IV Waste",
    "rowid": "1222748",
    "final_x": "3661193.14042",
    "final_y": "523574.383099",
    "longitude": "-90.13245536356102",
    "latitude": "29.93424871007761",
    "geocoded_column": {
      "latitude": "29.93424871007761",
      "longitude": "-90.13245536356102"
    }
  },
  {
    "service_request": "2025-1222747",
    "request_type": "Trash/Recycling",
    "request_reason": "Request a Large Item Pick Up",
    "date_created": "2025-08-31T20:09:19.000",
    "date_modified": "2025-08-31T20:09:21.000",
    "request_status": "Pending",
    "responsible_agency": "Department of Sanitation",
    "final_address": "3420 Livingston St",
    "address_councildis": "A",
    "status": "Assigned to Contractor",
    "contractor": "IV Waste",
    "rowid": "1222747",
    "final_x": "3663681.79885",
    "final_y": "537655.029512",
    "longitude": "-90.12412960973492",
    "latitude": "29.972893976820906",
    "geocoded_column": {
      "latitude": "29.972893976820906",
      "longitude": "-90.12412960973492"
    }
  },
  {
    "service_request": "2025-1222746",
    "request_type": "Trash/Recycling",
    "request_reason": "Request a Large Item Pick Up",
    "date_created": "2025-08-31T20:03:59.000",
    "date_modified": "2025-08-31T20:04:01.000",
    "request_status": "Pending",
    "responsible_agency": "Department of Sanitation",
    "final_address": "2321 Seminole Ln",
    "address_councildis": "B",
    "status": "Assigned to Contractor",
    "contractor": "IV Waste",
    "rowid": "1222746",
    "final_x": "3673802.52993",
    "final_y": "528277.330944",
    "longitude": "-90.09248708162124",
    "latitude": "29.94681088538369",
    "geocoded_column": {
      "latitude": "29.94681088538369",
      "longitude": "-90.09248708162124"
    }
  },
  {
    "service_request": "2025-1222745",
    "request_type": "Property Maintenance",
    "request_reason": "Property Maintenance",
    "date_created": "2025-08-31T18:51:29.000",
    "date_modified": "2025-08-31T18:51:31.000",
    "request_status": "Pending",
    "responsible_agency": "Department of Code Enforcement",
    "final_address": "1123 Marengo St",
    "address_councildis": "B",
    "status": "Pending",
    "rowid": "1222745",
    "final_x": "3672168.01422",
    "final_y": "519847.244856",
    "longitude": "-90.09793482789676",
    "latitude": "29.923679447344355",
    "geocoded_column": {
      "latitude": "29.923679447344355",
      "longitude": "-90.09793482789676"
    }
  },
  {
    "service_request": "2025-1222744",
    "request_type": "Trash/Recycling",
    "request_reason": "Request a Large Item Pick Up",
    "date_created": "2025-08-31T18:48:40.000",
    "date_modified": "2025-08-31T18:48:42.000",
    "request_status": "Pending",
    "responsible_agency": "Department of Sanitation",
    "final_address": "837 Washington Ave",
    "address_councildis": "B",
    "status": "Assigned to Contractor",
    "contractor": "IV Waste",
    "rowid": "1222744",
    "final_x": "3677531.77646",
    "final_y": "520175.600504",
    "longitude": "-90.08099205923831",
    "latitude": "29.92442221582028",
    "geocoded_column": {
      "latitude": "29.92442221582028",
      "longitude": "-90.08099205923831"
    }
  },
  {
    "service_request": "2025-1222743",
    "request_type": "Streetlights",
    "request_reason": "Streetlight Outage/Malfunction",
    "date_created": "2025-08-31T18:15:44.000",
    "date_modified": "2025-08-31T18:15:45.000",
    "request_status": "Pending",
    "responsible_agency": "Department of Public Works",
    "final_address": "2010 Chippewa St",
    "address_councildis": "B",
    "status": "Pending",
    "rowid": "1222743",
    "final_x": "3680378.26312",
    "final_y": "521342.119673",
    "longitude": "-90.0719661447872",
    "latitude": "29.927543911102457",
    "geocoded_column": {
      "latitude": "29.927543911102457",
      "longitude": "-90.0719661447872"
    }
  },
  {
    "service_request": "2025-1222742",
    "request_type": "Trash/Recycling",
    "request_reason": "Request a Large Item Pick Up",
    "date_created": "2025-08-31T18:14:01.000",
    "date_modified": "2025-08-31T18:14:03.000",
    "request_status": "Pending",
    "responsible_agency": "Department of Sanitation",
    "final_address": "5351 Paris Ave",
    "address_councildis": "D",
    "status": "Assigned to Contractor",
    "contractor": "IV Waste",
    "rowid": "1222742",
    "final_x": "3679282.89832",
    "final_y": "551992.204374",
    "longitude": "-90.07436086650455",
    "latitude": "30.011854240783084",
    "geocoded_column": {
      "latitude": "30.011854240783084",
      "longitude": "-90.07436086650455"
    }
  },
  {
    "service_request": "2025-1222741",
    "request_type": "Traffic Signals",
    "request_reason": "Traffic Signal Malfunctioning or Damaged",
    "date_created": "2025-08-31T18:03:32.000",
    "date_modified": "2025-08-31T18:03:33.000",
    "request_status": "Pending",
    "responsible_agency": "Department of Public Works",
    "final_address": "1300 BLK Camp St",
    "address_councildis": "B",
    "status": "Pending",
    "rowid": "1222741",
    "final_x": "3680023.60153",
    "final_y": "524804.975768",
    "longitude": "-90.07296548462224",
    "latitude": "29.93707635590642",
    "geocoded_column": {
      "latitude": "29.93707635590642",
      "longitude": "-90.07296548462224"
    }
  },
  {
    "service_request": "2025-1222740",
    "request_type": "Abandoned Vehicles",
    "request_reason": "Abandoned/Junk Vehicles",
    "date_created": "2025-08-31T18:02:20.000",
    "date_modified": "2025-08-31T18:02:21.000",
    "request_status": "Pending",
    "responsible_agency": "Department of Public Works",
    "final_address": "136 S Cortez St",
    "address_councildis": "A",
    "status": "Pending",
    "rowid": "1222740",
    "final_x": "3671876.09659",
    "final_y": "537285.358152",
    "longitude": "-90.09826298341869",
    "latitude": "29.97163718611483",
    "geocoded_column": {
      "latitude": "29.97163718611483",
      "longitude": "-90.09826298341869"
    }
  },
  {
    "service_request": "2025-1222739",
    "request_type": "Trash/Recycling",
    "request_reason": "Request a Large Item Pick Up",
    "date_created": "2025-08-31T17:55:48.000",
    "date_modified": "2025-08-31T17:55:49.000",
    "request_status": "Pending",
    "responsible_agency": "Department of Sanitation",
    "final_address": "7833 Fig St",
    "address_councildis": "B",
    "status": "Assigned to Contractor",
    "contractor": "IV Waste",
    "rowid": "1222739",
    "final_x": "3666985.07553",
    "final_y": "532637.136452",
    "longitude": "-90.11386585229266",
    "latitude": "29.959000167739728",
    "geocoded_column": {
      "latitude": "29.959000167739728",
      "longitude": "-90.11386585229266"
    }
  },
  {
    "service_request": "2025-1222738",
    "request_type": "Street and Traffic Signs",
    "request_reason": "Street Name Sign Damaged or Missing",
    "date_created": "2025-08-31T17:55:27.000",
    "date_modified": "2025-08-31T17:55:28.000",
    "request_status": "Pending",
    "responsible_agency": "Department of Public Works",
    "final_address": "4200 Alfred St",
    "address_councildis": "D",
    "status": "Pending",
    "rowid": "1222738",
    "final_x": "3677559.71739",
    "final_y": "547609.275474",
    "longitude": "-90.0799565999133",
    "latitude": "29.999854694218335",
    "geocoded_column": {
      "latitude": "29.999854694218335",
      "longitude": "-90.0799565999133"
    }
  },
  {
    "service_request": "2025-1222737",
    "request_type": "Trash/Recycling",
    "request_reason": "Replace Recycling Cart",
    "date_created": "2025-08-31T17:51:46.000",
    "date_modified": "2025-08-31T17:51:48.000",
    "request_status": "Pending",
    "responsible_agency": "Department of Sanitation",
    "final_address": "4200 Alfred St B",
    "address_councildis": "D",
    "status": "Pending",
    "rowid": "1222737",
    "final_x": "3677517.98709",
    "final_y": "547606.025938",
    "longitude": "-90.08008854011496",
    "latitude": "29.999847014198618",
    "geocoded_column": {
      "latitude": "29.999847014198618",
      "longitude": "-90.08008854011496"
    }
  },
  {
    "service_request": "2025-1222736",
    "request_type": "Trash/Recycling",
    "request_reason": "Order Trash Cart",
    "date_created": "2025-08-31T17:48:26.000",
    "date_modified": "2025-08-31T17:48:28.000",
    "request_status": "Pending",
    "responsible_agency": "Department of Sanitation",
    "final_address": "1346 Harrison Ave",
    "address_councildis": "D",
    "status": "Assigned to Contractor",
    "contractor": "IV Waste",
    "rowid": "1222736",
    "final_x": "3677698.8189",
    "final_y": "547497.981906",
    "longitude": "-90.07952101901527",
    "latitude": "29.999544491781787",
    "geocoded_column": {
      "latitude": "29.999544491781787",
      "longitude": "-90.07952101901527"
    }
  },
  {
    "service_request": "2025-1222735",
    "request_type": "Streetlights",
    "request_reason": "Streetlight Outage/Malfunction",
    "date_created": "2025-08-31T17:33:25.000",
    "date_modified": "2025-08-31T17:33:28.000",
    "request_status": "Pending",
    "responsible_agency": "Department of Public Works",
    "final_address": "3314 Clermont Dr",
    "address_councildis": "D",
    "status": "Pending",
    "rowid": "1222735",
    "final_x": "3686190.61289",
    "final_y": "545026.145039",
    "longitude": "-90.05278247380821",
    "latitude": "29.992489598901614",
    "geocoded_column": {
      "latitude": "29.992489598901614",
      "longitude": "-90.05278247380821"
    }
  },