[
  {
    "service_request": "2023-962598",
    "request_type": "Trash/Recycling",
    "request_reason": "Missed Trash Pick-Up",
    "date_created": "2023-01-07T01:57:56.000",
    "date_modified": "2023-01-07T01:57:57.000",
    "request_status": "Pending",
    "responsible_agency": "Department of Sanitation",
    "final_address": "2807 Calhoun St",
    "address_councildis": "A",
    "status": "Assigned to Contractor",
    "contractor": "Richards Disposal",
    "rowid": "962598",
    "final_x": "3666671.01236",
    "final_y": "526983.80883",
    "longitude": "-90.11504739422583",
    "latitude": "29.94346454257683",
    "geocoded_column": {
      "latitude": "29.94346454257683",
      "longitude": "-90.11504739422583"
    }
  },
  {
    "service_request": "2023-962597",
    "request_type": "Traffic Signals/Signs/Striping/Streetlights",
    "request_reason": "Street Light Outage/Malfunction",
    "date_created": "2023-01-07T01:23:54.000",
    "date_modified": "2023-01-07T01:23:54.000",
    "request_status": "Pending",
    "responsible_agency": "Department of Public Works",
    "final_address": "2327 Loyola Ave",
    "address_councildis": "B",
    "status": "Assigned to Contractor",
    "contractor": "Legacy Professional Services",
    "rowid": "962597",
    "final_x": "3675810.44846",
    "final_y": "525061.717693",
    "longitude": "-90.08625784186661",
    "latitude": "29.937909066552734",
    "geocoded_column": {
      "latitude": "29.937909066552734",
      "longitude": "-90.08625784186661"
    }
  },
  {
    "service_request": "2023-962596",
    "request_type": "Trash/Recycling",
    "request_reason": "Missed Trash Pick-Up",
    "date_created": "2023-01-07T01:19:53.000",
    "date_modified": "2023-01-07T01:19:54.000",
    "request_status": "Pending",
    "responsible_agency": "Department of Sanitation",
    "final_address": "2327 Loyola Ave",
    "address_councildis": "B",
    "status": "Assigned to Contractor",
    "contractor": "Richards Disposal",
    "rowid": "962596",
    "final_x": "3675810.44846",
    "final_y": "525061.717693",
    "longitude": "-90.08625784186661",
    "latitude": "29.937909066552734",
    "geocoded_column": {
      "latitude": "29.937909066552734",
      "longitude": "-90.08625784186661"
    }
  },
  {
    "service_request": "2023-962595",
    "request_type": "Trash/Recycling",
    "request_reason": "Order Recycling Cart",
    "date_created": "2023-01-07T01:17:18.000",
    "date_modified": "2023-01-07T01:17:18.000",
    "request_status": "Pending",
    "responsible_agency": "Department of Sanitation",
    "final_address": "1900 Valentine Ct",
    "address_councildis": "C",
    "status": "Pending",
    "rowid": "962595",
    "final_x": "3699591.62327",
    "final_y": "524208.133884",
    "longitude": "-90.01121024962458",
    "latitude": "29.934828909150337",
    "geocoded_column": {
      "latitude": "29.934828909150337",
      "longitude": "-90.01121024962458"
    }
  },
  {
    "service_request": "2023-962594",
    "request_type": "Property Maintenance",
    "request_reason": "Property Maintenance",
    "date_created": "2023-01-07T01:16:58.000",
    "date_modified": "2023-01-07T01:16:58.000",
    "request_status": "Pending",
    "responsible_agency": "Department of Code Enforcement",
    "final_address": "4118 S Liberty St",
    "address_councildis": "B",
    "status": "Pending",
    "rowid": "962594",
    "final_x": "3671553.03515",
    "final_y": "523343.526459",
    "longitude": "-90.09975728049234",
    "latitude": "29.933311317314892",
    "geocoded_column": {
      "latitude": "29.933311317314892",
      "longitude": "-90.09975728049234"
    }
  },
  {
    "service_request": "2023-962593",
    "request_type": "Trash/Recycling",
    "request_reason": "Request a Large Item Pick Up",
    "date_created": "2023-01-07T01:15:05.000",
    "date_modified": "2023-01-07T01:15:06.000",
    "request_status": "Pending",
    "responsible_agency": "Department of Sanitation",
    "final_address": "1900 Valentine Ct",
    "address_councildis": "C",
    "status": "Assigned to Contractor",
    "contractor": "Richards Disposal",
    "rowid": "962593",
    "final_x": "3699591.62327",
    "final_y": "524208.133884",
    "longitude": "-90.01121024962458",
    "latitude": "29.934828909150337",
    "geocoded_column": {
      "latitude": "29.934828909150337",
      "longitude": "-90.01121024962458"
    }
  },
  {
    "service_request": "2023-962592",
    "request_type": "Trash/Recycling",
    "request_reason": "Missed Trash Pick-Up",
    "date_created": "2023-01-07T00:19:14.000",
    "date_modified": "2023-01-07T00:19:15.000",
    "request_status": "Pending",
    "responsible_agency": "Department of Sanitation",
    "final_address": "7618 St Charles Ave",
    "address_councildis": "A",
    "status": "Assigned to Contractor",
    "contractor": "Richards Disposal",
    "rowid": "962592",
    "final_x": "3661747.12179",
    "final_y": "525675.573117",
    "longitude": "-90.13063682774626",
    "latitude": "29.940010342531107",
    "geocoded_column": {
      "latitude": "29.940010342531107",
      "longitude": "-90.13063682774626"
    }
  },
  {
    "service_request": "2023-962590",
    "request_type": "Trash/Recycling",
    "request_reason": "Missed Trash Pick-Up",
    "date_created": "2023-01-06T23:52:51.000",
    "date_modified": "2023-01-06T23:52:52.000",
    "request_status": "Pending",
    "responsible_agency": "Department of Sanitation",
    "final_address": "2838 Coliseum St",
    "address_councildis": "B",
    "status": "Assigned to Contractor",
    "contractor": "Richards Disposal",
    "rowid": "962590",
    "final_x": "3676225.42248",
    "final_y": "521485.445753",
    "longitude": "-90.08507073116475",
    "latitude": "29.928063060555644",
    "geocoded_column": {
      "latitude": "29.928063060555644",
      "longitude": "-90.08507073116475"
    }
  },
  {
    "service_request": "2023-962589",
    "request_type": "Trash/Recycling",
    "request_reason": "Missed Trash Pick-Up",
    "date_created": "2023-01-06T23:49:34.000",
    "date_modified": "2023-01-06T23:49:34.000",
    "request_status": "Pending",
    "responsible_agency": "Department of Sanitation",
    "final_address": "609 Eleonore St",
    "address_councildis": "A",
    "status": "Assigned to Contractor",
    "contractor": "Richards Disposal",
    "rowid": "962589",
    "final_x": "3665134.981",
    "final_y": "518484.693558",
    "longitude": "-90.12018116679658",
    "latitude": "29.920139485356092",
    "geocoded_column": {
      "latitude": "29.920139485356092",
      "longitude": "-90.12018116679658"
    }
  },
  {
    "service_request": "2023-962588",
    "request_type": "Trash/Recycling",
    "request_reason": "Missed Trash Pick-Up",
    "date_created": "2023-01-06T23:39:37.000",
    "date_modified": "2023-01-06T23:39:38.000",
    "request_status": "Pending",
    "responsible_agency": "Department of Sanitation",
    "final_address": "1469 Magazine St Apt A",
    "address_councildis": "B",
    "status": "Assigned to Contractor",
    "contractor": "Richards Disposal",
    "rowid": "962588",
    "final_x": "3680157.05423",
    "final_y": "523959.081532",
    "longitude": "-90.07257355064685",
    "latitude": "29.934746389470813",
    "geocoded_column": {
      "latitude": "29.934746389470813",
      "longitude": "-90.07257355064685"
    }
  },
  {
    "service_request": "2023-962587",
    "request_type": "Trash/Recycling",
    "request_reason": "Missed Trash Pick-Up",
    "date_created": "2023-01-06T23:32:27.000",
    "date_modified": "2023-01-06T23:32:27.000",
    "request_status": "Pending",
    "responsible_agency": "Department of Sanitation",
    "final_address": "2710 Chestnut St",
    "address_councildis": "B",
    "status": "Assigned to Contractor",
    "contractor": "Richards Disposal",
    "rowid": "962587",
    "final_x": "3676837.25768",
    "final_y": "521499.455737",
    "longitude": "-90.08313882292929",
    "latitude": "29.92808324202447",
    "geocoded_column": {
      "latitude": "29.92808324202447",
      "longitude": "-90.08313882292929"
    }
  },
  {
    "service_request": "2023-962586",
    "request_type": "Traffic Signals/Signs/Striping/Streetlights",
    "request_reason": "Street Light Outage/Malfunction",
    "date_created": "2023-01-06T23:30:41.000",
    "date_modified": "2023-01-06T23:30:42.000",
    "request_status": "Pending",
    "responsible_agency": "Department of Public Works",
    "final_address": "3708 St Bernard Ave",
    "address_councildis": "D",
    "status": "Assigned to Contractor",
    "contractor": "Legacy Professional Services",
    "rowid": "962586",
    "final_x": "3677947.24232",
    "final_y": "545827.10184",
    "longitude": "-90.07879403155967",
    "latitude": "29.994942684410958",
    "geocoded_column": {
      "latitude": "29.994942684410958",
      "longitude": "-90.07879403155967"
    }
  },
  {
    "service_request": "2023-962585",
    "request_type": "Trash/Recycling",
    "request_reason": "Missed Trash Pick-Up",
    "date_created": "2023-01-06T23:30:29.000",
    "date_modified": "2023-01-06T23:30:29.000",
    "request_status": "Pending",
    "responsible_agency": "Department of Sanitation",
    "final_address": "2329 General Meyer Ave",
    "address_councildis": "C",
    "status": "Assigned to Contractor",
    "contractor": "Richards Disposal",
    "rowid": "962585",
    "final_x": "3692652.05296",
    "final_y": "527621.965631",
    "longitude": "-90.03299598049206",
    "latitude": "29.944434123735533",
    "geocoded_column": {
      "latitude": "29.944434123735533",
      "longitude": "-90.03299598049206"
    }
  },
  {
    "service_request": "2023-962584",
    "request_type": "Trash/Recycling",
    "request_reason": "Missed Trash Pick-Up",
    "date_created": "2023-01-06T23:20:10.000",
    "date_modified": "2023-01-06T23:20:11.000",
    "request_status": "Pending",
    "responsible_agency": "Department of Sanitation",
    "final_address": "2124 S Gayoso St",
    "address_councildis": "B",
    "status": "Assigned to Contractor",
    "contractor": "Richards Disposal",
    "rowid": "962584",
    "final_x": "3669691.5625",
    "final_y": "528928.721152",
    "longitude": "-90.10544490426787",
    "latitude": "29.948723765931963",
    "geocoded_column": {
      "latitude": "29.948723765931963",
      "longitude": "-90.10544490426787"
    }
  },
  {
    "service_request": "2023-962583",
    "request_type": "Trash/Recycling",
    "request_reason": "MIssed Recycling Pick-Up",
    "date_created": "2023-01-06T23:14:57.000",
    "date_modified": "2023-01-06T23:14:57.000",
    "request_status": "Pending",
    "responsible_agency": "Department of Sanitation",
    "final_address": "2124 S Gayoso St",
    "address_councildis": "B",
    "status": "Assigned to Contractor",
    "contractor": "Richards Disposal",
    "rowid": "962583",
    "final_x": "3669691.5625",
    "final_y": "528928.721152",
    "longitude": "-90.10544490426787",
    "latitude": "29.948723765931963",
    "geocoded_column": {
      "latitude": "29.948723765931963",
      "longitude": "-90.10544490426787"
    }
  },
  {
    "service_request": "2023-962582",
    "request_type": "Trash/Recycling",
    "request_reason": "Missed Trash Pick-Up",
    "date_created": "2023-01-06T23:11:52.000",
    "date_modified": "2023-01-06T23:11:53.000",
    "request_status": "Pending",
    "responsible_agency": "Department of Sanitation",
    "final_address": "1316 Joseph St",
    "address_councildis": "A",
    "status": "Assigned to Contractor",
    "contractor": "Richards Disposal",
    "rowid": "962582",
    "final_x": "3666473.94887",
    "final_y": "520699.303481",
    "longitude": "-90.11588039620861",
    "latitude": "29.926189917459155",
    "geocoded_column": {
      "latitude": "29.926189917459155",
      "longitude": "-90.11588039620861"
    }
  },
  {
    "service_request": "2023-962580",
    "request_type": "Trash/Recycling",
    "request_reason": "Missed Trash Pick-Up",
    "date_created": "2023-01-06T23:05:23.000",
    "date_modified": "2023-01-06T23:05:24.000",
    "request_status": "Pending",
    "responsible_agency": "Department of Sanitation",
    "final_address": "5826 Clara St",
    "address_councildis": "A",
    "status": "Assigned to Contractor",
    "contractor": "Richards Disposal",
    "rowid": "962580",
    "final_x": "3666914.57978",
    "final_y": "525225.735933",
    "longitude": "-90.11433743670578",
    "latitude": "29.938623284611396",
    "geocoded_column": {
      "latitude": "29.938623284611396",
      "longitude": "-90.11433743670578"
    }
  },
  {
    "service_request": "2023-962579",
    "request_type": "Trash/Recycling",
    "request_reason": "Missed Trash Pick-Up",
    "date_created": "2023-01-06T22:58:53.000",
    "date_modified": "2023-01-06T22:58:54.000",
    "request_status": "Pending",
    "responsible_agency": "Department of Sanitation",
    "final_address": "719 Amelia St",
    "address_councildis": "B",
    "status": "Assigned to Contractor",
    "contractor": "Richards Disposal",
    "rowid": "962579",
    "final_x": "3673991.65684",
    "final_y": "517913.063606",
    "longitude": "-90.09224437768499",
    "latitude": "29.918306878632688",
    "geocoded_column": {
      "latitude": "29.918306878632688",
      "longitude": "-90.09224437768499"
    }
  },
  {
    "service_request": "2023-962578",
    "request_type": "Trash/Recycling",
    "request_reason": "Repair Recycling Cart",
    "date_created": "2023-01-06T22:54:05.000",
    "date_modified": "2023-01-06T22:54:05.000",
    "request_status": "Pending",
    "responsible_agency": "Department of Sanitation",
    "final_address": "909 Fourth St",
    "address_councildis": "B",
    "status": "Pending",
    "rowid": "962578",
    "final_x": "3677708.1725",
    "final_y": "520480.457976",
    "longitude": "-90.08042471467652",
    "latitude": "29.92525517260911",
    "geocoded_column": {
      "latitude": "29.92525517260911",
      "longitude": "-90.08042471467652"
    }
  },
  {
    "service_request": "2023-962577",
    "request_type": "Trash/Recycling",
    "request_reason": "Missed Trash Pick-Up",
    "date_created": "2023-01-06T22:53:54.000",
    "date_modified": "2023-01-06T22:53:55.000",
    "request_status": "Pending",
    "responsible_agency": "Department of Sanitation",
    "final_address": "833 Ninth St",
    "address_councildis": "B",
    "status": "Assigned to Contractor",
    "contractor": "Richards Disposal",
    "rowid": "962577",
    "final_x": "3676346.57256",
    "final_y": "519374.250807",
    "longitude": "-90.08476090847552",
    "latitude": "29.922254328000392",
    "geocoded_column": {
      "latitude": "29.922254328000392",
      "longitude": "-90.08476090847552"
    }
  },
  {
    "service_request": "2023-962576",
    "request_type": "Trash/Recycling",
    "request_reason": "MIssed Recycling Pick-Up",
    "date_created": "2023-01-06T22:49:04.000",
    "date_modified": "2023-01-06T22:49:05.000",
    "request_status": "Pending",
    "responsible_agency": "Department of Sanitation",
    "final_address": "1227 Leonidas St",
    "address_councildis": "A",
    "status": "Assigned to Contractor",
    "contractor": "Richards Disposal",
    "rowid": "962576",
    "final_x": "3660847.15021",
    "final_y": "529727.962049",
    "longitude": "-90.13334420214194",
    "latitude": "29.951179064887057",
    "geocoded_column": {
      "latitude": "29.951179064887057",
      "longitude": "-90.13334420214194"
    }
  },
  {
    "service_request": "2023-962575",
    "request_type": "Trash/Recycling",
    "request_reason": "Missed Trash Pick-Up",
    "date_created": "2023-01-06T22:42:30.000",
    "date_modified": "2023-01-06T22:42:31.000",
    "request_status": "Pending",
    "responsible_agency": "Department of Sanitation",
    "final_address": "250 Pine St",
    "address_councildis": "A",
    "status": "Assigned to Contractor",
    "contractor": "Richards Disposal",
    "rowid": "962575",
    "final_x": "3661422.99757",
    "final_y": "523020.090363",
    "longitude": "-90.13174805831902",
    "latitude": "29.93271795345761",
    "geocoded_column": {
      "latitude": "29.93271795345761",
      "longitude": "-90.13174805831902"
    }
  },
  {
    "service_request": "2023-962574",
    "request_type": "Trash/Recycling",
    "request_reason": "MIssed Recycling Pick-Up",
    "date_created": "2023-01-06T22:36:07.000",
    "date_modified": "2023-01-06T22:36:08.000",
    "request_status": "Pending",
    "responsible_agency": "Department of Sanitation",
    "final_address": "919 Franklin Ave",
    "address_councildis": "C",
    "status": "Assigned to Contractor",
    "contractor": "IV Waste",
    "rowid": "962574",
    "final_x": "3686992.87951",
    "final_y": "535836.237319",
    "longitude": "-90.05057325056477",
    "latitude": "29.967195922244624",
    "geocoded_column": {
      "latitude": "29.967195922244624",
      "longitude": "-90.05057325056477"
    }
  },
  {
    "service_request": "2023-962573",
    "request_type": "Property Maintenance",
    "request_reason": "Property Maintenance",
    "date_created": "2023-01-06T22:35:17.000",
    "date_modified": "2023-01-06T22:35:17.000",
    "request_status": "Pending",
    "responsible_agency": "Department of Code Enforcement",
    "final_address": "1301 Lowerline St",
    "address_councildis": "A",
    "status": "Pending",
    "rowid": "962573",
    "final_x": "3663972.40563",
    "final_y": "527103.266687",
    "longitude": "-90.12356365182451",
    "latitude": "29.943871631808648",
    "geocoded_column": {
      "latitude": "29.943871631808648",
      "longitude": "-90.12356365182451"
    }
  },
  {
    "service_request": "2023-962572",
    "request_type": "Trash/Recycling",
    "request_reason": "Missed Trash Pick-Up",
    "date_created": "2023-01-06T22:34:28.000",
    "date_modified": "2023-01-06T22:34:29.000",
    "request_status": "Pending",
    "responsible_agency": "Department of Sanitation",
    "final_address": "919 Franklin Ave",
    "address_councildis": "C",
    "status": "Assigned to Contractor",
    "contractor": "IV Waste",
    "rowid": "962572",
    "final_x": "3686992.87951",
    "final_y": "535836.237319",
    "longitude": "-90.05057325056477",
    "latitude": "29.967195922244624",
    "geocoded_column": {
      "latitude": "29.967195922244624",
      "longitude": "-90.05057325056477"
    }
  },
  {
    "service_request": "2023-962571",
    "request_type": "Trash/Recycling",
    "request_reason": "Missed Trash Pick-Up",
    "date_created": "2023-01-06T22:29:48.000",
    "date_modified": "2023-01-06T22:29:49.000",
    "request_status": "Pending",
    "responsible_agency": "Department of Sanitation",
    "final_address": "2374 Laurel St",
    "address_councildis": "B",
    "status": "Assigned to Contractor",
    "contractor": "Richards Disposal",
    "rowid": "962571",
    "final_x": "3678526.11669",
    "final_y": "520874.250297",
    "longitude": "-90.07782910286775",
    "latitude": "29.926313355582053",
    "geocoded_column": {
      "latitude": "29.926313355582053",
      "longitude": "-90.07782910286775"
    }
  },
  {
    "service_request": "2023-962570",
    "request_type": "Trash/Recycling",
    "request_reason": "Missed Trash Pick-Up",
    "date_created": "2023-01-06T22:14:29.000",
    "date_modified": "2023-01-06T22:14:30.000",
    "request_status": "Pending",
    "responsible_agency": "Department of Sanitation",
    "final_address": "7543 Plum St",
    "address_councildis": "A",
    "status": "Assigned to Contractor",
    "contractor": "Richards Disposal",
    "rowid": "962570",
    "final_x": "3663674.71591",
    "final_y": "527389.747007",
    "longitude": "-90.12449400134017",
    "latitude": "29.944667999762608",
    "geocoded_column": {
      "latitude": "29.944667999762608",
      "longitude": "-90.12449400134017"
    }
  },
  {
    "service_request": "2023-962569",
    "request_type": "Trash/Recycling",
    "request_reason": "Missed Trash Pick-Up",
    "date_created": "2023-01-06T22:09:19.000",
    "date_modified": "2023-01-06T22:09:20.000",
    "request_status": "Pending",
    "responsible_agency": "Department of Sanitation",
    "final_address": "2301 Chippewa St",
    "address_councildis": "B",
    "status": "Assigned to Contractor",
    "contractor": "Richards Disposal",
    "rowid": "962569",
    "final_x": "3679385.04418",
    "final_y": "520685.144249",
    "longitude": "-90.07512426711997",
    "latitude": "29.92576746967116",
    "geocoded_column": {
      "latitude": "29.92576746967116",
      "longitude": "-90.07512426711997"
    }
  },
  {
    "service_request": "2023-962568",
    "request_type": "Trash/Recycling",
    "request_reason": "Missed Trash Pick-Up",
    "date_created": "2023-01-06T22:07:50.000",
    "date_modified": "2023-01-06T22:07:51.000",
    "request_status": "Pending",
    "responsible_agency": "Department of Sanitation",
    "final_address": "3313 Constance St",
    "address_councildis": "B",
    "status": "Assigned to Contractor",
    "contractor": "Richards Disposal",
    "rowid": "962568",
    "final_x": "3675421.13845",
    "final_y": "519444.948151",
    "longitude": "-90.08767970041416",
    "latitude": "29.922476418384566",
    "geocoded_column": {
      "latitude": "29.922476418384566",
      "longitude": "-90.08767970041416"
    }
  },
  {
    "service_request": "2023-962567",
    "request_type": "Trash/Recycling",
    "request_reason": "Missed Trash Pick-Up",
    "date_created": "2023-01-06T21:59:29.000",
    "date_modified": "2023-01-06T21:59:30.000",
    "request_status": "Pending",
    "responsible_agency": "Department of Sanitation",
    "final_address": "535 Arabella St",
    "address_councildis": "A",
    "status": "Assigned to Contractor",
    "contractor": "Richards Disposal",
    "rowid": "962567",
    "final_x": "3665709.33741",
    "final_y": "518227.41503",
    "longitude": "-90.11837680203152",
    "latitude": "29.9194153167254",
    "geocoded_column": {
      "latitude": "29.9194153167254",
      "longitude": "-90.11837680203152"
    }
  },
  {
    "service_request": "2023-962566",
    "request_type": "Trash/Recycling",
    "request_reason": "Missed Trash Pick-Up",
    "date_created": "2023-01-06T21:46:05.000",
    "date_modified": "2023-01-06T21:46:05.000",
    "request_status": "Pending",
    "responsible_agency": "Department of Sanitation",
    "final_address": "2836 Octavia St, New Orleans, Louisiana, 70115",
    "address_councildis": "A",
    "status": "Assigned to Contractor",
    "contractor": "Richards Disposal",
    "rowid": "962566",
    "final_x": "3667970.57748",
    "final_y": "525998.136701",
    "longitude": "-90.1109775148086",
    "latitude": "29.940716205485018",
    "geocoded_column": {
      "latitude": "29.940716205485018",
      "longitude": "-90.1109775148086"
    }
  },
  {
    "service_request": "2023-962565",
    "request_type": "Trash/Recycling",
    "request_reason": "Missed Trash Pick-Up",
    "date_created": "2023-01-06T21:45:44.000",
    "date_modified": "2023-01-06T21:45:45.000",
    "request_status": "Pending",
    "responsible_agency": "Department of Sanitation",
    "final_address": "6300 Laurel St",
    "address_councildis": "A",
    "status": "Assigned to Contractor",
    "contractor": "Richards Disposal",
    "rowid": "962565",
    "final_x": "3662937.88295",
    "final_y": "518747.005495",
    "longitude": "-90.12710767134647",
    "latitude": "29.920924540863524",
    "geocoded_column": {
      "latitude": "29.920924540863524",
      "longitude": "-90.12710767134647"
    }
  },
  {
    "service_request": "2023-962564",
    "request_type": "Trash/Recycling",
    "request_reason": "Missed Trash Pick-Up",
    "date_created": "2023-01-06T21:31:46.000",
    "date_modified": "2023-01-06T21:31:47.000",
    "request_status": "Pending",
    "responsible_agency": "Department of Sanitation",
    "final_address": "1001 Henry Clay Ave",
    "address_councildis": "A",
    "status": "Assigned to Contractor",
    "contractor": "Richards Disposal",
    "rowid": "962564",
    "final_x": "3664114.85536",
    "final_y": "520229.992632",
    "longitude": "-90.12334305472245",
    "latitude": "29.924968170625775",
    "geocoded_column": {
      "latitude": "29.924968170625775",
      "longitude": "-90.12334305472245"
    }
  },
  {
    "service_request": "2023-962563",
    "request_type": "Trash/Recycling",
    "request_reason": "Request a Large Item Pick Up",
    "date_created": "2023-01-06T21:28:15.000",
    "date_modified": "2023-01-06T21:28:15.000",
    "request_status": "Pending",
    "responsible_agency": "Department of Sanitation",
    "final_address": "2801 Orleans Ave",
    "address_councildis": "A",
    "status": "Assigned to Contractor",
    "contractor": "Richards Disposal",
    "rowid": "962563",
    "final_x": "3676335.76552",
    "final_y": "537427.993416",
    "longitude": "-90.08417375374246",
    "latitude": "29.97189645594447",
    "geocoded_column": {
      "latitude": "29.97189645594447",
      "longitude": "-90.08417375374246"
    }
  },
  {
    "service_request": "2023-962562",
    "request_type": "Trash/Recycling",
    "request_reason": "Missed Trash Pick-Up",
    "date_created": "2023-01-06T21:26:14.000",
    "date_modified": "2023-01-06T21:26:15.000",
    "request_status": "Pending",
    "responsible_agency": "Department of Sanitation",
    "final_address": "1311 S Gayoso St",
    "address_councildis": "B",
    "status": "Assigned to Contractor",
    "contractor": "Richards Disposal",
    "rowid": "962562",
    "final_x": "3671000.4962",
    "final_y": "531198.921474",
    "longitude": "-90.10123495736056",
    "latitude": "29.954927436514144",
    "geocoded_column": {
      "latitude": "29.954927436514144",
      "longitude": "-90.10123495736056"
    }
  },
  {
    "service_request": "2023-962561",
    "request_type": "Trash/Recycling",
    "request_reason": "Missed Trash Pick-Up",
    "date_created": "2023-01-06T21:25:33.000",
    "date_modified": "2023-01-06T21:25:34.000",
    "request_status": "Pending",
    "responsible_agency": "Department of Sanitation",
    "final_address": "2511 Constance St",
    "address_councildis": "B",
    "status": "Assigned to Contractor",
    "contractor": "Richards Disposal",
    "rowid": "962561",
    "final_x": "3677909.38933",
    "final_y": "520990.599673",
    "longitude": "-90.07977191915006",
    "latitude": "29.926651845079686",
    "geocoded_column": {
      "latitude": "29.926651845079686",
      "longitude": "-90.07977191915006"
    }
  },
  {
    "service_request": "2023-962560",
    "request_type": "Trash/Recycling",
    "request_reason": "Missed Trash Pick-Up",
    "date_created": "2023-01-06T21:25:04.000",
    "date_modified": "2023-01-06T21:25:05.000",
    "request_status": "Pending",
    "responsible_agency": "Department of Sanitation",
    "final_address": "3212 Chippewa St",
    "address_councildis": "B",
    "status": "Assigned to Contractor",
    "contractor": "Richards Disposal",
    "rowid": "962560",
    "final_x": "3676413.60449",
    "final_y": "518531.567159",
    "longitude": "-90.08457830524712",
    "latitude": "29.91993521087278",
    "geocoded_column": {
      "latitude": "29.91993521087278",
      "longitude": "-90.08457830524712"
    }
  },
  {
    "service_request": "2023-962559",
    "request_type": "Trash/Recycling",
    "request_reason": "Missed Trash Pick-Up",
    "date_created": "2023-01-06T21:17:12.000",
    "date_modified": "2023-01-06T21:17:13.000",
    "request_status": "Pending",
    "responsible_agency": "Department of Sanitation",
    "final_address": "7522 Jeannette St",
    "address_councildis": "A",
    "status": "Assigned to Contractor",
    "contractor": "Richards Disposal",
    "rowid": "962559",
    "final_x": "3664069.328",
    "final_y": "527748.667711",
    "longitude": "-90.12323612034218",
    "latitude": "29.945643463521094",
    "geocoded_column": {
      "latitude": "29.945643463521094",
      "longitude": "-90.12323612034218"
    }
  },
  {
    "service_request": "2023-962558",
    "request_type": "Trash/Recycling",
    "request_reason": "Missed Trash Pick-Up",
    "date_created": "2023-01-06T21:12:37.000",
    "date_modified": "2023-01-06T21:12:37.000",
    "request_status": "Pending",
    "responsible_agency": "Department of Sanitation",
    "final_address": "531 Arabella St",
    "address_councildis": "A",
    "status": "Assigned to Contractor",
    "contractor": "Richards Disposal",
    "rowid": "962558",
    "final_x": "3665735.48602",
    "final_y": "518184.451702",
    "longitude": "-90.11829570168344",
    "latitude": "29.919296418616298",
    "geocoded_column": {
      "latitude": "29.919296418616298",
      "longitude": "-90.11829570168344"
    }
  },
  {
    "service_request": "2023-962557",
    "request_type": "Trash/Recycling",
    "request_reason": "Missed Trash Pick-Up",
    "date_created": "2023-01-06T21:05:49.000",
    "date_modified": "2023-01-06T21:05:50.000",
    "request_status": "Pending",
    "responsible_agency": "Department of Sanitation",
    "final_address": "803 Sixth St, New Orleans, Louisiana, 70115",
    "status": "Assigned to Contractor",
    "rowid": "962557",
    "longitude": "0.0",
    "latitude": "0.0",
    "geocoded_column": {
      "latitude": "0.0",
      "longitude": "0.0"
    }
  },
  {
    "service_request": "2023-962556",
    "request_type": "Trash/Recycling",
    "request_reason": "Missed Trash Pick-Up",
    "date_created": "2023-01-06T21:05:41.000",
    "date_modified": "2023-01-06T21:05:42.000",
    "request_status": "Pending",
    "responsible_agency": "Department of Sanitation",
    "final_address": "2851 Chippewa St",
    "address_councildis": "B",
    "status": "Assigned to Contractor",
    "contractor": "Richards Disposal",
    "rowid": "962556",
    "final_x": "3677508.43829",
    "final_y": "519376.344375",
    "longitude": "-90.08109330241955",
    "latitude": "29.92222522166609",
    "geocoded_column": {
      "latitude": "29.92222522166609",
      "longitude": "-90.08109330241955"
    }
  },
  {
    "service_request": "2023-962555",
    "request_type": "Traffic Signals/Signs/Striping/Streetlights",
    "request_reason": "Street Light Outage/Malfunction",
    "date_created": "2023-01-06T21:03:56.000",
    "date_modified": "2023-01-06T21:03:57.000",
    "request_status": "Pending",
    "responsible_agency": "Department of Public Works",
    "final_address": "978 Harding Dr",
    "address_councildis": "A",
    "status": "Assigned to Contractor",
    "contractor": "Legacy Professional Services",
    "rowid": "962555",
    "final_x": "3674509.35348",
    "final_y": "540227.094603",
    "longitude": "-90.08984592788774",
    "latitude": "29.979647651010495",
    "geocoded_column": {
      "latitude": "29.979647651010495",
      "longitude": "-90.08984592788774"
    }
  },
  {
    "service_request": "2023-962554",
    "request_type": "Trash/Recycling",
    "request_reason": "Missed Trash Pick-Up",
    "date_created": "2023-01-06T21:00:42.000",
    "date_modified": "2023-01-06T21:00:42.000",
    "request_status": "Pending",
    "responsible_agency": "Department of Sanitation",
    "final_address": "2418 Magazine St",
    "address_councildis": "B",
    "status": "Assigned to Contractor",
    "contractor": "Richards Disposal",
    "rowid": "962554",
    "final_x": "3677956.30075",
    "final_y": "521361.025849",
    "longitude": "-90.0796110382397",
    "latitude": "29.927668985190042",
    "geocoded_column": {
      "latitude": "29.927668985190042",
      "longitude": "-90.0796110382397"
    }
  },
  {
    "service_request": "2023-962553",
    "request_type": "Trash/Recycling",
    "request_reason": "Missed Trash Pick-Up",
    "date_created": "2023-01-06T20:53:05.000",
    "date_modified": "2023-01-06T20:53:06.000",
    "request_status": "Pending",
    "responsible_agency": "Department of Sanitation",
    "final_address": "2526 Laurel St",
    "address_councildis": "B",
    "status": "Assigned to Contractor",
    "contractor": "Richards Disposal",
    "rowid": "962553",
    "final_x": "3678054.39899",
    "final_y": "520564.916536",
    "longitude": "-90.07932886914023",
    "latitude": "29.925476991990053",
    "geocoded_column": {
      "latitude": "29.925476991990053",
      "longitude": "-90.07932886914023"
    }
  },
  {
    "service_request": "2023-962552",
    "request_type": "Trash/Recycling",
    "request_reason": "Missed Trash Pick-Up",
    "date_created": "2023-01-06T20:51:16.000",
    "date_modified": "2023-01-06T20:51:17.000",
    "request_status": "Pending",
    "responsible_agency": "Department of Sanitation",
    "final_address": "1337 State St",
    "address_councildis": "A",
    "status": "Assigned to Contractor",
    "contractor": "Richards Disposal",
    "rowid": "962552",
    "final_x": "3665410.92103",
    "final_y": "521082.616825",
    "longitude": "-90.11922326261714",
    "latitude": "29.927274922157512",
    "geocoded_column": {
      "latitude": "29.927274922157512",
      "longitude": "-90.11922326261714"
    }
  },
  {
    "service_request": "2023-962551",
    "request_type": "Abandoned Vehicles",
    "request_reason": "Abandoned/Junk Vehicles",
    "date_created": "2023-01-06T20:40:09.000",
    "date_modified": "2023-01-06T20:40:09.000",
    "request_status": "Pending",
    "responsible_agency": "Department of Public Works",
    "final_address": "4319 S Tonti St",
    "address_councildis": "B",
    "status": "Pending",
    "rowid": "962551",
    "final_x": "3670357.6635",
    "final_y": "528216.473152",
    "longitude": "-90.1033658741469",
    "latitude": "29.946745672930323",
    "geocoded_column": {
      "latitude": "29.946745672930323",
      "longitude": "-90.1033658741469"
    }
  },
  {
    "service_request": "2023-962550",
    "request_type": "Trash/Recycling",
    "request_reason": "Missed Trash Pick-Up",
    "date_created": "2023-01-06T20:33:38.000",
    "date_modified": "2023-01-06T20:33:39.000",
    "request_status": "Pending",
    "responsible_agency": "Department of Sanitation",
    "final_address": "2620 Laurel St",
    "address_councildis": "B",
    "status": "Assigned to Contractor",
    "contractor": "Richards Disposal",
    "rowid": "962550",
    "final_x": "3677831.14306",
    "final_y": "520418.890296",
    "longitude": "-90.08003866114964",
    "latitude": "29.925082183672874",
    "geocoded_column": {
      "latitude": "29.925082183672874",
      "longitude": "-90.08003866114964"
    }
  },
  {
    "service_request": "2023-962549",
    "request_type": "Trash/Recycling",
    "request_reason": "Missed Trash Pick-Up",
    "date_created": "2023-01-06T20:30:26.000",
    "date_modified": "2023-01-06T20:30:27.000",
    "request_status": "Pending",
    "responsible_agency": "Department of Sanitation",
    "final_address": "615 Henry Clay Ave",
    "address_councildis": "A",
    "status": "Assigned to Contractor",
    "contractor": "Richards Disposal",
    "rowid": "962549",
    "final_x": "3663642.46701",
    "final_y": "519055.358647",
    "longitude": "-90.12487334355423",
    "latitude": "29.92175200226555",
    "geocoded_column": {
      "latitude": "29.92175200226555",
      "longitude": "-90.12487334355423"
    }
  },
  {
    "service_request": "2023-962548",
    "request_type": "Trash/Recycling",
    "request_reason": "Missed Trash Pick-Up",
    "date_created": "2023-01-06T20:29:51.000",
    "date_modified": "2023-01-06T20:29:52.000",
    "request_status": "Pending",
    "responsible_agency": "Department of Sanitation",
    "final_address": "613 Henry Clay Ave",
    "address_councildis": "A",
    "status": "Assigned to Contractor",
    "contractor": "Richards Disposal",
    "rowid": "962548",
    "final_x": "3663636.91149",
    "final_y": "519042.164215",
    "longitude": "-90.12489131928423",
    "latitude": "29.921715882800466",
    "geocoded_column": {
      "latitude": "29.921715882800466",
      "longitude": "-90.12489131928423"
    }
  },
  {
    "service_request": "2023-962547",
    "request_type": "Trash/Recycling",
    "request_reason": "MIssed Recycling Pick-Up",
    "date_created": "2023-01-06T20:29:19.000",
    "date_modified": "2023-01-06T20:29:20.000",
    "request_status": "Pending",
    "responsible_agency": "Department of Sanitation",
    "final_address": "615 Henry Clay Ave",
    "address_councildis": "A",
    "status": "Assigned to Contractor",
    "contractor": "Richards Disposal",
    "rowid": "962547",
    "final_x": "3663642.46701",
    "final_y": "519055.358647",
    "longitude": "-90.12487334355423",
    "latitude": "29.92175200226555",
    "geocoded_column": {
      "latitude": "29.92175200226555",
      "longitude": "-90.12487334355423"
    }
  },
  {
    "service_request": "2023-962546",
    "request_type": "Trash/Recycling",
    "request_reason": "MIssed Recycling Pick-Up",
    "date_created": "2023-01-06T20:28:41.000",
    "date_modified": "2023-01-06T20:28:42.000",
    "request_status": "Pending",
    "responsible_agency": "Department of Sanitation",
    "final_address": "613 Henry Clay Ave",
    "address_councildis": "A",
    "status": "Assigned to Contractor",
    "contractor": "Richards Disposal",
    "rowid": "962546",
    "final_x": "3663636.91149",
    "final_y": "519042.164215",
    "longitude": "-90.12489131928423",
    "latitude": "29.921715882800466",
    "geocoded_column": {
      "latitude": "29.921715882800466",
      "longitude": "-90.12489131928423"
    }
  },
  {
    "service_request": "2023-962545",
    "request_type": "Trash/Recycling",
    "request_reason": "Missed Trash Pick-Up",
    "date_created": "2023-01-06T20:25:03.000",
    "date_modified": "2023-01-06T20:25:04.000",
    "request_status": "Pending",
    "responsible_agency": "Department of Sanitation",
    "final_address": "608 Arabella St",
    "address_councildis": "A",
    "status": "Assigned to Contractor",
    "contractor": "Richards Disposal",
    "rowid": "962545",
    "final_x": "3665661.39303",
    "final_y": "518361.733558",
    "longitude": "-90.11852364404969",
    "latitude": "29.919786048400677",
    "geocoded_column": {
      "latitude": "29.919786048400677",
      "longitude": "-90.11852364404969"
    }
  },
  {
    "service_request": "2023-962544",
    "request_type": "Trash/Recycling",
    "request_reason": "Missed Trash Pick-Up",
    "date_created": "2023-01-06T20:22:55.000",
    "date_modified": "2023-01-06T20:22:55.000",
    "request_status": "Pending",
    "responsible_agency": "Department of Sanitation",
    "final_address": "1522 Simon Bolivar Ave",
    "address_councildis": "B",
    "status": "Assigned to Contractor",
    "contractor": "Richards Disposal",
    "rowid": "962544",
    "final_x": "3677250.9261",
    "final_y": "526494.983358",
    "longitude": "-90.08166070222862",
    "latitude": "29.941806888272563",
    "geocoded_column": {
      "latitude": "29.941806888272563",
      "longitude": "-90.08166070222862"
    }
  },
  {
    "service_request": "2023-962543",
    "request_type": "Trash/Recycling",
    "request_reason": "Missed Trash Pick-Up",
    "date_created": "2023-01-06T20:22:14.000",
    "date_modified": "2023-01-06T20:22:15.000",
    "request_status": "Pending",
    "responsible_agency": "Department of Sanitation",
    "final_address": "3101 Nashville Ave",
    "address_councildis": "A",
    "status": "Assigned to Contractor",
    "contractor": "Richards Disposal",
    "rowid": "962543",
    "final_x": "3667868.36692",
    "final_y": "527160.645183",
    "longitude": "-90.11126106803131",
    "latitude": "29.94391572617421",
    "geocoded_column": {
      "latitude": "29.94391572617421",
      "longitude": "-90.11126106803131"
    }
  },
  {
    "service_request": "2023-962542",
    "request_type": "Traffic Signals/Signs/Striping/Streetlights",
    "request_reason": "Traffic Sign Missing/Damaged",
    "date_created": "2023-01-06T20:21:01.000",
    "date_modified": "2023-01-06T20:21:01.000",
    "request_status": "Pending",
    "responsible_agency": "Department of Public Works",
    "final_address": "3101 Nashville Ave",
    "address_councildis": "A",
    "status": "Pending",
    "rowid": "962542",
    "final_x": "3667868.36692",
    "final_y": "527160.645183",
    "longitude": "-90.11126106803131",
    "latitude": "29.94391572617421",
    "geocoded_column": {
      "latitude": "29.94391572617421",
      "longitude": "-90.11126106803131"
    }
  },
  {
    "service_request": "2023-962541",
    "request_type": "Trash/Recycling",
    "request_reason": "Missed Trash Pick-Up",
    "date_created": "2023-01-06T20:19:46.000",
    "date_modified": "2023-01-06T20:19:47.000",
    "request_status": "Pending",
    "responsible_agency": "Department of Sanitation",
    "final_address": "753 Adele St",
    "address_councildis": "B",
    "status": "Assigned to Contractor",
    "contractor": "Richards Disposal",
    "rowid": "962541",
    "final_x": "3680080.06127",
    "final_y": "521582.630969",
    "longitude": "-90.07289914328175",
    "latitude": "29.928214261277105",
    "geocoded_column": {
      "latitude": "29.928214261277105",
      "longitude": "-90.07289914328175"
    }
  },
  {
    "service_request": "2023-962540",
    "request_type": "Trash/Recycling",
    "request_reason": "MIssed Recycling Pick-Up",
    "date_created": "2023-01-06T20:15:35.000",
    "date_modified": "2023-01-06T20:15:36.000",
    "request_status": "Pending",
    "responsible_agency": "Department of Sanitation",
    "final_address": "3122 De Soto St",
    "address_councildis": "A",
    "status": "Assigned to Contractor",
    "contractor": "Richards Disposal",
    "rowid": "962540",
    "final_x": "3676217.18677",
    "final_y": "539849.446858",
    "longitude": "-90.08446489515823",
    "latitude": "29.978558177737682",
    "geocoded_column": {
      "latitude": "29.978558177737682",
      "longitude": "-90.08446489515823"
    }
  },
  {
    "service_request": "2023-962539",
    "request_type": "Trash/Recycling",
    "request_reason": "Missed Trash Pick-Up",
    "date_created": "2023-01-06T20:09:48.000",
    "date_modified": "2023-01-06T20:09:49.000",
    "request_status": "Pending",
    "responsible_agency": "Department of Sanitation",
    "final_address": "722 Aline St",
    "address_councildis": "B",
    "status": "Assigned to Contractor",
    "contractor": "Richards Disposal",
    "rowid": "962539",
    "final_x": "3674883.72334",
    "final_y": "518046.897334",
    "longitude": "-90.08942401257958",
    "latitude": "29.91864828048814",
    "geocoded_column": {
      "latitude": "29.91864828048814",
      "longitude": "-90.08942401257958"
    }
  },
  {
    "service_request": "2023-962538",
    "request_type": "Trash/Recycling",
    "request_reason": "Missed Trash Pick-Up",
    "date_created": "2023-01-06T20:06:40.000",
    "date_modified": "2023-01-06T20:06:40.000",
    "request_status": "Pending",
    "responsible_agency": "Department of Sanitation",
    "final_address": "2364 Chippewa St",
    "address_councildis": "B",
    "status": "Assigned to Contractor",
    "contractor": "Richards Disposal",
    "rowid": "962538",
    "final_x": "3679015.8733",
    "final_y": "520321.210488",
    "longitude": "-90.07630223184086",
    "latitude": "29.924777911708894",
    "geocoded_column": {
      "latitude": "29.924777911708894",
      "longitude": "-90.07630223184086"
    }
  },
  {
    "service_request": "2023-962537",
    "request_type": "Trash/Recycling",
    "request_reason": "Missed Trash Pick-Up",
    "date_created": "2023-01-06T20:04:35.000",
    "date_modified": "2023-01-06T20:04:36.000",
    "request_status": "Pending",
    "responsible_agency": "Department of Sanitation",
    "final_address": "806 Foucher St",
    "address_councildis": "B",
    "status": "Assigned to Contractor",
    "contractor": "Richards Disposal",
    "rowid": "962537",
    "final_x": "3674447.84283",
    "final_y": "518324.638966",
    "longitude": "-90.09079035351463",
    "latitude": "29.919424985044802",
    "geocoded_column": {
      "latitude": "29.919424985044802",
      "longitude": "-90.09079035351463"
    }
  },
  {
    "service_request": "2023-962536",
    "request_type": "Abandoned Vehicles",
    "request_reason": "Abandoned/Junk Vehicles",
    "date_created": "2023-01-06T20:03:37.000",
    "date_modified": "2023-01-06T20:03:37.000",
    "request_status": "Pending",
    "responsible_agency": "Department of Public Works",
    "final_address": "4100 Fiesta St",
    "address_councildis": "C",
    "status": "Pending",
    "rowid": "962536",
    "final_x": "3698933.532",
    "final_y": "522388.836346",
    "longitude": "-90.0133539854416",
    "latitude": "29.92984733197228",
    "geocoded_column": {
      "latitude": "29.92984733197228",
      "longitude": "-90.0133539854416"
    }
  },
  {
    "service_request": "2023-962535",
    "request_type": "Trash/Recycling",
    "request_reason": "Missed Trash Pick-Up",
    "date_created": "2023-01-06T20:03:01.000",
    "date_modified": "2023-01-06T20:03:02.000",
    "request_status": "Pending",
    "responsible_agency": "Department of Sanitation",
    "final_address": "523 Arabella St",
    "address_councildis": "A",
    "status": "Assigned to Contractor",
    "contractor": "Richards Disposal",
    "rowid": "962535",
    "final_x": "3665689.51252",
    "final_y": "518117.584246",
    "longitude": "-90.1184430552486",
    "latitude": "29.919113894410575",
    "geocoded_column": {
      "latitude": "29.919113894410575",
      "longitude": "-90.1184430552486"
    }
  },
  {
    "service_request": "2023-962534",
    "request_type": "Trash/Recycling",
    "request_reason": "Replace Trash Cart",
    "date_created": "2023-01-06T20:02:27.000",
    "date_modified": "2023-01-06T20:02:28.000",
    "request_status": "Pending",
    "responsible_agency": "Department of Sanitation",
    "final_address": "5107 Dryades St",
    "address_councildis": "B",
    "status": "Assigned to Contractor",
    "contractor": "Richards Disposal",
    "rowid": "962534",
    "final_x": "3668327.39854",
    "final_y": "521870.612282",
    "longitude": "-90.10999009292964",
    "latitude": "29.929356365141565",
    "geocoded_column": {
      "latitude": "29.929356365141565",
      "longitude": "-90.10999009292964"
    }
  },
  {
    "service_request": "2023-962533",
    "request_type": "Trash/Recycling",
    "request_reason": "Missed Trash Pick-Up",
    "date_created": "2023-01-06T19:51:28.000",
    "date_modified": "2023-01-06T19:51:29.000",
    "request_status": "Pending",
    "responsible_agency": "Department of Sanitation",
    "final_address": "621 First St",
    "address_councildis": "B",
    "status": "Assigned to Contractor",
    "contractor": "Richards Disposal",
    "rowid": "962533",
    "final_x": "3679004.1636",
    "final_y": "520156.274104",
    "longitude": "-90.07634490701231",
    "latitude": "29.92432474356475",
    "geocoded_column": {
      "latitude": "29.92432474356475",
      "longitude": "-90.07634490701231"
    }
  },
  {
    "service_request": "2023-962532",
    "request_type": "Abandoned Vehicles",
    "request_reason": "Abandoned/Junk Vehicles",
    "date_created": "2023-01-06T19:48:28.000",
    "date_modified": "2023-01-06T19:48:28.000",
    "request_status": "Pending",
    "responsible_agency": "Department of Public Works",
    "final_address": "4119 Fiesta St",
    "address_councildis": "C",
    "status": "Pending",
    "rowid": "962532",
    "final_x": "3699064.39581",
    "final_y": "522263.347322",
    "longitude": "-90.0129454382908",
    "latitude": "29.92949813456331",
    "geocoded_column": {
      "latitude": "29.92949813456331",
      "longitude": "-90.0129454382908"
    }
  },
  {
    "service_request": "2023-962531",
    "request_type": "Trash/Recycling",
    "request_reason": "Replace Recycling Cart",
    "date_created": "2023-01-06T19:46:20.000",
    "date_modified": "2023-01-06T19:46:20.000",
    "request_status": "Pending",
    "responsible_agency": "Department of Sanitation",
    "final_address": "4737 Camp St",
    "address_councildis": "B",
    "status": "Pending",
    "rowid": "962531",
    "final_x": "3669594.07124",
    "final_y": "519046.451127",
    "longitude": "-90.10608691997538",
    "latitude": "29.92155357446809",
    "geocoded_column": {
      "latitude": "29.92155357446809",
      "longitude": "-90.10608691997538"
    }
  },
  {
    "service_request": "2023-962530",
    "request_type": "Trash/Recycling",
    "request_reason": "Missed Trash Pick-Up",
    "date_created": "2023-01-06T19:44:17.000",
    "date_modified": "2023-01-06T19:44:17.000",
    "request_status": "Pending",
    "responsible_agency": "Department of Sanitation",
    "final_address": "3856 Mimosa Dr",
    "address_councildis": "C",
    "status": "Assigned to Contractor",
    "contractor": "Richards Disposal",
    "rowid": "962530",
    "final_x": "3704279.51332",
    "final_y": "513116.898673",
    "longitude": "-89.99681917515323",
    "latitude": "29.904182278992106",
    "geocoded_column": {
      "latitude": "29.904182278992106",
      "longitude": "-89.99681917515323"
    }
  },
  {
    "service_request": "2023-962529",
    "request_type": "Trash/Recycling",
    "request_reason": "MIssed Recycling Pick-Up",
    "date_created": "2023-01-06T19:43:06.000",
    "date_modified": "2023-01-06T19:43:06.000",
    "request_status": "Pending",
    "responsible_agency": "Department of Sanitation",
    "final_address": "3516 Napoleon Ave",
    "address_councildis": "B",
    "status": "Assigned to Contractor",
    "contractor": "Richards Disposal",
    "rowid": "962529",
    "final_x": "3670017.62484",
    "final_y": "527699.786175",
    "longitude": "-90.10445699851118",
    "latitude": "29.945334984221443",
    "geocoded_column": {
      "latitude": "29.945334984221443",
      "longitude": "-90.10445699851118"
    }
  },
  {
    "service_request": "2023-962528",
    "request_type": "Trash/Recycling",
    "request_reason": "Missed Trash Pick-Up",
    "date_created": "2023-01-06T19:40:39.000",
    "date_modified": "2023-01-06T19:40:40.000",
    "request_status": "Pending",
    "responsible_agency": "Department of Sanitation",
    "final_address": "5527 Willow St Apt A",
    "address_councildis": "A",
    "status": "Assigned to Contractor",
    "contractor": "Richards Disposal",
    "rowid": "962528",
    "final_x": "3667701.82458",
    "final_y": "525451.508285",
    "longitude": "-90.11184441433593",
    "latitude": "29.93922103384826",
    "geocoded_column": {
      "latitude": "29.93922103384826",
      "longitude": "-90.11184441433593"
    }
  },
  {
    "service_request": "2023-962527",
    "request_type": "Trash/Recycling",
    "request_reason": "Missed Trash Pick-Up",
    "date_created": "2023-01-06T19:33:37.000",
    "date_modified": "2023-01-06T19:33:38.000",
    "request_status": "Pending",
    "responsible_agency": "Department of Sanitation",
    "final_address": "2400 BLK Laurel St",
    "address_councildis": "B",
    "status": "Assigned to Contractor",
    "contractor": "Richards Disposal",
    "rowid": "962527",
    "final_x": "3678356.16687",
    "final_y": "520804.213429",
    "longitude": "-90.07836800787834",
    "latitude": "29.926125896211307",
    "geocoded_column": {
      "latitude": "29.926125896211307",
      "longitude": "-90.07836800787834"
    }
  },
  {
    "service_request": "2023-962526",
    "request_type": "Trash/Recycling",
    "request_reason": "Missed Trash Pick-Up",
    "date_created": "2023-01-06T19:30:35.000",
    "date_modified": "2023-01-06T19:30:36.000",
    "request_status": "Pending",
    "responsible_agency": "Department of Sanitation",
    "final_address": "1724 Josephine St, New Orleans, Louisiana, 70113",
    "address_councildis": "B",
    "status": "Assigned to Contractor",
    "contractor": "Richards Disposal",
    "rowid": "962526",
    "final_x": "3677537.44053",
    "final_y": "524373.990332",
    "longitude": "-90.0808293141306",
    "latitude": "29.935966247436124",
    "geocoded_column": {
      "latitude": "29.935966247436124",
      "longitude": "-90.0808293141306"
    }
  },
  {
    "service_request": "2023-962525",
    "request_type": "Trash/Recycling",
    "request_reason": "Missed Trash Pick-Up",
    "date_created": "2023-01-06T19:30:27.000",
    "date_modified": "2023-01-06T19:30:28.000",
    "request_status": "Pending",
    "responsible_agency": "Department of Sanitation",
    "final_address": "7824 Freret St",
    "address_councildis": "A",
    "status": "Assigned to Contractor",
    "contractor": "Richards Disposal",
    "rowid": "962525",
    "final_x": "3662150.9337",
    "final_y": "527202.513151",
    "longitude": "-90.12931127085565",
    "latitude": "29.9441972810747",
    "geocoded_column": {
      "latitude": "29.9441972810747",
      "longitude": "-90.12931127085565"
    }
  },
  {
    "service_request": "2023-962524",
    "request_type": "Trash/Recycling",
    "request_reason": "Missed Trash Pick-Up",
    "date_created": "2023-01-06T19:30:09.000",
    "date_modified": "2023-01-06T19:30:10.000",
    "request_status": "Pending",
    "responsible_agency": "Department of Sanitation",
    "final_address": "3024 Jackson Ave",
    "address_councildis": "B",
    "status": "Assigned to Contractor",
    "contractor": "Richards Disposal",
    "rowid": "962524",
    "final_x": "3674158.23048",
    "final_y": "528122.353023",
    "longitude": "-90.09136930711328",
    "latitude": "29.946374150864685",
    "geocoded_column": {
      "latitude": "29.946374150864685",
      "longitude": "-90.09136930711328"
    }
  },
  {
    "service_request": "2023-962523",
    "request_type": "Traffic Signals/Signs/Striping/Streetlights",
    "request_reason": "Street Light Outage/Malfunction",
    "date_created": "2023-01-06T19:24:35.000",
    "date_modified": "2023-01-06T19:24:36.000",
    "request_status": "Pending",
    "responsible_agency": "Department of Public Works",
    "final_address": "6101 Argonne Blvd",
    "address_councildis": "A",
    "status": "Assigned to Contractor",
    "contractor": "Legacy Professional Services",
    "rowid": "962523",
    "final_x": "3670281.2923",
    "final_y": "547836.900178",
    "longitude": "-90.1029418059407",
    "latitude": "30.000697488116646",
    "geocoded_column": {
      "latitude": "30.000697488116646",
      "longitude": "-90.1029418059407"
    }
  },
  {
    "service_request": "2023-962522",
    "request_type": "Trash/Recycling",
    "request_reason": "Missed Trash Pick-Up",
    "date_created": "2023-01-06T19:22:16.000",
    "date_modified": "2023-01-06T19:22:17.000",
    "request_status": "Pending",
    "responsible_agency": "Department of Sanitation",
    "final_address": "4210 General Pershing St",
    "address_councildis": "B",
    "status": "Assigned to Contractor",
    "contractor": "Richards Disposal",
    "rowid": "962522",
    "final_x": "3669813.07674",
    "final_y": "529450.519617",
    "longitude": "-90.10504357010639",
    "latitude": "29.95015495996274",
    "geocoded_column": {
      "latitude": "29.95015495996274",
      "longitude": "-90.10504357010639"
    }
  },
  {
    "service_request": "2023-962521",
    "request_type": "Trash/Recycling",
    "request_reason": "Missed Trash Pick-Up",
    "date_created": "2023-01-06T19:10:59.000",
    "date_modified": "2023-01-06T19:11:00.000",
    "request_status": "Pending",
    "responsible_agency": "Department of Sanitation",
    "final_address": "7432 Hurst St",
    "address_councildis": "A",
    "status": "Assigned to Contractor",
    "contractor": "Richards Disposal",
    "rowid": "962521",
    "final_x": "3661462.61306",
    "final_y": "524033.978172",
    "longitude": "-90.13158942548503",
    "latitude": "29.935504683472388",
    "geocoded_column": {
      "latitude": "29.935504683472388",
      "longitude": "-90.13158942548503"
    }
  },
  {
    "service_request": "2023-962520",
    "request_type": "Trash/Recycling",
    "request_reason": "Missed Trash Pick-Up",
    "date_created": "2023-01-06T19:02:41.000",
    "date_modified": "2023-01-06T19:02:42.000",
    "request_status": "Pending",
    "responsible_agency": "Department of Sanitation",
    "final_address": "4754 Bonita Dr",
    "address_councildis": "E",
    "status": "Assigned to Contractor",
    "contractor": "Waste Pro",
    "rowid": "962520",
    "final_x": "3704416.27185",
    "final_y": "555377.375001",
    "longitude": "-89.99482956438592",
    "latitude": "30.02037890792999",
    "geocoded_column": {
      "latitude": "30.02037890792999",
      "longitude": "-89.99482956438592"
    }
  },
  {
    "service_request": "2023-962519",
    "request_type": "Traffic Signals/Signs/Striping/Streetlights",
    "request_reason": "Traffic Signal Malfunctioning/Damaged",
    "date_created": "2023-01-06T19:00:43.000",
    "date_modified": "2023-01-06T19:00:43.000",
    "request_status": "Pending",
    "responsible_agency": "Department of Public Works",
    "final_address": "FRERET ST & NAPOLEON AVE",
    "address_councildis": "B",
    "status": "Pending",
    "rowid": "962519",
    "final_x": "3670492.0",
    "final_y": "524033.18",
    "longitude": "-90.10308353572401",
    "latitude": "29.935239008691006",
    "geocoded_column": {
      "latitude": "29.935239008691006",
      "longitude": "-90.10308353572401"
    }
  },
  {
    "service_request": "2023-962518",
    "request_type": "Trash/Recycling",
    "request_reason": "Missed Trash Pick-Up",
    "date_created": "2023-01-06T18:57:52.000",
    "date_modified": "2023-01-06T18:57:53.000",
    "request_status": "Pending",
    "responsible_agency": "Department of Sanitation",
    "final_address": "3433 Constance St",
    "address_councildis": "B",
    "status": "Assigned to Contractor",
    "contractor": "Richards Disposal",
    "rowid": "962518",
    "final_x": "3674903.17787",
    "final_y": "519219.775543",
    "longitude": "-90.08932241131262",
    "latitude": "29.92187273876875",
    "geocoded_column": {
      "latitude": "29.92187273876875",
      "longitude": "-90.08932241131262"
    }
  },
  {
    "service_request": "2023-962517",
    "request_type": "Trash/Recycling",
    "request_reason": "Missed Trash Pick-Up",
    "date_created": "2023-01-06T18:54:58.000",
    "date_modified": "2023-01-06T18:54:59.000",
    "request_status": "Pending",
    "responsible_agency": "Department of Sanitation",
    "final_address": "1630 Philip St",
    "address_councildis": "B",
    "status": "Assigned to Contractor",
    "contractor": "Richards Disposal",
    "rowid": "962517",
    "final_x": "3676930.54325",
    "final_y": "523589.523323",
    "longitude": "-90.08277233276483",
    "latitude": "29.93382744726861",
    "geocoded_column": {
      "latitude": "29.93382744726861",
      "longitude": "-90.08277233276483"
    }
  },
  {
    "service_request": "2023-962516",
    "request_type": "Trash/Recycling",
    "request_reason": "Missed Trash Pick-Up",
    "date_created": "2023-01-06T18:54:46.000",
    "date_modified": "2023-01-06T18:54:47.000",
    "request_status": "Pending",
    "responsible_agency": "Department of Sanitation",
    "final_address": "4119 Walmsley Ave",
    "address_councildis": "B",
    "status": "Assigned to Contractor",
    "contractor": "Richards Disposal",
    "rowid": "962516",
    "final_x": "3670284.97959",
    "final_y": "529679.956417",
    "longitude": "-90.1035457714537",
    "latitude": "29.9507719180585",
    "geocoded_column": {
      "latitude": "29.9507719180585",
      "longitude": "-90.1035457714537"
    }
  },
  {
    "service_request": "2023-962515",
    "request_type": "Traffic Signals/Signs/Striping/Streetlights",
    "request_reason": "Street Light Outage/Malfunction",
    "date_created": "2023-01-06T18:54:27.000",
    "date_modified": "2023-01-06T18:54:28.000",
    "request_status": "Pending",
    "responsible_agency": "Department of Public Works",
    "final_address": "6361 Louisville St",
    "address_councildis": "A",
    "status": "Assigned to Contractor",
    "contractor": "Legacy Professional Services",
    "rowid": "962515",
    "final_x": "3668066.15316",
    "final_y": "549814.744788",
    "longitude": "-90.10987289640458",
    "latitude": "30.006201090675304",
    "geocoded_column": {
      "latitude": "30.006201090675304",
      "longitude": "-90.10987289640458"
    }
  },
  {
    "service_request": "2023-962514",
    "request_type": "Traffic Signals/Signs/Striping/Streetlights",
    "request_reason": "Street Light Outage/Malfunction",
    "date_created": "2023-01-06T18:48:11.000",
    "date_modified": "2023-01-06T18:48:12.000",
    "request_status": "Pending",
    "responsible_agency": "Department of Public Works",
    "final_address": "7141 Warfield St",
    "address_councildis": "E",
    "status": "Assigned to Contractor",
    "contractor": "Legacy Professional Services",
    "rowid": "962514",
    "final_x": "3701655.17841",
    "final_y": "553157.006807",
    "longitude": "-90.0036351282422",
    "latitude": "30.014362139088938",
    "geocoded_column": {
      "latitude": "30.014362139088938",
      "longitude": "-90.0036351282422"
    }
  },
  {
    "service_request": "2023-962513",
    "request_type": "Traffic Signals/Signs/Striping/Streetlights",
    "request_reason": "Street Light Outage/Malfunction",
    "date_created": "2023-01-06T18:45:23.000",
    "date_modified": "2023-01-06T18:45:24.000",
    "request_status": "Pending",
    "responsible_agency": "Department of Public Works",
    "final_address": "3521 Mimosa Ct",
    "address_councildis": "C",
    "status": "Assigned to Contractor",
    "contractor": "Legacy Professional Services",
    "rowid": "962513",
    "final_x": "3703551.44062",
    "final_y": "512953.621425",
    "longitude": "-89.99912296781677",
    "latitude": "29.90375665289788",
    "geocoded_column": {
      "latitude": "29.90375665289788",
      "longitude": "-89.99912296781677"
    }
  },
  {
    "service_request": "2023-962512",
    "request_type": "Trash/Recycling",
    "request_reason": "Repair Trash Cart",
    "date_created": "2023-01-06T18:38:35.000",
    "date_modified": "2023-01-06T18:38:36.000",
    "request_status": "Pending",
    "responsible_agency": "Department of Sanitation",
    "final_address": "320 Neil Ave",
    "address_councildis": "C",
    "status": "Assigned to Contractor",
    "contractor": "Richards Disposal",
    "rowid": "962512",
    "final_x": "3707504.0172",
    "final_y": "518805.900983",
    "longitude": "-89.98643162575789",
    "latitude": "29.919721257981266",
    "geocoded_column": {
      "latitude": "29.919721257981266",
      "longitude": "-89.98643162575789"
    }
  },
  {
    "service_request": "2023-962511",
    "request_type": "Trash/Recycling",
    "request_reason": "Missed Trash Pick-Up",
    "date_created": "2023-01-06T18:35:32.000",
    "date_modified": "2023-01-06T18:35:32.000",
    "request_status": "Pending",
    "responsible_agency": "Department of Sanitation",
    "final_address": "4300 BLK State Street Dr",
    "address_councildis": "B",
    "status": "Assigned to Contractor",
    "contractor": "Richards Disposal",
    "rowid": "962511",
    "final_x": "3668610.98722",
    "final_y": "531524.757932",
    "longitude": "-90.10876915159132",
    "latitude": "29.95589381303994",
    "geocoded_column": {
      "latitude": "29.95589381303994",
      "longitude": "-90.10876915159132"
    }
  },
  {
    "service_request": "2023-962510",
    "request_type": "Trash/Recycling",
    "request_reason": "Missed Trash Pick-Up",
    "date_created": "2023-01-06T18:33:41.000",
    "date_modified": "2023-01-06T18:33:41.000",
    "request_status": "Pending",
    "responsible_agency": "Department of Sanitation",
    "final_address": "3137 Constance St",
    "address_councildis": "B",
    "status": "Assigned to Contractor",
    "contractor": "Richards Disposal",
    "rowid": "962510",
    "final_x": "3676008.5147",
    "final_y": "519751.77548",
    "longitude": "-90.08581504467381",
    "latitude": "29.923302523692104",
    "geocoded_column": {
      "latitude": "29.923302523692104",
      "longitude": "-90.08581504467381"
    }
  },
  {
    "service_request": "2023-962509",
    "request_type": "Trash/Recycling",
    "request_reason": "MIssed Recycling Pick-Up",
    "date_created": "2023-01-06T18:30:57.000",
    "date_modified": "2023-01-06T18:30:58.000",
    "request_status": "Pending",
    "responsible_agency": "Department of Sanitation",
    "final_address": "8506 Apricot St",
    "address_councildis": "A",
    "status": "Assigned to Contractor",
    "contractor": "Richards Disposal",
    "rowid": "962509",
    "final_x": "3664686.92685",
    "final_y": "533611.932741",
    "longitude": "-90.12109029887758",
    "latitude": "29.961747590287853",
    "geocoded_column": {
      "latitude": "29.961747590287853",
      "longitude": "-90.12109029887758"
    }
  },
  {
    "service_request": "2023-962508",
    "request_type": "Trash/Recycling",
    "request_reason": "MIssed Recycling Pick-Up",
    "date_created": "2023-01-06T18:27:46.000",
    "date_modified": "2023-01-06T18:27:47.000",
    "request_status": "Pending",
    "responsible_agency": "Department of Sanitation",
    "final_address": "3900 BLK Annunciation St",
    "address_councildis": "B",
    "status": "Assigned to Contractor",
    "contractor": "Richards Disposal",
    "rowid": "962508",
    "final_x": "3673163.69924",
    "final_y": "517951.501614",
    "longitude": "-90.09485648911709",
    "latitude": "29.918437203563425",
    "geocoded_column": {
      "latitude": "29.918437203563425",
      "longitude": "-90.09485648911709"
    }
  },
  {
    "service_request": "2023-962507",
    "request_type": "Trash/Recycling",
    "request_reason": "Missed Trash Pick-Up",
    "date_created": "2023-01-06T18:25:32.000",
    "date_modified": "2023-01-06T18:25:32.000",
    "request_status": "Pending",
    "responsible_agency": "Department of Sanitation",
    "final_address": "2226 1st St, New Orleans, Louisiana, 70113",
    "status": "Assigned to Contractor",
    "rowid": "962507",
    "longitude": "0.0",
    "latitude": "0.0",
    "geocoded_column": {
      "latitude": "0.0",
      "longitude": "0.0"
    }
  },
  {
    "service_request": "2023-962506",
    "request_type": "Trash/Recycling",
    "request_reason": "Replace Trash Cart",
    "date_created": "2023-01-06T18:23:05.000",
    "date_modified": "2023-01-06T18:23:05.000",
    "request_status": "Pending",
    "responsible_agency": "Department of Sanitation",
    "final_address": "1114 Teche St",
    "address_councildis": "C",
    "status": "Assigned to Contractor",
    "contractor": "Richards Disposal",
    "rowid": "962506",
    "final_x": "3686656.71433",
    "final_y": "527395.235839",
    "longitude": "-90.0519329652726",
    "latitude": "29.943996411141622",
    "geocoded_column": {
      "latitude": "29.943996411141622",
      "longitude": "-90.0519329652726"
    }
  },
  {
    "service_request": "2023-962505",
    "request_type": "Trash/Recycling",
    "request_reason": "Missed Trash Pick-Up",
    "date_created": "2023-01-06T18:21:50.000",
    "date_modified": "2023-01-06T18:21:51.000",
    "request_status": "Pending",
    "responsible_agency": "Department of Sanitation",
    "final_address": "2721 Danbury Dr",
    "address_councildis": "C",
    "status": "Assigned to Contractor",
    "contractor": "Richards Disposal",
    "rowid": "962505",
    "final_x": "3703591.5226",
    "final_y": "520783.086969",
    "longitude": "-89.99870866149085",
    "latitude": "29.925283713642234",
    "geocoded_column": {
      "latitude": "29.925283713642234",
      "longitude": "-89.99870866149085"
    }
  },
  {
    "service_request": "2023-962504",
    "request_type": "Traffic Signals/Signs/Striping/Streetlights",
    "request_reason": "Traffic Signal Malfunctioning/Damaged",
    "date_created": "2023-01-06T18:21:44.000",
    "date_modified": "2023-01-06T18:21:45.000",
    "request_status": "Pending",
    "responsible_agency": "Department of Public Works",
    "final_address": "FILMORE AVE & PARIS AVE",
    "address_councildis": "D",
    "status": "Pending",
    "rowid": "962504",
    "final_x": "3679126.3",
    "final_y": "551918.38",
    "longitude": "-90.07485818873242",
    "latitude": "30.011655980423722",
    "geocoded_column": {
      "latitude": "30.011655980423722",
      "longitude": "-90.07485818873242"
    }
  },
  {
    "service_request": "2023-962503",
    "request_type": "Trash/Recycling",
    "request_reason": "Missed Trash Pick-Up",
    "date_created": "2023-01-06T18:20:38.000",
    "date_modified": "2023-01-06T18:20:39.000",
    "request_status": "Pending",
    "responsible_agency": "Department of Sanitation",
    "final_address": "607 Webster St",
    "address_councildis": "A",
    "status": "Assigned to Contractor",
    "contractor": "Richards Disposal",
    "rowid": "962503",
    "final_x": "3663956.76691",
    "final_y": "518835.797303",
    "longitude": "-90.12388854395607",
    "latitude": "29.921139158835498",
    "geocoded_column": {
      "latitude": "29.921139158835498",
      "longitude": "-90.12388854395607"
    }
  },
  {
    "service_request": "2023-962502",
    "request_type": "Trash/Recycling",
    "request_reason": "Missed Trash Pick-Up",
    "date_created": "2023-01-06T18:19:05.000",
    "date_modified": "2023-01-06T18:19:06.000",
    "request_status": "Pending",
    "responsible_agency": "Department of Sanitation",
    "final_address": "2520 Fern St",
    "address_councildis": "A",
    "status": "Assigned to Contractor",
    "contractor": "Richards Disposal",
    "rowid": "962502",
    "final_x": "3665741.25997",
    "final_y": "531505.672195",
    "longitude": "-90.11783142861498",
    "latitude": "29.955925350672768",
    "geocoded_column": {
      "latitude": "29.955925350672768",
      "longitude": "-90.11783142861498"
    }
  },
  {
    "service_request": "2023-962501",
    "request_type": "Trash/Recycling",
    "request_reason": "Missed Trash Pick-Up",
    "date_created": "2023-01-06T18:17:57.000",
    "date_modified": "2023-01-06T18:17:58.000",
    "request_status": "Pending",
    "responsible_agency": "Department of Sanitation",
    "final_address": "925 Cherokee St",
    "address_councildis": "A",
    "status": "Assigned to Contractor",
    "contractor": "Richards Disposal",
    "rowid": "962501",
    "final_x": "3663027.84179",
    "final_y": "526328.298622",
    "longitude": "-90.12657168001252",
    "latitude": "29.941768104665808",
    "geocoded_column": {
      "latitude": "29.941768104665808",
      "longitude": "-90.12657168001252"
    }
  },
  {
    "service_request": "2023-962500",
    "request_type": "Traffic Signals/Signs/Striping/Streetlights",
    "request_reason": "Street Light Outage/Malfunction",
    "date_created": "2023-01-06T18:15:56.000",
    "date_modified": "2023-01-06T18:15:56.000",
    "request_status": "Pending",
    "responsible_agency": "Department of Public Works",
    "final_address": "ALMONASTER AV OVERPASS & I 510 N EXIT & ALMONASTER EXIT",
    "address_councildis": "E",
    "status": "Assigned to Contractor",
    "contractor": "Legacy Professional Services",
    "rowid": "962500",
    "final_x": "3722773.01",
    "final_y": "554556.52",
    "longitude": "-89.93686029915811",
    "latitude": "30.01751950166328",
    "geocoded_column": {
      "latitude": "30.01751950166328",
      "longitude": "-89.93686029915811"
    }
  },
  {
    "service_request": "2023-962497",
    "request_type": "Trash/Recycling",
    "request_reason": "Missed Trash Pick-Up",
    "date_created": "2023-01-06T18:13:34.000",
    "date_modified": "2023-01-06T18:13:34.000",
    "request_status": "Pending",
    "responsible_agency": "Department of Sanitation",
    "final_address": "4410 Fontainebleau Dr",
    "address_councildis": "A",
    "status": "Assigned to Contractor",
    "contractor": "Richards Disposal",
    "rowid": "962497",
    "final_x": "3669118.86881",
    "final_y": "529501.212609",
    "longitude": "-90.10723380533294",
    "latitude": "29.950314792784642",
    "geocoded_column": {
      "latitude": "29.950314792784642",
      "longitude": "-90.10723380533294"
    }
  },
  {
    "service_request": "2023-962496",
    "request_type": "Trash/Recycling",
    "request_reason": "Missed Trash Pick-Up",
    "date_created": "2023-01-06T18:11:58.000",
    "date_modified": "2023-01-06T18:11:59.000",
    "request_status": "Pending",
    "responsible_agency": "Department of Sanitation",
    "final_address": "1220 Gallier St",
    "address_councildis": "C",
    "status": "Assigned to Contractor",
    "contractor": "IV Waste",
    "rowid": "962496",
    "final_x": "3690564.23542",
    "final_y": "536177.716295",
    "longitude": "-90.03928273286918",
    "latitude": "29.96802445196129",
    "geocoded_column": {
      "latitude": "29.96802445196129",
      "longitude": "-90.03928273286918"
    }
  },
  {
    "service_request": "2023-962495",
    "request_type": "Trash/Recycling",
    "request_reason": "MIssed Recycling Pick-Up",
    "date_created": "2023-01-06T18:11:24.000",
    "date_modified": "2023-01-06T18:11:25.000",
    "request_status": "Pending",
    "responsible_agency": "Department of Sanitation",
    "final_address": "918 Gordon St",
    "address_councildis": "E",
    "status": "Assigned to Contractor",
    "contractor": "Waste Pro",
    "rowid": "962495",
    "final_x": "3698877.90666",
    "final_y": "532856.323972",
    "longitude": "-90.01314886637023",
    "latitude": "29.95863102426781",
    "geocoded_column": {
      "latitude": "29.95863102426781",
      "longitude": "-90.01314886637023"
    }
  },
  {
    "service_request": "2023-962494",
    "request_type": "Trash/Recycling",
    "request_reason": "Missed Trash Pick-Up",
    "date_created": "2023-01-06T18:08:57.000",
    "date_modified": "2023-01-06T18:08:58.000",
    "request_status": "Pending",
    "responsible_agency": "Department of Sanitation",
    "final_address": "3212 Prytania St",
    "address_councildis": "B",
    "status": "Assigned to Contractor",
    "contractor": "Richards Disposal",
    "rowid": "962494",
    "final_x": "3675025.34568",
    "final_y": "521262.878137",
    "longitude": "-90.08886673564436",
    "latitude": "29.927486964821558",
    "geocoded_column": {
      "latitude": "29.927486964821558",
      "longitude": "-90.08886673564436"
    }
  },
  {
    "service_request": "2023-962493",
    "request_type": "Trash/Recycling",
    "request_reason": "MIssed Recycling Pick-Up",
    "date_created": "2023-01-06T18:08:55.000",
    "date_modified": "2023-01-06T18:08:56.000",
    "request_status": "Pending",
    "responsible_agency": "Department of Sanitation",
    "final_address": "1629 Jefferson Ave",
    "address_councildis": "B",
    "status": "Assigned to Contractor",
    "contractor": "Richards Disposal",
    "rowid": "962493",
    "final_x": "3667542.61543",
    "final_y": "521827.937658",
    "longitude": "-90.11246895046179",
    "latitude": "29.929262038719504",
    "geocoded_column": {
      "latitude": "29.929262038719504",
      "longitude": "-90.11246895046179"
    }
  },
  {
    "service_request": "2023-962492",
    "request_type": "Trash/Recycling",
    "request_reason": "Missed Trash Pick-Up",
    "date_created": "2023-01-06T18:07:16.000",
    "date_modified": "2023-01-06T18:07:16.000",
    "request_status": "Pending",
    "responsible_agency": "Department of Sanitation",
    "final_address": "7429 Garfield St",
    "address_councildis": "A",
    "status": "Assigned to Contractor",
    "contractor": "Richards Disposal",
    "rowid": "962492",
    "final_x": "3661407.1241",
    "final_y": "523888.426108",
    "longitude": "-90.13176942403148",
    "latitude": "29.935106061253027",
    "geocoded_column": {
      "latitude": "29.935106061253027",
      "longitude": "-90.13176942403148"
    }
  },
  {
    "service_request": "2023-962491",
    "request_type": "Trash/Recycling",
    "request_reason": "Request a Large Item Pick Up",
    "date_created": "2023-01-06T18:06:28.000",
    "date_modified": "2023-01-06T18:06:29.000",
    "request_status": "Pending",
    "responsible_agency": "Department of Sanitation",
    "final_address": "1517 Paula St",
    "address_councildis": "D",
    "status": "Assigned to Contractor",
    "contractor": "IV Waste",
    "rowid": "962491",
    "final_x": "3678941.87291",
    "final_y": "549362.048467",
    "longitude": "-90.0755295280296",
    "latitude": "30.00463255289357",
    "geocoded_column": {
      "latitude": "30.00463255289357",
      "longitude": "-90.0755295280296"
    }
  },
  {
    "service_request": "2023-962490",
    "request_type": "Trash/Recycling",
    "request_reason": "Missed Trash Pick-Up",
    "date_created": "2023-01-06T18:03:08.000",
    "date_modified": "2023-01-06T18:03:08.000",
    "request_status": "Pending",
    "responsible_agency": "Department of Sanitation",
    "final_address": "417 Henry Clay Ave",
    "address_councildis": "A",
    "status": "Assigned to Contractor",
    "contractor": "Richards Disposal",
    "rowid": "962490",
    "final_x": "3663375.75616",
    "final_y": "518379.00959",
    "longitude": "-90.12573773977351",
    "latitude": "29.919899984815505",
    "geocoded_column": {
      "latitude": "29.919899984815505",
      "longitude": "-90.12573773977351"
    }
  },
  {
    "service_request": "2023-962489",
    "request_type": "Trash/Recycling",
    "request_reason": "MIssed Recycling Pick-Up",
    "date_created": "2023-01-06T18:01:51.000",
    "date_modified": "2023-01-06T18:01:52.000",
    "request_status": "Pending",
    "responsible_agency": "Department of Sanitation",
    "final_address": "417 Henry Clay Ave",
    "address_councildis": "A",
    "status": "Assigned to Contractor",
    "contractor": "Richards Disposal",
    "rowid": "962489",
    "final_x": "3663375.75616",
    "final_y": "518379.00959",
    "longitude": "-90.12573773977351",
    "latitude": "29.919899984815505",
    "geocoded_column": {
      "latitude": "29.919899984815505",
      "longitude": "-90.12573773977351"
    }
  },
  {
    "service_request": "2023-962488",
    "request_type": "Trash/Recycling",
    "request_reason": "Missed Trash Pick-Up",
    "date_created": "2023-01-06T18:01:33.000",
    "date_modified": "2023-01-06T18:01:34.000",
    "request_status": "Pending",
    "responsible_agency": "Department of Sanitation",
    "final_address": "3433 Dryades St",
    "address_councildis": "B",
    "status": "Assigned to Contractor",
    "contractor": "Richards Disposal",
    "rowid": "962488",
    "final_x": "3673475.28449",
    "final_y": "522468.207546",
    "longitude": "-90.09371874257826",
    "latitude": "29.930847431012168",
    "geocoded_column": {
      "latitude": "29.930847431012168",
      "longitude": "-90.09371874257826"
    }
  },
  {
    "service_request": "2023-962487",
    "request_type": "Property Maintenance",
    "request_reason": "Property Maintenance",
    "date_created": "2023-01-06T18:00:16.000",
    "date_modified": "2023-01-06T18:00:17.000",
    "request_status": "Pending",
    "responsible_agency": "Department of Code Enforcement",
    "final_address": "3138 N Roman St",
    "address_councildis": "D",
    "status": "Pending",
    "rowid": "962487",
    "final_x": "3689913.92732",
    "final_y": "538528.095369",
    "longitude": "-90.04125272379014",
    "latitude": "29.974507344327527",
    "geocoded_column": {
      "latitude": "29.974507344327527",
      "longitude": "-90.04125272379014"
    }
  },
  {
    "service_request": "2023-962486",
    "request_type": "Trash/Recycling",
    "request_reason": "Missed Trash Pick-Up",
    "date_created": "2023-01-06T17:59:15.000",
    "date_modified": "2023-01-06T17:59:15.000",
    "request_status": "Pending",
    "responsible_agency": "Department of Sanitation",
    "final_address": "716 Arabella St",
    "address_councildis": "A",
    "status": "Assigned to Contractor",
    "contractor": "Richards Disposal",
    "rowid": "962486",
    "final_x": "3665747.91725",
    "final_y": "518760.718199",
    "longitude": "-90.11823717315387",
    "latitude": "29.92088060857142",
    "geocoded_column": {
      "latitude": "29.92088060857142",
      "longitude": "-90.11823717315387"
    }
  },
  {
    "service_request": "2023-962485",
    "request_type": "Trash/Recycling",
    "request_reason": "Missed Trash Pick-Up",
    "date_created": "2023-01-06T17:58:51.000",
    "date_modified": "2023-01-06T17:58:52.000",
    "request_status": "Pending",
    "responsible_agency": "Department of Sanitation",
    "final_address": "1100 BLK Second St",
    "address_councildis": "B",
    "status": "Assigned to Contractor",
    "contractor": "Richards Disposal",
    "rowid": "962485",
    "final_x": "3677724.51098",
    "final_y": "521490.884299",
    "longitude": "-90.08033826049439",
    "latitude": "29.928033025130496",
    "geocoded_column": {
      "latitude": "29.928033025130496",
      "longitude": "-90.08033826049439"
    }
  },
  {
    "service_request": "2023-962484",
    "request_type": "Trash/Recycling",
    "request_reason": "Missed Trash Pick-Up",
    "date_created": "2023-01-06T17:54:08.000",
    "date_modified": "2023-01-06T17:54:09.000",
    "request_status": "Pending",
    "responsible_agency": "Department of Sanitation",
    "final_address": "1716 Sixth St",
    "address_councildis": "B",
    "status": "Assigned to Contractor",
    "contractor": "Richards Disposal",
    "rowid": "962484",
    "final_x": "3675164.96219",
    "final_y": "522683.141562",
    "longitude": "-90.08837728773",
    "latitude": "29.931388058726576",
    "geocoded_column": {
      "latitude": "29.931388058726576",
      "longitude": "-90.08837728773"
    }
  },
  {
    "service_request": "2023-962483",
    "request_type": "Trash/Recycling",
    "request_reason": "Illegal Dumping",
    "date_created": "2023-01-06T17:53:34.000",
    "date_modified": "2023-01-06T17:53:34.000",
    "request_status": "Pending",
    "responsible_agency": "Department of Sanitation",
    "final_address": "7542 Alabama St",
    "address_councildis": "D",
    "status": "Pending",
    "rowid": "962483",
    "final_x": "3694905.89418",
    "final_y": "558302.057244",
    "longitude": "-90.02477377003227",
    "latitude": "30.028722715864504",
    "geocoded_column": {
      "latitude": "30.028722715864504",
      "longitude": "-90.02477377003227"
    }
  },
  {
    "service_request": "2023-962482",
    "request_type": "Trash/Recycling",
    "request_reason": "Missed Trash Pick-Up",
    "date_created": "2023-01-06T17:45:02.000",
    "date_modified": "2023-01-06T17:45:03.000",
    "request_status": "Pending",
    "responsible_agency": "Department of Sanitation",
    "final_address": "2503 Ap Tureaud Ave",
    "address_councildis": "D",
    "status": "Assigned to Contractor",
    "contractor": "IV Waste",
    "rowid": "962482",
    "final_x": "3681655.93564",
    "final_y": "541266.097612",
    "longitude": "-90.0672378890003",
    "latitude": "29.982289358728462",
    "geocoded_column": {
      "latitude": "29.982289358728462",
      "longitude": "-90.0672378890003"
    }
  },
  {
    "service_request": "2023-962481",
    "request_type": "Trash/Recycling",
    "request_reason": "Missed Trash Pick-Up",
    "date_created": "2023-01-06T17:44:57.000",
    "date_modified": "2023-01-06T17:44:58.000",
    "request_status": "Pending",
    "responsible_agency": "Department of Sanitation",
    "final_address": "2503 Ap Tureaud Ave",
    "address_councildis": "D",
    "status": "Assigned to Contractor",
    "contractor": "IV Waste",
    "rowid": "962481",
    "final_x": "3681655.93564",
    "final_y": "541266.097612",
    "longitude": "-90.0672378890003",
    "latitude": "29.982289358728462",
    "geocoded_column": {
      "latitude": "29.982289358728462",
      "longitude": "-90.0672378890003"
    }
  },
  {
    "service_request": "2023-962480",
    "request_type": "Trash/Recycling",
    "request_reason": "Missed Trash Pick-Up",
    "date_created": "2023-01-06T17:43:20.000",
    "date_modified": "2023-01-06T17:43:21.000",
    "request_status": "Pending",
    "responsible_agency": "Department of Sanitation",
    "final_address": "2053 Chippewa St, New Orleans, Louisiana, 70130",
    "address_councildis": "B",
    "status": "Assigned to Contractor",
    "contractor": "Richards Disposal",
    "rowid": "962480",
    "final_x": "3680131.4141",
    "final_y": "521261.502649",
    "longitude": "-90.07274818635328",
    "latitude": "29.927329710260626",
    "geocoded_column": {
      "latitude": "29.927329710260626",
      "longitude": "-90.07274818635328"
    }
  },
  {
    "service_request": "2023-962479",
    "request_type": "Trash/Recycling",
    "request_reason": "Request a Large Item Pick Up",
    "date_created": "2023-01-06T17:40:49.000",
    "date_modified": "2023-01-06T17:40:49.000",
    "request_status": "Pending",
    "responsible_agency": "Department of Sanitation",
    "final_address": "728 Pine St",
    "address_councildis": "A",
    "status": "Assigned to Contractor",
    "contractor": "Richards Disposal",
    "rowid": "962479",
    "final_x": "3663028.85229",
    "final_y": "525403.803645",
    "longitude": "-90.12659922905183",
    "latitude": "29.939226008513263",
    "geocoded_column": {
      "latitude": "29.939226008513263",
      "longitude": "-90.12659922905183"
    }
  },
  {
    "service_request": "2023-962478",
    "request_type": "Trash/Recycling",
    "request_reason": "Missed Trash Pick-Up",
    "date_created": "2023-01-06T17:39:51.000",
    "date_modified": "2023-01-06T17:39:52.000",
    "request_status": "Pending",
    "responsible_agency": "Department of Sanitation",
    "final_address": "65 Versailles Blvd",
    "address_councildis": "B",
    "status": "Assigned to Contractor",
    "contractor": "Richards Disposal",
    "rowid": "962478",
    "final_x": "3667786.32353",
    "final_y": "530363.657538",
    "longitude": "-90.11141225974532",
    "latitude": "29.952725374670543",
    "geocoded_column": {
      "latitude": "29.952725374670543",
      "longitude": "-90.11141225974532"
    }
  },
  {
    "service_request": "2023-962477",
    "request_type": "Trash/Recycling",
    "request_reason": "Missed Trash Pick-Up",
    "date_created": "2023-01-06T17:37:39.000",
    "date_modified": "2023-01-06T17:37:40.000",
    "request_status": "Pending",
    "responsible_agency": "Department of Sanitation",
    "final_address": "5906 Tchoupitoulas St",
    "address_councildis": "A",
    "status": "Assigned to Contractor",
    "contractor": "Richards Disposal",
    "rowid": "962477",
    "final_x": "3664738.13735",
    "final_y": "517302.658037",
    "longitude": "-90.12147327874204",
    "latitude": "29.916900803170947",
    "geocoded_column": {
      "latitude": "29.916900803170947",
      "longitude": "-90.12147327874204"
    }
  },
  {
    "service_request": "2023-962476",
    "request_type": "Trash/Recycling",
    "request_reason": "MIssed Recycling Pick-Up",
    "date_created": "2023-01-06T17:35:33.000",
    "date_modified": "2023-01-06T17:35:34.000",
    "request_status": "Pending",
    "responsible_agency": "Department of Sanitation",
    "final_address": "537 Broadway St",
    "address_councildis": "A",
    "status": "Assigned to Contractor",
    "contractor": "Richards Disposal",
    "rowid": "962476",
    "final_x": "3662638.87603",
    "final_y": "524093.094332",
    "longitude": "-90.1278739728474",
    "latitude": "29.935633260426673",
    "geocoded_column": {
      "latitude": "29.935633260426673",
      "longitude": "-90.1278739728474"
    }
  },
  {
    "service_request": "2023-962475",
    "request_type": "Trash/Recycling",
    "request_reason": "Missed Trash Pick-Up",
    "date_created": "2023-01-06T17:34:29.000",
    "date_modified": "2023-01-06T17:34:30.000",
    "request_status": "Pending",
    "responsible_agency": "Department of Sanitation",
    "final_address": "2319 Lawrence St",
    "address_councildis": "C",
    "status": "Assigned to Contractor",
    "contractor": "Richards Disposal",
    "rowid": "962475",
    "final_x": "3692483.55305",
    "final_y": "525370.832509",
    "longitude": "-90.03360860129833",
    "latitude": "29.938249536727806",
    "geocoded_column": {
      "latitude": "29.938249536727806",
      "longitude": "-90.03360860129833"
    }
  },
  {
    "service_request": "2023-962474",
    "request_type": "Trash/Recycling",
    "request_reason": "Missed Trash Pick-Up",
    "date_created": "2023-01-06T17:33:51.000",
    "date_modified": "2023-01-06T17:33:51.000",
    "request_status": "Pending",
    "responsible_agency": "Department of Sanitation",
    "final_address": "3636 Octavia St",
    "address_councildis": "A",
    "status": "Assigned to Contractor",
    "contractor": "Richards Disposal",
    "rowid": "962474",
    "final_x": "3668617.65089",
    "final_y": "528984.686848",
    "longitude": "-90.10883382265975",
    "latitude": "29.94890925309402",
    "geocoded_column": {
      "latitude": "29.94890925309402",
      "longitude": "-90.10883382265975"
    }
  },
  {
    "service_request": "2023-962473",
    "request_type": "Trash/Recycling",
    "request_reason": "MIssed Recycling Pick-Up",
    "date_created": "2023-01-06T17:32:25.000",
    "date_modified": "2023-01-06T17:32:25.000",
    "request_status": "Pending",
    "responsible_agency": "Department of Sanitation",
    "final_address": "802 Bordeaux St",
    "address_councildis": "B",
    "status": "Assigned to Contractor",
    "contractor": "Richards Disposal",
    "rowid": "962473",
    "final_x": "3669575.55143",
    "final_y": "518312.305782",
    "longitude": "-90.10617019765091",
    "latitude": "29.91953545243739",
    "geocoded_column": {
      "latitude": "29.91953545243739",
      "longitude": "-90.10617019765091"
    }
  },
  {
    "service_request": "2023-962472",
    "request_type": "Trash/Recycling",
    "request_reason": "MIssed Recycling Pick-Up",
    "date_created": "2023-01-06T17:32:23.000",
    "date_modified": "2023-01-06T17:32:23.000",
    "request_status": "Pending",
    "responsible_agency": "Department of Sanitation",
    "final_address": "3636 Octavia St",
    "address_councildis": "A",
    "status": "Assigned to Contractor",
    "contractor": "Richards Disposal",
    "rowid": "962472",
    "final_x": "3668617.65089",
    "final_y": "528984.686848",
    "longitude": "-90.10883382265975",
    "latitude": "29.94890925309402",
    "geocoded_column": {
      "latitude": "29.94890925309402",
      "longitude": "-90.10883382265975"
    }
  },
  {
    "service_request": "2023-962471",
    "request_type": "Traffic Signals/Signs/Striping/Streetlights",
    "request_reason": "Street Light Outage/Malfunction",
    "date_created": "2023-01-06T17:31:26.000",
    "date_modified": "2023-01-06T17:31:27.000",
    "request_status": "Pending",
    "responsible_agency": "Department of Public Works",
    "final_address": "9972 Grant St",
    "address_councildis": "E",
    "status": "Assigned to Contractor",
    "contractor": "Legacy Professional Services",
    "rowid": "962471",
    "final_x": "3712689.47928",
    "final_y": "555156.206809",
    "longitude": "-89.96869735733016",
    "latitude": "30.019502455757298",
    "geocoded_column": {
      "latitude": "30.019502455757298",
      "longitude": "-89.96869735733016"
    }
  },
  {
    "service_request": "2023-962470",
    "request_type": "Property Maintenance",
    "request_reason": "Property Maintenance",
    "date_created": "2023-01-06T17:30:56.000",
    "date_modified": "2023-01-06T17:30:57.000",
    "request_status": "Pending",
    "responsible_agency": "Department of Code Enforcement",
    "final_address": "2415 Dryades St",
    "address_councildis": "B",
    "status": "Pending",
    "rowid": "962470",
    "final_x": "3676214.04904",
    "final_y": "524070.277756",
    "longitude": "-90.0850177398458",
    "latitude": "29.93517084715923",
    "geocoded_column": {
      "latitude": "29.93517084715923",
      "longitude": "-90.0850177398458"
    }
  },
  {
    "service_request": "2023-962469",
    "request_type": "Trash/Recycling",
    "request_reason": "Missed Trash Pick-Up",
    "date_created": "2023-01-06T17:29:57.000",
    "date_modified": "2023-01-06T17:29:58.000",
    "request_status": "Pending",
    "responsible_agency": "Department of Sanitation",
    "final_address": "3965 Constance St",
    "address_councildis": "B",
    "status": "Assigned to Contractor",
    "contractor": "Richards Disposal",
    "rowid": "962469",
    "final_x": "3672630.12603",
    "final_y": "518611.610039",
    "longitude": "-90.09651820865471",
    "latitude": "29.920268138418123",
    "geocoded_column": {
      "latitude": "29.920268138418123",
      "longitude": "-90.09651820865471"
    }
  },
  {
    "service_request": "2023-962468",
    "request_type": "Trash/Recycling",
    "request_reason": "MIssed Recycling Pick-Up",
    "date_created": "2023-01-06T17:29:25.000",
    "date_modified": "2023-01-06T17:29:25.000",
    "request_status": "Pending",
    "responsible_agency": "Department of Sanitation",
    "final_address": "3965 Constance St",
    "address_councildis": "B",
    "status": "Assigned to Contractor",
    "contractor": "Richards Disposal",
    "rowid": "962468",
    "final_x": "3672630.12603",
    "final_y": "518611.610039",
    "longitude": "-90.09651820865471",
    "latitude": "29.920268138418123",
    "geocoded_column": {
      "latitude": "29.920268138418123",
      "longitude": "-90.09651820865471"
    }
  },
  {
    "service_request": "2023-962467",
    "request_type": "Trash/Recycling",
    "request_reason": "Illegal Dumping",
    "date_created": "2023-01-06T17:28:56.000",
    "date_modified": "2023-01-06T17:28:57.000",
    "request_status": "Pending",
    "responsible_agency": "Department of Sanitation",
    "final_address": "1900 BLK First St",
    "address_councildis": "B",
    "status": "Pending",
    "rowid": "962467",
    "final_x": "3676253.79444",
    "final_y": "524263.400408",
    "longitude": "-90.08488562078982",
    "latitude": "29.935700680596568",
    "geocoded_column": {
      "latitude": "29.935700680596568",
      "longitude": "-90.08488562078982"
    }
  },
  {
    "service_request": "2023-962465",
    "request_type": "Trash/Recycling",
    "request_reason": "Repair Trash Cart",
    "date_created": "2023-01-06T17:27:23.000",
    "date_modified": "2023-01-06T17:27:23.000",
    "request_status": "Pending",
    "responsible_agency": "Department of Sanitation",
    "final_address": "1914 First St",
    "address_councildis": "B",
    "status": "Assigned to Contractor",
    "contractor": "Richards Disposal",
    "rowid": "962465",
    "final_x": "3676239.61902",
    "final_y": "524230.376252",
    "longitude": "-90.08493150872079",
    "latitude": "29.93561029964889",
    "geocoded_column": {
      "latitude": "29.93561029964889",
      "longitude": "-90.08493150872079"
    }
  },
  {
    "service_request": "2023-962464",
    "request_type": "Trash/Recycling",
    "request_reason": "Request a Large Item Pick Up",
    "date_created": "2023-01-06T17:27:06.000",
    "date_modified": "2023-01-06T17:27:06.000",
    "request_status": "Pending",
    "responsible_agency": "Department of Sanitation",
    "final_address": "2526 Barracks St",
    "address_councildis": "D",
    "status": "Assigned to Contractor",
    "contractor": "Richards Disposal",
    "rowid": "962464",
    "final_x": "3678645.80437",
    "final_y": "538190.306121",
    "longitude": "-90.0768518830013",
    "latitude": "29.9739231063287",
    "geocoded_column": {
      "latitude": "29.9739231063287",
      "longitude": "-90.0768518830013"
    }
  },
  {
    "service_request": "2023-962463",
    "request_type": "Trash/Recycling",
    "request_reason": "Missed Trash Pick-Up",
    "date_created": "2023-01-06T17:26:40.000",
    "date_modified": "2023-01-06T17:26:40.000",
    "request_status": "Pending",
    "responsible_agency": "Department of Sanitation",
    "final_address": "218 Audubon St, New Orleans, Louisiana, 70118",
    "status": "Assigned to Contractor",
    "rowid": "962463",
    "longitude": "0.0",
    "latitude": "0.0",
    "geocoded_column": {
      "latitude": "0.0",
      "longitude": "0.0"
    }
  },
  {
    "service_request": "2023-962462",
    "request_type": "Trash/Recycling",
    "request_reason": "Missed Trash Pick-Up",
    "date_created": "2023-01-06T17:25:47.000",
    "date_modified": "2023-01-06T17:25:48.000",
    "request_status": "Pending",
    "responsible_agency": "Department of Sanitation",
    "final_address": "605 1st St, New Orleans, Louisiana, 70130",
    "status": "Assigned to Contractor",
    "rowid": "962462",
    "longitude": "0.0",
    "latitude": "0.0",
    "geocoded_column": {
      "latitude": "0.0",
      "longitude": "0.0"
    }
  },
  {
    "service_request": "2023-962461",
    "request_type": "Trash/Recycling",
    "request_reason": "Missed Trash Pick-Up",
    "date_created": "2023-01-06T17:25:03.000",
    "date_modified": "2023-01-06T17:25:04.000",
    "request_status": "Pending",
    "responsible_agency": "Department of Sanitation",
    "final_address": "3021 Jena St",
    "address_councildis": "B",
    "status": "Assigned to Contractor",
    "contractor": "Richards Disposal",
    "rowid": "962461",
    "final_x": "3669966.7906",
    "final_y": "526093.56499",
    "longitude": "-90.10467187796287",
    "latitude": "29.940919896787673",
    "geocoded_column": {
      "latitude": "29.940919896787673",
      "longitude": "-90.10467187796287"
    }
  },
  {
    "service_request": "2023-962460",
    "request_type": "Trash/Recycling",
    "request_reason": "Missed Trash Pick-Up",
    "date_created": "2023-01-06T17:23:13.000",
    "date_modified": "2023-01-06T17:23:14.000",
    "request_status": "Pending",
    "responsible_agency": "Department of Sanitation",
    "final_address": "307 Webster St",
    "address_councildis": "A",
    "status": "Assigned to Contractor",
    "contractor": "Richards Disposal",
    "rowid": "962460",
    "final_x": "3663588.91187",
    "final_y": "517819.939638",
    "longitude": "-90.12508351598878",
    "latitude": "29.918356537645057",
    "geocoded_column": {
      "latitude": "29.918356537645057",
      "longitude": "-90.12508351598878"
    }
  },
  {
    "service_request": "2023-962459",
    "request_type": "Trash/Recycling",
    "request_reason": "Request a Large Item Pick Up",
    "date_created": "2023-01-06T17:22:41.000",
    "date_modified": "2023-01-06T17:22:43.000",
    "request_status": "Pending",
    "responsible_agency": "Department of Sanitation",
    "final_address": "4025 Ulloa St, New Orleans, Louisiana, 70119",
    "address_councildis": "A",
    "status": "Assigned to Contractor",
    "contractor": "Richards Disposal",
    "rowid": "962459",
    "final_x": "3669907.57978",
    "final_y": "536336.740103",
    "longitude": "-90.10451200192104",
    "latitude": "29.96908700029365",
    "geocoded_column": {
      "latitude": "29.96908700029365",
      "longitude": "-90.10451200192104"
    }
  },
  {
    "service_request": "2023-962458",
    "request_type": "Trash/Recycling",
    "request_reason": "Missed Trash Pick-Up",
    "date_created": "2023-01-06T17:21:58.000",
    "date_modified": "2023-01-06T17:21:59.000",
    "request_status": "Pending",
    "responsible_agency": "Department of Sanitation",
    "final_address": "2327 Laurel St",
    "address_councildis": "B",
    "status": "Assigned to Contractor",
    "contractor": "Richards Disposal",
    "rowid": "962458",
    "final_x": "3678780.43458",
    "final_y": "521141.820665",
    "longitude": "-90.07701703240694",
    "latitude": "29.927041422209093",
    "geocoded_column": {
      "latitude": "29.927041422209093",
      "longitude": "-90.07701703240694"
    }
  },