[
  {
    "service_request": "2022-957485",
    "request_type": "Traffic Signals/Signs/Striping/Streetlights",
    "request_reason": "Street Light Outage/Malfunction",
    "date_created": "2022-12-30T02:05:30.000",
    "date_modified": "2022-12-30T02:05:30.000",
    "request_status": "Pending",
    "responsible_agency": "Department of Public Works",
    "final_address": "11611 N Adams Ct",
    "address_councildis": "E",
    "status": "Assigned to Contractor",
    "contractor": "Legacy Professional Services",
    "rowid": "957485",
    "final_x": "3718479.74738",
    "final_y": "557562.791963",
    "longitude": "-89.950310490419",
    "latitude": "30.025928721757225",
    "geocoded_column": {
      "latitude": "30.025928721757225",
      "longitude": "-89.950310490419"
    }
  },
  {
    "service_request": "2022-957484",
    "request_type": "Traffic Signals/Signs/Striping/Streetlights",
    "request_reason": "Street Light Outage/Malfunction",
    "date_created": "2022-12-30T02:05:27.000",
    "date_modified": "2022-12-30T02:05:28.000",
    "request_status": "Pending",
    "responsible_agency": "Department of Public Works",
    "final_address": "11611 N Adams Ct",
    "address_councildis": "E",
    "status": "Assigned to Contractor",
    "contractor": "Legacy Professional Services",
    "rowid": "957484",
    "final_x": "3718479.74738",
    "final_y": "557562.791963",
    "longitude": "-89.950310490419",
    "latitude": "30.025928721757225",
    "geocoded_column": {
      "latitude": "30.025928721757225",
      "longitude": "-89.950310490419"
    }
  },
  {
    "service_request": "2022-957483",
    "request_type": "Abandoned Vehicles",
    "request_reason": "Abandoned/Junk Vehicles",
    "date_created": "2022-12-30T01:04:44.000",
    "date_modified": "2022-12-30T01:04:44.000",
    "request_status": "Pending",
    "responsible_agency": "Department of Public Works",
    "final_address": "5400 Macarthur Blvd",
    "address_councildis": "C",
    "status": "Pending",
    "rowid": "957483",
    "final_x": "3703974.0657",
    "final_y": "519704.710328",
    "longitude": "-89.99754078702355",
    "latitude": "29.922306294507653",
    "geocoded_column": {
      "latitude": "29.922306294507653",
      "longitude": "-89.99754078702355"
    }
  },
  {
    "service_request": "2022-957481",
    "request_type": "Roads/Drainage",
    "request_reason": "Pothole",
    "date_created": "2022-12-29T23:40:46.000",
    "date_modified": "2022-12-29T23:40:46.000",
    "request_status": "Pending",
    "responsible_agency": "Department of Public Works",
    "final_address": "2655 Clover St",
    "address_councildis": "D",
    "status": "Pending",
    "rowid": "957481",
    "final_x": "3687572.58441",
    "final_y": "546762.308753",
    "longitude": "-90.04835559689974",
    "latitude": "29.99722088512379",
    "geocoded_column": {
      "latitude": "29.99722088512379",
      "longitude": "-90.04835559689974"
    }
  },
  {
    "service_request": "2022-957480",
    "request_type": "Trash/Recycling",
    "request_reason": "Missed Trash Pick-Up",
    "date_created": "2022-12-29T23:32:15.000",
    "date_modified": "2022-12-29T23:32:16.000",
    "request_status": "Pending",
    "responsible_agency": "Department of Sanitation",
    "final_address": "620 Soraparu St",
    "address_councildis": "B",
    "status": "Assigned to Contractor",
    "contractor": "Richards Disposal",
    "rowid": "957480",
    "final_x": "3679239.42933",
    "final_y": "520277.98508",
    "longitude": "-90.0755980373529",
    "latitude": "29.924652310462665",
    "geocoded_column": {
      "latitude": "29.924652310462665",
      "longitude": "-90.0755980373529"
    }
  },
  {
    "service_request": "2022-957479",
    "request_type": "Traffic Signals/Signs/Striping/Streetlights",
    "request_reason": "Striping/Road Surface Markings",
    "date_created": "2022-12-29T23:11:32.000",
    "date_modified": "2022-12-29T23:11:32.000",
    "request_status": "Pending",
    "responsible_agency": "Department of Public Works",
    "final_address": "PALMER AVE & FRERET ST",
    "address_councildis": "A",
    "status": "Pending",
    "rowid": "957479",
    "final_x": "3665940.3",
    "final_y": "524604.58",
    "longitude": "-90.11743416311707",
    "latitude": "29.936943768264683",
    "geocoded_column": {
      "latitude": "29.936943768264683",
      "longitude": "-90.11743416311707"
    }
  },
  {
    "service_request": "2022-957478",
    "request_type": "Roads/Drainage",
    "request_reason": "Catch Basin - Clogged",
    "date_created": "2022-12-29T23:03:55.000",
    "date_modified": "2022-12-29T23:03:55.000",
    "request_status": "Pending",
    "responsible_agency": "Department of Public Works",
    "final_address": "S CARROLLTON AVE & HAMPSON ST",
    "address_councildis": "A",
    "status": "Pending",
    "rowid": "957478",
    "final_x": "3660882.9",
    "final_y": "527010.38",
    "longitude": "-90.13332118607055",
    "latitude": "29.943705552252382",
    "geocoded_column": {
      "latitude": "29.943705552252382",
      "longitude": "-90.13332118607055"
    }
  },
  {
    "service_request": "2022-957477",
    "request_type": "Roads/Drainage",
    "request_reason": "Catch Basin - Clogged",
    "date_created": "2022-12-29T23:00:06.000",
    "date_modified": "2022-12-29T23:00:06.000",
    "request_status": "Pending",
    "responsible_agency": "Department of Public Works",
    "final_address": "S CARROLLTON AVE & ULLOA ST",
    "address_councildis": "A",
    "status": "Pending",
    "rowid": "957477",
    "final_x": "3669505.3",
    "final_y": "536597.98",
    "longitude": "-90.10577359477857",
    "latitude": "29.96981717884046",
    "geocoded_column": {
      "latitude": "29.96981717884046",
      "longitude": "-90.10577359477857"
    }
  },
  {
    "service_request": "2022-957476",
    "request_type": "Roads/Drainage",
    "request_reason": "Pothole",
    "date_created": "2022-12-29T22:57:52.000",
    "date_modified": "2022-12-29T22:57:52.000",
    "request_status": "Pending",
    "responsible_agency": "Department of Public Works",
    "final_address": "S CARROLLTON AVE & ULLOA ST",
    "address_councildis": "A",
    "status": "Pending",
    "rowid": "957476",
    "final_x": "3669505.3",
    "final_y": "536597.98",
    "longitude": "-90.10577359477857",
    "latitude": "29.96981717884046",
    "geocoded_column": {
      "latitude": "29.96981717884046",
      "longitude": "-90.10577359477857"
    }
  },
  {
    "service_request": "2022-957475",
    "request_type": "Health Related Request",
    "request_reason": "Noise Ordinance Complaint",
    "date_created": "2022-12-29T22:46:20.000",
    "date_modified": "2022-12-29T22:46:20.000",
    "request_status": "Pending",
    "responsible_agency": "Health Department",
    "final_address": "1009 N Claiborne Ave, New Orleans, Louisiana, 70116",
    "address_councildis": "D",
    "status": "Pending",
    "rowid": "957475",
    "final_x": "3680417.66101",
    "final_y": "535635.218886",
    "longitude": "-90.07134484150656",
    "latitude": "29.966843952035386",
    "geocoded_column": {
      "latitude": "29.966843952035386",
      "longitude": "-90.07134484150656"
    }
  },
  {
    "service_request": "2022-957474",
    "request_type": "Trash/Recycling",
    "request_reason": "Illegal Dumping",
    "date_created": "2022-12-29T22:16:07.000",
    "date_modified": "2022-12-29T22:16:07.000",
    "request_status": "Pending",
    "responsible_agency": "Department of Sanitation",
    "final_address": "2900 BLK Lafitte Ave",
    "address_councildis": "A",
    "status": "Pending",
    "rowid": "957474",
    "final_x": "3675435.14876",
    "final_y": "537019.972992",
    "longitude": "-90.08703206354076",
    "latitude": "29.970801504669062",
    "geocoded_column": {
      "latitude": "29.970801504669062",
      "longitude": "-90.08703206354076"
    }
  },
  {
    "service_request": "2022-957473",
    "request_type": "Roads/Drainage",
    "request_reason": "Pothole",
    "date_created": "2022-12-29T22:00:07.000",
    "date_modified": "2022-12-29T22:00:07.000",
    "request_status": "Pending",
    "responsible_agency": "Department of Public Works",
    "final_address": "2020 Broadway St",
    "address_councildis": "A",
    "status": "Pending",
    "rowid": "957473",
    "final_x": "3665812.35034",
    "final_y": "529038.929984",
    "longitude": "-90.11768958528529",
    "latitude": "29.94914053770631",
    "geocoded_column": {
      "latitude": "29.94914053770631",
      "longitude": "-90.11768958528529"
    }
  },
  {
    "service_request": "2022-957472",
    "request_type": "Trash/Recycling",
    "request_reason": "MIssed Recycling Pick-Up",
    "date_created": "2022-12-29T21:36:26.000",
    "date_modified": "2022-12-29T21:36:27.000",
    "request_status": "Pending",
    "responsible_agency": "Department of Sanitation",
    "final_address": "4819 Carondelet St",
    "address_councildis": "B",
    "status": "Assigned to Contractor",
    "contractor": "Richards Disposal",
    "rowid": "957472",
    "final_x": "3669166.86868",
    "final_y": "521163.278585",
    "longitude": "-90.10736392540642",
    "latitude": "29.927386752325763",
    "geocoded_column": {
      "latitude": "29.927386752325763",
      "longitude": "-90.10736392540642"
    }
  },
  {
    "service_request": "2022-957471",
    "request_type": "Trash/Recycling",
    "request_reason": "Request a Large Item Pick Up",
    "date_created": "2022-12-29T21:26:15.000",
    "date_modified": "2022-12-29T21:26:16.000",
    "request_status": "Pending",
    "responsible_agency": "Department of Sanitation",
    "final_address": "7101 Parkside Ct",
    "address_councildis": "E",
    "status": "Assigned to Contractor",
    "contractor": "Waste Pro",
    "rowid": "957471",
    "final_x": "3704693.77105",
    "final_y": "559940.548893",
    "longitude": "-89.99378420229756",
    "latitude": "30.03291694735075",
    "geocoded_column": {
      "latitude": "30.03291694735075",
      "longitude": "-89.99378420229756"
    }
  },
  {
    "service_request": "2022-957470",
    "request_type": "Trash/Recycling",
    "request_reason": "Missed Trash Pick-Up",
    "date_created": "2022-12-29T21:25:26.000",
    "date_modified": "2022-12-29T21:25:26.000",
    "request_status": "Pending",
    "responsible_agency": "Department of Sanitation",
    "final_address": "800 BLK Third St",
    "address_councildis": "B",
    "status": "Assigned to Contractor",
    "contractor": "Richards Disposal",
    "rowid": "957470",
    "final_x": "3678077.90103",
    "final_y": "520402.894677",
    "longitude": "-90.07926027808334",
    "latitude": "29.925030777286572",
    "geocoded_column": {
      "latitude": "29.925030777286572",
      "longitude": "-90.07926027808334"
    }
  },
  {
    "service_request": "2022-957469",
    "request_type": "Trash/Recycling",
    "request_reason": "MIssed Recycling Pick-Up",
    "date_created": "2022-12-29T21:23:09.000",
    "date_modified": "2022-12-29T21:23:10.000",
    "request_status": "Pending",
    "responsible_agency": "Department of Sanitation",
    "final_address": "1200 Block of Delachaise St, New Orleans, Louisiana, 70115",
    "status": "Assigned to Contractor",
    "rowid": "957469",
    "longitude": "0.0",
    "latitude": "0.0",
    "geocoded_column": {
      "latitude": "0.0",
      "longitude": "0.0"
    }
  },
  {
    "service_request": "2022-957468",
    "request_type": "Trash/Recycling",
    "request_reason": "MIssed Recycling Pick-Up",
    "date_created": "2022-12-29T21:03:55.000",
    "date_modified": "2022-12-29T21:03:55.000",
    "request_status": "Pending",
    "responsible_agency": "Department of Sanitation",
    "final_address": "6030 Hurst St",
    "address_councildis": "A",
    "status": "Assigned to Contractor",
    "contractor": "Richards Disposal",
    "rowid": "957468",
    "final_x": "3665256.5074",
    "final_y": "521786.983866",
    "longitude": "-90.11968715854152",
    "latitude": "29.92921620713637",
    "geocoded_column": {
      "latitude": "29.92921620713637",
      "longitude": "-90.11968715854152"
    }
  },
  {
    "service_request": "2022-957467",
    "request_type": "Health Related Request",
    "request_reason": "Noise Ordinance Complaint",
    "date_created": "2022-12-29T21:03:34.000",
    "date_modified": "2022-12-29T21:03:34.000",
    "request_status": "Pending",
    "responsible_agency": "Health Department",
    "final_address": "3919 N Johnson St",
    "address_councildis": "D",
    "status": "Pending",
    "rowid": "957467",
    "final_x": "3692501.31305",
    "final_y": "538766.345545",
    "longitude": "-90.03307262951074",
    "latitude": "29.975081969812056",
    "geocoded_column": {
      "latitude": "29.975081969812056",
      "longitude": "-90.03307262951074"
    }
  },
  {
    "service_request": "2022-957465",
    "request_type": "Traffic Signals/Signs/Striping/Streetlights",
    "request_reason": "Street Name Sign Damaged or Missing",
    "date_created": "2022-12-29T20:55:24.000",
    "date_modified": "2022-12-29T20:55:24.000",
    "request_status": "Pending",
    "responsible_agency": "Department of Public Works",
    "final_address": "4701 Citrus Dr",
    "address_councildis": "E",
    "status": "Pending",
    "rowid": "957465",
    "final_x": "3710885.21003",
    "final_y": "555492.231833",
    "longitude": "-89.9743855975947",
    "latitude": "30.020485353466555",
    "geocoded_column": {
      "latitude": "30.020485353466555",
      "longitude": "-89.9743855975947"
    }
  },
  {
    "service_request": "2022-957464",
    "request_type": "Traffic Signals/Signs/Striping/Streetlights",
    "request_reason": "Street Light Outage/Malfunction",
    "date_created": "2022-12-29T20:53:39.000",
    "date_modified": "2022-12-29T20:53:39.000",
    "request_status": "Pending",
    "responsible_agency": "Department of Public Works",
    "final_address": "4710 Citrus Dr",
    "address_councildis": "E",
    "status": "Assigned to Contractor",
    "contractor": "Legacy Professional Services",
    "rowid": "957464",
    "final_x": "3710736.30731",
    "final_y": "555553.396377",
    "longitude": "-89.97485378923697",
    "latitude": "30.02065838693044",
    "geocoded_column": {
      "latitude": "30.02065838693044",
      "longitude": "-89.97485378923697"
    }
  },
  {
    "service_request": "2022-957463",
    "request_type": "Abandoned Vehicles",
    "request_reason": "Vehicle Blocking Your Driveway",
    "date_created": "2022-12-29T20:34:35.000",
    "date_modified": "2022-12-29T20:34:35.000",
    "request_status": "Pending",
    "responsible_agency": "Department of Public Works",
    "final_address": "3337 Dumaine St, New Orleans, Louisiana, 70119",
    "address_councildis": "A",
    "status": "Pending",
    "rowid": "957463",
    "final_x": "3674922.90312",
    "final_y": "539283.49697",
    "longitude": "-90.08857214475698",
    "latitude": "29.977040734086327",
    "geocoded_column": {
      "latitude": "29.977040734086327",
      "longitude": "-90.08857214475698"
    }
  },
  {
    "service_request": "2022-957462",
    "request_type": "Trash/Recycling",
    "request_reason": "Missed Trash Pick-Up",
    "date_created": "2022-12-29T20:18:30.000",
    "date_modified": "2022-12-29T20:18:31.000",
    "request_status": "Pending",
    "responsible_agency": "Department of Sanitation",
    "final_address": "3315 Chestnut St",
    "address_councildis": "B",
    "status": "Assigned to Contractor",
    "contractor": "Richards Disposal",
    "rowid": "957462",
    "final_x": "3674957.27086",
    "final_y": "520448.399736",
    "longitude": "-90.08910955005064",
    "latitude": "29.92524944494753",
    "geocoded_column": {
      "latitude": "29.92524944494753",
      "longitude": "-90.08910955005064"
    }
  },
  {
    "service_request": "2022-957461",
    "request_type": "Trash/Recycling",
    "request_reason": "Missed Trash Pick-Up",
    "date_created": "2022-12-29T20:13:11.000",
    "date_modified": "2022-12-29T20:13:12.000",
    "request_status": "Pending",
    "responsible_agency": "Department of Sanitation",
    "final_address": "917 Seventh St",
    "address_councildis": "B",
    "status": "Assigned to Contractor",
    "contractor": "Richards Disposal",
    "rowid": "957461",
    "final_x": "3676723.41729",
    "final_y": "519913.963512",
    "longitude": "-90.08355278195359",
    "latitude": "29.92372706715264",
    "geocoded_column": {
      "latitude": "29.92372706715264",
      "longitude": "-90.08355278195359"
    }
  },
  {
    "service_request": "2022-957460",
    "request_type": "Trash/Recycling",
    "request_reason": "Missed Trash Pick-Up",
    "date_created": "2022-12-29T20:08:59.000",
    "date_modified": "2022-12-29T20:09:00.000",
    "request_status": "Pending",
    "responsible_agency": "Department of Sanitation",
    "final_address": "508 Millaudon St",
    "address_councildis": "A",
    "status": "Assigned to Contractor",
    "contractor": "Richards Disposal",
    "rowid": "957460",
    "final_x": "3662156.72192",
    "final_y": "525044.984253",
    "longitude": "-90.12936457079851",
    "latitude": "29.93826459526661",
    "geocoded_column": {
      "latitude": "29.93826459526661",
      "longitude": "-90.12936457079851"
    }
  },
  {
    "service_request": "2022-957459",
    "request_type": "Abandoned Vehicles",
    "request_reason": "Abandoned/Junk Vehicles",
    "date_created": "2022-12-29T20:05:00.000",
    "date_modified": "2022-12-29T20:05:00.000",
    "request_status": "Pending",
    "responsible_agency": "Department of Public Works",
    "final_address": "1920 Harmony St",
    "address_councildis": "B",
    "status": "Pending",
    "rowid": "957459",
    "final_x": "3674259.15304",
    "final_y": "522964.834171",
    "longitude": "-90.09122718051972",
    "latitude": "29.93218965222322",
    "geocoded_column": {
      "latitude": "29.93218965222322",
      "longitude": "-90.09122718051972"
    }
  },
  {
    "service_request": "2022-957458",
    "request_type": "Trash/Recycling",
    "request_reason": "Order Recycling Cart",
    "date_created": "2022-12-29T20:00:05.000",
    "date_modified": "2022-12-29T20:00:05.000",
    "request_status": "Pending",
    "responsible_agency": "Department of Sanitation",
    "final_address": "4341 Alba Rd",
    "address_councildis": "E",
    "status": "Pending",
    "rowid": "957458",
    "final_x": "3761691.69321",
    "final_y": "572743.674025",
    "longitude": "-89.81313368679389",
    "latitude": "30.06616440488415",
    "geocoded_column": {
      "latitude": "30.06616440488415",
      "longitude": "-89.81313368679389"
    }
  },
  {
    "service_request": "2022-957457",
    "request_type": "Trash/Recycling",
    "request_reason": "Request a Large Item Pick Up",
    "date_created": "2022-12-29T19:54:41.000",
    "date_modified": "2022-12-29T19:54:41.000",
    "request_status": "Pending",
    "responsible_agency": "Department of Sanitation",
    "final_address": "4929 S Johnson St",
    "address_councildis": "B",
    "status": "Assigned to Contractor",
    "contractor": "Richards Disposal",
    "rowid": "957457",
    "final_x": "3668990.20276",
    "final_y": "527098.936383",
    "longitude": "-90.1077211985664",
    "latitude": "29.943713100318238",
    "geocoded_column": {
      "latitude": "29.943713100318238",
      "longitude": "-90.1077211985664"
    }
  },
  {
    "service_request": "2022-957456",
    "request_type": "Trash/Recycling",
    "request_reason": "Missed Trash Pick-Up",
    "date_created": "2022-12-29T19:41:31.000",
    "date_modified": "2022-12-29T19:41:31.000",
    "request_status": "Pending",
    "responsible_agency": "Department of Sanitation",
    "final_address": "2927 Audubon St",
    "address_councildis": "B",
    "status": "Assigned to Contractor",
    "contractor": "Richards Disposal",
    "rowid": "957456",
    "final_x": "3667871.60628",
    "final_y": "531535.290755",
    "longitude": "-90.1111035127935",
    "latitude": "29.95594448142461",
    "geocoded_column": {
      "latitude": "29.95594448142461",
      "longitude": "-90.1111035127935"
    }
  },
  {
    "service_request": "2022-957455",
    "request_type": "Traffic Signals/Signs/Striping/Streetlights",
    "request_reason": "Street Light Outage/Malfunction",
    "date_created": "2022-12-29T19:38:18.000",
    "date_modified": "2022-12-29T19:38:18.000",
    "request_status": "Pending",
    "responsible_agency": "Department of Public Works",
    "final_address": "TRAFALGAR ST & ROMULUS ST",
    "address_councildis": "A",
    "status": "Assigned to Contractor",
    "contractor": "Legacy Professional Services",
    "rowid": "957455",
    "final_x": "3677712.9",
    "final_y": "543194.28",
    "longitude": "-90.07962529038728",
    "latitude": "29.98771039913638",
    "geocoded_column": {
      "latitude": "29.98771039913638",
      "longitude": "-90.07962529038728"
    }
  },
  {
    "service_request": "2022-957454",
    "request_type": "Trash/Recycling",
    "request_reason": "Order Recycling Cart",
    "date_created": "2022-12-29T19:30:45.000",
    "date_modified": "2022-12-29T19:30:45.000",
    "request_status": "Pending",
    "responsible_agency": "Department of Sanitation",
    "final_address": "11021 Lake Forest Blvd",
    "address_councildis": "E",
    "status": "Pending",
    "rowid": "957454",
    "final_x": "3714405.61515",
    "final_y": "560590.509406",
    "longitude": "-89.96306966566267",
    "latitude": "30.034388319484936",
    "geocoded_column": {
      "latitude": "30.034388319484936",
      "longitude": "-89.96306966566267"
    }
  },
  {
    "service_request": "2022-957453",
    "request_type": "Traffic Signals/Signs/Striping/Streetlights",
    "request_reason": "Street Light Outage/Malfunction",
    "date_created": "2022-12-29T19:29:43.000",
    "date_modified": "2022-12-29T19:29:44.000",
    "request_status": "Pending",
    "responsible_agency": "Department of Public Works",
    "final_address": "4905 St Claude Ave",
    "address_councildis": "E",
    "status": "Assigned to Contractor",
    "contractor": "Legacy Professional Services",
    "rowid": "957453",
    "final_x": "3695481.79427",
    "final_y": "534504.297221",
    "longitude": "-90.02381337718931",
    "latitude": "29.963269521570073",
    "geocoded_column": {
      "latitude": "29.963269521570073",
      "longitude": "-90.02381337718931"
    }
  },
  {
    "service_request": "2022-957452",
    "request_type": "Traffic Signals/Signs/Striping/Streetlights",
    "request_reason": "Street Light Outage/Malfunction",
    "date_created": "2022-12-29T19:25:53.000",
    "date_modified": "2022-12-29T19:25:53.000",
    "request_status": "Pending",
    "responsible_agency": "Department of Public Works",
    "final_address": "1104 Tennessee St",
    "address_councildis": "E",
    "status": "Assigned to Contractor",
    "contractor": "Legacy Professional Services",
    "rowid": "957452",
    "final_x": "3695666.2671",
    "final_y": "534464.975621",
    "longitude": "-90.02323225573932",
    "latitude": "29.96315560286811",
    "geocoded_column": {
      "latitude": "29.96315560286811",
      "longitude": "-90.02323225573932"
    }
  },
  {
    "service_request": "2022-957451",
    "request_type": "Traffic Signals/Signs/Striping/Streetlights",
    "request_reason": "Street Light Outage/Malfunction",
    "date_created": "2022-12-29T19:23:34.000",
    "date_modified": "2022-12-29T19:23:35.000",
    "request_status": "Pending",
    "responsible_agency": "Department of Public Works",
    "final_address": "4905 St Claude Ave",
    "address_councildis": "E",
    "status": "Assigned to Contractor",
    "contractor": "Legacy Professional Services",
    "rowid": "957451",
    "final_x": "3695481.79427",
    "final_y": "534504.297221",
    "longitude": "-90.02381337718931",
    "latitude": "29.963269521570073",
    "geocoded_column": {
      "latitude": "29.963269521570073",
      "longitude": "-90.02381337718931"
    }
  },
  {
    "service_request": "2022-957450",
    "request_type": "Trash/Recycling",
    "request_reason": "Request a Large Item Pick Up",
    "date_created": "2022-12-29T19:15:55.000",
    "date_modified": "2022-12-29T19:15:56.000",
    "request_status": "Pending",
    "responsible_agency": "Department of Sanitation",
    "final_address": "215 S Solomon St",
    "address_councildis": "A",
    "status": "Assigned to Contractor",
    "contractor": "Richards Disposal",
    "rowid": "957450",
    "final_x": "3670183.24007",
    "final_y": "538337.430985",
    "longitude": "-90.10357363438116",
    "latitude": "29.974580096238125",
    "geocoded_column": {
      "latitude": "29.974580096238125",
      "longitude": "-90.10357363438116"
    }
  },
  {
    "service_request": "2022-957449",
    "request_type": "Traffic Signals/Signs/Striping/Streetlights",
    "request_reason": "Traffic Sign Missing/Damaged",
    "date_created": "2022-12-29T19:13:32.000",
    "date_modified": "2022-12-29T19:13:32.000",
    "request_status": "Pending",
    "responsible_agency": "Department of Public Works",
    "final_address": "1104 Tennessee St",
    "address_councildis": "E",
    "status": "Pending",
    "rowid": "957449",
    "final_x": "3695666.2671",
    "final_y": "534464.975621",
    "longitude": "-90.02323225573932",
    "latitude": "29.96315560286811",
    "geocoded_column": {
      "latitude": "29.96315560286811",
      "longitude": "-90.02323225573932"
    }
  },
  {
    "service_request": "2022-957448",
    "request_type": "Trash/Recycling",
    "request_reason": "Missed Trash Pick-Up",
    "date_created": "2022-12-29T19:12:23.000",
    "date_modified": "2022-12-29T19:12:23.000",
    "request_status": "Pending",
    "responsible_agency": "Department of Sanitation",
    "final_address": "2309 Seminole Ln",
    "address_councildis": "B",
    "status": "Assigned to Contractor",
    "contractor": "Richards Disposal",
    "rowid": "957448",
    "final_x": "3673876.99803",
    "final_y": "528332.710464",
    "longitude": "-90.0922500643891",
    "latitude": "29.946960943205077",
    "geocoded_column": {
      "latitude": "29.946960943205077",
      "longitude": "-90.0922500643891"
    }
  },
  {
    "service_request": "2022-957447",
    "request_type": "Trash/Recycling",
    "request_reason": "MIssed Recycling Pick-Up",
    "date_created": "2022-12-29T19:08:20.000",
    "date_modified": "2022-12-29T19:08:21.000",
    "request_status": "Pending",
    "responsible_agency": "Department of Sanitation",
    "final_address": "5026 Loyola Ave",
    "address_councildis": "B",
    "status": "Assigned to Contractor",
    "contractor": "Richards Disposal",
    "rowid": "957447",
    "final_x": "3668572.8779",
    "final_y": "522828.316283",
    "longitude": "-90.10918285886576",
    "latitude": "29.93198253673753",
    "geocoded_column": {
      "latitude": "29.93198253673753",
      "longitude": "-90.10918285886576"
    }
  },
  {
    "service_request": "2022-957446",
    "request_type": "Trash/Recycling",
    "request_reason": "Missed Trash Pick-Up",
    "date_created": "2022-12-29T19:00:57.000",
    "date_modified": "2022-12-29T19:00:58.000",
    "request_status": "Pending",
    "responsible_agency": "Department of Sanitation",
    "final_address": "918 Sixth St",
    "address_councildis": "B",
    "status": "Assigned to Contractor",
    "contractor": "Richards Disposal",
    "rowid": "957446",
    "final_x": "3676890.08565",
    "final_y": "520025.410936",
    "longitude": "-90.0830228316674",
    "latitude": "29.924028511906265",
    "geocoded_column": {
      "latitude": "29.924028511906265",
      "longitude": "-90.0830228316674"
    }
  },
  {
    "service_request": "2022-957445",
    "request_type": "Traffic Signals/Signs/Striping/Streetlights",
    "request_reason": "Street Light Outage/Malfunction",
    "date_created": "2022-12-29T18:59:25.000",
    "date_modified": "2022-12-29T18:59:26.000",
    "request_status": "Pending",
    "responsible_agency": "Department of Public Works",
    "final_address": "7321 Wayside Dr",
    "address_councildis": "E",
    "status": "Assigned to Contractor",
    "contractor": "Legacy Professional Services",
    "rowid": "957445",
    "final_x": "3717057.00664",
    "final_y": "568743.770277",
    "longitude": "-89.95438093247596",
    "latitude": "30.05671901077548",
    "geocoded_column": {
      "latitude": "30.05671901077548",
      "longitude": "-89.95438093247596"
    }
  },
  {
    "service_request": "2022-957444",
    "request_type": "Traffic Signals/Signs/Striping/Streetlights",
    "request_reason": "Street Light Outage/Malfunction",
    "date_created": "2022-12-29T18:56:16.000",
    "date_modified": "2022-12-29T18:56:16.000",
    "request_status": "Pending",
    "responsible_agency": "Department of Public Works",
    "final_address": "2711 St Nick Dr",
    "address_councildis": "C",
    "status": "Assigned to Contractor",
    "contractor": "Legacy Professional Services",
    "rowid": "957444",
    "final_x": "3699275.67325",
    "final_y": "521006.833273",
    "longitude": "-90.01232420773121",
    "latitude": "29.926036457061773",
    "geocoded_column": {
      "latitude": "29.926036457061773",
      "longitude": "-90.01232420773121"
    }
  },
  {
    "service_request": "2022-957443",
    "request_type": "Abandoned Vehicles",
    "request_reason": "Abandoned/Junk Vehicles",
    "date_created": "2022-12-29T18:52:09.000",
    "date_modified": "2022-12-29T18:54:16.000",
    "request_status": "Pending",
    "responsible_agency": "Department of Public Works",
    "final_address": "GENERAL DE GAULLE DR & WOODLAND DR",
    "address_councildis": "C",
    "status": "Pending",
    "rowid": "957443",
    "final_x": "3705348.1",
    "final_y": "514982.18",
    "longitude": "-89.99337788359405",
    "latitude": "29.909276849557717",
    "geocoded_column": {
      "latitude": "29.909276849557717",
      "longitude": "-89.99337788359405"
    }
  },
  {
    "service_request": "2022-957442",
    "request_type": "Trash/Recycling",
    "request_reason": "Repair Trash Cart",
    "date_created": "2022-12-29T18:45:03.000",
    "date_modified": "2022-12-29T18:45:04.000",
    "request_status": "Pending",
    "responsible_agency": "Department of Sanitation",
    "final_address": "1619 Farragut St",
    "address_councildis": "C",
    "status": "Assigned to Contractor",
    "contractor": "Richards Disposal",
    "rowid": "957442",
    "final_x": "3692226.0015",
    "final_y": "525237.085245",
    "longitude": "-90.03442649916113",
    "latitude": "29.937889807810247",
    "geocoded_column": {
      "latitude": "29.937889807810247",
      "longitude": "-90.03442649916113"
    }
  },
  {
    "service_request": "2022-957441",
    "request_type": "Trash/Recycling",
    "request_reason": "Missed Trash Pick-Up",
    "date_created": "2022-12-29T18:40:14.000",
    "date_modified": "2022-12-29T18:40:15.000",
    "request_status": "Pending",
    "responsible_agency": "Department of Sanitation",
    "final_address": "3212 Camp St",
    "address_councildis": "B",
    "status": "Assigned to Contractor",
    "contractor": "Richards Disposal",
    "rowid": "957441",
    "final_x": "3675486.57102",
    "final_y": "520206.083128",
    "longitude": "-90.087447032309",
    "latitude": "29.9245673382118",
    "geocoded_column": {
      "latitude": "29.9245673382118",
      "longitude": "-90.087447032309"
    }
  },
  {
    "service_request": "2022-957440",
    "request_type": "Trash/Recycling",
    "request_reason": "Missed Trash Pick-Up",
    "date_created": "2022-12-29T18:37:58.000",
    "date_modified": "2022-12-29T18:37:59.000",
    "request_status": "Pending",
    "responsible_agency": "Department of Sanitation",
    "final_address": "2721 Danbury Dr",
    "address_councildis": "C",
    "status": "Assigned to Contractor",
    "contractor": "Richards Disposal",
    "rowid": "957440",
    "final_x": "3703591.5226",
    "final_y": "520783.086969",
    "longitude": "-89.99870866149085",
    "latitude": "29.925283713642234",
    "geocoded_column": {
      "latitude": "29.925283713642234",
      "longitude": "-89.99870866149085"
    }
  },
  {
    "service_request": "2022-957438",
    "request_type": "Trash/Recycling",
    "request_reason": "MIssed Recycling Pick-Up",
    "date_created": "2022-12-29T18:28:58.000",
    "date_modified": "2022-12-29T18:28:59.000",
    "request_status": "Pending",
    "responsible_agency": "Department of Sanitation",
    "final_address": "1234 Henry Clay Ave",
    "address_councildis": "A",
    "status": "Assigned to Contractor",
    "contractor": "Richards Disposal",
    "rowid": "957438",
    "final_x": "3664327.06445",
    "final_y": "521120.367609",
    "longitude": "-90.12264347982506",
    "latitude": "29.92741025864685",
    "geocoded_column": {
      "latitude": "29.92741025864685",
      "longitude": "-90.12264347982506"
    }
  },
  {
    "service_request": "2022-957437",
    "request_type": "Trash/Recycling",
    "request_reason": "Missed Trash Pick-Up",
    "date_created": "2022-12-29T18:28:25.000",
    "date_modified": "2022-12-29T18:28:26.000",
    "request_status": "Pending",
    "responsible_agency": "Department of Sanitation",
    "final_address": "2053 Chippewa St, New Orleans, Louisiana, 70130",
    "address_councildis": "B",
    "status": "Assigned to Contractor",
    "contractor": "Richards Disposal",
    "rowid": "957437",
    "final_x": "3680131.4141",
    "final_y": "521261.502649",
    "longitude": "-90.07274818635328",
    "latitude": "29.927329710260626",
    "geocoded_column": {
      "latitude": "29.927329710260626",
      "longitude": "-90.07274818635328"
    }
  },
  {
    "service_request": "2022-957436",
    "request_type": "Trash/Recycling",
    "request_reason": "MIssed Recycling Pick-Up",
    "date_created": "2022-12-29T18:27:50.000",
    "date_modified": "2022-12-29T18:27:50.000",
    "request_status": "Pending",
    "responsible_agency": "Department of Sanitation",
    "final_address": "1207 Henry Clay Ave",
    "address_councildis": "A",
    "status": "Assigned to Contractor",
    "contractor": "Richards Disposal",
    "rowid": "957436",
    "final_x": "3664380.25933",
    "final_y": "520884.181689",
    "longitude": "-90.12248343488895",
    "latitude": "29.92675927607611",
    "geocoded_column": {
      "latitude": "29.92675927607611",
      "longitude": "-90.12248343488895"
    }
  },
  {
    "service_request": "2022-957435",
    "request_type": "Trash/Recycling",
    "request_reason": "Missed Trash Pick-Up",
    "date_created": "2022-12-29T18:24:10.000",
    "date_modified": "2022-12-29T18:24:11.000",
    "request_status": "Pending",
    "responsible_agency": "Department of Sanitation",
    "final_address": "719 Ninth St",
    "address_councildis": "B",
    "status": "Assigned to Contractor",
    "contractor": "Richards Disposal",
    "rowid": "957435",
    "final_x": "3676638.94773",
    "final_y": "518953.604919",
    "longitude": "-90.0838524787258",
    "latitude": "29.92108892410324",
    "geocoded_column": {
      "latitude": "29.92108892410324",
      "longitude": "-90.0838524787258"
    }
  },
  {
    "service_request": "2022-957434",
    "request_type": "Trash/Recycling",
    "request_reason": "Request a Large Item Pick Up",
    "date_created": "2022-12-29T18:21:55.000",
    "date_modified": "2022-12-29T18:21:55.000",
    "request_status": "Pending",
    "responsible_agency": "Department of Sanitation",
    "final_address": "1531 Leda St",
    "address_councildis": "A",
    "status": "Assigned to Contractor",
    "contractor": "IV Waste",
    "rowid": "957434",
    "final_x": "3675670.49941",
    "final_y": "541760.790284",
    "longitude": "-90.08612583010763",
    "latitude": "29.98383008624422",
    "geocoded_column": {
      "latitude": "29.98383008624422",
      "longitude": "-90.08612583010763"
    }
  },
  {
    "service_request": "2022-957433",
    "request_type": "Trash/Recycling",
    "request_reason": "MIssed Recycling Pick-Up",
    "date_created": "2022-12-29T18:18:59.000",
    "date_modified": "2022-12-29T18:19:00.000",
    "request_status": "Pending",
    "responsible_agency": "Department of Sanitation",
    "final_address": "3965 Constance St",
    "address_councildis": "B",
    "status": "Assigned to Contractor",
    "contractor": "Richards Disposal",
    "rowid": "957433",
    "final_x": "3672630.12603",
    "final_y": "518611.610039",
    "longitude": "-90.09651820865471",
    "latitude": "29.920268138418123",
    "geocoded_column": {
      "latitude": "29.920268138418123",
      "longitude": "-90.09651820865471"
    }
  },
  {
    "service_request": "2022-957432",
    "request_type": "Trash/Recycling",
    "request_reason": "Missed Trash Pick-Up",
    "date_created": "2022-12-29T18:07:03.000",
    "date_modified": "2022-12-29T18:07:04.000",
    "request_status": "Pending",
    "responsible_agency": "Department of Sanitation",
    "final_address": "4156 Vendome Pl",
    "address_councildis": "B",
    "status": "Assigned to Contractor",
    "contractor": "Richards Disposal",
    "rowid": "957432",
    "final_x": "3668848.32762",
    "final_y": "530935.98829",
    "longitude": "-90.10803959121654",
    "latitude": "29.954267913368636",
    "geocoded_column": {
      "latitude": "29.954267913368636",
      "longitude": "-90.10803959121654"
    }
  },
  {
    "service_request": "2022-957431",
    "request_type": "Roads/Drainage",
    "request_reason": "Pothole",
    "date_created": "2022-12-29T18:04:55.000",
    "date_modified": "2022-12-29T18:04:55.000",
    "request_status": "Pending",
    "responsible_agency": "Department of Public Works",
    "final_address": "1442 Louisa St",
    "address_councildis": "C",
    "status": "Pending",
    "rowid": "957431",
    "final_x": "3689890.12803",
    "final_y": "537323.821896",
    "longitude": "-90.04137077149866",
    "latitude": "29.97119675522851",
    "geocoded_column": {
      "latitude": "29.97119675522851",
      "longitude": "-90.04137077149866"
    }
  },
  {
    "service_request": "2022-957430",
    "request_type": "Roads/Drainage",
    "request_reason": "Pothole",
    "date_created": "2022-12-29T18:03:29.000",
    "date_modified": "2022-12-29T18:03:29.000",
    "request_status": "Pending",
    "responsible_agency": "Department of Public Works",
    "final_address": "1442 Louisa St",
    "address_councildis": "C",
    "status": "Pending",
    "rowid": "957430",
    "final_x": "3689890.12803",
    "final_y": "537323.821896",
    "longitude": "-90.04137077149866",
    "latitude": "29.97119675522851",
    "geocoded_column": {
      "latitude": "29.97119675522851",
      "longitude": "-90.04137077149866"
    }
  },
  {
    "service_request": "2022-957429",
    "request_type": "Trash/Recycling",
    "request_reason": "Order Trash Cart",
    "date_created": "2022-12-29T18:00:39.000",
    "date_modified": "2022-12-29T18:00:40.000",
    "request_status": "Pending",
    "responsible_agency": "Department of Sanitation",
    "final_address": "2239 Jourdan Ave",
    "address_councildis": "E",
    "status": "Assigned to Contractor",
    "contractor": "Waste Pro",
    "rowid": "957429",
    "final_x": "3696339.12093",
    "final_y": "538943.63873",
    "longitude": "-90.02094548629562",
    "latitude": "29.97544915654184",
    "geocoded_column": {
      "latitude": "29.97544915654184",
      "longitude": "-90.02094548629562"
    }
  },
  {
    "service_request": "2022-957428",
    "request_type": "Trash/Recycling",
    "request_reason": "MIssed Recycling Pick-Up",
    "date_created": "2022-12-29T17:57:20.000",
    "date_modified": "2022-12-29T17:57:21.000",
    "request_status": "Pending",
    "responsible_agency": "Department of Sanitation",
    "final_address": "522 Leontine St",
    "address_councildis": "B",
    "status": "Assigned to Contractor",
    "contractor": "Richards Disposal",
    "rowid": "957428",
    "final_x": "3666955.93639",
    "final_y": "517389.323701",
    "longitude": "-90.11447003989285",
    "latitude": "29.91707442434475",
    "geocoded_column": {
      "latitude": "29.91707442434475",
      "longitude": "-90.11447003989285"
    }
  },
  {
    "service_request": "2022-957427",
    "request_type": "Trash/Recycling",
    "request_reason": "MIssed Recycling Pick-Up",
    "date_created": "2022-12-29T17:56:03.000",
    "date_modified": "2022-12-29T17:56:04.000",
    "request_status": "Pending",
    "responsible_agency": "Department of Sanitation",
    "final_address": "1337 State St",
    "address_councildis": "A",
    "status": "Assigned to Contractor",
    "contractor": "Richards Disposal",
    "rowid": "957427",
    "final_x": "3665410.92103",
    "final_y": "521082.616825",
    "longitude": "-90.11922326261714",
    "latitude": "29.927274922157512",
    "geocoded_column": {
      "latitude": "29.927274922157512",
      "longitude": "-90.11922326261714"
    }
  },
  {
    "service_request": "2022-957426",
    "request_type": "Trash/Recycling",
    "request_reason": "MIssed Recycling Pick-Up",
    "date_created": "2022-12-29T17:44:06.000",
    "date_modified": "2022-12-29T17:44:06.000",
    "request_status": "Pending",
    "responsible_agency": "Department of Sanitation",
    "final_address": "1721 Robert St",
    "address_councildis": "B",
    "status": "Assigned to Contractor",
    "contractor": "Richards Disposal",
    "rowid": "957426",
    "final_x": "3668804.12609",
    "final_y": "521971.424698",
    "longitude": "-90.10848174660215",
    "latitude": "29.929619563428524",
    "geocoded_column": {
      "latitude": "29.929619563428524",
      "longitude": "-90.10848174660215"
    }
  },
  {
    "service_request": "2022-957425",
    "request_type": "Trash/Recycling",
    "request_reason": "MIssed Recycling Pick-Up",
    "date_created": "2022-12-29T17:40:14.000",
    "date_modified": "2022-12-29T17:40:14.000",
    "request_status": "Pending",
    "responsible_agency": "Department of Sanitation",
    "final_address": "6153 Carlisle Ct",
    "address_councildis": "C",
    "status": "Assigned to Contractor",
    "contractor": "Richards Disposal",
    "rowid": "957425",
    "final_x": "3706792.22238",
    "final_y": "516403.656373",
    "longitude": "-89.98876737033036",
    "latitude": "29.913138904969",
    "geocoded_column": {
      "latitude": "29.913138904969",
      "longitude": "-89.98876737033036"
    }
  },
  {
    "service_request": "2022-957424",
    "request_type": "Trash/Recycling",
    "request_reason": "Request a Large Item Pick Up",
    "date_created": "2022-12-29T17:38:17.000",
    "date_modified": "2022-12-29T17:38:18.000",
    "request_status": "Pending",
    "responsible_agency": "Department of Sanitation",
    "final_address": "6034 Magazine St",
    "address_councildis": "A",
    "status": "Assigned to Contractor",
    "contractor": "Richards Disposal",
    "rowid": "957424",
    "final_x": "3664381.55098",
    "final_y": "519218.923063",
    "longitude": "-90.1225349053704",
    "latitude": "29.92218029952682",
    "geocoded_column": {
      "latitude": "29.92218029952682",
      "longitude": "-90.1225349053704"
    }
  },
  {
    "service_request": "2022-957423",
    "request_type": "Trash/Recycling",
    "request_reason": "Missed Trash Pick-Up",
    "date_created": "2022-12-29T17:34:26.000",
    "date_modified": "2022-12-29T17:34:27.000",
    "request_status": "Pending",
    "responsible_agency": "Department of Sanitation",
    "final_address": "1409 Saint Mary St, New Orleans, Louisiana, 70130",
    "status": "Assigned to Contractor",
    "rowid": "957423",
    "longitude": "0.0",
    "latitude": "0.0",
    "geocoded_column": {
      "latitude": "0.0",
      "longitude": "0.0"
    }
  },
  {
    "service_request": "2022-957422",
    "request_type": "Trash/Recycling",
    "request_reason": "Missed Trash Pick-Up",
    "date_created": "2022-12-29T17:25:37.000",
    "date_modified": "2022-12-29T17:25:38.000",
    "request_status": "Pending",
    "responsible_agency": "Department of Sanitation",
    "final_address": "2200 BLK N Miro St",
    "address_councildis": "D",
    "status": "Assigned to Contractor",
    "contractor": "IV Waste",
    "rowid": "957422",
    "final_x": "3684915.96379",
    "final_y": "540374.489577",
    "longitude": "-90.0569725164917",
    "latitude": "29.97973830072648",
    "geocoded_column": {
      "latitude": "29.97973830072648",
      "longitude": "-90.0569725164917"
    }
  },
  {
    "service_request": "2022-957421",
    "request_type": "Trash/Recycling",
    "request_reason": "MIssed Recycling Pick-Up",
    "date_created": "2022-12-29T17:22:00.000",
    "date_modified": "2022-12-29T17:22:00.000",
    "request_status": "Pending",
    "responsible_agency": "Department of Sanitation",
    "final_address": "3200 Ursulines Ave",
    "address_councildis": "A",
    "status": "Assigned to Contractor",
    "contractor": "Richards Disposal",
    "rowid": "957421",
    "final_x": "3675813.22273",
    "final_y": "539479.653962",
    "longitude": "-90.08575348073632",
    "latitude": "29.977553474363674",
    "geocoded_column": {
      "latitude": "29.977553474363674",
      "longitude": "-90.08575348073632"
    }
  },
  {
    "service_request": "2022-957420",
    "request_type": "Trash/Recycling",
    "request_reason": "Missed Trash Pick-Up",
    "date_created": "2022-12-29T17:18:07.000",
    "date_modified": "2022-12-29T17:18:08.000",
    "request_status": "Pending",
    "responsible_agency": "Department of Sanitation",
    "final_address": "2128 St Andrew St",
    "address_councildis": "B",
    "status": "Assigned to Contractor",
    "contractor": "Richards Disposal",
    "rowid": "957420",
    "final_x": "3676851.91688",
    "final_y": "525814.340861",
    "longitude": "-90.08294390778713",
    "latitude": "29.939947324561064",
    "geocoded_column": {
      "latitude": "29.939947324561064",
      "longitude": "-90.08294390778713"
    }
  },
  {
    "service_request": "2022-957419",
    "request_type": "Traffic Signals/Signs/Striping/Streetlights",
    "request_reason": "Street Light Outage/Malfunction",
    "date_created": "2022-12-29T17:11:23.000",
    "date_modified": "2022-12-29T17:11:23.000",
    "request_status": "Pending",
    "responsible_agency": "Department of Public Works",
    "final_address": "7028 Catina St",
    "address_councildis": "A",
    "status": "Assigned to Contractor",
    "contractor": "Legacy Professional Services",
    "rowid": "957419",
    "final_x": "3667063.9074",
    "final_y": "554401.688152",
    "longitude": "-90.11288489929434",
    "latitude": "30.018842964413864",
    "geocoded_column": {
      "latitude": "30.018842964413864",
      "longitude": "-90.11288489929434"
    }
  },
  {
    "service_request": "2022-957418",
    "request_type": "Trash/Recycling",
    "request_reason": "Missed Trash Pick-Up",
    "date_created": "2022-12-29T16:59:02.000",
    "date_modified": "2022-12-29T16:59:02.000",
    "request_status": "Pending",
    "responsible_agency": "Department of Sanitation",
    "final_address": "3611 Rue Nichole",
    "address_councildis": "C",
    "status": "Assigned to Contractor",
    "contractor": "Richards Disposal",
    "rowid": "957418",
    "final_x": "3703936.42058",
    "final_y": "517311.340725",
    "longitude": "-89.99774767545854",
    "latitude": "29.915726560347572",
    "geocoded_column": {
      "latitude": "29.915726560347572",
      "longitude": "-89.99774767545854"
    }
  },
  {
    "service_request": "2022-957416",
    "request_type": "Trash/Recycling",
    "request_reason": "Missed Trash Pick-Up",
    "date_created": "2022-12-29T16:55:00.000",
    "date_modified": "2022-12-29T16:55:01.000",
    "request_status": "Pending",
    "responsible_agency": "Department of Sanitation",
    "final_address": "1630 Philip St",
    "address_councildis": "B",
    "status": "Assigned to Contractor",
    "contractor": "Richards Disposal",
    "rowid": "957416",
    "final_x": "3676930.54325",
    "final_y": "523589.523323",
    "longitude": "-90.08277233276483",
    "latitude": "29.93382744726861",
    "geocoded_column": {
      "latitude": "29.93382744726861",
      "longitude": "-90.08277233276483"
    }
  },
  {
    "service_request": "2022-957415",
    "request_type": "Property Maintenance",
    "request_reason": "Property Maintenance",
    "date_created": "2022-12-29T16:50:10.000",
    "date_modified": "2022-12-29T16:50:10.000",
    "request_status": "Pending",
    "responsible_agency": "Department of Code Enforcement",
    "final_address": "1801 Fern St",
    "address_councildis": "A",
    "status": "Pending",
    "rowid": "957415",
    "final_x": "3664008.98976",
    "final_y": "529411.681537",
    "longitude": "-90.12337118363833",
    "latitude": "29.950217968234927",
    "geocoded_column": {
      "latitude": "29.950217968234927",
      "longitude": "-90.12337118363833"
    }
  },
  {
    "service_request": "2022-957414",
    "request_type": "Trash/Recycling",
    "request_reason": "Request a Large Item Pick Up",
    "date_created": "2022-12-29T16:45:52.000",
    "date_modified": "2022-12-29T16:45:52.000",
    "request_status": "Pending",
    "responsible_agency": "Department of Sanitation",
    "final_address": "3172 State Street Dr",
    "address_councildis": "A",
    "status": "Assigned to Contractor",
    "contractor": "Richards Disposal",
    "rowid": "957414",
    "final_x": "3667563.44583",
    "final_y": "528191.412864",
    "longitude": "-90.11218910768685",
    "latitude": "29.94675894216266",
    "geocoded_column": {
      "latitude": "29.94675894216266",
      "longitude": "-90.11218910768685"
    }
  },
  {
    "service_request": "2022-957413",
    "request_type": "Abandoned Vehicles",
    "request_reason": "Abandoned/Junk Vehicles",
    "date_created": "2022-12-29T16:43:23.000",
    "date_modified": "2022-12-29T16:43:24.000",
    "request_status": "Pending",
    "responsible_agency": "Department of Public Works",
    "final_address": "8316 Apple St",
    "address_councildis": "A",
    "status": "Pending",
    "rowid": "957413",
    "final_x": "3664674.9936",
    "final_y": "532672.557124",
    "longitude": "-90.12115936357755",
    "latitude": "29.95916496184692",
    "geocoded_column": {
      "latitude": "29.95916496184692",
      "longitude": "-90.12115936357755"
    }
  },
  {
    "service_request": "2022-957412",
    "request_type": "Trash/Recycling",
    "request_reason": "Missed Trash Pick-Up",
    "date_created": "2022-12-29T16:43:17.000",
    "date_modified": "2022-12-29T16:43:18.000",
    "request_status": "Pending",
    "responsible_agency": "Department of Sanitation",
    "final_address": "519 Philip St",
    "address_councildis": "B",
    "status": "Assigned to Contractor",
    "contractor": "Richards Disposal",
    "rowid": "957412",
    "final_x": "3679832.93039",
    "final_y": "520220.232952",
    "longitude": "-90.0737265581521",
    "latitude": "29.9244755846313",
    "geocoded_column": {
      "latitude": "29.9244755846313",
      "longitude": "-90.0737265581521"
    }
  },
  {
    "service_request": "2022-957411",
    "request_type": "Trash/Recycling",
    "request_reason": "Request a Large Item Pick Up",
    "date_created": "2022-12-29T16:41:47.000",
    "date_modified": "2022-12-29T16:41:48.000",
    "request_status": "Pending",
    "responsible_agency": "Department of Sanitation",
    "final_address": "730 S Rampart St",
    "address_councildis": "B",
    "status": "Assigned to Contractor",
    "contractor": "Empire Services",
    "rowid": "957411",
    "final_x": "3679162.96245",
    "final_y": "528725.438848",
    "longitude": "-90.07554670798055",
    "latitude": "29.947882328881697",
    "geocoded_column": {
      "latitude": "29.947882328881697",
      "longitude": "-90.07554670798055"
    }
  },
  {
    "service_request": "2022-957409",
    "request_type": "Trash/Recycling",
    "request_reason": "Order Recycling Cart",
    "date_created": "2022-12-29T16:29:23.000",
    "date_modified": "2022-12-29T16:35:39.000",
    "request_status": "Pending",
    "responsible_agency": "Department of Sanitation",
    "final_address": "4411 Trieste St",
    "address_councildis": "E",
    "status": "Pending",
    "rowid": "957409",
    "final_x": "3760302.5208",
    "final_y": "574114.877482",
    "longitude": "-89.81746760106348",
    "latitude": "30.069985186026244",
    "geocoded_column": {
      "latitude": "30.069985186026244",
      "longitude": "-89.81746760106348"
    }
  },
  {
    "service_request": "2022-957408",
    "request_type": "Traffic Signals/Signs/Striping/Streetlights",
    "request_reason": "Street Light Outage/Malfunction",
    "date_created": "2022-12-29T16:26:34.000",
    "date_modified": "2022-12-29T16:26:35.000",
    "request_status": "Pending",
    "responsible_agency": "Department of Public Works",
    "final_address": "1702 Independence St",
    "address_councildis": "D",
    "status": "Assigned to Contractor",
    "contractor": "Legacy Professional Services",
    "rowid": "957408",
    "final_x": "3691477.51267",
    "final_y": "537811.049608",
    "longitude": "-90.0363401954967",
    "latitude": "29.972487149834638",
    "geocoded_column": {
      "latitude": "29.972487149834638",
      "longitude": "-90.0363401954967"
    }
  },
  {
    "service_request": "2022-957407",
    "request_type": "Trash/Recycling",
    "request_reason": "Missed Trash Pick-Up",
    "date_created": "2022-12-29T16:24:15.000",
    "date_modified": "2022-12-29T16:24:15.000",
    "request_status": "Pending",
    "responsible_agency": "Department of Sanitation",
    "final_address": "2800 BLK S Prieur St",
    "address_councildis": "B",
    "status": "Assigned to Contractor",
    "contractor": "Richards Disposal",
    "rowid": "957407",
    "final_x": "3672407.5705",
    "final_y": "527479.564907",
    "longitude": "-90.09691866632193",
    "latitude": "29.944658753672687",
    "geocoded_column": {
      "latitude": "29.944658753672687",
      "longitude": "-90.09691866632193"
    }
  },
  {
    "service_request": "2022-957406",
    "request_type": "Trash/Recycling",
    "request_reason": "Missed Trash Pick-Up",
    "date_created": "2022-12-29T16:20:42.000",
    "date_modified": "2022-12-29T16:20:42.000",
    "request_status": "Pending",
    "responsible_agency": "Department of Sanitation",
    "final_address": "4072 State Street Dr, New Orleans, Louisiana, 70125",
    "address_councildis": "B",
    "status": "Assigned to Contractor",
    "contractor": "Richards Disposal",
    "rowid": "957406",
    "final_x": "3668233.31969",
    "final_y": "530506.583618",
    "longitude": "-90.109996023198",
    "latitude": "29.953105260071304",
    "geocoded_column": {
      "latitude": "29.953105260071304",
      "longitude": "-90.109996023198"
    }
  },
  {
    "service_request": "2022-957405",
    "request_type": "Trash/Recycling",
    "request_reason": "Missed Trash Pick-Up",
    "date_created": "2022-12-29T16:19:53.000",
    "date_modified": "2022-12-29T16:19:53.000",
    "request_status": "Pending",
    "responsible_agency": "Department of Sanitation",
    "final_address": "4814 Walmsley Ave, New Orleans, Louisiana, 70125",
    "address_councildis": "B",
    "status": "Assigned to Contractor",
    "contractor": "Richards Disposal",
    "rowid": "957405",
    "final_x": "3668219.68052",
    "final_y": "530542.170818",
    "longitude": "-90.11003789024738",
    "latitude": "29.953203513614355",
    "geocoded_column": {
      "latitude": "29.953203513614355",
      "longitude": "-90.11003789024738"
    }
  },
  {
    "service_request": "2022-957404",
    "request_type": "Traffic Signals/Signs/Striping/Streetlights",
    "request_reason": "Street Light Outage/Malfunction",
    "date_created": "2022-12-29T16:19:04.000",
    "date_modified": "2022-12-29T16:19:05.000",
    "request_status": "Pending",
    "responsible_agency": "Department of Public Works",
    "final_address": "Central Park Pl & W Park Pl, New Orleans, Louisiana, 70124",
    "status": "Assigned to Contractor",
    "contractor": "Legacy Professional Services",
    "rowid": "957404",
    "longitude": "0.0",
    "latitude": "0.0",
    "geocoded_column": {
      "latitude": "0.0",
      "longitude": "0.0"
    }
  },
  {
    "service_request": "2022-957403",
    "request_type": "Trash/Recycling",
    "request_reason": "Request a Large Item Pick Up",
    "date_created": "2022-12-29T16:18:00.000",
    "date_modified": "2022-12-29T16:18:01.000",
    "request_status": "Pending",
    "responsible_agency": "Department of Sanitation",
    "final_address": "7726 Cohn St",
    "address_councildis": "A",
    "status": "Assigned to Contractor",
    "contractor": "Richards Disposal",
    "rowid": "957403",
    "final_x": "3664519.57357",
    "final_y": "529317.747585",
    "longitude": "-90.1217621581384",
    "latitude": "29.949944845328908",
    "geocoded_column": {
      "latitude": "29.949944845328908",
      "longitude": "-90.1217621581384"
    }
  },
  {
    "service_request": "2022-957402",
    "request_type": "Trash/Recycling",
    "request_reason": "Missed Trash Pick-Up",
    "date_created": "2022-12-29T16:14:48.000",
    "date_modified": "2022-12-29T16:14:49.000",
    "request_status": "Pending",
    "responsible_agency": "Department of Sanitation",
    "final_address": "4330 State Street Dr",
    "address_councildis": "B",
    "status": "Assigned to Contractor",
    "contractor": "Richards Disposal",
    "rowid": "957402",
    "final_x": "3668571.20244",
    "final_y": "531513.849091",
    "longitude": "-90.10889514659189",
    "latitude": "29.95586498635862",
    "geocoded_column": {
      "latitude": "29.95586498635862",
      "longitude": "-90.10889514659189"
    }
  },
  {
    "service_request": "2022-957401",
    "request_type": "Trash/Recycling",
    "request_reason": "Missed Trash Pick-Up",
    "date_created": "2022-12-29T16:12:04.000",
    "date_modified": "2022-12-29T16:12:04.000",
    "request_status": "Pending",
    "responsible_agency": "Department of Sanitation",
    "final_address": "743 Felicity St",
    "address_councildis": "B",
    "status": "Assigned to Contractor",
    "contractor": "Richards Disposal",
    "rowid": "957401",
    "final_x": "3681052.04827",
    "final_y": "522025.25849",
    "longitude": "-90.06981539111247",
    "latitude": "29.929401906320233",
    "geocoded_column": {
      "latitude": "29.929401906320233",
      "longitude": "-90.06981539111247"
    }
  },
  {
    "service_request": "2022-957400",
    "request_type": "Trash/Recycling",
    "request_reason": "Request a Large Item Pick Up",
    "date_created": "2022-12-29T16:11:53.000",
    "date_modified": "2022-12-29T16:11:54.000",
    "request_status": "Pending",
    "responsible_agency": "Department of Sanitation",
    "final_address": "5000 Wilton Dr",
    "address_councildis": "D",
    "status": "Assigned to Contractor",
    "contractor": "IV Waste",
    "rowid": "957400",
    "final_x": "3681808.80124",
    "final_y": "551207.521301",
    "longitude": "-90.0664078853317",
    "latitude": "30.009620093817013",
    "geocoded_column": {
      "latitude": "30.009620093817013",
      "longitude": "-90.0664078853317"
    }
  },
  {
    "service_request": "2022-957399",
    "request_type": "Roads/Drainage",
    "request_reason": "Pothole",
    "date_created": "2022-12-29T16:07:19.000",
    "date_modified": "2022-12-29T16:07:20.000",
    "request_status": "Pending",
    "responsible_agency": "Department of Public Works",
    "final_address": "2800 BLK S Prieur St",
    "address_councildis": "B",
    "status": "Pending",
    "rowid": "957399",
    "final_x": "3672407.5705",
    "final_y": "527479.564907",
    "longitude": "-90.09691866632193",
    "latitude": "29.944658753672687",
    "geocoded_column": {
      "latitude": "29.944658753672687",
      "longitude": "-90.09691866632193"
    }
  },
  {
    "service_request": "2022-957398",
    "request_type": "Property Maintenance",
    "request_reason": "Property Maintenance",
    "date_created": "2022-12-29T16:04:40.000",
    "date_modified": "2022-12-29T16:04:40.000",
    "request_status": "Pending",
    "responsible_agency": "Department of Code Enforcement",
    "final_address": "512 Elmira Ave, New Orleans, Louisiana, 70114",
    "address_councildis": "C",
    "status": "Pending",
    "rowid": "957398",
    "final_x": "3688245.21347",
    "final_y": "529773.946625",
    "longitude": "-90.04683332710796",
    "latitude": "29.95048811175107",
    "geocoded_column": {
      "latitude": "29.95048811175107",
      "longitude": "-90.04683332710796"
    }
  },
  {
    "service_request": "2022-957396",
    "request_type": "Trash/Recycling",
    "request_reason": "Replace Trash Cart",
    "date_created": "2022-12-29T15:55:53.000",
    "date_modified": "2022-12-29T15:55:53.000",
    "request_status": "Pending",
    "responsible_agency": "Department of Sanitation",
    "final_address": "2715 DAbadie St",
    "address_councildis": "D",
    "status": "Assigned to Contractor",
    "contractor": "IV Waste",
    "rowid": "957396",
    "final_x": "3679152.88866",
    "final_y": "541089.506828",
    "longitude": "-90.0751498572161",
    "latitude": "29.981879606240838",
    "geocoded_column": {
      "latitude": "29.981879606240838",
      "longitude": "-90.0751498572161"
    }
  },
  {
    "service_request": "2022-957394",
    "request_type": "Roads/Drainage",
    "request_reason": "Pothole",
    "date_created": "2022-12-29T15:53:11.000",
    "date_modified": "2022-12-29T15:53:11.000",
    "request_status": "Pending",
    "responsible_agency": "Department of Public Works",
    "final_address": "5301 Franklin Ave",
    "address_councildis": "D",
    "status": "Pending",
    "rowid": "957394",
    "final_x": "3686783.64028",
    "final_y": "552326.675094",
    "longitude": "-90.05065106653683",
    "latitude": "30.012545173619003",
    "geocoded_column": {
      "latitude": "30.012545173619003",
      "longitude": "-90.05065106653683"
    }
  },
  {
    "service_request": "2022-957392",
    "request_type": "Trash/Recycling",
    "request_reason": "Missed Trash Pick-Up",
    "date_created": "2022-12-29T15:50:16.000",
    "date_modified": "2022-12-29T15:50:17.000",
    "request_status": "Pending",
    "responsible_agency": "Department of Sanitation",
    "final_address": "1525 Clio St",
    "address_councildis": "B",
    "status": "Assigned to Contractor",
    "contractor": "Richards Disposal",
    "rowid": "957392",
    "final_x": "3680003.84296",
    "final_y": "526221.26835",
    "longitude": "-90.07297868179003",
    "latitude": "29.94097128839909",
    "geocoded_column": {
      "latitude": "29.94097128839909",
      "longitude": "-90.07297868179003"
    }
  },
  {
    "service_request": "2022-957391",
    "request_type": "Trash/Recycling",
    "request_reason": "MIssed Recycling Pick-Up",
    "date_created": "2022-12-29T15:47:50.000",
    "date_modified": "2022-12-29T15:47:50.000",
    "request_status": "Pending",
    "responsible_agency": "Department of Sanitation",
    "final_address": "4023 Constance St",
    "address_councildis": "B",
    "status": "Assigned to Contractor",
    "contractor": "Richards Disposal",
    "rowid": "957391",
    "final_x": "3672366.09415",
    "final_y": "518582.256823",
    "longitude": "-90.09735263319833",
    "latitude": "29.920195260223256",
    "geocoded_column": {
      "latitude": "29.920195260223256",
      "longitude": "-90.09735263319833"
    }
  },
  {
    "service_request": "2022-957390",
    "request_type": "Trash/Recycling",
    "request_reason": "Missed Trash Pick-Up",
    "date_created": "2022-12-29T15:47:19.000",
    "date_modified": "2022-12-29T15:47:20.000",
    "request_status": "Pending",
    "responsible_agency": "Department of Sanitation",
    "final_address": "2314 Seventh St",
    "address_councildis": "B",
    "status": "Assigned to Contractor",
    "contractor": "Richards Disposal",
    "rowid": "957390",
    "final_x": "3673773.12219",
    "final_y": "524258.001276",
    "longitude": "-90.0927173343791",
    "latitude": "29.935759920044276",
    "geocoded_column": {
      "latitude": "29.935759920044276",
      "longitude": "-90.0927173343791"
    }
  },
  {
    "service_request": "2022-957389",
    "request_type": "Trash/Recycling",
    "request_reason": "Missed Trash Pick-Up",
    "date_created": "2022-12-29T15:46:39.000",
    "date_modified": "2022-12-29T15:46:42.000",
    "request_status": "Pending",
    "responsible_agency": "Department of Sanitation",
    "final_address": "3120 Camp St",
    "address_councildis": "B",
    "status": "Assigned to Contractor",
    "contractor": "Richards Disposal",
    "rowid": "957389",
    "final_x": "3675742.05153",
    "final_y": "520380.38028",
    "longitude": "-90.08663457968987",
    "latitude": "29.925038958379158",
    "geocoded_column": {
      "latitude": "29.925038958379158",
      "longitude": "-90.08663457968987"
    }
  },
  {
    "service_request": "2022-957388",
    "request_type": "Trash/Recycling",
    "request_reason": "Replace Trash Cart",
    "date_created": "2022-12-29T15:46:08.000",
    "date_modified": "2022-12-29T15:46:09.000",
    "request_status": "Pending",
    "responsible_agency": "Department of Sanitation",
    "final_address": "524 N Alexander St",
    "address_councildis": "A",
    "status": "Assigned to Contractor",
    "contractor": "Richards Disposal",
    "rowid": "957388",
    "final_x": "3671054.32174",
    "final_y": "540523.865803",
    "longitude": "-90.1007482587547",
    "latitude": "29.980566315838182",
    "geocoded_column": {
      "latitude": "29.980566315838182",
      "longitude": "-90.1007482587547"
    }
  },
  {
    "service_request": "2022-957387",
    "request_type": "Trash/Recycling",
    "request_reason": "Request a Large Item Pick Up",
    "date_created": "2022-12-29T15:44:47.000",
    "date_modified": "2022-12-29T15:44:48.000",
    "request_status": "Pending",
    "responsible_agency": "Department of Sanitation",
    "final_address": "6419 Arts St",
    "address_councildis": "D",
    "status": "Assigned to Contractor",
    "contractor": "IV Waste",
    "rowid": "957387",
    "final_x": "3685602.66031",
    "final_y": "556824.732442",
    "longitude": "-90.05422365928489",
    "latitude": "30.024949471752777",
    "geocoded_column": {
      "latitude": "30.024949471752777",
      "longitude": "-90.05422365928489"
    }
  },
  {
    "service_request": "2022-957386",
    "request_type": "Trash/Recycling",
    "request_reason": "Request a Large Item Pick Up",
    "date_created": "2022-12-29T15:42:25.000",
    "date_modified": "2022-12-29T15:42:25.000",
    "request_status": "Pending",
    "responsible_agency": "Department of Sanitation",
    "final_address": "1006 Newton St",
    "address_councildis": "C",
    "status": "Assigned to Contractor",
    "contractor": "Richards Disposal",
    "rowid": "957386",
    "final_x": "3688499.7327",
    "final_y": "527978.851775",
    "longitude": "-90.04609336378827",
    "latitude": "29.94554435512123",
    "geocoded_column": {
      "latitude": "29.94554435512123",
      "longitude": "-90.04609336378827"
    }
  },
  {
    "service_request": "2022-957385",
    "request_type": "Trash/Recycling",
    "request_reason": "Replace Trash Cart",
    "date_created": "2022-12-29T15:41:03.000",
    "date_modified": "2022-12-29T15:41:04.000",
    "request_status": "Pending",
    "responsible_agency": "Department of Sanitation",
    "final_address": "1522 Dante St",
    "address_councildis": "A",
    "status": "Assigned to Contractor",
    "contractor": "Richards Disposal",
    "rowid": "957385",
    "final_x": "3662233.24039",
    "final_y": "529817.344705",
    "longitude": "-90.12896462937267",
    "latitude": "29.951384851660354",
    "geocoded_column": {
      "latitude": "29.951384851660354",
      "longitude": "-90.12896462937267"
    }
  },
  {
    "service_request": "2022-957384",
    "request_type": "Trash/Recycling",
    "request_reason": "MIssed Recycling Pick-Up",
    "date_created": "2022-12-29T15:40:41.000",
    "date_modified": "2022-12-29T15:40:41.000",
    "request_status": "Pending",
    "responsible_agency": "Department of Sanitation",
    "final_address": "1017 Felicity St",
    "address_councildis": "B",
    "status": "Assigned to Contractor",
    "contractor": "Richards Disposal",
    "rowid": "957384",
    "final_x": "3680214.40565",
    "final_y": "522859.497275",
    "longitude": "-90.07243069275788",
    "latitude": "29.9317211600216",
    "geocoded_column": {
      "latitude": "29.9317211600216",
      "longitude": "-90.07243069275788"
    }
  },
  {
    "service_request": "2022-957383",
    "request_type": "Trash/Recycling",
    "request_reason": "Missed Trash Pick-Up",
    "date_created": "2022-12-29T15:38:29.000",
    "date_modified": "2022-12-29T15:38:30.000",
    "request_status": "Pending",
    "responsible_agency": "Department of Sanitation",
    "final_address": "1117 S Dupre St",
    "address_councildis": "B",
    "status": "Assigned to Contractor",
    "contractor": "Richards Disposal",
    "rowid": "957383",
    "final_x": "3671665.26587",
    "final_y": "531621.633027",
    "longitude": "-90.09912148427563",
    "latitude": "29.956070081681926",
    "geocoded_column": {
      "latitude": "29.956070081681926",
      "longitude": "-90.09912148427563"
    }
  },
  {
    "service_request": "2022-957382",
    "request_type": "Trash/Recycling",
    "request_reason": "MIssed Recycling Pick-Up",
    "date_created": "2022-12-29T15:38:08.000",
    "date_modified": "2022-12-29T15:38:08.000",
    "request_status": "Pending",
    "responsible_agency": "Department of Sanitation",
    "final_address": "4024 Constance St",
    "address_councildis": "B",
    "status": "Assigned to Contractor",
    "contractor": "Richards Disposal",
    "rowid": "957382",
    "final_x": "3672339.00116",
    "final_y": "518500.723255",
    "longitude": "-90.09744092892",
    "latitude": "29.91997187242374",
    "geocoded_column": {
      "latitude": "29.91997187242374",
      "longitude": "-90.09744092892"
    }
  },
  {
    "service_request": "2022-957381",
    "request_type": "Trash/Recycling",
    "request_reason": "Illegal Dumping",
    "date_created": "2022-12-29T15:37:00.000",
    "date_modified": "2022-12-29T15:37:01.000",
    "request_status": "Pending",
    "responsible_agency": "Department of Sanitation",
    "final_address": "MONROE CT & MONROE ST",
    "address_councildis": "A",
    "status": "Pending",
    "rowid": "957381",
    "final_x": "3662166.3",
    "final_y": "531766.58",
    "longitude": "-90.12911131208567",
    "latitude": "29.956746554096267",
    "geocoded_column": {
      "latitude": "29.956746554096267",
      "longitude": "-90.12911131208567"
    }
  },
  {
    "service_request": "2022-957380",
    "request_type": "Trash/Recycling",
    "request_reason": "Request a Large Item Pick Up",
    "date_created": "2022-12-29T15:27:01.000",
    "date_modified": "2022-12-29T15:27:02.000",
    "request_status": "Pending",
    "responsible_agency": "Department of Sanitation",
    "final_address": "7438 Garfield St, New Orleans, Louisiana, 70118",
    "address_councildis": "A",
    "status": "Assigned to Contractor",
    "contractor": "Richards Disposal",
    "rowid": "957380",
    "final_x": "3661285.17222",
    "final_y": "523802.154555",
    "longitude": "-90.13215728265514",
    "latitude": "29.934872357441687",
    "geocoded_column": {
      "latitude": "29.934872357441687",
      "longitude": "-90.13215728265514"
    }
  },
  {
    "service_request": "2022-957379",
    "request_type": "Trash/Recycling",
    "request_reason": "Missed Trash Pick-Up",
    "date_created": "2022-12-29T15:26:25.000",
    "date_modified": "2022-12-29T15:26:25.000",
    "request_status": "Pending",
    "responsible_agency": "Department of Sanitation",
    "final_address": "4218 S Robertson St",
    "address_councildis": "B",
    "status": "Assigned to Contractor",
    "contractor": "Richards Disposal",
    "rowid": "957379",
    "final_x": "3671064.58305",
    "final_y": "524396.486524",
    "longitude": "-90.10126355442604",
    "latitude": "29.93622106787921",
    "geocoded_column": {
      "latitude": "29.93622106787921",
      "longitude": "-90.10126355442604"
    }
  },
  {
    "service_request": "2022-957378",
    "request_type": "Abandoned Vehicles",
    "request_reason": "Abandoned/Junk Vehicles",
    "date_created": "2022-12-29T15:22:43.000",
    "date_modified": "2022-12-29T15:22:43.000",
    "request_status": "Pending",
    "responsible_agency": "Department of Public Works",
    "final_address": "3138 De Soto St",
    "address_councildis": "A",
    "status": "Pending",
    "rowid": "957378",
    "final_x": "3676079.28347",
    "final_y": "539883.654538",
    "longitude": "-90.08489926804575",
    "latitude": "29.9786563691904",
    "geocoded_column": {
      "latitude": "29.9786563691904",
      "longitude": "-90.08489926804575"
    }
  },
  {
    "service_request": "2022-957376",
    "request_type": "Trash/Recycling",
    "request_reason": "Illegal Dumping",
    "date_created": "2022-12-29T15:19:46.000",
    "date_modified": "2022-12-29T15:19:47.000",
    "request_status": "Pending",
    "responsible_agency": "Department of Sanitation",
    "final_address": "1716 General Ogden St",
    "address_councildis": "A",
    "status": "Pending",
    "rowid": "957376",
    "final_x": "3661132.36538",
    "final_y": "531728.260291",
    "longitude": "-90.13237743188735",
    "latitude": "29.956671025049793",
    "geocoded_column": {
      "latitude": "29.956671025049793",
      "longitude": "-90.13237743188735"
    }
  },
  {
    "service_request": "2022-957375",
    "request_type": "Trash/Recycling",
    "request_reason": "Order Recycling Cart",
    "date_created": "2022-12-29T15:17:32.000",
    "date_modified": "2022-12-29T15:17:32.000",
    "request_status": "Pending",
    "responsible_agency": "Department of Sanitation",
    "final_address": "1200 France St",
    "address_councildis": "D",
    "status": "Pending",
    "rowid": "957375",
    "final_x": "3692436.98115",
    "final_y": "535561.392518",
    "longitude": "-90.03339063913769",
    "latitude": "29.966271491569238",
    "geocoded_column": {
      "latitude": "29.966271491569238",
      "longitude": "-90.03339063913769"
    }
  },
  {
    "service_request": "2022-957374",
    "request_type": "Abandoned Vehicles",
    "request_reason": "Abandoned/Junk Vehicles",
    "date_created": "2022-12-29T15:16:09.000",
    "date_modified": "2022-12-29T15:16:09.000",
    "request_status": "Pending",
    "responsible_agency": "Department of Public Works",
    "final_address": "1201 France St",
    "address_councildis": "D",
    "status": "Pending",
    "rowid": "957374",
    "final_x": "3692512.02806",
    "final_y": "535531.658822",
    "longitude": "-90.0331547088587",
    "latitude": "29.966187393123523",
    "geocoded_column": {
      "latitude": "29.966187393123523",
      "longitude": "-90.0331547088587"
    }
  },
  {
    "service_request": "2022-957373",
    "request_type": "Trash/Recycling",
    "request_reason": "Repair Trash Cart",
    "date_created": "2022-12-29T15:14:57.000",
    "date_modified": "2022-12-29T15:14:57.000",
    "request_status": "Pending",
    "responsible_agency": "Department of Sanitation",
    "final_address": "64 Curtis Dr",
    "address_councildis": "E",
    "status": "Assigned to Contractor",
    "contractor": "Waste Pro",
    "rowid": "957373",
    "final_x": "3698049.19773",
    "final_y": "561049.55171",
    "longitude": "-90.014741210297",
    "latitude": "30.036178189881852",
    "geocoded_column": {
      "latitude": "30.036178189881852",
      "longitude": "-90.014741210297"
    }
  },
  {
    "service_request": "2022-957372",
    "request_type": "Abandoned Vehicles",
    "request_reason": "Abandoned/Junk Vehicles",
    "date_created": "2022-12-29T15:13:37.000",
    "date_modified": "2022-12-29T15:13:37.000",
    "request_status": "Pending",
    "responsible_agency": "Department of Public Works",
    "final_address": "5400 Macarthur Blvd",
    "address_councildis": "C",
    "status": "Pending",
    "rowid": "957372",
    "final_x": "3703974.0657",
    "final_y": "519704.710328",
    "longitude": "-89.99754078702355",
    "latitude": "29.922306294507653",
    "geocoded_column": {
      "latitude": "29.922306294507653",
      "longitude": "-89.99754078702355"
    }
  },
  {
    "service_request": "2022-957371",
    "request_type": "Trash/Recycling",
    "request_reason": "Missed Trash Pick-Up",
    "date_created": "2022-12-29T15:13:08.000",
    "date_modified": "2022-12-29T15:13:12.000",
    "request_status": "Pending",
    "responsible_agency": "Department of Sanitation",
    "final_address": "4231 Vendome Pl",
    "address_councildis": "B",
    "status": "Assigned to Contractor",
    "contractor": "Richards Disposal",
    "rowid": "957371",
    "final_x": "3669160.85287",
    "final_y": "531200.04493",
    "longitude": "-90.1070438349355",
    "latitude": "29.954984789391784",
    "geocoded_column": {
      "latitude": "29.954984789391784",
      "longitude": "-90.1070438349355"
    }
  },
  {
    "service_request": "2022-957370",
    "request_type": "Trash/Recycling",
    "request_reason": "Request a Large Item Pick Up",
    "date_created": "2022-12-29T15:12:29.000",
    "date_modified": "2022-12-29T15:12:30.000",
    "request_status": "Pending",
    "responsible_agency": "Department of Sanitation",
    "final_address": "1202 France St",
    "address_councildis": "D",
    "status": "Assigned to Contractor",
    "contractor": "IV Waste",
    "rowid": "957370",
    "final_x": "3692440.01936",
    "final_y": "535587.000134",
    "longitude": "-90.03338012711927",
    "latitude": "29.9663418087093",
    "geocoded_column": {
      "latitude": "29.9663418087093",
      "longitude": "-90.03338012711927"
    }
  },
  {
    "service_request": "2022-957369",
    "request_type": "Trash/Recycling",
    "request_reason": "Order Trash Cart",
    "date_created": "2022-12-29T15:09:17.000",
    "date_modified": "2022-12-29T15:09:18.000",
    "request_status": "Pending",
    "responsible_agency": "Department of Sanitation",
    "final_address": "1805 New Orleans St",
    "address_councildis": "D",
    "status": "Assigned to Contractor",
    "contractor": "IV Waste",
    "rowid": "957369",
    "final_x": "3682230.25704",
    "final_y": "538727.971529",
    "longitude": "-90.0655126039345",
    "latitude": "29.975292935742065",
    "geocoded_column": {
      "latitude": "29.975292935742065",
      "longitude": "-90.0655126039345"
    }
  },
  {
    "service_request": "2022-957368",
    "request_type": "Trash/Recycling",
    "request_reason": "Replace Trash Cart",
    "date_created": "2022-12-29T15:06:10.000",
    "date_modified": "2022-12-29T15:06:11.000",
    "request_status": "Pending",
    "responsible_agency": "Department of Sanitation",
    "final_address": "2437 Frenchmen St",
    "address_councildis": "D",
    "status": "Assigned to Contractor",
    "contractor": "IV Waste",
    "rowid": "957368",
    "final_x": "3684208.98492",
    "final_y": "541361.06446",
    "longitude": "-90.05917079056783",
    "latitude": "29.982472669746127",
    "geocoded_column": {
      "latitude": "29.982472669746127",
      "longitude": "-90.05917079056783"
    }
  },
  {
    "service_request": "2022-957367",
    "request_type": "Abandoned Vehicles",
    "request_reason": "Abandoned/Junk Vehicles",
    "date_created": "2022-12-29T15:05:41.000",
    "date_modified": "2022-12-29T15:05:42.000",
    "request_status": "Pending",
    "responsible_agency": "Department of Public Works",
    "final_address": "2218 Brainard St",
    "address_councildis": "B",
    "status": "Pending",
    "rowid": "957367",
    "final_x": "3677084.93806",
    "final_y": "524077.704764",
    "longitude": "-90.0822680881199",
    "latitude": "29.935165152086007",
    "geocoded_column": {
      "latitude": "29.935165152086007",
      "longitude": "-90.0822680881199"
    }
  },
  {
    "service_request": "2022-957366",
    "request_type": "Trash/Recycling",
    "request_reason": "Missed Trash Pick-Up",
    "date_created": "2022-12-29T15:03:15.000",
    "date_modified": "2022-12-29T15:03:16.000",
    "request_status": "Pending",
    "responsible_agency": "Department of Sanitation",
    "final_address": "612 Spain St ",
    "address_councildis": "C",
    "status": "Assigned to Contractor",
    "contractor": "IV Waste",
    "rowid": "957366",
    "final_x": "3686242.00924",
    "final_y": "534725.000966",
    "longitude": "-90.0529837138749",
    "latitude": "29.96416349997769",
    "geocoded_column": {
      "latitude": "29.96416349997769",
      "longitude": "-90.0529837138749"
    }
  },
  {
    "service_request": "2022-957365",
    "request_type": "Trash/Recycling",
    "request_reason": "Order Trash Cart",
    "date_created": "2022-12-29T15:03:11.000",
    "date_modified": "2022-12-29T15:03:15.000",
    "request_status": "Pending",
    "responsible_agency": "Department of Sanitation",
    "final_address": "1805 New Orleans St",
    "address_councildis": "D",
    "status": "Assigned to Contractor",
    "contractor": "IV Waste",
    "rowid": "957365",
    "final_x": "3682230.25704",
    "final_y": "538727.971529",
    "longitude": "-90.0655126039345",
    "latitude": "29.975292935742065",
    "geocoded_column": {
      "latitude": "29.975292935742065",
      "longitude": "-90.0655126039345"
    }
  },
  {
    "service_request": "2022-957364",
    "request_type": "Traffic Signals/Signs/Striping/Streetlights",
    "request_reason": "Street Light Outage/Malfunction",
    "date_created": "2022-12-29T15:01:48.000",
    "date_modified": "2022-12-29T15:01:48.000",
    "request_status": "Pending",
    "responsible_agency": "Department of Public Works",
    "final_address": "GENERAL MEYER AVE & EASTER LN",
    "address_councildis": "C",
    "status": "Assigned to Contractor",
    "contractor": "Legacy Professional Services",
    "rowid": "957364",
    "final_x": "3699638.0",
    "final_y": "524426.18",
    "longitude": "-90.0110558962386",
    "latitude": "29.935426988844284",
    "geocoded_column": {
      "latitude": "29.935426988844284",
      "longitude": "-90.0110558962386"
    }
  },
  {
    "service_request": "2022-957363",
    "request_type": "Traffic Signals/Signs/Striping/Streetlights",
    "request_reason": "Street Light Outage/Malfunction",
    "date_created": "2022-12-29T15:01:21.000",
    "date_modified": "2022-12-29T15:01:22.000",
    "request_status": "Pending",
    "responsible_agency": "Department of Public Works",
    "final_address": "GENERAL MEYER AVE & EASTER LN",
    "address_councildis": "C",
    "status": "Assigned to Contractor",
    "contractor": "Legacy Professional Services",
    "rowid": "957363",
    "final_x": "3699638.0",
    "final_y": "524426.18",
    "longitude": "-90.0110558962386",
    "latitude": "29.935426988844284",
    "geocoded_column": {
      "latitude": "29.935426988844284",
      "longitude": "-90.0110558962386"
    }
  },
  {
    "service_request": "2022-957362",
    "request_type": "Trash/Recycling",
    "request_reason": "Illegal Dumping",
    "date_created": "2022-12-29T14:58:42.000",
    "date_modified": "2022-12-29T14:58:42.000",
    "request_status": "Pending",
    "responsible_agency": "Department of Sanitation",
    "final_address": "4202 Almonaster Ave",
    "address_councildis": "D",
    "status": "Pending",
    "rowid": "957362",
    "final_x": "3690294.49468",
    "final_y": "547691.952274",
    "longitude": "-90.03972406440684",
    "latitude": "29.9996928549843",
    "geocoded_column": {
      "latitude": "29.9996928549843",
      "longitude": "-90.03972406440684"
    }
  },
  {
    "service_request": "2022-957361",
    "request_type": "Traffic Signals/Signs/Striping/Streetlights",
    "request_reason": "Street Light Outage/Malfunction",
    "date_created": "2022-12-29T14:57:56.000",
    "date_modified": "2022-12-29T14:57:57.000",
    "request_status": "Pending",
    "responsible_agency": "Department of Public Works",
    "final_address": "1441 N Miro St",
    "address_councildis": "D",
    "status": "Assigned to Contractor",
    "contractor": "Legacy Professional Services",
    "rowid": "957361",
    "final_x": "3679772.19746",
    "final_y": "538185.816841",
    "longitude": "-90.07329463887613",
    "latitude": "29.973876751734636",
    "geocoded_column": {
      "latitude": "29.973876751734636",
      "longitude": "-90.07329463887613"
    }
  },
  {
    "service_request": "2022-957360",
    "request_type": "Trash/Recycling",
    "request_reason": "Missed Trash Pick-Up",
    "date_created": "2022-12-29T14:55:43.000",
    "date_modified": "2022-12-29T14:55:43.000",
    "request_status": "Pending",
    "responsible_agency": "Department of Sanitation",
    "final_address": "1111 Cherokee St",
    "address_councildis": "A",
    "status": "Assigned to Contractor",
    "contractor": "Richards Disposal",
    "rowid": "957360",
    "final_x": "3663415.62195",
    "final_y": "526758.049598",
    "longitude": "-90.12533306839717",
    "latitude": "29.94293854733253",
    "geocoded_column": {
      "latitude": "29.94293854733253",
      "longitude": "-90.12533306839717"
    }
  },
  {
    "service_request": "2022-957359",
    "request_type": "Trash/Recycling",
    "request_reason": "Request a Large Item Pick Up",
    "date_created": "2022-12-29T14:55:28.000",
    "date_modified": "2022-12-29T14:55:28.000",
    "request_status": "Pending",
    "responsible_agency": "Department of Sanitation",
    "final_address": "2555 Jonquil St",
    "address_councildis": "D",
    "status": "Assigned to Contractor",
    "contractor": "IV Waste",
    "rowid": "957359",
    "final_x": "3686767.14774",
    "final_y": "547236.816081",
    "longitude": "-90.05088315722239",
    "latitude": "29.99855042048006",
    "geocoded_column": {
      "latitude": "29.99855042048006",
      "longitude": "-90.05088315722239"
    }
  },
  {
    "service_request": "2022-957358",
    "request_type": "Trash/Recycling",
    "request_reason": "MIssed Recycling Pick-Up",
    "date_created": "2022-12-29T14:53:41.000",
    "date_modified": "2022-12-29T14:53:42.000",
    "request_status": "Pending",
    "responsible_agency": "Department of Sanitation",
    "final_address": "3020 Bennett St",
    "address_councildis": "C",
    "status": "Assigned to Contractor",
    "contractor": "Richards Disposal",
    "rowid": "957358",
    "final_x": "3710607.06507",
    "final_y": "519380.198583",
    "longitude": "-89.97661546200246",
    "latitude": "29.921199714658467",
    "geocoded_column": {
      "latitude": "29.921199714658467",
      "longitude": "-89.97661546200246"
    }
  },
  {
    "service_request": "2022-957357",
    "request_type": "Trash/Recycling",
    "request_reason": "Missed Trash Pick-Up",
    "date_created": "2022-12-29T14:53:11.000",
    "date_modified": "2022-12-29T14:53:12.000",
    "request_status": "Pending",
    "responsible_agency": "Department of Sanitation",
    "final_address": "2431 Rex Pl",
    "address_councildis": "B",
    "status": "Assigned to Contractor",
    "contractor": "Richards Disposal",
    "rowid": "957357",
    "final_x": "3673636.8052",
    "final_y": "527742.237311",
    "longitude": "-90.09302862367997",
    "latitude": "29.94534448760292",
    "geocoded_column": {
      "latitude": "29.94534448760292",
      "longitude": "-90.09302862367997"
    }
  },
  {
    "service_request": "2022-957356",
    "request_type": "Trash/Recycling",
    "request_reason": "Replace Recycling Cart",
    "date_created": "2022-12-29T14:52:58.000",
    "date_modified": "2022-12-29T14:52:58.000",
    "request_status": "Pending",
    "responsible_agency": "Department of Sanitation",
    "final_address": "1469 Magazine St",
    "address_councildis": "B",
    "status": "Pending",
    "rowid": "957356",
    "final_x": "3680183.89717",
    "final_y": "523949.718652",
    "longitude": "-90.07248913320434",
    "latitude": "29.93471983249766",
    "geocoded_column": {
      "latitude": "29.93471983249766",
      "longitude": "-90.07248913320434"
    }
  },
  {
    "service_request": "2022-957355",
    "request_type": "Trash/Recycling",
    "request_reason": "Missed Trash Pick-Up",
    "date_created": "2022-12-29T14:51:46.000",
    "date_modified": "2022-12-29T14:51:46.000",
    "request_status": "Pending",
    "responsible_agency": "Department of Sanitation",
    "final_address": "4600 Gabriel Dr",
    "address_councildis": "E",
    "status": "Assigned to Contractor",
    "contractor": "Waste Pro",
    "rowid": "957355",
    "final_x": "3708908.6355",
    "final_y": "554789.224664",
    "longitude": "-89.980657139579",
    "latitude": "30.01861666553566",
    "geocoded_column": {
      "latitude": "30.01861666553566",
      "longitude": "-89.980657139579"
    }
  },
  {
    "service_request": "2022-957354",
    "request_type": "Trash/Recycling",
    "request_reason": "Replace Trash Cart",
    "date_created": "2022-12-29T14:50:39.000",
    "date_modified": "2022-12-29T14:50:40.000",
    "request_status": "Pending",
    "responsible_agency": "Department of Sanitation",
    "final_address": "3020 Bennett St",
    "address_councildis": "C",
    "status": "Assigned to Contractor",
    "contractor": "Richards Disposal",
    "rowid": "957354",
    "final_x": "3710607.06507",
    "final_y": "519380.198583",
    "longitude": "-89.97661546200246",
    "latitude": "29.921199714658467",
    "geocoded_column": {
      "latitude": "29.921199714658467",
      "longitude": "-89.97661546200246"
    }
  },
  {
    "service_request": "2022-957353",
    "request_type": "Trash/Recycling",
    "request_reason": "Request a Large Item Pick Up",
    "date_created": "2022-12-29T14:47:31.000",
    "date_modified": "2022-12-29T14:47:31.000",
    "request_status": "Pending",
    "responsible_agency": "Department of Sanitation",
    "final_address": "7134 Tudor Ct",
    "address_councildis": "E",
    "status": "Assigned to Contractor",
    "contractor": "Waste Pro",
    "rowid": "957353",
    "final_x": "3703641.15505",
    "final_y": "559852.243613",
    "longitude": "-89.99711379395829",
    "latitude": "30.03270793618484",
    "geocoded_column": {
      "latitude": "30.03270793618484",
      "longitude": "-89.99711379395829"
    }
  },
  {
    "service_request": "2022-957352",
    "request_type": "Trash/Recycling",
    "request_reason": "Replace Trash Cart",
    "date_created": "2022-12-29T14:46:01.000",
    "date_modified": "2022-12-29T14:46:02.000",
    "request_status": "Pending",
    "responsible_agency": "Department of Sanitation",
    "final_address": "5424 St Roch Ave",
    "address_councildis": "D",
    "status": "Assigned to Contractor",
    "contractor": "IV Waste",
    "rowid": "957352",
    "final_x": "3685075.86325",
    "final_y": "552998.253655",
    "longitude": "-90.05602303360412",
    "latitude": "30.014444224072705",
    "geocoded_column": {
      "latitude": "30.014444224072705",
      "longitude": "-90.05602303360412"
    }
  },
  {
    "service_request": "2022-957351",
    "request_type": "Trash/Recycling",
    "request_reason": "Missed Trash Pick-Up",
    "date_created": "2022-12-29T14:45:23.000",
    "date_modified": "2022-12-29T14:45:23.000",
    "request_status": "Pending",
    "responsible_agency": "Department of Sanitation",
    "final_address": "1258 Tennessee St",
    "address_councildis": "E",
    "status": "Assigned to Contractor",
    "contractor": "Waste Pro",
    "rowid": "957351",
    "final_x": "3695814.2216",
    "final_y": "534990.045446",
    "longitude": "-90.02274607019025",
    "latitude": "29.96459470647607",
    "geocoded_column": {
      "latitude": "29.96459470647607",
      "longitude": "-90.02274607019025"
    }
  },
  {
    "service_request": "2022-957350",
    "request_type": "Traffic Signals/Signs/Striping/Streetlights",
    "request_reason": "Street Light Outage/Malfunction",
    "date_created": "2022-12-29T14:43:05.000",
    "date_modified": "2022-12-29T14:44:54.000",
    "request_status": "Pending",
    "responsible_agency": "Department of Public Works",
    "final_address": "1441 N Miro St",
    "address_councildis": "D",
    "status": "Assigned to Contractor",
    "contractor": "Legacy Professional Services",
    "rowid": "957350",
    "final_x": "3679772.19746",
    "final_y": "538185.816841",
    "longitude": "-90.07329463887613",
    "latitude": "29.973876751734636",
    "geocoded_column": {
      "latitude": "29.973876751734636",
      "longitude": "-90.07329463887613"
    }
  },
  {
    "service_request": "2022-957349",
    "request_type": "Trash/Recycling",
    "request_reason": "Missed Trash Pick-Up",
    "date_created": "2022-12-29T14:42:58.000",
    "date_modified": "2022-12-29T14:42:58.000",
    "request_status": "Pending",
    "responsible_agency": "Department of Sanitation",
    "final_address": "122 S Bernadotte St",
    "address_councildis": "A",
    "status": "Assigned to Contractor",
    "contractor": "Richards Disposal",
    "rowid": "957349",
    "final_x": "3668722.60321",
    "final_y": "539861.507274",
    "longitude": "-90.10813522848689",
    "latitude": "29.978813815705518",
    "geocoded_column": {
      "latitude": "29.978813815705518",
      "longitude": "-90.10813522848689"
    }
  },
  {
    "service_request": "2022-957348",
    "request_type": "Trash/Recycling",
    "request_reason": "Missed Trash Pick-Up",
    "date_created": "2022-12-29T14:42:15.000",
    "date_modified": "2022-12-29T14:42:15.000",
    "request_status": "Pending",
    "responsible_agency": "Department of Sanitation",
    "final_address": "820 Deslonde St",
    "address_councildis": "E",
    "status": "Assigned to Contractor",
    "contractor": "Waste Pro",
    "rowid": "957348",
    "final_x": "3695066.12912",
    "final_y": "533472.852036",
    "longitude": "-90.0251631800955",
    "latitude": "29.960446466957208",
    "geocoded_column": {
      "latitude": "29.960446466957208",
      "longitude": "-90.0251631800955"
    }
  },
  {
    "service_request": "2022-957347",
    "request_type": "Trash/Recycling",
    "request_reason": "Replace Trash Cart",
    "date_created": "2022-12-29T14:42:01.000",
    "date_modified": "2022-12-29T14:42:02.000",
    "request_status": "Pending",
    "responsible_agency": "Department of Sanitation",
    "final_address": "8708 Palmetto St",
    "address_councildis": "A",
    "status": "Assigned to Contractor",
    "contractor": "Richards Disposal",
    "rowid": "957347",
    "final_x": "3666435.47482",
    "final_y": "536592.881479",
    "longitude": "-90.11546859656065",
    "latitude": "29.96989323222852",
    "geocoded_column": {
      "latitude": "29.96989323222852",
      "longitude": "-90.11546859656065"
    }
  },
  {
    "service_request": "2022-957346",
    "request_type": "Abandoned Vehicles",
    "request_reason": "Abandoned/Junk Vehicles",
    "date_created": "2022-12-29T14:39:23.000",
    "date_modified": "2022-12-29T14:39:23.000",
    "request_status": "Pending",
    "responsible_agency": "Department of Public Works",
    "final_address": "5400 Macarthur Blvd",
    "address_councildis": "C",
    "status": "Pending",
    "rowid": "957346",
    "final_x": "3703974.0657",
    "final_y": "519704.710328",
    "longitude": "-89.99754078702355",
    "latitude": "29.922306294507653",
    "geocoded_column": {
      "latitude": "29.922306294507653",
      "longitude": "-89.99754078702355"
    }
  },
  {
    "service_request": "2022-957345",
    "request_type": "Roads/Drainage",
    "request_reason": "Man hole cover issue",
    "date_created": "2022-12-29T14:38:17.000",
    "date_modified": "2022-12-29T14:38:17.000",
    "request_status": "Pending",
    "responsible_agency": "Department of Public Works",
    "final_address": "5223 S Derbigny St",
    "address_councildis": "B",
    "status": "Pending",
    "rowid": "957345",
    "final_x": "3668665.11527",
    "final_y": "526314.708158",
    "longitude": "-90.10877405106785",
    "latitude": "29.94156628366126",
    "geocoded_column": {
      "latitude": "29.94156628366126",
      "longitude": "-90.10877405106785"
    }
  },
  {
    "service_request": "2022-957344",
    "request_type": "Trash/Recycling",
    "request_reason": "Request a Large Item Pick Up",
    "date_created": "2022-12-29T14:38:06.000",
    "date_modified": "2022-12-29T14:52:17.000",
    "request_status": "Pending",
    "responsible_agency": "Department of Code Enforcement",
    "final_address": "229 18Th St",
    "address_councildis": "A",
    "status": "Assigned to Contractor",
    "contractor": "IV Waste",
    "rowid": "957344",
    "final_x": "3665451.76704",
    "final_y": "548779.185619",
    "longitude": "-90.11816711206389",
    "latitude": "30.003430158007507",
    "geocoded_column": {
      "latitude": "30.003430158007507",
      "longitude": "-90.11816711206389"
    }
  },
  {
    "service_request": "2022-957343",
    "request_type": "Trash/Recycling",
    "request_reason": "Request a Large Item Pick Up",
    "date_created": "2022-12-29T14:37:41.000",
    "date_modified": "2022-12-29T14:37:42.000",
    "request_status": "Pending",
    "responsible_agency": "Department of Sanitation",
    "final_address": "2507 Dreux Ave",
    "address_councildis": "D",
    "status": "Assigned to Contractor",
    "contractor": "IV Waste",
    "rowid": "957343",
    "final_x": "3686172.37161",
    "final_y": "552230.251926",
    "longitude": "-90.05258573792362",
    "latitude": "30.0122988459803",
    "geocoded_column": {
      "latitude": "30.0122988459803",
      "longitude": "-90.05258573792362"
    }
  },
  {
    "service_request": "2022-957342",
    "request_type": "Trash/Recycling",
    "request_reason": "Missed Trash Pick-Up",
    "date_created": "2022-12-29T14:36:10.000",
    "date_modified": "2022-12-29T14:36:10.000",
    "request_status": "Pending",
    "responsible_agency": "Department of Sanitation",
    "final_address": "47 Yellowstone Dr",
    "address_councildis": "C",
    "status": "Assigned to Contractor",
    "contractor": "Richards Disposal",
    "rowid": "957342",
    "final_x": "3700185.2138",
    "final_y": "517146.954165",
    "longitude": "-90.00959383444072",
    "latitude": "29.91539424661011",
    "geocoded_column": {
      "latitude": "29.91539424661011",
      "longitude": "-90.00959383444072"
    }
  },
  {
    "service_request": "2022-957341",
    "request_type": "Trash/Recycling",
    "request_reason": "MIssed Recycling Pick-Up",
    "date_created": "2022-12-29T14:35:10.000",
    "date_modified": "2022-12-29T14:35:10.000",
    "request_status": "Pending",
    "responsible_agency": "Department of Sanitation",
    "final_address": "5223 S Derbigny St",
    "address_councildis": "B",
    "status": "Assigned to Contractor",
    "contractor": "Richards Disposal",
    "rowid": "957341",
    "final_x": "3668665.11527",
    "final_y": "526314.708158",
    "longitude": "-90.10877405106785",
    "latitude": "29.94156628366126",
    "geocoded_column": {
      "latitude": "29.94156628366126",
      "longitude": "-90.10877405106785"
    }
  },
  {
    "service_request": "2022-957340",
    "request_type": "Traffic Signals/Signs/Striping/Streetlights",
    "request_reason": "Request for Stop Sign",
    "date_created": "2022-12-29T14:33:31.000",
    "date_modified": "2022-12-29T14:33:32.000",
    "request_status": "Pending",
    "responsible_agency": "Department of Public Works",
    "final_address": "GRANT ST & READ BLVD",
    "address_councildis": "E",
    "status": "Pending",
    "rowid": "957340",
    "final_x": "3712833.2",
    "final_y": "555244.78",
    "longitude": "-89.96823991850174",
    "latitude": "30.019741290102395",
    "geocoded_column": {
      "latitude": "30.019741290102395",
      "longitude": "-89.96823991850174"
    }
  },