[
  {
    "service_request": "2023-1013139",
    "request_type": "Traffic Signals/Signs/Striping/Streetlights",
    "request_reason": "Street Light Knocked Down/Leaning",
    "date_created": "2023-06-30T00:34:11.000",
    "date_modified": "2023-06-30T00:34:12.000",
    "request_status": "Pending",
    "responsible_agency": "Department of Public Works",
    "final_address": "5900 BLK Garfield St",
    "address_councildis": "A",
    "status": "Pending",
    "contractor": "Legacy Professional Services",
    "rowid": "1013139",
    "final_x": "3665587.92338",
    "final_y": "521432.148853",
    "longitude": "-90.11865281192837",
    "latitude": "29.928230866720405",
    "geocoded_column": {
      "latitude": "29.928230866720405",
      "longitude": "-90.11865281192837"
    }
  },
  {
    "service_request": "2023-1013138",
    "request_type": "Roads/Drainage",
    "request_reason": "Catch Basin - Clogged",
    "date_created": "2023-06-29T23:06:38.000",
    "date_modified": "2023-06-29T23:06:38.000",
    "request_status": "Pending",
    "responsible_agency": "Department of Public Works",
    "final_address": "5033 St Charles Ave",
    "address_councildis": "B",
    "status": "Pending",
    "rowid": "1013138",
    "final_x": "3668479.08212",
    "final_y": "521084.575865",
    "longitude": "-90.10953775657389",
    "latitude": "29.92719056136446",
    "geocoded_column": {
      "latitude": "29.92719056136446",
      "longitude": "-90.10953775657389"
    }
  },
  {
    "service_request": "2023-1013137",
    "request_type": "Traffic Signals/Signs/Striping/Streetlights",
    "request_reason": "Street Light Outage/Malfunction",
    "date_created": "2023-06-29T22:57:10.000",
    "date_modified": "2023-06-29T22:57:10.000",
    "request_status": "Pending",
    "responsible_agency": "Department of Public Works",
    "final_address": "2411 Magnolia St",
    "address_councildis": "B",
    "status": "Assigned to Contractor",
    "contractor": "Legacy Professional Services",
    "rowid": "1013137",
    "final_x": "3674664.45857",
    "final_y": "526480.666174",
    "longitude": "-90.08982721689657",
    "latitude": "29.941844955309442",
    "geocoded_column": {
      "latitude": "29.941844955309442",
      "longitude": "-90.08982721689657"
    }
  },
  {
    "service_request": "2023-1013136",
    "request_type": "Traffic Signals/Signs/Striping/Streetlights",
    "request_reason": "Street Light Outage/Malfunction",
    "date_created": "2023-06-29T22:28:13.000",
    "date_modified": "2023-06-29T22:28:13.000",
    "request_status": "Pending",
    "responsible_agency": "Department of Public Works",
    "final_address": "770 Lane St",
    "address_councildis": "A",
    "status": "Assigned to Contractor",
    "contractor": "Legacy Professional Services",
    "rowid": "1013136",
    "final_x": "3669237.01946",
    "final_y": "550622.596308",
    "longitude": "-90.10614649785019",
    "latitude": "30.00838797213131",
    "geocoded_column": {
      "latitude": "30.00838797213131",
      "longitude": "-90.10614649785019"
    }
  },
  {
    "service_request": "2023-1013135",
    "request_type": "Roads/Drainage",
    "request_reason": "Street Subsidence (Sinking)",
    "date_created": "2023-06-29T22:21:08.000",
    "date_modified": "2023-06-29T22:21:08.000",
    "request_status": "Pending",
    "responsible_agency": "Department of Public Works",
    "final_address": "5330 Marcia Ave",
    "address_councildis": "A",
    "status": "Pending",
    "rowid": "1013135",
    "final_x": "3664700.59066",
    "final_y": "543516.83131",
    "longitude": "-90.12071614142654",
    "latitude": "29.988982364343695",
    "geocoded_column": {
      "latitude": "29.988982364343695",
      "longitude": "-90.12071614142654"
    }
  },
  {
    "service_request": "2023-1013134",
    "request_type": "Roads/Drainage",
    "request_reason": "Accessibility Ramps, Curbs and Sidewalk Repair",
    "date_created": "2023-06-29T22:19:32.000",
    "date_modified": "2023-06-29T22:19:32.000",
    "request_status": "Pending",
    "responsible_agency": "Department of Public Works",
    "final_address": "5330 Marcia Ave",
    "address_councildis": "A",
    "status": "Pending",
    "rowid": "1013134",
    "final_x": "3664700.59066",
    "final_y": "543516.83131",
    "longitude": "-90.12071614142654",
    "latitude": "29.988982364343695",
    "geocoded_column": {
      "latitude": "29.988982364343695",
      "longitude": "-90.12071614142654"
    }
  },
  {
    "service_request": "2023-1013133",
    "request_type": "Trash/Recycling",
    "request_reason": "Request a Large Item Pick Up",
    "date_created": "2023-06-29T22:13:27.000",
    "date_modified": "2023-06-29T22:13:27.000",
    "request_status": "Pending",
    "responsible_agency": "Department of Sanitation",
    "final_address": "6023 Franklin Ave",
    "address_councildis": "D",
    "status": "Assigned to Contractor",
    "contractor": "IV Waste",
    "rowid": "1013133",
    "final_x": "3686489.40079",
    "final_y": "555424.886553",
    "longitude": "-90.05147119201342",
    "latitude": "30.02107316728389",
    "geocoded_column": {
      "latitude": "30.02107316728389",
      "longitude": "-90.05147119201342"
    }
  },
  {
    "service_request": "2023-1013132",
    "request_type": "Traffic Signals/Signs/Striping/Streetlights",
    "request_reason": "Street Light Outage/Malfunction",
    "date_created": "2023-06-29T21:45:24.000",
    "date_modified": "2023-06-29T21:45:24.000",
    "request_status": "Pending",
    "responsible_agency": "Department of Public Works",
    "final_address": "516 Julia St",
    "address_councildis": "B",
    "status": "Assigned to Contractor",
    "contractor": "Legacy Professional Services",
    "rowid": "1013132",
    "final_x": "3681020.34888",
    "final_y": "527824.825279",
    "longitude": "-90.06971355993512",
    "latitude": "29.945349751317867",
    "geocoded_column": {
      "latitude": "29.945349751317867",
      "longitude": "-90.06971355993512"
    }
  },
  {
    "service_request": "2023-1013131",
    "request_type": "Traffic Signals/Signs/Striping/Streetlights",
    "request_reason": "Street Light Outage/Malfunction",
    "date_created": "2023-06-29T21:39:21.000",
    "date_modified": "2023-06-29T21:39:22.000",
    "request_status": "Pending",
    "responsible_agency": "Department of Public Works",
    "final_address": "829 Port St A",
    "address_councildis": "C",
    "status": "Assigned to Contractor",
    "contractor": "Legacy Professional Services",
    "rowid": "1013131",
    "final_x": "3687227.1565",
    "final_y": "535522.599814",
    "longitude": "-90.04984449779995",
    "latitude": "29.966326314698122",
    "geocoded_column": {
      "latitude": "29.966326314698122",
      "longitude": "-90.04984449779995"
    }
  },
  {
    "service_request": "2023-1013130",
    "request_type": "Traffic Signals/Signs/Striping/Streetlights",
    "request_reason": "Street Light Outage/Malfunction",
    "date_created": "2023-06-29T21:20:44.000",
    "date_modified": "2023-06-29T21:20:45.000",
    "request_status": "Pending",
    "responsible_agency": "Department of Public Works",
    "final_address": "2161 N Dorgenois St",
    "address_councildis": "D",
    "status": "Assigned to Contractor",
    "contractor": "Legacy Professional Services",
    "rowid": "1013130",
    "final_x": "3683977.67772",
    "final_y": "541452.000332",
    "longitude": "-90.0598981798077",
    "latitude": "29.982729781779014",
    "geocoded_column": {
      "latitude": "29.982729781779014",
      "longitude": "-90.0598981798077"
    }
  },
  {
    "service_request": "2023-1013129",
    "request_type": "Traffic Signals/Signs/Striping/Streetlights",
    "request_reason": "Street Light Outage/Malfunction",
    "date_created": "2023-06-29T21:11:28.000",
    "date_modified": "2023-06-29T21:11:29.000",
    "request_status": "Pending",
    "responsible_agency": "Department of Public Works",
    "final_address": "846 Howard Ave",
    "address_councildis": "B",
    "status": "Assigned to Contractor",
    "contractor": "Legacy Professional Services",
    "rowid": "1013129",
    "final_x": "3679453.33045",
    "final_y": "527486.561855",
    "longitude": "-90.0746728681028",
    "latitude": "29.94446706335573",
    "geocoded_column": {
      "latitude": "29.94446706335573",
      "longitude": "-90.0746728681028"
    }
  },
  {
    "service_request": "2023-1013128",
    "request_type": "Trash/Recycling",
    "request_reason": "Missed Trash Pick-Up",
    "date_created": "2023-06-29T20:41:31.000",
    "date_modified": "2023-06-29T20:41:32.000",
    "request_status": "Pending",
    "responsible_agency": "Department of Sanitation",
    "final_address": "4720 Stemway Dr",
    "address_councildis": "D",
    "status": "Assigned to Contractor",
    "contractor": "Waste Pro",
    "rowid": "1013128",
    "final_x": "3696882.43018",
    "final_y": "554071.59356",
    "longitude": "-90.01868140742866",
    "latitude": "30.01702833476925",
    "geocoded_column": {
      "latitude": "30.01702833476925",
      "longitude": "-90.01868140742866"
    }
  },
  {
    "service_request": "2023-1013127",
    "request_type": "Traffic Signals/Signs/Striping/Streetlights",
    "request_reason": "Street Light Outage/Malfunction",
    "date_created": "2023-06-29T20:14:09.000",
    "date_modified": "2023-06-29T20:14:10.000",
    "request_status": "Pending",
    "responsible_agency": "Department of Public Works",
    "final_address": "23 Park Island Dr",
    "address_councildis": "A",
    "status": "Assigned to Contractor",
    "contractor": "Legacy Professional Services",
    "rowid": "1013127",
    "final_x": "3676225.92193",
    "final_y": "548385.645778",
    "longitude": "-90.08414338435787",
    "latitude": "30.00202948761263",
    "geocoded_column": {
      "latitude": "30.00202948761263",
      "longitude": "-90.08414338435787"
    }
  },
  {
    "service_request": "2023-1013126",
    "request_type": "Roads/Drainage",
    "request_reason": "Pothole",
    "date_created": "2023-06-29T20:00:38.000",
    "date_modified": "2023-06-29T20:00:38.000",
    "request_status": "Pending",
    "responsible_agency": "Department of Public Works",
    "final_address": "7832 Lafourche St",
    "address_councildis": "E",
    "status": "Pending",
    "rowid": "1013126",
    "final_x": "3709685.13803",
    "final_y": "566299.272355",
    "longitude": "-89.97777345907953",
    "latitude": "30.050239505840572",
    "geocoded_column": {
      "latitude": "30.050239505840572",
      "longitude": "-89.97777345907953"
    }
  },
  {
    "service_request": "2023-1013125",
    "request_type": "Abandoned Vehicles",
    "request_reason": "Abandoned/Junk Vehicles",
    "date_created": "2023-06-29T19:40:15.000",
    "date_modified": "2023-06-29T19:40:15.000",
    "request_status": "Pending",
    "responsible_agency": "Department of Public Works",
    "final_address": "1517 Dumaine St",
    "address_councildis": "C",
    "status": "Pending",
    "rowid": "1013125",
    "final_x": "3680668.01416",
    "final_y": "534878.838598",
    "longitude": "-90.07058055051647",
    "latitude": "29.964756581199534",
    "geocoded_column": {
      "latitude": "29.964756581199534",
      "longitude": "-90.07058055051647"
    }
  },
  {
    "service_request": "2023-1013124",
    "request_type": "Abandoned Vehicles",
    "request_reason": "Abandoned/Junk Vehicles",
    "date_created": "2023-06-29T19:34:05.000",
    "date_modified": "2023-06-29T19:34:05.000",
    "request_status": "Pending",
    "responsible_agency": "Department of Public Works",
    "final_address": "1517 Dumaine St",
    "address_councildis": "C",
    "status": "Pending",
    "rowid": "1013124",
    "final_x": "3680668.01416",
    "final_y": "534878.838598",
    "longitude": "-90.07058055051647",
    "latitude": "29.964756581199534",
    "geocoded_column": {
      "latitude": "29.964756581199534",
      "longitude": "-90.07058055051647"
    }
  },
  {
    "service_request": "2023-1013123",
    "request_type": "Health Related Request",
    "request_reason": "Request Information on the Health Marketplace",
    "date_created": "2023-06-29T19:30:06.000",
    "date_modified": "2023-06-29T19:30:06.000",
    "request_status": "Pending",
    "responsible_agency": "Health Department",
    "status": "Pending",
    "rowid": "1013123",
    "longitude": "0.0",
    "latitude": "0.0",
    "geocoded_column": {
      "latitude": "0.0",
      "longitude": "0.0"
    }
  },
  {
    "service_request": "2023-1013122",
    "request_type": "Trash/Recycling",
    "request_reason": "Request a Large Item Pick Up",
    "date_created": "2023-06-29T19:22:44.000",
    "date_modified": "2023-06-29T19:22:45.000",
    "request_status": "Pending",
    "responsible_agency": "Department of Sanitation",
    "final_address": "11230 S Parkwood Ct",
    "address_councildis": "E",
    "status": "Assigned to Contractor",
    "contractor": "Waste Pro",
    "rowid": "1013122",
    "final_x": "3716782.30412",
    "final_y": "558963.209116",
    "longitude": "-89.95562092073904",
    "latitude": "30.02983553403715",
    "geocoded_column": {
      "latitude": "30.02983553403715",
      "longitude": "-89.95562092073904"
    }
  },
  {
    "service_request": "2023-1013121",
    "request_type": "Trash/Recycling",
    "request_reason": "Request a Large Item Pick Up",
    "date_created": "2023-06-29T19:15:36.000",
    "date_modified": "2023-06-29T19:15:37.000",
    "request_status": "Pending",
    "responsible_agency": "Department of Sanitation",
    "final_address": "820 France St",
    "address_councildis": "C",
    "status": "Assigned to Contractor",
    "contractor": "IV Waste",
    "rowid": "1013121",
    "final_x": "3692117.10185",
    "final_y": "534191.736645",
    "longitude": "-90.03444983836246",
    "latitude": "29.962515393997293",
    "geocoded_column": {
      "latitude": "29.962515393997293",
      "longitude": "-90.03444983836246"
    }
  },
  {
    "service_request": "2023-1013120",
    "request_type": "Traffic Signals/Signs/Striping/Streetlights",
    "request_reason": "Street Light Outage/Malfunction",
    "date_created": "2023-06-29T19:13:28.000",
    "date_modified": "2023-06-29T19:13:29.000",
    "request_status": "Pending",
    "responsible_agency": "Department of Public Works",
    "final_address": "8011 Parry St",
    "address_councildis": "E",
    "status": "Assigned to Contractor",
    "contractor": "Legacy Professional Services",
    "rowid": "1013120",
    "final_x": "3713667.13279",
    "final_y": "569575.72439",
    "longitude": "-89.96506428347935",
    "latitude": "30.059118277759215",
    "geocoded_column": {
      "latitude": "30.059118277759215",
      "longitude": "-89.96506428347935"
    }
  },
  {
    "service_request": "2023-1013119",
    "request_type": "Trash/Recycling",
    "request_reason": "Request a Large Item Pick Up",
    "date_created": "2023-06-29T19:08:35.000",
    "date_modified": "2023-06-29T19:08:35.000",
    "request_status": "Pending",
    "responsible_agency": "Department of Sanitation",
    "final_address": "4824 Bonita Dr",
    "address_councildis": "E",
    "status": "Assigned to Contractor",
    "contractor": "Waste Pro",
    "rowid": "1013119",
    "final_x": "3704396.18481",
    "final_y": "555793.593177",
    "longitude": "-89.99487767089465",
    "latitude": "30.02152399254928",
    "geocoded_column": {
      "latitude": "30.02152399254928",
      "longitude": "-89.99487767089465"
    }
  },
  {
    "service_request": "2023-1013118",
    "request_type": "Roads/Drainage",
    "request_reason": "Catch Basin - Broken/Damage",
    "date_created": "2023-06-29T19:03:22.000",
    "date_modified": "2023-06-29T19:03:23.000",
    "request_status": "Pending",
    "responsible_agency": "Department of Public Works",
    "final_address": "2701 Aubry St",
    "address_councildis": "D",
    "status": "Pending",
    "rowid": "1013118",
    "final_x": "3679456.58939",
    "final_y": "541316.890444",
    "longitude": "-90.0741827340894",
    "latitude": "29.982495659128496",
    "geocoded_column": {
      "latitude": "29.982495659128496",
      "longitude": "-90.0741827340894"
    }
  },
  {
    "service_request": "2023-1013117",
    "request_type": "Trash/Recycling",
    "request_reason": "Replace Trash Cart",
    "date_created": "2023-06-29T18:56:08.000",
    "date_modified": "2023-06-29T18:56:09.000",
    "request_status": "Pending",
    "responsible_agency": "Department of Sanitation",
    "final_address": "7740 Shubrick Ave",
    "address_councildis": "E",
    "status": "Assigned to Contractor",
    "contractor": "Waste Pro",
    "rowid": "1013117",
    "final_x": "3706520.37047",
    "final_y": "564039.152033",
    "longitude": "-89.98785994587051",
    "latitude": "30.044127643556447",
    "geocoded_column": {
      "latitude": "30.044127643556447",
      "longitude": "-89.98785994587051"
    }
  },
  {
    "service_request": "2023-1013116",
    "request_type": "Trash/Recycling",
    "request_reason": "Illegal Dumping",
    "date_created": "2023-06-29T18:55:46.000",
    "date_modified": "2023-06-29T18:55:46.000",
    "request_status": "Pending",
    "responsible_agency": "Department of Sanitation",
    "final_address": "2114 St Thomas St",
    "address_councildis": "B",
    "status": "Pending",
    "rowid": "1013116",
    "final_x": "3680160.38626",
    "final_y": "520751.436793",
    "longitude": "-90.07267444348362",
    "latitude": "29.92592631962864",
    "geocoded_column": {
      "latitude": "29.92592631962864",
      "longitude": "-90.07267444348362"
    }
  },
  {
    "service_request": "2023-1013115",
    "request_type": "Health Related Request",
    "request_reason": "Noise Ordinance Complaint",
    "date_created": "2023-06-29T18:52:07.000",
    "date_modified": "2023-06-29T18:52:07.000",
    "request_status": "Pending",
    "responsible_agency": "Health Department",
    "final_address": "309 Decatur St, New Orleans, Louisiana, 70130",
    "address_councildis": "C",
    "status": "Pending",
    "rowid": "1013115",
    "final_x": "3682303.87119",
    "final_y": "530935.66509",
    "longitude": "-90.06555240294671",
    "latitude": "29.953864528206758",
    "geocoded_column": {
      "latitude": "29.953864528206758",
      "longitude": "-90.06555240294671"
    }
  },
  {
    "service_request": "2023-1013114",
    "request_type": "Abandoned Vehicles",
    "request_reason": "Abandoned/Junk Vehicles",
    "date_created": "2023-06-29T18:52:03.000",
    "date_modified": "2023-06-29T18:52:03.000",
    "request_status": "Pending",
    "responsible_agency": "Department of Public Works",
    "final_address": "7315 Vanderkloot Ave",
    "address_councildis": "E",
    "status": "Pending",
    "rowid": "1013114",
    "final_x": "3706403.82667",
    "final_y": "562484.114591",
    "longitude": "-89.98828596335063",
    "latitude": "30.03985567008832",
    "geocoded_column": {
      "latitude": "30.03985567008832",
      "longitude": "-89.98828596335063"
    }
  },
  {
    "service_request": "2023-1013113",
    "request_type": "Property Maintenance",
    "request_reason": "Property Maintenance",
    "date_created": "2023-06-29T18:51:03.000",
    "date_modified": "2023-06-29T18:51:04.000",
    "request_status": "Pending",
    "responsible_agency": "Department of Code Enforcement",
    "final_address": "2000 BLK Dumaine St",
    "address_councildis": "D",
    "status": "Pending",
    "rowid": "1013113",
    "final_x": "3679217.14645",
    "final_y": "535942.445947",
    "longitude": "-90.07512541160497",
    "latitude": "29.96772502295408",
    "geocoded_column": {
      "latitude": "29.96772502295408",
      "longitude": "-90.07512541160497"
    }
  },
  {
    "service_request": "2023-1013111",
    "request_type": "Trash/Recycling",
    "request_reason": "Replace Trash Cart",
    "date_created": "2023-06-29T18:47:35.000",
    "date_modified": "2023-06-29T18:47:35.000",
    "request_status": "Pending",
    "responsible_agency": "Department of Sanitation",
    "final_address": "2739 Danbury Dr",
    "address_councildis": "C",
    "status": "Assigned to Contractor",
    "contractor": "Richards Disposal",
    "rowid": "1013111",
    "final_x": "3703593.14538",
    "final_y": "520650.471225",
    "longitude": "-89.99870841488634",
    "latitude": "29.924919014365543",
    "geocoded_column": {
      "latitude": "29.924919014365543",
      "longitude": "-89.99870841488634"
    }
  },
  {
    "service_request": "2023-1013110",
    "request_type": "Abandoned Vehicles",
    "request_reason": "Abandoned/Junk Vehicles",
    "date_created": "2023-06-29T18:45:53.000",
    "date_modified": "2023-06-29T18:45:53.000",
    "request_status": "Pending",
    "responsible_agency": "Department of Public Works",
    "final_address": "1827 Eighth St",
    "address_councildis": "B",
    "status": "Pending",
    "rowid": "1013110",
    "final_x": "3674514.76232",
    "final_y": "522698.664698",
    "longitude": "-90.09042936027292",
    "latitude": "29.93145015115798",
    "geocoded_column": {
      "latitude": "29.93145015115798",
      "longitude": "-90.09042936027292"
    }
  },
  {
    "service_request": "2023-1013109",
    "request_type": "Trash/Recycling",
    "request_reason": "Illegal Dumping",
    "date_created": "2023-06-29T18:35:22.000",
    "date_modified": "2023-06-29T18:35:22.000",
    "request_status": "Pending",
    "responsible_agency": "Department of Sanitation",
    "final_address": "3051 N Johnson St",
    "address_councildis": "D",
    "status": "Pending",
    "rowid": "1013109",
    "final_x": "3689740.27689",
    "final_y": "539521.503818",
    "longitude": "-90.04176578767081",
    "latitude": "29.97724424889073",
    "geocoded_column": {
      "latitude": "29.97724424889073",
      "longitude": "-90.04176578767081"
    }
  },
  {
    "service_request": "2023-1013108",
    "request_type": "Trash/Recycling",
    "request_reason": "Replace Recycling Cart",
    "date_created": "2023-06-29T18:34:07.000",
    "date_modified": "2023-06-29T18:34:07.000",
    "request_status": "Pending",
    "responsible_agency": "Department of Sanitation",
    "final_address": "5309 Annunciation St",
    "address_councildis": "B",
    "status": "Pending",
    "rowid": "1013108",
    "final_x": "3667253.72045",
    "final_y": "517628.340534",
    "longitude": "-90.11352207216115",
    "latitude": "29.91772293244563",
    "geocoded_column": {
      "latitude": "29.91772293244563",
      "longitude": "-90.11352207216115"
    }
  },
  {
    "service_request": "2023-1013106",
    "request_type": "Abandoned Vehicles",
    "request_reason": "Vehicle Blocking Your Driveway",
    "date_created": "2023-06-29T18:29:56.000",
    "date_modified": "2023-06-29T18:29:56.000",
    "request_status": "Pending",
    "responsible_agency": "Department of Public Works",
    "final_address": "2037 South Carrollton Avenue ",
    "status": "Pending",
    "rowid": "1013106",
    "longitude": "0.0",
    "latitude": "0.0",
    "geocoded_column": {
      "latitude": "0.0",
      "longitude": "0.0"
    }
  },
  {
    "service_request": "2023-1013105",
    "request_type": "Roads/Drainage",
    "request_reason": "Street Subsidence (Sinking)",
    "date_created": "2023-06-29T18:24:44.000",
    "date_modified": "2023-06-29T18:24:44.000",
    "request_status": "Pending",
    "responsible_agency": "Department of Public Works",
    "final_address": "6301 Tchoupitoulas St",
    "address_councildis": "A",
    "status": "Pending",
    "rowid": "1013105",
    "final_x": "3662737.73741",
    "final_y": "518198.710582",
    "longitude": "-90.12775765258904",
    "latitude": "29.919422692103776",
    "geocoded_column": {
      "latitude": "29.919422692103776",
      "longitude": "-90.12775765258904"
    }
  },
  {
    "service_request": "2023-1013104",
    "request_type": "Roads/Drainage",
    "request_reason": "Catch Basin - Clogged",
    "date_created": "2023-06-29T18:21:26.000",
    "date_modified": "2023-06-29T18:21:26.000",
    "request_status": "Pending",
    "responsible_agency": "Department of Public Works",
    "final_address": "1831 Hastings Pl",
    "address_councildis": "B",
    "status": "Pending",
    "rowid": "1013104",
    "final_x": "3679891.36175",
    "final_y": "522748.950074",
    "longitude": "-90.07345434307707",
    "latitude": "29.931426962232212",
    "geocoded_column": {
      "latitude": "29.931426962232212",
      "longitude": "-90.07345434307707"
    }
  },
  {
    "service_request": "2023-1013103",
    "request_type": "Roads/Drainage",
    "request_reason": "Man hole cover issue",
    "date_created": "2023-06-29T18:11:46.000",
    "date_modified": "2023-06-29T18:11:46.000",
    "request_status": "Pending",
    "responsible_agency": "Department of Public Works",
    "final_address": "JEFFERSON AVE & CAMP ST",
    "address_councildis": "A",
    "status": "Pending",
    "rowid": "1013103",
    "final_x": "3666830.9",
    "final_y": "519162.38",
    "longitude": "-90.1148051938199",
    "latitude": "29.921953429402485",
    "geocoded_column": {
      "latitude": "29.921953429402485",
      "longitude": "-90.1148051938199"
    }
  },
  {
    "service_request": "2023-1013102",
    "request_type": "Trash/Recycling",
    "request_reason": "Request a Large Item Pick Up",
    "date_created": "2023-06-29T17:59:46.000",
    "date_modified": "2023-06-29T17:59:46.000",
    "request_status": "Pending",
    "responsible_agency": "Department of Sanitation",
    "final_address": "4421 Laine Ave",
    "address_councildis": "E",
    "status": "Assigned to Contractor",
    "contractor": "Waste Pro",
    "rowid": "1013102",
    "final_x": "3705985.96945",
    "final_y": "553516.305623",
    "longitude": "-89.98993878381756",
    "latitude": "30.015211173596796",
    "geocoded_column": {
      "latitude": "30.015211173596796",
      "longitude": "-89.98993878381756"
    }
  },
  {
    "service_request": "2023-1013101",
    "request_type": "Traffic Signals/Signs/Striping/Streetlights",
    "request_reason": "Traffic Signal Malfunctioning/Damaged",
    "date_created": "2023-06-29T17:59:33.000",
    "date_modified": "2023-06-29T17:59:33.000",
    "request_status": "Pending",
    "responsible_agency": "Department of Public Works",
    "final_address": "CALLIOPE ST & ANNUNCIATION ST & GAIENNIE ST",
    "address_councildis": "B",
    "status": "Pending",
    "rowid": "1013101",
    "final_x": "3681532.2",
    "final_y": "525857.38",
    "longitude": "-90.06816607131924",
    "latitude": "29.93992440362708",
    "geocoded_column": {
      "latitude": "29.93992440362708",
      "longitude": "-90.06816607131924"
    }
  },
  {
    "service_request": "2023-1013100",
    "request_type": "Traffic Signals/Signs/Striping/Streetlights",
    "request_reason": "Street Light Outage/Malfunction",
    "date_created": "2023-06-29T17:57:52.000",
    "date_modified": "2023-06-29T17:57:53.000",
    "request_status": "Pending",
    "responsible_agency": "Department of Public Works",
    "final_address": "319 39Th St",
    "address_councildis": "A",
    "status": "Assigned to Contractor",
    "contractor": "Legacy Professional Services",
    "rowid": "1013100",
    "final_x": "3665243.17229",
    "final_y": "553085.841687",
    "longitude": "-90.1186818737485",
    "latitude": "30.01527804615679",
    "geocoded_column": {
      "latitude": "30.01527804615679",
      "longitude": "-90.1186818737485"
    }
  },
  {
    "service_request": "2023-1013099",
    "request_type": "Trash/Recycling",
    "request_reason": "Request a Large Item Pick Up",
    "date_created": "2023-06-29T17:55:33.000",
    "date_modified": "2023-06-29T17:55:34.000",
    "request_status": "Pending",
    "responsible_agency": "Department of Sanitation",
    "final_address": "7641 Wave Dr",
    "address_councildis": "E",
    "status": "Assigned to Contractor",
    "contractor": "Waste Pro",
    "rowid": "1013099",
    "final_x": "3714979.39435",
    "final_y": "568876.300325",
    "longitude": "-89.96094285324202",
    "latitude": "30.057151998251086",
    "geocoded_column": {
      "latitude": "30.057151998251086",
      "longitude": "-89.96094285324202"
    }
  },
  {
    "service_request": "2023-1013098",
    "request_type": "Roads/Drainage",
    "request_reason": "Debris in Roadway",
    "date_created": "2023-06-29T17:40:52.000",
    "date_modified": "2023-06-29T17:40:52.000",
    "request_status": "Pending",
    "responsible_agency": "Department of Public Works",
    "final_address": "5359 Baccich St",
    "address_councildis": "D",
    "status": "Pending",
    "rowid": "1013098",
    "final_x": "3687728.54678",
    "final_y": "552812.611158",
    "longitude": "-90.04764846660139",
    "latitude": "30.013852200858153",
    "geocoded_column": {
      "latitude": "30.013852200858153",
      "longitude": "-90.04764846660139"
    }
  },
  {
    "service_request": "2023-1013097",
    "request_type": "Trash/Recycling",
    "request_reason": "Request a Large Item Pick Up",
    "date_created": "2023-06-29T17:40:37.000",
    "date_modified": "2023-06-29T17:40:37.000",
    "request_status": "Pending",
    "responsible_agency": "Department of Sanitation",
    "final_address": "4500 S Galvez St",
    "address_councildis": "B",
    "status": "Assigned to Contractor",
    "contractor": "Richards Disposal",
    "rowid": "1013097",
    "final_x": "3669740.6114",
    "final_y": "527376.406143",
    "longitude": "-90.10534256278521",
    "latitude": "29.944453960378453",
    "geocoded_column": {
      "latitude": "29.944453960378453",
      "longitude": "-90.10534256278521"
    }
  },
  {
    "service_request": "2023-1013096",
    "request_type": "Trash/Recycling",
    "request_reason": "Order Recycling Cart",
    "date_created": "2023-06-29T17:32:40.000",
    "date_modified": "2023-06-29T17:32:40.000",
    "request_status": "Pending",
    "responsible_agency": "Department of Sanitation",
    "final_address": "2125 Delachaise St",
    "address_councildis": "B",
    "status": "Pending",
    "rowid": "1013096",
    "final_x": "3673069.44443",
    "final_y": "523239.053435",
    "longitude": "-90.09497362586697",
    "latitude": "29.93297907428947",
    "geocoded_column": {
      "latitude": "29.93297907428947",
      "longitude": "-90.09497362586697"
    }
  },
  {
    "service_request": "2023-1013095",
    "request_type": "Trash/Recycling",
    "request_reason": "Request a Large Item Pick Up",
    "date_created": "2023-06-29T17:30:16.000",
    "date_modified": "2023-06-29T17:30:17.000",
    "request_status": "Pending",
    "responsible_agency": "Department of Sanitation",
    "final_address": "9886 E Rockton Cir",
    "address_councildis": "E",
    "status": "Assigned to Contractor",
    "contractor": "Waste Pro",
    "rowid": "1013095",
    "final_x": "3708796.16235",
    "final_y": "563174.976864",
    "longitude": "-89.98069973426304",
    "latitude": "30.041677832891516",
    "geocoded_column": {
      "latitude": "30.041677832891516",
      "longitude": "-89.98069973426304"
    }
  },
  {
    "service_request": "2023-1013094",
    "request_type": "Trash/Recycling",
    "request_reason": "Replace Trash Cart",
    "date_created": "2023-06-29T17:24:01.000",
    "date_modified": "2023-06-29T17:24:02.000",
    "request_status": "Pending",
    "responsible_agency": "Department of Sanitation",
    "final_address": "920 Robert St",
    "address_councildis": "B",
    "status": "Assigned to Contractor",
    "contractor": "Richards Disposal",
    "rowid": "1013094",
    "final_x": "3668598.14401",
    "final_y": "518772.884215",
    "longitude": "-90.10923986532426",
    "latitude": "29.92083064462958",
    "geocoded_column": {
      "latitude": "29.92083064462958",
      "longitude": "-90.10923986532426"
    }
  },
  {
    "service_request": "2023-1013093",
    "request_type": "Property Maintenance",
    "request_reason": "Property Maintenance",
    "date_created": "2023-06-29T17:21:44.000",
    "date_modified": "2023-06-29T17:21:44.000",
    "request_status": "Pending",
    "responsible_agency": "Department of Code Enforcement",
    "final_address": "2020 Sumpter St",
    "address_councildis": "D",
    "status": "Pending",
    "rowid": "1013093",
    "final_x": "3682678.79663",
    "final_y": "549385.725395",
    "longitude": "-90.06372303939195",
    "latitude": "30.004584334349794",
    "geocoded_column": {
      "latitude": "30.004584334349794",
      "longitude": "-90.06372303939195"
    }
  },
  {
    "service_request": "2023-1013092",
    "request_type": "Trash/Recycling",
    "request_reason": "Missed Trash Pick-Up",
    "date_created": "2023-06-29T17:21:04.000",
    "date_modified": "2023-06-29T17:21:05.000",
    "request_status": "Pending",
    "responsible_agency": "Department of Sanitation",
    "final_address": "2300 BLK Constance St",
    "address_councildis": "B",
    "status": "Assigned to Contractor",
    "contractor": "Richards Disposal",
    "rowid": "1013092",
    "final_x": "3678533.03857",
    "final_y": "521363.686719",
    "longitude": "-90.07779032313422",
    "latitude": "29.927658937627402",
    "geocoded_column": {
      "latitude": "29.927658937627402",
      "longitude": "-90.07779032313422"
    }
  },
  {
    "service_request": "2023-1013091",
    "request_type": "Trash/Recycling",
    "request_reason": "Missed Trash Pick-Up",
    "date_created": "2023-06-29T17:16:44.000",
    "date_modified": "2023-06-29T17:16:45.000",
    "request_status": "Pending",
    "responsible_agency": "Department of Sanitation",
    "final_address": "6501 E Hermes St",
    "address_councildis": "D",
    "status": "Assigned to Contractor",
    "contractor": "Waste Pro",
    "rowid": "1013091",
    "final_x": "3698071.24573",
    "final_y": "555337.169817",
    "longitude": "-90.01487925129234",
    "latitude": "30.020470632187674",
    "geocoded_column": {
      "latitude": "30.020470632187674",
      "longitude": "-90.01487925129234"
    }
  },
  {
    "service_request": "2023-1013090",
    "request_type": "Trash/Recycling",
    "request_reason": "Missed Trash Pick-Up",
    "date_created": "2023-06-29T17:16:17.000",
    "date_modified": "2023-06-29T17:16:17.000",
    "request_status": "Pending",
    "responsible_agency": "Department of Sanitation",
    "final_address": "5107 Burgundy St",
    "address_councildis": "E",
    "status": "Assigned to Contractor",
    "contractor": "Waste Pro",
    "rowid": "1013090",
    "final_x": "3696117.21546",
    "final_y": "533444.33178",
    "longitude": "-90.02184511142157",
    "latitude": "29.960335008809494",
    "geocoded_column": {
      "latitude": "29.960335008809494",
      "longitude": "-90.02184511142157"
    }
  },
  {
    "service_request": "2023-1013089",
    "request_type": "Trash/Recycling",
    "request_reason": "Illegal Dumping",
    "date_created": "2023-06-29T17:15:19.000",
    "date_modified": "2023-06-29T17:15:19.000",
    "request_status": "Pending",
    "responsible_agency": "Department of Sanitation",
    "final_address": "EDINBURGH ST & SHORT ST",
    "address_councildis": "B",
    "status": "Pending",
    "rowid": "1013089",
    "final_x": "3667810.5",
    "final_y": "534126.98",
    "longitude": "-90.11120918103879",
    "latitude": "29.963072565320736",
    "geocoded_column": {
      "latitude": "29.963072565320736",
      "longitude": "-90.11120918103879"
    }
  },
  {
    "service_request": "2023-1013088",
    "request_type": "Trash/Recycling",
    "request_reason": "Missed Trash Pick-Up",
    "date_created": "2023-06-29T17:10:25.000",
    "date_modified": "2023-06-29T17:10:25.000",
    "request_status": "Pending",
    "responsible_agency": "Department of Sanitation",
    "final_address": "2800 BLK Chippewa St",
    "address_councildis": "B",
    "status": "Assigned to Contractor",
    "contractor": "Richards Disposal",
    "rowid": "1013088",
    "final_x": "3677668.73354",
    "final_y": "519428.342165",
    "longitude": "-90.08058552170105",
    "latitude": "29.922363380910674",
    "geocoded_column": {
      "latitude": "29.922363380910674",
      "longitude": "-90.08058552170105"
    }
  },
  {
    "service_request": "2023-1013087",
    "request_type": "Trash/Recycling",
    "request_reason": "Return Recycling Cart",
    "date_created": "2023-06-29T17:07:55.000",
    "date_modified": "2023-06-29T17:07:56.000",
    "request_status": "Pending",
    "responsible_agency": "Department of Sanitation",
    "final_address": "1904 Napoleon Ave",
    "address_councildis": "B",
    "status": "Pending",
    "rowid": "1013087",
    "final_x": "3670597.63636",
    "final_y": "522003.563962",
    "longitude": "-90.10281885092698",
    "latitude": "29.92965509801179",
    "geocoded_column": {
      "latitude": "29.92965509801179",
      "longitude": "-90.10281885092698"
    }
  },
  {
    "service_request": "2023-1013086",
    "request_type": "Trash/Recycling",
    "request_reason": "Missed Trash Pick-Up",
    "date_created": "2023-06-29T17:07:31.000",
    "date_modified": "2023-06-29T17:07:31.000",
    "request_status": "Pending",
    "responsible_agency": "Department of Sanitation",
    "final_address": "1111 Cherokee St",
    "address_councildis": "A",
    "status": "Assigned to Contractor",
    "contractor": "Richards Disposal",
    "rowid": "1013086",
    "final_x": "3663415.62195",
    "final_y": "526758.049598",
    "longitude": "-90.12533306839717",
    "latitude": "29.94293854733253",
    "geocoded_column": {
      "latitude": "29.94293854733253",
      "longitude": "-90.12533306839717"
    }
  },
  {
    "service_request": "2023-1013085",
    "request_type": "Trash/Recycling",
    "request_reason": "MIssed Recycling Pick-Up",
    "date_created": "2023-06-29T17:07:06.000",
    "date_modified": "2023-06-29T17:07:06.000",
    "request_status": "Pending",
    "responsible_agency": "Department of Sanitation",
    "final_address": "1904 Napoleon Ave",
    "address_councildis": "B",
    "status": "Assigned to Contractor",
    "contractor": "Richards Disposal",
    "rowid": "1013085",
    "final_x": "3670597.63636",
    "final_y": "522003.563962",
    "longitude": "-90.10281885092698",
    "latitude": "29.92965509801179",
    "geocoded_column": {
      "latitude": "29.92965509801179",
      "longitude": "-90.10281885092698"
    }
  },
  {
    "service_request": "2023-1013084",
    "request_type": "Roads/Drainage",
    "request_reason": "Pothole",
    "date_created": "2023-06-29T17:05:09.000",
    "date_modified": "2023-06-29T17:05:09.000",
    "request_status": "Pending",
    "responsible_agency": "Department of Public Works",
    "final_address": "1439 L. B. Landry Ave",
    "address_councildis": "C",
    "status": "Pending",
    "rowid": "1013084",
    "final_x": "3690005.68854",
    "final_y": "526024.051774",
    "longitude": "-90.04140817538281",
    "latitude": "29.94012271806885",
    "geocoded_column": {
      "latitude": "29.94012271806885",
      "longitude": "-90.04140817538281"
    }
  },
  {
    "service_request": "2023-1013083",
    "request_type": "Trash/Recycling",
    "request_reason": "Request a Large Item Pick Up",
    "date_created": "2023-06-29T17:03:44.000",
    "date_modified": "2023-06-29T17:03:45.000",
    "request_status": "Pending",
    "responsible_agency": "Department of Sanitation",
    "final_address": "4512 S Derbigny St",
    "address_councildis": "B",
    "status": "Assigned to Contractor",
    "contractor": "Richards Disposal",
    "rowid": "1013083",
    "final_x": "3669801.31578",
    "final_y": "526157.267902",
    "longitude": "-90.10519215734726",
    "latitude": "29.941099937006587",
    "geocoded_column": {
      "latitude": "29.941099937006587",
      "longitude": "-90.10519215734726"
    }
  },
  {
    "service_request": "2023-1013082",
    "request_type": "Parks & Parkways",
    "request_reason": "Request Tree Service (Right of Way/Public Property)",
    "date_created": "2023-06-29T17:03:39.000",
    "date_modified": "2023-06-29T17:03:39.000",
    "request_status": "Pending",
    "responsible_agency": "Department of Parks & Parkway",
    "final_address": "623 Olivier St",
    "address_councildis": "C",
    "status": "Pending",
    "rowid": "1013082",
    "final_x": "3687245.18633",
    "final_y": "529298.693761",
    "longitude": "-90.05000769303783",
    "latitude": "29.949212163773854",
    "geocoded_column": {
      "latitude": "29.949212163773854",
      "longitude": "-90.05000769303783"
    }
  },
  {
    "service_request": "2023-1013081",
    "request_type": "Trash/Recycling",
    "request_reason": "Replace Trash Cart",
    "date_created": "2023-06-29T17:02:30.000",
    "date_modified": "2023-06-29T17:02:31.000",
    "request_status": "Pending",
    "responsible_agency": "Department of Sanitation",
    "final_address": "1525 Eagle St",
    "address_councildis": "A",
    "status": "Assigned to Contractor",
    "contractor": "Richards Disposal",
    "rowid": "1013081",
    "final_x": "3661006.74061",
    "final_y": "530956.469634",
    "longitude": "-90.13279965044283",
    "latitude": "29.954552469398273",
    "geocoded_column": {
      "latitude": "29.954552469398273",
      "longitude": "-90.13279965044283"
    }
  },
  {
    "service_request": "2023-1013080",
    "request_type": "Trash/Recycling",
    "request_reason": "Request a Large Item Pick Up",
    "date_created": "2023-06-29T16:59:06.000",
    "date_modified": "2023-06-29T16:59:07.000",
    "request_status": "Pending",
    "responsible_agency": "Department of Sanitation",
    "final_address": "935 Bragg St",
    "address_councildis": "A",
    "status": "Assigned to Contractor",
    "contractor": "IV Waste",
    "rowid": "1013080",
    "final_x": "3670557.93121",
    "final_y": "549922.623636",
    "longitude": "-90.10199707595844",
    "latitude": "30.0064243280219",
    "geocoded_column": {
      "latitude": "30.0064243280219",
      "longitude": "-90.10199707595844"
    }
  },
  {
    "service_request": "2023-1013079",
    "request_type": "Trash/Recycling",
    "request_reason": "Replace Trash Cart",
    "date_created": "2023-06-29T16:56:31.000",
    "date_modified": "2023-06-29T16:56:32.000",
    "request_status": "Pending",
    "responsible_agency": "Department of Sanitation",
    "final_address": "5420 S Tonti St",
    "address_councildis": "A",
    "status": "Assigned to Contractor",
    "contractor": "Richards Disposal",
    "rowid": "1013079",
    "final_x": "3668606.63354",
    "final_y": "527913.790399",
    "longitude": "-90.10890474122958",
    "latitude": "29.945964960068586",
    "geocoded_column": {
      "latitude": "29.945964960068586",
      "longitude": "-90.10890474122958"
    }
  },
  {
    "service_request": "2023-1013078",
    "request_type": "Abandoned Vehicles",
    "request_reason": "Abandoned/Junk Vehicles",
    "date_created": "2023-06-29T16:55:38.000",
    "date_modified": "2023-06-29T16:55:39.000",
    "request_status": "Pending",
    "responsible_agency": "Department of Public Works",
    "final_address": "2217 Humanity St",
    "address_councildis": "D",
    "status": "Pending",
    "rowid": "1013078",
    "final_x": "3684526.83381",
    "final_y": "544867.651279",
    "longitude": "-90.05804360084342",
    "latitude": "29.99210481901652",
    "geocoded_column": {
      "latitude": "29.99210481901652",
      "longitude": "-90.05804360084342"
    }
  },
  {
    "service_request": "2023-1013077",
    "request_type": "Trash/Recycling",
    "request_reason": "Missed Trash Pick-Up",
    "date_created": "2023-06-29T16:55:16.000",
    "date_modified": "2023-06-29T16:55:17.000",
    "request_status": "Pending",
    "responsible_agency": "Department of Sanitation",
    "final_address": "1314 State St",
    "address_councildis": "A",
    "status": "Assigned to Contractor",
    "contractor": "Richards Disposal",
    "rowid": "1013077",
    "final_x": "3665164.36352",
    "final_y": "521007.745337",
    "longitude": "-90.12000408831273",
    "latitude": "29.927076230323696",
    "geocoded_column": {
      "latitude": "29.927076230323696",
      "longitude": "-90.12000408831273"
    }
  },
  {
    "service_request": "2023-1013076",
    "request_type": "Parks & Parkways",
    "request_reason": "Request Tree Service (Right of Way/Public Property)",
    "date_created": "2023-06-29T16:53:58.000",
    "date_modified": "2023-06-29T16:53:59.000",
    "request_status": "Pending",
    "responsible_agency": "Department of Parks & Parkway",
    "final_address": "1904 Milan St",
    "address_councildis": "B",
    "status": "Pending",
    "rowid": "1013076",
    "final_x": "3671439.90388",
    "final_y": "522084.324538",
    "longitude": "-90.100157211905",
    "latitude": "29.929852265746902",
    "geocoded_column": {
      "latitude": "29.929852265746902",
      "longitude": "-90.100157211905"
    }
  },
  {
    "service_request": "2023-1013075",
    "request_type": "Trash/Recycling",
    "request_reason": "Illegal Dumping",
    "date_created": "2023-06-29T16:52:54.000",
    "date_modified": "2023-06-29T16:52:54.000",
    "request_status": "Pending",
    "responsible_agency": "Department of Sanitation",
    "final_address": "1516 Leboeuf St",
    "address_councildis": "C",
    "status": "Pending",
    "rowid": "1013075",
    "final_x": "3689704.11555",
    "final_y": "525854.321533",
    "longitude": "-90.04236632189597",
    "latitude": "29.93966536363123",
    "geocoded_column": {
      "latitude": "29.93966536363123",
      "longitude": "-90.04236632189597"
    }
  },
  {
    "service_request": "2023-1013073",
    "request_type": "Parks & Parkways",
    "request_reason": "Request Tree Service (Right of Way/Public Property)",
    "date_created": "2023-06-29T16:52:30.000",
    "date_modified": "2023-06-29T16:52:30.000",
    "request_status": "Pending",
    "responsible_agency": "Department of Parks & Parkway",
    "final_address": "4625 Spain St",
    "address_councildis": "D",
    "status": "Pending",
    "rowid": "1013073",
    "final_x": "3685141.26217",
    "final_y": "549719.151188",
    "longitude": "-90.05593190441033",
    "latitude": "30.005425882010844",
    "geocoded_column": {
      "latitude": "30.005425882010844",
      "longitude": "-90.05593190441033"
    }
  },
  {
    "service_request": "2023-1013072",
    "request_type": "Trash/Recycling",
    "request_reason": "Order Trash Cart",
    "date_created": "2023-06-29T16:48:57.000",
    "date_modified": "2023-06-29T16:48:58.000",
    "request_status": "Pending",
    "responsible_agency": "Department of Sanitation",
    "final_address": "5484 Canal Blvd",
    "address_councildis": "A",
    "status": "Assigned to Contractor",
    "contractor": "IV Waste",
    "rowid": "1013072",
    "final_x": "3667991.96647",
    "final_y": "543707.17595",
    "longitude": "-90.11031322105546",
    "latitude": "29.98940956094641",
    "geocoded_column": {
      "latitude": "29.98940956094641",
      "longitude": "-90.11031322105546"
    }
  },
  {
    "service_request": "2023-1013070",
    "request_type": "Trash/Recycling",
    "request_reason": "Order Recycling Cart",
    "date_created": "2023-06-29T16:40:08.000",
    "date_modified": "2023-06-29T16:40:09.000",
    "request_status": "Pending",
    "responsible_agency": "Department of Sanitation",
    "final_address": "1309 St Ferdinand St",
    "address_councildis": "C",
    "status": "Pending",
    "rowid": "1013070",
    "final_x": "3687968.55996",
    "final_y": "537136.949448",
    "longitude": "-90.04744595302537",
    "latitude": "29.97074235598404",
    "geocoded_column": {
      "latitude": "29.97074235598404",
      "longitude": "-90.04744595302537"
    }
  },
  {
    "service_request": "2023-1013069",
    "request_type": "Trash/Recycling",
    "request_reason": "Repair Trash Cart",
    "date_created": "2023-06-29T16:39:08.000",
    "date_modified": "2023-06-29T16:39:09.000",
    "request_status": "Pending",
    "responsible_agency": "Department of Sanitation",
    "final_address": "1237 Music St",
    "address_councildis": "C",
    "status": "Assigned to Contractor",
    "contractor": "IV Waste",
    "rowid": "1013069",
    "final_x": "3686841.67196",
    "final_y": "537094.689352",
    "longitude": "-90.05100628855193",
    "latitude": "29.97066088001295",
    "geocoded_column": {
      "latitude": "29.97066088001295",
      "longitude": "-90.05100628855193"
    }
  },
  {
    "service_request": "2023-1013068",
    "request_type": "Trash/Recycling",
    "request_reason": "MIssed Recycling Pick-Up",
    "date_created": "2023-06-29T16:38:49.000",
    "date_modified": "2023-06-29T16:38:49.000",
    "request_status": "Pending",
    "responsible_agency": "Department of Sanitation",
    "final_address": "6016 St Charles Ave",
    "address_councildis": "A",
    "status": "Assigned to Contractor",
    "contractor": "Richards Disposal",
    "rowid": "1013068",
    "final_x": "3665536.5257",
    "final_y": "522450.08089",
    "longitude": "-90.11878100278054",
    "latitude": "29.931031355859783",
    "geocoded_column": {
      "latitude": "29.931031355859783",
      "longitude": "-90.11878100278054"
    }
  },
  {
    "service_request": "2023-1013067",
    "request_type": "Trash/Recycling",
    "request_reason": "Missed Trash Pick-Up",
    "date_created": "2023-06-29T16:38:16.000",
    "date_modified": "2023-06-29T16:38:16.000",
    "request_status": "Pending",
    "responsible_agency": "Department of Sanitation",
    "status": "Assigned to Contractor",
    "rowid": "1013067",
    "longitude": "0.0",
    "latitude": "0.0",
    "geocoded_column": {
      "latitude": "0.0",
      "longitude": "0.0"
    }
  },
  {
    "service_request": "2023-1013066",
    "request_type": "Trash/Recycling",
    "request_reason": "Missed Trash Pick-Up",
    "date_created": "2023-06-29T16:32:26.000",
    "date_modified": "2023-06-29T16:32:27.000",
    "request_status": "Pending",
    "responsible_agency": "Department of Sanitation",
    "final_address": "2415 Magnolia St",
    "address_councildis": "B",
    "status": "Assigned to Contractor",
    "contractor": "Richards Disposal",
    "rowid": "1013066",
    "final_x": "3674638.72289",
    "final_y": "526462.09715",
    "longitude": "-90.08990910609505",
    "latitude": "29.941794664525467",
    "geocoded_column": {
      "latitude": "29.941794664525467",
      "longitude": "-90.08990910609505"
    }
  },
  {
    "service_request": "2023-1013065",
    "request_type": "Trash/Recycling",
    "request_reason": "Missed Trash Pick-Up",
    "date_created": "2023-06-29T16:31:55.000",
    "date_modified": "2023-06-29T16:31:56.000",
    "request_status": "Pending",
    "responsible_agency": "Department of Sanitation",
    "final_address": "2349 Magazine St",
    "address_councildis": "B",
    "status": "Assigned to Contractor",
    "contractor": "Richards Disposal",
    "rowid": "1013065",
    "final_x": "3678204.50888",
    "final_y": "521638.406009",
    "longitude": "-90.07881791789399",
    "latitude": "29.92842422034972",
    "geocoded_column": {
      "latitude": "29.92842422034972",
      "longitude": "-90.07881791789399"
    }
  },
  {
    "service_request": "2023-1013064",
    "request_type": "Trash/Recycling",
    "request_reason": "Missed Trash Pick-Up",
    "date_created": "2023-06-29T16:31:21.000",
    "date_modified": "2023-06-29T16:31:22.000",
    "request_status": "Pending",
    "responsible_agency": "Department of Sanitation",
    "final_address": "14512 Hayne Blvd",
    "address_councildis": "E",
    "status": "Assigned to Contractor",
    "contractor": "Waste Pro",
    "rowid": "1013064",
    "final_x": "3718990.29548",
    "final_y": "574330.822763",
    "longitude": "-89.94805668232095",
    "latitude": "30.072016951664434",
    "geocoded_column": {
      "latitude": "30.072016951664434",
      "longitude": "-89.94805668232095"
    }
  },
  {
    "service_request": "2023-1013063",
    "request_type": "Trash/Recycling",
    "request_reason": "Request a Large Item Pick Up",
    "date_created": "2023-06-29T16:30:47.000",
    "date_modified": "2023-06-29T16:30:48.000",
    "request_status": "Pending",
    "responsible_agency": "Department of Sanitation",
    "final_address": "4719 Citrus Dr",
    "address_councildis": "E",
    "status": "Assigned to Contractor",
    "contractor": "Waste Pro",
    "rowid": "1013063",
    "final_x": "3710872.77726",
    "final_y": "555616.127129",
    "longitude": "-89.97442023834095",
    "latitude": "30.020826422472023",
    "geocoded_column": {
      "latitude": "30.020826422472023",
      "longitude": "-89.97442023834095"
    }
  },
  {
    "service_request": "2023-1013062",
    "request_type": "Trash/Recycling",
    "request_reason": "Replace Trash Cart",
    "date_created": "2023-06-29T16:20:06.000",
    "date_modified": "2023-06-29T16:20:06.000",
    "request_status": "Pending",
    "responsible_agency": "Department of Sanitation",
    "final_address": "5631 Carlisle Ct",
    "address_councildis": "C",
    "status": "Assigned to Contractor",
    "contractor": "Richards Disposal",
    "rowid": "1013062",
    "final_x": "3704458.48279",
    "final_y": "516508.616757",
    "longitude": "-89.99612942905648",
    "latitude": "29.91350260303831",
    "geocoded_column": {
      "latitude": "29.91350260303831",
      "longitude": "-89.99612942905648"
    }
  },
  {
    "service_request": "2023-1013061",
    "request_type": "Trash/Recycling",
    "request_reason": "Replace Trash Cart",
    "date_created": "2023-06-29T16:19:16.000",
    "date_modified": "2023-06-29T16:19:17.000",
    "request_status": "Pending",
    "responsible_agency": "Department of Sanitation",
    "final_address": "2346 Somerset Dr",
    "address_councildis": "C",
    "status": "Assigned to Contractor",
    "contractor": "Richards Disposal",
    "rowid": "1013061",
    "final_x": "3702962.9969",
    "final_y": "522366.925306",
    "longitude": "-90.00063455410859",
    "latitude": "29.929658834085203",
    "geocoded_column": {
      "latitude": "29.929658834085203",
      "longitude": "-90.00063455410859"
    }
  },
  {
    "service_request": "2023-1013060",
    "request_type": "Abandoned Vehicles",
    "request_reason": "Abandoned/Junk Vehicles",
    "date_created": "2023-06-29T16:09:21.000",
    "date_modified": "2023-06-29T16:09:21.000",
    "request_status": "Pending",
    "responsible_agency": "Department of Public Works",
    "final_address": "2909 Josephine St",
    "address_councildis": "B",
    "status": "Pending",
    "rowid": "1013060",
    "final_x": "3675101.10875",
    "final_y": "527650.756991",
    "longitude": "-90.08840848301757",
    "latitude": "29.945049282822005",
    "geocoded_column": {
      "latitude": "29.945049282822005",
      "longitude": "-90.08840848301757"
    }
  },
  {
    "service_request": "2023-1013059",
    "request_type": "Tax and Revenue",
    "request_reason": "Sales Tax Question",
    "date_created": "2023-06-29T16:07:07.000",
    "date_modified": "2023-06-29T16:07:08.000",
    "request_status": "Pending",
    "responsible_agency": "Bureau of Revenue",
    "final_address": "313 Morgan St",
    "address_councildis": "C",
    "status": "Pending",
    "rowid": "1013059",
    "final_x": "3686168.88681",
    "final_y": "531131.425474",
    "longitude": "-90.05334139581349",
    "latitude": "29.954284651619155",
    "geocoded_column": {
      "latitude": "29.954284651619155",
      "longitude": "-90.05334139581349"
    }
  },
  {
    "service_request": "2023-1013058",
    "request_type": "Trash/Recycling",
    "request_reason": "Repair Recycling Cart",
    "date_created": "2023-06-29T16:04:44.000",
    "date_modified": "2023-06-29T16:04:45.000",
    "request_status": "Pending",
    "responsible_agency": "Department of Sanitation",
    "final_address": "5313 Annunciation St",
    "address_councildis": "B",
    "status": "Pending",
    "rowid": "1013058",
    "final_x": "3667221.15079",
    "final_y": "517617.650742",
    "longitude": "-90.11362523604427",
    "latitude": "29.917694492203598",
    "geocoded_column": {
      "latitude": "29.917694492203598",
      "longitude": "-90.11362523604427"
    }
  },
  {
    "service_request": "2023-1013057",
    "request_type": "Trash/Recycling",
    "request_reason": "Repair Recycling Cart",
    "date_created": "2023-06-29T16:04:19.000",
    "date_modified": "2023-06-29T16:04:19.000",
    "request_status": "Pending",
    "responsible_agency": "Department of Sanitation",
    "final_address": "5309 Annunciation St",
    "address_councildis": "B",
    "status": "Pending",
    "rowid": "1013057",
    "final_x": "3667253.72045",
    "final_y": "517628.340534",
    "longitude": "-90.11352207216115",
    "latitude": "29.91772293244563",
    "geocoded_column": {
      "latitude": "29.91772293244563",
      "longitude": "-90.11352207216115"
    }
  },
  {
    "service_request": "2023-1013056",
    "request_type": "Trash/Recycling",
    "request_reason": "Repair Trash Cart",
    "date_created": "2023-06-29T16:03:31.000",
    "date_modified": "2023-06-29T16:03:32.000",
    "request_status": "Pending",
    "responsible_agency": "Department of Sanitation",
    "final_address": "5309 Annunciation St",
    "address_councildis": "B",
    "status": "Assigned to Contractor",
    "contractor": "Richards Disposal",
    "rowid": "1013056",
    "final_x": "3667253.72045",
    "final_y": "517628.340534",
    "longitude": "-90.11352207216115",
    "latitude": "29.91772293244563",
    "geocoded_column": {
      "latitude": "29.91772293244563",
      "longitude": "-90.11352207216115"
    }
  },
  {
    "service_request": "2023-1013055",
    "request_type": "Trash/Recycling",
    "request_reason": "MIssed Recycling Pick-Up",
    "date_created": "2023-06-29T16:01:09.000",
    "date_modified": "2023-06-29T16:01:09.000",
    "request_status": "Pending",
    "responsible_agency": "Department of Sanitation",
    "final_address": "7717 Patterson Rd",
    "address_councildis": "C",
    "status": "Assigned to Contractor",
    "contractor": "Richards Disposal",
    "rowid": "1013055",
    "final_x": "3712843.87038",
    "final_y": "518904.731575",
    "longitude": "-89.96957280025387",
    "latitude": "29.919819335098083",
    "geocoded_column": {
      "latitude": "29.919819335098083",
      "longitude": "-89.96957280025387"
    }
  },
  {
    "service_request": "2023-1013054",
    "request_type": "Tax and Revenue",
    "request_reason": "General Tax Question",
    "date_created": "2023-06-29T15:58:19.000",
    "date_modified": "2023-06-29T15:58:20.000",
    "request_status": "Pending",
    "responsible_agency": "Bureau of Revenue",
    "status": "Pending",
    "rowid": "1013054",
    "longitude": "0.0",
    "latitude": "0.0",
    "geocoded_column": {
      "latitude": "0.0",
      "longitude": "0.0"
    }
  },
  {
    "service_request": "2023-1013053",
    "request_type": "Abandoned Vehicles",
    "request_reason": "Abandoned/Junk Vehicles",
    "date_created": "2023-06-29T15:55:19.000",
    "date_modified": "2023-06-29T15:55:19.000",
    "request_status": "Pending",
    "responsible_agency": "Department of Public Works",
    "final_address": "3247 Laurel St",
    "address_councildis": "B",
    "status": "Pending",
    "rowid": "1013053",
    "final_x": "3675750.44443",
    "final_y": "519184.273975",
    "longitude": "-90.08664916616696",
    "latitude": "29.92174980061844",
    "geocoded_column": {
      "latitude": "29.92174980061844",
      "longitude": "-90.08664916616696"
    }
  },
  {
    "service_request": "2023-1013052",
    "request_type": "Trash/Recycling",
    "request_reason": "Request a Large Item Pick Up",
    "date_created": "2023-06-29T15:55:05.000",
    "date_modified": "2023-06-29T15:55:06.000",
    "request_status": "Pending",
    "responsible_agency": "Department of Sanitation",
    "final_address": "4808 Annunciation St",
    "address_councildis": "B",
    "status": "Assigned to Contractor",
    "contractor": "Richards Disposal",
    "rowid": "1013052",
    "final_x": "3669600.65511",
    "final_y": "517555.924854",
    "longitude": "-90.1061165283908",
    "latitude": "29.917454904371787",
    "geocoded_column": {
      "latitude": "29.917454904371787",
      "longitude": "-90.1061165283908"
    }
  },
  {
    "service_request": "2023-1013051",
    "request_type": "Roads/Drainage",
    "request_reason": "Street Subsidence (Sinking)",
    "date_created": "2023-06-29T15:54:23.000",
    "date_modified": "2023-06-29T15:54:23.000",
    "request_status": "Pending",
    "responsible_agency": "Department of Public Works",
    "final_address": "PRESS DR & OLD GENTILLY RD",
    "address_councildis": "D",
    "status": "Pending",
    "rowid": "1013051",
    "final_x": "3690388.1",
    "final_y": "548796.08",
    "longitude": "-90.03938897444871",
    "latitude": "30.002725897152217",
    "geocoded_column": {
      "latitude": "30.002725897152217",
      "longitude": "-90.03938897444871"
    }
  },
  {
    "service_request": "2023-1013050",
    "request_type": "Trash/Recycling",
    "request_reason": "Order Recycling Cart",
    "date_created": "2023-06-29T15:53:50.000",
    "date_modified": "2023-06-29T15:53:50.000",
    "request_status": "Pending",
    "responsible_agency": "Department of Sanitation",
    "final_address": "8722 Olive St",
    "address_councildis": "A",
    "status": "Pending",
    "rowid": "1013050",
    "final_x": "3665508.6624",
    "final_y": "535711.703815",
    "longitude": "-90.11842507653344",
    "latitude": "29.967497338925167",
    "geocoded_column": {
      "latitude": "29.967497338925167",
      "longitude": "-90.11842507653344"
    }
  },
  {
    "service_request": "2023-1013049",
    "request_type": "Trash/Recycling",
    "request_reason": "Order Recycling Cart",
    "date_created": "2023-06-29T15:53:16.000",
    "date_modified": "2023-06-29T15:53:16.000",
    "request_status": "Pending",
    "responsible_agency": "Department of Sanitation",
    "final_address": "8720 Olive St",
    "address_councildis": "A",
    "status": "Pending",
    "rowid": "1013049",
    "final_x": "3665513.14893",
    "final_y": "535707.273415",
    "longitude": "-90.118411056274",
    "latitude": "29.96748502598877",
    "geocoded_column": {
      "latitude": "29.96748502598877",
      "longitude": "-90.118411056274"
    }
  },
  {
    "service_request": "2023-1013048",
    "request_type": "Trash/Recycling",
    "request_reason": "Request a Large Item Pick Up",
    "date_created": "2023-06-29T15:53:11.000",
    "date_modified": "2023-06-29T15:53:11.000",
    "request_status": "Pending",
    "responsible_agency": "Department of Sanitation",
    "final_address": "1430 Melpomene St",
    "address_councildis": "B",
    "status": "Assigned to Contractor",
    "contractor": "Richards Disposal",
    "rowid": "1013048",
    "final_x": "3679760.38792",
    "final_y": "525121.075773",
    "longitude": "-90.07378549513699",
    "latitude": "29.93795348460283",
    "geocoded_column": {
      "latitude": "29.93795348460283",
      "longitude": "-90.07378549513699"
    }
  },
  {
    "service_request": "2023-1013047",
    "request_type": "Trash/Recycling",
    "request_reason": "Order Trash Cart",
    "date_created": "2023-06-29T15:51:53.000",
    "date_modified": "2023-06-29T15:52:34.000",
    "request_status": "Pending",
    "responsible_agency": "Department of Sanitation",
    "final_address": "2909 Josephine St",
    "address_councildis": "B",
    "status": "Assigned to Contractor",
    "contractor": "Richards Disposal",
    "rowid": "1013047",
    "final_x": "3675101.10875",
    "final_y": "527650.756991",
    "longitude": "-90.08840848301757",
    "latitude": "29.945049282822005",
    "geocoded_column": {
      "latitude": "29.945049282822005",
      "longitude": "-90.08840848301757"
    }
  },
  {
    "service_request": "2023-1013046",
    "request_type": "Roads/Drainage",
    "request_reason": "Pothole",
    "date_created": "2023-06-29T15:51:16.000",
    "date_modified": "2023-06-29T15:51:16.000",
    "request_status": "Pending",
    "responsible_agency": "Department of Public Works",
    "final_address": "PRESS DR & MIRABEAU AVE",
    "address_councildis": "D",
    "status": "Pending",
    "rowid": "1013046",
    "final_x": "3689501.8",
    "final_y": "551260.48",
    "longitude": "-90.04210117473701",
    "latitude": "30.00952958454926",
    "geocoded_column": {
      "latitude": "30.00952958454926",
      "longitude": "-90.04210117473701"
    }
  },
  {
    "service_request": "2023-1013045",
    "request_type": "Trash/Recycling",
    "request_reason": "Missed Trash Pick-Up",
    "date_created": "2023-06-29T15:51:04.000",
    "date_modified": "2023-06-29T15:51:05.000",
    "request_status": "Pending",
    "responsible_agency": "Department of Sanitation",
    "final_address": "2909 Josephine St",
    "address_councildis": "B",
    "status": "Assigned to Contractor",
    "contractor": "Richards Disposal",
    "rowid": "1013045",
    "final_x": "3675101.10875",
    "final_y": "527650.756991",
    "longitude": "-90.08840848301757",
    "latitude": "29.945049282822005",
    "geocoded_column": {
      "latitude": "29.945049282822005",
      "longitude": "-90.08840848301757"
    }
  },
  {
    "service_request": "2023-1013044",
    "request_type": "Abandoned Vehicles",
    "request_reason": "Abandoned/Junk Vehicles",
    "date_created": "2023-06-29T15:49:28.000",
    "date_modified": "2023-06-29T15:49:28.000",
    "request_status": "Pending",
    "responsible_agency": "Department of Public Works",
    "final_address": "4701 Sherwood Dr",
    "address_councildis": "E",
    "status": "Pending",
    "rowid": "1013044",
    "final_x": "3718109.24332",
    "final_y": "556572.957594",
    "longitude": "-89.95151893923584",
    "latitude": "30.023219363828403",
    "geocoded_column": {
      "latitude": "30.023219363828403",
      "longitude": "-89.95151893923584"
    }
  },
  {
    "service_request": "2023-1013043",
    "request_type": "Trash/Recycling",
    "request_reason": "Missed Trash Pick-Up",
    "date_created": "2023-06-29T15:47:51.000",
    "date_modified": "2023-06-29T15:49:00.000",
    "request_status": "Pending",
    "responsible_agency": "Department of Sanitation",
    "final_address": "5973 Jamison St",
    "address_councildis": "D",
    "status": "Assigned to Contractor",
    "contractor": "Waste Pro",
    "rowid": "1013043",
    "final_x": "3696633.90077",
    "final_y": "553583.645975",
    "longitude": "-90.01948433138841",
    "latitude": "30.015694500886166",
    "geocoded_column": {
      "latitude": "30.015694500886166",
      "longitude": "-90.01948433138841"
    }
  },
  {
    "service_request": "2023-1013042",
    "request_type": "Trash/Recycling",
    "request_reason": "Missed Trash Pick-Up",
    "date_created": "2023-06-29T15:47:10.000",
    "date_modified": "2023-06-29T15:47:11.000",
    "request_status": "Pending",
    "responsible_agency": "Department of Sanitation",
    "final_address": "4800 Downman Rd",
    "address_councildis": "D",
    "status": "Assigned to Contractor",
    "contractor": "Waste Pro",
    "rowid": "1013042",
    "final_x": "3695838.15715",
    "final_y": "554414.495704",
    "longitude": "-90.02196846370057",
    "latitude": "30.018004089082055",
    "geocoded_column": {
      "latitude": "30.018004089082055",
      "longitude": "-90.02196846370057"
    }
  },
  {
    "service_request": "2023-1013041",
    "request_type": "Trash/Recycling",
    "request_reason": "Illegal Dumping",
    "date_created": "2023-06-29T15:45:55.000",
    "date_modified": "2023-06-29T15:45:55.000",
    "request_status": "Pending",
    "responsible_agency": "Department of Sanitation",
    "final_address": "6900 BLK Martin Dr",
    "address_councildis": "E",
    "status": "Pending",
    "rowid": "1013041",
    "final_x": "3699142.18403",
    "final_y": "557729.693711",
    "longitude": "-90.01140821813023",
    "latitude": "30.027015231926207",
    "geocoded_column": {
      "latitude": "30.027015231926207",
      "longitude": "-90.01140821813023"
    }
  },
  {
    "service_request": "2023-1013040",
    "request_type": "Trash/Recycling",
    "request_reason": "Repair Trash Cart",
    "date_created": "2023-06-29T15:45:12.000",
    "date_modified": "2023-06-29T15:45:12.000",
    "request_status": "Pending",
    "responsible_agency": "Department of Sanitation",
    "final_address": "3131 N Robertson St",
    "address_councildis": "D",
    "status": "Assigned to Contractor",
    "contractor": "IV Waste",
    "rowid": "1013040",
    "final_x": "3689661.55471",
    "final_y": "537458.578952",
    "longitude": "-90.0420878391307",
    "latitude": "29.971574374153768",
    "geocoded_column": {
      "latitude": "29.971574374153768",
      "longitude": "-90.0420878391307"
    }
  },
  {
    "service_request": "2023-1013039",
    "request_type": "Trash/Recycling",
    "request_reason": "MIssed Recycling Pick-Up",
    "date_created": "2023-06-29T15:34:22.000",
    "date_modified": "2023-06-29T15:34:22.000",
    "request_status": "Pending",
    "responsible_agency": "Department of Sanitation",
    "final_address": "636 Baronne St",
    "address_councildis": "B",
    "status": "Assigned to Contractor",
    "contractor": "Empire Services",
    "rowid": "1013039",
    "final_x": "3679785.0292",
    "final_y": "528795.052928",
    "longitude": "-90.07358017887013",
    "latitude": "29.94805495378251",
    "geocoded_column": {
      "latitude": "29.94805495378251",
      "longitude": "-90.07358017887013"
    }
  },
  {
    "service_request": "2023-1013038",
    "request_type": "Trash/Recycling",
    "request_reason": "Request a Large Item Pick Up",
    "date_created": "2023-06-29T15:33:21.000",
    "date_modified": "2023-06-29T15:33:21.000",
    "request_status": "Pending",
    "responsible_agency": "Department of Sanitation",
    "final_address": "127 10Th St",
    "address_councildis": "A",
    "status": "Assigned to Contractor",
    "contractor": "IV Waste",
    "rowid": "1013038",
    "final_x": "3665828.37127",
    "final_y": "547544.688274",
    "longitude": "-90.1170187537241",
    "latitude": "30.00002472881694",
    "geocoded_column": {
      "latitude": "30.00002472881694",
      "longitude": "-90.1170187537241"
    }
  },
  {
    "service_request": "2023-1013037",
    "request_type": "Trash/Recycling",
    "request_reason": "Missed Trash Pick-Up",
    "date_created": "2023-06-29T15:27:42.000",
    "date_modified": "2023-06-29T15:27:43.000",
    "request_status": "Pending",
    "responsible_agency": "Department of Sanitation",
    "final_address": "6501 E Hermes St",
    "address_councildis": "D",
    "status": "Assigned to Contractor",
    "contractor": "Waste Pro",
    "rowid": "1013037",
    "final_x": "3698071.24573",
    "final_y": "555337.169817",
    "longitude": "-90.01487925129234",
    "latitude": "30.020470632187674",
    "geocoded_column": {
      "latitude": "30.020470632187674",
      "longitude": "-90.01487925129234"
    }
  },
  {
    "service_request": "2023-1013036",
    "request_type": "Trash/Recycling",
    "request_reason": "Request a Large Item Pick Up",
    "date_created": "2023-06-29T15:23:56.000",
    "date_modified": "2023-06-29T15:23:57.000",
    "request_status": "Pending",
    "responsible_agency": "Department of Sanitation",
    "final_address": "2537 St Nick Dr",
    "address_councildis": "C",
    "status": "Assigned to Contractor",
    "contractor": "Richards Disposal",
    "rowid": "1013036",
    "final_x": "3699308.98032",
    "final_y": "521851.075322",
    "longitude": "-90.01218834022018",
    "latitude": "29.92835677656546",
    "geocoded_column": {
      "latitude": "29.92835677656546",
      "longitude": "-90.01218834022018"
    }
  },
  {
    "service_request": "2023-1013035",
    "request_type": "Trash/Recycling",
    "request_reason": "Illegal Dumping",
    "date_created": "2023-06-29T15:23:43.000",
    "date_modified": "2023-06-29T15:23:43.000",
    "request_status": "Pending",
    "responsible_agency": "Department of Sanitation",
    "final_address": "2451 Law St",
    "address_councildis": "D",
    "status": "Pending",
    "rowid": "1013035",
    "final_x": "3685730.17545",
    "final_y": "541981.861836",
    "longitude": "-90.05434424311846",
    "latitude": "29.98413304365652",
    "geocoded_column": {
      "latitude": "29.98413304365652",
      "longitude": "-90.05434424311846"
    }
  },
  {
    "service_request": "2023-1013034",
    "request_type": "Abandoned Vehicles",
    "request_reason": "Abandoned/Junk Vehicles",
    "date_created": "2023-06-29T15:12:14.000",
    "date_modified": "2023-06-29T15:12:14.000",
    "request_status": "Pending",
    "responsible_agency": "Department of Public Works",
    "final_address": "2275 Bayou Rd",
    "address_councildis": "D",
    "status": "Pending",
    "rowid": "1013034",
    "final_x": "3679252.5428",
    "final_y": "538379.042633",
    "longitude": "-90.0749291214379",
    "latitude": "29.9744237586363",
    "geocoded_column": {
      "latitude": "29.9744237586363",
      "longitude": "-90.0749291214379"
    }
  },
  {
    "service_request": "2023-1013033",
    "request_type": "Trash/Recycling",
    "request_reason": "Repair Trash Cart",
    "date_created": "2023-06-29T15:10:30.000",
    "date_modified": "2023-06-29T15:10:32.000",
    "request_status": "Pending",
    "responsible_agency": "Department of Sanitation",
    "final_address": "2231 Felicity St Apt B",
    "address_councildis": "B",
    "status": "Assigned to Contractor",
    "contractor": "Richards Disposal",
    "rowid": "1013033",
    "final_x": "3676455.00769",
    "final_y": "526653.387902",
    "longitude": "-90.084168131219",
    "latitude": "29.942266331000514",
    "geocoded_column": {
      "latitude": "29.942266331000514",
      "longitude": "-90.084168131219"
    }
  },
  {
    "service_request": "2023-1013032",
    "request_type": "Trash/Recycling",
    "request_reason": "Repair Trash Cart",
    "date_created": "2023-06-29T15:10:11.000",
    "date_modified": "2023-06-29T15:10:12.000",
    "request_status": "Pending",
    "responsible_agency": "Department of Sanitation",
    "final_address": "2231 Felicity St Apt A",
    "address_councildis": "B",
    "status": "Assigned to Contractor",
    "contractor": "Richards Disposal",
    "rowid": "1013032",
    "final_x": "3676462.96744",
    "final_y": "526649.10131",
    "longitude": "-90.08414314804952",
    "latitude": "29.942254305681445",
    "geocoded_column": {
      "latitude": "29.942254305681445",
      "longitude": "-90.08414314804952"
    }
  },
  {
    "service_request": "2023-1013031",
    "request_type": "Traffic Signals/Signs/Striping/Streetlights",
    "request_reason": "Street Light Outage/Malfunction",
    "date_created": "2023-06-29T15:09:56.000",
    "date_modified": "2023-06-29T15:09:56.000",
    "request_status": "Pending",
    "responsible_agency": "Department of Public Works",
    "final_address": "3600 BLK Delgado Dr",
    "address_councildis": "A",
    "status": "Assigned to Contractor",
    "contractor": "Legacy Professional Services",
    "rowid": "1013031",
    "final_x": "3674349.62305",
    "final_y": "540424.433046",
    "longitude": "-90.09034366071084",
    "latitude": "29.980195029440296",
    "geocoded_column": {
      "latitude": "29.980195029440296",
      "longitude": "-90.09034366071084"
    }
  },
  {
    "service_request": "2023-1013030",
    "request_type": "Trash/Recycling",
    "request_reason": "Repair Trash Cart",
    "date_created": "2023-06-29T15:07:44.000",
    "date_modified": "2023-06-29T15:07:45.000",
    "request_status": "Pending",
    "responsible_agency": "Department of Sanitation",
    "final_address": "2233 Felicity St Apt A",
    "address_councildis": "B",
    "status": "Assigned to Contractor",
    "contractor": "Richards Disposal",
    "rowid": "1013030",
    "final_x": "3676445.82337",
    "final_y": "526661.514494",
    "longitude": "-90.08419684847003",
    "latitude": "29.942288951755145",
    "geocoded_column": {
      "latitude": "29.942288951755145",
      "longitude": "-90.08419684847003"
    }
  },
  {
    "service_request": "2023-1013029",
    "request_type": "Trash/Recycling",
    "request_reason": "Repair Trash Cart",
    "date_created": "2023-06-29T15:06:34.000",
    "date_modified": "2023-06-29T15:06:35.000",
    "request_status": "Pending",
    "responsible_agency": "Department of Sanitation",
    "final_address": "2233 Felicity St Apt B",
    "address_councildis": "B",
    "status": "Assigned to Contractor",
    "contractor": "Richards Disposal",
    "rowid": "1013029",
    "final_x": "3676441.15361",
    "final_y": "526664.863742",
    "longitude": "-90.08421147667721",
    "latitude": "29.942298301059715",
    "geocoded_column": {
      "latitude": "29.942298301059715",
      "longitude": "-90.08421147667721"
    }
  },
  {
    "service_request": "2023-1013028",
    "request_type": "Trash/Recycling",
    "request_reason": "Missed Trash Pick-Up",
    "date_created": "2023-06-29T14:59:40.000",
    "date_modified": "2023-06-29T14:59:41.000",
    "request_status": "Pending",
    "responsible_agency": "Department of Sanitation",
    "final_address": "11001 Chef Menteur Hwy",
    "address_councildis": "E",
    "status": "Assigned to Contractor",
    "contractor": "Waste Pro",
    "rowid": "1013028",
    "final_x": "3716193.24895",
    "final_y": "556009.300185",
    "longitude": "-89.95759438072872",
    "latitude": "30.021732922624327",
    "geocoded_column": {
      "latitude": "30.021732922624327",
      "longitude": "-89.95759438072872"
    }
  },
  {
    "service_request": "2023-1013027",
    "request_type": "Trash/Recycling",
    "request_reason": "Missed Trash Pick-Up",
    "date_created": "2023-06-29T14:57:13.000",
    "date_modified": "2023-06-29T14:57:14.000",
    "request_status": "Pending",
    "responsible_agency": "Department of Sanitation",
    "final_address": "6845 Milne Blvd",
    "address_councildis": "A",
    "status": "Assigned to Contractor",
    "contractor": "IV Waste",
    "rowid": "1013027",
    "final_x": "3667693.70311",
    "final_y": "553150.981143",
    "longitude": "-90.1109371194508",
    "latitude": "30.015385501836644",
    "geocoded_column": {
      "latitude": "30.015385501836644",
      "longitude": "-90.1109371194508"
    }
  },
  {
    "service_request": "2023-1013026",
    "request_type": "Trash/Recycling",
    "request_reason": "Replace Trash Cart",
    "date_created": "2023-06-29T14:48:50.000",
    "date_modified": "2023-06-29T14:48:50.000",
    "request_status": "Pending",
    "responsible_agency": "Department of Sanitation",
    "final_address": "4607 Bienville Ave",
    "address_councildis": "A",
    "status": "Assigned to Contractor",
    "contractor": "Richards Disposal",
    "rowid": "1013026",
    "final_x": "3669881.99188",
    "final_y": "540390.665867",
    "longitude": "-90.10445550674231",
    "latitude": "29.980234684476283",
    "geocoded_column": {
      "latitude": "29.980234684476283",
      "longitude": "-90.10445550674231"
    }
  },
  {
    "service_request": "2023-1013025",
    "request_type": "Trash/Recycling",
    "request_reason": "MIssed Recycling Pick-Up",
    "date_created": "2023-06-29T14:47:20.000",
    "date_modified": "2023-06-29T14:47:20.000",
    "request_status": "Pending",
    "responsible_agency": "Department of Sanitation",
    "final_address": "920 Cadiz St, New Orleans, Louisiana, 70115",
    "address_councildis": "B",
    "status": "Assigned to Contractor",
    "contractor": "Richards Disposal",
    "rowid": "1013025",
    "final_x": "3670237.55028",
    "final_y": "518902.628535",
    "longitude": "-90.10406060069539",
    "latitude": "29.921139141639816",
    "geocoded_column": {
      "latitude": "29.921139141639816",
      "longitude": "-90.10406060069539"
    }
  },
  {
    "service_request": "2023-1013024",
    "request_type": "Trash/Recycling",
    "request_reason": "Replace Trash Cart",
    "date_created": "2023-06-29T14:44:23.000",
    "date_modified": "2023-06-29T14:44:23.000",
    "request_status": "Pending",
    "responsible_agency": "Department of Sanitation",
    "final_address": "4607 Bienville Ave",
    "address_councildis": "A",
    "status": "Assigned to Contractor",
    "contractor": "Richards Disposal",
    "rowid": "1013024",
    "final_x": "3669881.99188",
    "final_y": "540390.665867",
    "longitude": "-90.10445550674231",
    "latitude": "29.980234684476283",
    "geocoded_column": {
      "latitude": "29.980234684476283",
      "longitude": "-90.10445550674231"
    }
  },
  {
    "service_request": "2023-1013023",
    "request_type": "Traffic Signals/Signs/Striping/Streetlights",
    "request_reason": "Street Light Outage/Malfunction",
    "date_created": "2023-06-29T14:43:15.000",
    "date_modified": "2023-06-29T14:43:15.000",
    "request_status": "Pending",
    "responsible_agency": "Department of Public Works",
    "final_address": "347 Opal St",
    "address_councildis": "D",
    "status": "Assigned to Contractor",
    "contractor": "Legacy Professional Services",
    "rowid": "1013023",
    "final_x": "3667759.92186",
    "final_y": "555292.679641",
    "longitude": "-90.11065569276207",
    "latitude": "30.02127247300107",
    "geocoded_column": {
      "latitude": "30.02127247300107",
      "longitude": "-90.11065569276207"
    }
  },
  {
    "service_request": "2023-1013022",
    "request_type": "Trash/Recycling",
    "request_reason": "MIssed Recycling Pick-Up",
    "date_created": "2023-06-29T14:42:37.000",
    "date_modified": "2023-06-29T14:42:37.000",
    "request_status": "Pending",
    "responsible_agency": "Department of Sanitation",
    "final_address": "2427 Pauger St",
    "address_councildis": "D",
    "status": "Assigned to Contractor",
    "contractor": "IV Waste",
    "rowid": "1013022",
    "final_x": "3683727.23868",
    "final_y": "538651.497481",
    "longitude": "-90.06078742590296",
    "latitude": "29.97503703016191",
    "geocoded_column": {
      "latitude": "29.97503703016191",
      "longitude": "-90.06078742590296"
    }
  },
  {
    "service_request": "2023-1013021",
    "request_type": "Trash/Recycling",
    "request_reason": "Missed Trash Pick-Up",
    "date_created": "2023-06-29T14:41:05.000",
    "date_modified": "2023-06-29T14:41:05.000",
    "request_status": "Pending",
    "responsible_agency": "Department of Sanitation",
    "final_address": "3728 Canal St",
    "address_councildis": "A",
    "status": "Assigned to Contractor",
    "contractor": "Richards Disposal",
    "rowid": "1013021",
    "final_x": "3672021.88532",
    "final_y": "537379.155912",
    "longitude": "-90.09779936548789",
    "latitude": "29.97189077662391",
    "geocoded_column": {
      "latitude": "29.97189077662391",
      "longitude": "-90.09779936548789"
    }
  },
  {
    "service_request": "2023-1013020",
    "request_type": "Traffic Signals/Signs/Striping/Streetlights",
    "request_reason": "Street Light Outage/Malfunction",
    "date_created": "2023-06-29T14:39:13.000",
    "date_modified": "2023-06-29T14:39:14.000",
    "request_status": "Pending",
    "responsible_agency": "Department of Public Works",
    "final_address": "1551 Leda St",
    "address_councildis": "A",
    "status": "Assigned to Contractor",
    "contractor": "Legacy Professional Services",
    "rowid": "1013020",
    "final_x": "3675719.53723",
    "final_y": "541894.085196",
    "longitude": "-90.08596635898144",
    "latitude": "29.984195133447834",
    "geocoded_column": {
      "latitude": "29.984195133447834",
      "longitude": "-90.08596635898144"
    }
  },
  {
    "service_request": "2023-1013019",
    "request_type": "Traffic Signals/Signs/Striping/Streetlights",
    "request_reason": "Street Light Outage/Malfunction",
    "date_created": "2023-06-29T14:36:49.000",
    "date_modified": "2023-06-29T14:36:50.000",
    "request_status": "Pending",
    "responsible_agency": "Department of Public Works",
    "final_address": "2400 BLK Dante St",
    "address_councildis": "A",
    "status": "Assigned to Contractor",
    "contractor": "Legacy Professional Services",
    "rowid": "1013019",
    "final_x": "3664462.14807",
    "final_y": "532196.260526",
    "longitude": "-90.1218473827414",
    "latitude": "29.957861491243474",
    "geocoded_column": {
      "latitude": "29.957861491243474",
      "longitude": "-90.1218473827414"
    }
  },
  {
    "service_request": "2023-1013018",
    "request_type": "Trash/Recycling",
    "request_reason": "Repair Trash Cart",
    "date_created": "2023-06-29T14:36:48.000",
    "date_modified": "2023-06-29T14:36:48.000",
    "request_status": "Pending",
    "responsible_agency": "Department of Sanitation",
    "final_address": "712 Aurora Oaks Dr",
    "address_councildis": "C",
    "status": "Assigned to Contractor",
    "contractor": "Richards Disposal",
    "rowid": "1013018",
    "final_x": "3701284.25437",
    "final_y": "519998.512632",
    "longitude": "-90.00602061769102",
    "latitude": "29.923200097548467",
    "geocoded_column": {
      "latitude": "29.923200097548467",
      "longitude": "-90.00602061769102"
    }
  },
  {
    "service_request": "2023-1013017",
    "request_type": "Traffic Signals/Signs/Striping/Streetlights",
    "request_reason": "Street Light Outage/Malfunction",
    "date_created": "2023-06-29T14:35:41.000",
    "date_modified": "2023-06-29T14:35:42.000",
    "request_status": "Pending",
    "responsible_agency": "Department of Public Works",
    "final_address": "900 BLK Harding Dr",
    "address_councildis": "A",
    "status": "Assigned to Contractor",
    "contractor": "Legacy Professional Services",
    "rowid": "1013017",
    "final_x": "3674361.47703",
    "final_y": "539910.70704",
    "longitude": "-90.09032382239045",
    "latitude": "29.97878210534039",
    "geocoded_column": {
      "latitude": "29.97878210534039",
      "longitude": "-90.09032382239045"
    }
  },
  {
    "service_request": "2023-1013016",
    "request_type": "Traffic Signals/Signs/Striping/Streetlights",
    "request_reason": "Street Light Outage/Malfunction",
    "date_created": "2023-06-29T14:33:57.000",
    "date_modified": "2023-06-29T14:33:58.000",
    "request_status": "Pending",
    "responsible_agency": "Department of Public Works",
    "final_address": "800 BLK Picheloup Pl",
    "address_councildis": "A",
    "status": "Assigned to Contractor",
    "contractor": "Legacy Professional Services",
    "rowid": "1013016",
    "final_x": "3673628.95159",
    "final_y": "540635.568779",
    "longitude": "-90.09261262809427",
    "latitude": "29.980797056788308",
    "geocoded_column": {
      "latitude": "29.980797056788308",
      "longitude": "-90.09261262809427"
    }
  },
  {
    "service_request": "2023-1013015",
    "request_type": "Traffic Signals/Signs/Striping/Streetlights",
    "request_reason": "Street Light Outage/Malfunction",
    "date_created": "2023-06-29T14:32:59.000",
    "date_modified": "2023-06-29T14:33:00.000",
    "request_status": "Pending",
    "responsible_agency": "Department of Public Works",
    "final_address": "800 BLK Olga St",
    "address_councildis": "A",
    "status": "Assigned to Contractor",
    "contractor": "Legacy Professional Services",
    "rowid": "1013015",
    "final_x": "3673332.28749",
    "final_y": "540071.039724",
    "longitude": "-90.09356891757686",
    "latitude": "29.979253624293346",
    "geocoded_column": {
      "latitude": "29.979253624293346",
      "longitude": "-90.09356891757686"
    }
  },
  {
    "service_request": "2023-1013014",
    "request_type": "Traffic Signals/Signs/Striping/Streetlights",
    "request_reason": "Street Light Outage/Malfunction",
    "date_created": "2023-06-29T14:30:53.000",
    "date_modified": "2023-06-29T14:30:53.000",
    "request_status": "Pending",
    "responsible_agency": "Department of Public Works",
    "final_address": "4000 BLK Dumaine St",
    "address_councildis": "A",
    "status": "Assigned to Contractor",
    "contractor": "Legacy Professional Services",
    "rowid": "1013014",
    "final_x": "3673272.79712",
    "final_y": "540470.131118",
    "longitude": "-90.09374317563295",
    "latitude": "29.980352758935776",
    "geocoded_column": {
      "latitude": "29.980352758935776",
      "longitude": "-90.09374317563295"
    }
  },
  {
    "service_request": "2023-1013013",
    "request_type": "Trash/Recycling",
    "request_reason": "Missed Trash Pick-Up",
    "date_created": "2023-06-29T14:28:58.000",
    "date_modified": "2023-06-29T15:54:48.000",
    "case_close_date": "2023-06-29T10:54:48.000",
    "request_status": "Closed",
    "responsible_agency": "Department of Sanitation",
    "final_address": "1820 Arts St",
    "address_councildis": "D",
    "status": "Invalid Request",
    "contractor": "IV Waste",
    "contractor_action": "Invalid Pick-Up",
    "rowid": "1013013",
    "final_x": "3686960.06198",
    "final_y": "539244.45185",
    "longitude": "-90.05055639394759",
    "latitude": "29.976568329215446",
    "geocoded_column": {
      "latitude": "29.976568329215446",
      "longitude": "-90.05055639394759"
    }
  },
  {
    "service_request": "2023-1013012",
    "request_type": "Trash/Recycling",
    "request_reason": "MIssed Recycling Pick-Up",
    "date_created": "2023-06-29T14:27:28.000",
    "date_modified": "2023-06-29T14:33:56.000",
    "request_status": "Pending",
    "responsible_agency": "Department of Sanitation",
    "final_address": "New Orleans,LA",
    "address_councildis": "C",
    "status": "Assigned to Contractor",
    "contractor": "Richards Disposal",
    "rowid": "1013012",
    "final_x": "3693206.05846",
    "final_y": "528247.77728",
    "longitude": "-90.03122437871811",
    "latitude": "29.946137590915686",
    "geocoded_column": {
      "latitude": "29.946137590915686",
      "longitude": "-90.03122437871811"
    }
  },
  {
    "service_request": "2023-1013011",
    "request_type": "Traffic Signals/Signs/Striping/Streetlights",
    "request_reason": "Street Light Outage/Malfunction",
    "date_created": "2023-06-29T14:25:05.000",
    "date_modified": "2023-06-29T14:25:05.000",
    "request_status": "Pending",
    "responsible_agency": "Department of Public Works",
    "final_address": "3301 Vincennes Pl",
    "address_councildis": "A",
    "status": "Assigned to Contractor",
    "contractor": "Legacy Professional Services",
    "rowid": "1013011",
    "final_x": "3667920.4649",
    "final_y": "528219.946304",
    "longitude": "-90.11106090391864",
    "latitude": "29.94682693303269",
    "geocoded_column": {
      "latitude": "29.94682693303269",
      "longitude": "-90.11106090391864"
    }
  },
  {
    "service_request": "2023-1013010",
    "request_type": "Traffic Signals/Signs/Striping/Streetlights",
    "request_reason": "Street Light Outage/Malfunction",
    "date_created": "2023-06-29T14:24:06.000",
    "date_modified": "2023-06-29T14:24:06.000",
    "request_status": "Pending",
    "responsible_agency": "Department of Public Works",
    "final_address": "3705 Fairmont Dr",
    "address_councildis": "D",
    "status": "Assigned to Contractor",
    "contractor": "Legacy Professional Services",
    "rowid": "1013010",
    "final_x": "3685341.743",
    "final_y": "546159.298448",
    "longitude": "-90.05542396844605",
    "latitude": "29.99563142309641",
    "geocoded_column": {
      "latitude": "29.99563142309641",
      "longitude": "-90.05542396844605"
    }
  },
  {
    "service_request": "2023-1013009",
    "request_type": "Traffic Signals/Signs/Striping/Streetlights",
    "request_reason": "Street Light Outage/Malfunction",
    "date_created": "2023-06-29T14:22:59.000",
    "date_modified": "2023-06-29T14:23:00.000",
    "request_status": "Pending",
    "responsible_agency": "Department of Public Works",
    "final_address": "6564 Vicksburg St",
    "address_councildis": "A",
    "status": "Assigned to Contractor",
    "contractor": "Legacy Professional Services",
    "rowid": "1013009",
    "final_x": "3669133.93198",
    "final_y": "551180.976469",
    "longitude": "-90.10645329592408",
    "latitude": "30.00992635714015",
    "geocoded_column": {
      "latitude": "30.00992635714015",
      "longitude": "-90.10645329592408"
    }
  },
  {
    "service_request": "2023-1013008",
    "request_type": "Traffic Signals/Signs/Striping/Streetlights",
    "request_reason": "Street Light Outage/Malfunction",
    "date_created": "2023-06-29T14:21:00.000",
    "date_modified": "2023-06-29T14:21:01.000",
    "request_status": "Pending",
    "responsible_agency": "Department of Public Works",
    "final_address": "531 S Alexander St",
    "address_councildis": "A",
    "status": "Assigned to Contractor",
    "contractor": "Legacy Professional Services",
    "rowid": "1013008",
    "final_x": "3668806.71521",
    "final_y": "537679.994248",
    "longitude": "-90.10794325407177",
    "latitude": "29.97281291591193",
    "geocoded_column": {
      "latitude": "29.97281291591193",
      "longitude": "-90.10794325407177"
    }
  },
  {
    "service_request": "2023-1013007",
    "request_type": "Traffic Signals/Signs/Striping/Streetlights",
    "request_reason": "Street Light Outage/Malfunction",
    "date_created": "2023-06-29T14:16:06.000",
    "date_modified": "2023-06-29T14:16:07.000",
    "request_status": "Pending",
    "responsible_agency": "Department of Public Works",
    "final_address": "1001 Harrison Ave",
    "address_councildis": "A",
    "status": "Assigned to Contractor",
    "contractor": "Legacy Professional Services",
    "rowid": "1013007",
    "final_x": "3671379.97268",
    "final_y": "549154.840595",
    "longitude": "-90.09942615406044",
    "latitude": "30.00428887869337",
    "geocoded_column": {
      "latitude": "30.00428887869337",
      "longitude": "-90.09942615406044"
    }
  },
  {
    "service_request": "2023-1013006",
    "request_type": "Trash/Recycling",
    "request_reason": "Order Trash Cart",
    "date_created": "2023-06-29T14:15:57.000",
    "date_modified": "2023-06-29T14:15:58.000",
    "request_status": "Pending",
    "responsible_agency": "Department of Sanitation",
    "final_address": "4970 Eastern St",
    "address_councildis": "D",
    "status": "Assigned to Contractor",
    "contractor": "IV Waste",
    "rowid": "1013006",
    "final_x": "3687894.28713",
    "final_y": "551598.616149",
    "longitude": "-90.04716786667792",
    "latitude": "30.010509046304186",
    "geocoded_column": {
      "latitude": "30.010509046304186",
      "longitude": "-90.04716786667792"
    }
  },
  {
    "service_request": "2023-1013004",
    "request_type": "Trash/Recycling",
    "request_reason": "Missed Trash Pick-Up",
    "date_created": "2023-06-29T14:14:38.000",
    "date_modified": "2023-06-29T14:41:33.000",
    "case_close_date": "2023-06-29T09:41:33.000",
    "request_status": "Closed",
    "responsible_agency": "Department of Sanitation",
    "final_address": "5109 Dauphine St",
    "address_councildis": "E",
    "status": "Invalid Request",
    "contractor": "Waste Pro",
    "contractor_action": "Invalid Pick-Up",
    "rowid": "1013004",
    "final_x": "3696016.4225",
    "final_y": "533076.88826",
    "longitude": "-90.0221766701969",
    "latitude": "29.959327840610467",
    "geocoded_column": {
      "latitude": "29.959327840610467",
      "longitude": "-90.0221766701969"
    }
  },
  {
    "service_request": "2023-1013003",
    "request_type": "Trash/Recycling",
    "request_reason": "Request a Large Item Pick Up",
    "date_created": "2023-06-29T14:14:12.000",
    "date_modified": "2023-06-29T14:14:13.000",
    "request_status": "Pending",
    "responsible_agency": "Department of Sanitation",
    "final_address": "109 Ringold St",
    "address_councildis": "A",
    "status": "Assigned to Contractor",
    "contractor": "IV Waste",
    "rowid": "1013003",
    "final_x": "3666712.4793",
    "final_y": "548588.528851",
    "longitude": "-90.11419071731365",
    "latitude": "30.002869095189688",
    "geocoded_column": {
      "latitude": "30.002869095189688",
      "longitude": "-90.11419071731365"
    }
  },
  {
    "service_request": "2023-1013001",
    "request_type": "Traffic Signals/Signs/Striping/Streetlights",
    "request_reason": "Street Light Outage/Malfunction",
    "date_created": "2023-06-29T14:13:58.000",
    "date_modified": "2023-06-29T14:13:59.000",
    "request_status": "Pending",
    "responsible_agency": "Department of Public Works",
    "final_address": "2500 S Rocheblave St",
    "address_councildis": "B",
    "status": "Assigned to Contractor",
    "contractor": "Legacy Professional Services",
    "rowid": "1013001",
    "final_x": "3672435.59611",
    "final_y": "529363.865857",
    "longitude": "-90.09676597733174",
    "latitude": "29.949839130827048",
    "geocoded_column": {
      "latitude": "29.949839130827048",
      "longitude": "-90.09676597733174"
    }
  },
  {
    "service_request": "2023-1013000",
    "request_type": "Trash/Recycling",
    "request_reason": "Request a Large Item Pick Up",
    "date_created": "2023-06-29T14:11:24.000",
    "date_modified": "2023-06-29T14:11:25.000",
    "request_status": "Pending",
    "responsible_agency": "Department of Sanitation",
    "final_address": "746 Louisiana Ave",
    "address_councildis": "B",
    "status": "Assigned to Contractor",
    "contractor": "Richards Disposal",
    "rowid": "1013000",
    "final_x": "3675431.54689",
    "final_y": "518493.384375",
    "longitude": "-90.08767949867654",
    "latitude": "29.919859612686352",
    "geocoded_column": {
      "latitude": "29.919859612686352",
      "longitude": "-90.08767949867654"
    }
  },
  {
    "service_request": "2023-1012999",
    "request_type": "Trash/Recycling",
    "request_reason": "Dead Animal Pick Up",
    "date_created": "2023-06-29T14:10:04.000",
    "date_modified": "2023-06-29T14:10:04.000",
    "request_status": "Pending",
    "responsible_agency": "Department of Sanitation",
    "final_address": "PLYMOUTH PL & BERKLEY DR",
    "address_councildis": "C",
    "status": "Assigned to Contractor",
    "contractor": "Richards Disposal",
    "rowid": "1012999",
    "final_x": "3702780.6",
    "final_y": "518208.68",
    "longitude": "-90.00136293579808",
    "latitude": "29.918230928844743",
    "geocoded_column": {
      "latitude": "29.918230928844743",
      "longitude": "-90.00136293579808"
    }
  },
  {
    "service_request": "2023-1012998",
    "request_type": "Traffic Signals/Signs/Striping/Streetlights",
    "request_reason": "Street Light Outage/Malfunction",
    "date_created": "2023-06-29T14:08:08.000",
    "date_modified": "2023-06-29T14:08:09.000",
    "request_status": "Pending",
    "responsible_agency": "Department of Public Works",
    "final_address": "6942 Orleans Ave",
    "address_councildis": "A",
    "status": "Assigned to Contractor",
    "contractor": "Legacy Professional Services",
    "rowid": "1012998",
    "final_x": "3671371.1794",
    "final_y": "553430.820695",
    "longitude": "-90.09930845120982",
    "latitude": "30.016046575257146",
    "geocoded_column": {
      "latitude": "30.016046575257146",
      "longitude": "-90.09930845120982"
    }
  },
  {
    "service_request": "2023-1012997",
    "request_type": "Trash/Recycling",
    "request_reason": "Repair Trash Cart",
    "date_created": "2023-06-29T14:07:55.000",
    "date_modified": "2023-06-29T14:07:56.000",
    "request_status": "Pending",
    "responsible_agency": "Department of Sanitation",
    "final_address": "3127 Magazine St",
    "address_councildis": "B",
    "status": "Assigned to Contractor",
    "contractor": "Richards Disposal",
    "rowid": "1012997",
    "final_x": "3675894.16654",
    "final_y": "520108.71948",
    "longitude": "-90.0861637351326",
    "latitude": "29.92428742721969",
    "geocoded_column": {
      "latitude": "29.92428742721969",
      "longitude": "-90.0861637351326"
    }
  },