[
  {
    "service_request": "2024-1089755",
    "request_type": "Trash/Recycling",
    "request_reason": "Start Trash Service",
    "date_created": "2024-05-01T23:58:28.000",
    "date_modified": "2024-05-01T23:58:29.000",
    "request_status": "Pending",
    "responsible_agency": "Department of Sanitation",
    "final_address": "7 Pinewood Ct",
    "address_councildis": "C",
    "status": "Assigned to Contractor",
    "contractor": "Richards Disposal",
    "rowid": "1089755",
    "final_x": "3695968.41322",
    "final_y": "522839.635515",
    "longitude": "-90.0226980310333",
    "latitude": "29.93118046399315",
    "geocoded_column": {
      "latitude": "29.93118046399315",
      "longitude": "-90.0226980310333"
    }
  },
  {
    "service_request": "2024-1089754",
    "request_type": "Traffic Signals/Signs/Striping/Streetlights",
    "request_reason": "Street Light Outage/Malfunction",
    "date_created": "2024-05-01T22:53:40.000",
    "date_modified": "2024-05-01T22:53:40.000",
    "request_status": "Pending",
    "responsible_agency": "Department of Public Works",
    "final_address": "1516 Camp St",
    "address_councildis": "B",
    "status": "Assigned to Contractor",
    "contractor": "Legacy Professional Services",
    "rowid": "1089754",
    "final_x": "3679806.64111",
    "final_y": "523760.020859",
    "longitude": "-90.07368670736403",
    "latitude": "29.93420963516469",
    "geocoded_column": {
      "latitude": "29.93420963516469",
      "longitude": "-90.07368670736403"
    }
  },
  {
    "service_request": "2024-1089753",
    "request_type": "Trash/Recycling",
    "request_reason": "Repair Trash Cart",
    "date_created": "2024-05-01T22:41:55.000",
    "date_modified": "2024-05-01T22:41:56.000",
    "request_status": "Pending",
    "responsible_agency": "Department of Sanitation",
    "final_address": "7037 Walmsley Ave",
    "address_councildis": "B",
    "status": "Assigned to Contractor",
    "contractor": "IV Waste",
    "rowid": "1089753",
    "final_x": "3667684.06036",
    "final_y": "531082.994242",
    "longitude": "-90.11171094650865",
    "latitude": "29.954706313557086",
    "geocoded_column": {
      "latitude": "29.954706313557086",
      "longitude": "-90.11171094650865"
    }
  },
  {
    "service_request": "2024-1089752",
    "request_type": "Roads/Drainage",
    "request_reason": "Damaged Sidewalk",
    "date_created": "2024-05-01T22:33:08.000",
    "date_modified": "2024-05-01T22:33:08.000",
    "request_status": "Pending",
    "responsible_agency": "Department of Public Works",
    "final_address": "400 BLK Pelican Ave",
    "address_councildis": "C",
    "status": "Pending",
    "rowid": "1089752",
    "final_x": "3686828.30872",
    "final_y": "530723.734928",
    "longitude": "-90.05127361261441",
    "latitude": "29.953143371241893",
    "geocoded_column": {
      "latitude": "29.953143371241893",
      "longitude": "-90.05127361261441"
    }
  },
  {
    "service_request": "2024-1089751",
    "request_type": "Traffic Signals/Signs/Striping/Streetlights",
    "request_reason": "Street Light Outage/Malfunction",
    "date_created": "2024-05-01T22:14:20.000",
    "date_modified": "2024-05-01T22:14:21.000",
    "request_status": "Pending",
    "responsible_agency": "Department of Public Works",
    "final_address": "6333 General Haig St",
    "address_councildis": "A",
    "status": "Assigned to Contractor",
    "contractor": "Legacy Professional Services",
    "rowid": "1089751",
    "final_x": "3670806.66567",
    "final_y": "549366.740435",
    "longitude": "-90.10123014297326",
    "latitude": "30.004888492102232",
    "geocoded_column": {
      "latitude": "30.004888492102232",
      "longitude": "-90.10123014297326"
    }
  },
  {
    "service_request": "2024-1089749",
    "request_type": "Trash/Recycling",
    "request_reason": "Order Trash Cart",
    "date_created": "2024-05-01T22:02:43.000",
    "date_modified": "2024-05-01T22:02:43.000",
    "request_status": "Pending",
    "responsible_agency": "Department of Sanitation",
    "final_address": "3124 Robert St, New Orleans, Louisiana, 70125",
    "address_councildis": "B",
    "status": "Assigned to Contractor",
    "contractor": "IV Waste",
    "rowid": "1089749",
    "final_x": "3668869.98279",
    "final_y": "526812.725822",
    "longitude": "-90.10811042877272",
    "latitude": "29.94292964926992",
    "geocoded_column": {
      "latitude": "29.94292964926992",
      "longitude": "-90.10811042877272"
    }
  },
  {
    "service_request": "2024-1089748",
    "request_type": "Mosquito, Termite & Rodent Control",
    "request_reason": "Rodent Complaint (Rats)",
    "date_created": "2024-05-01T21:47:34.000",
    "date_modified": "2024-05-01T21:47:34.000",
    "request_status": "Pending",
    "responsible_agency": "Mosquito, Termite & Rodent Control Board",
    "final_address": "1621 Mandeville St",
    "address_councildis": "D",
    "status": "Pending",
    "rowid": "1089748",
    "final_x": "3685645.70697",
    "final_y": "538382.981385",
    "longitude": "-90.05473788229092",
    "latitude": "29.974239981029623",
    "geocoded_column": {
      "latitude": "29.974239981029623",
      "longitude": "-90.05473788229092"
    }
  },
  {
    "service_request": "2024-1089747",
    "request_type": "Trash/Recycling",
    "request_reason": "Request a Large Item Pick Up",
    "date_created": "2024-05-01T21:41:13.000",
    "date_modified": "2024-05-01T21:41:14.000",
    "request_status": "Pending",
    "responsible_agency": "Department of Sanitation",
    "final_address": "5512 Constance St",
    "address_councildis": "A",
    "status": "Assigned to Contractor",
    "contractor": "IV Waste",
    "rowid": "1089747",
    "final_x": "3666235.67949",
    "final_y": "518464.33343",
    "longitude": "-90.11670745721872",
    "latitude": "29.92005141188264",
    "geocoded_column": {
      "latitude": "29.92005141188264",
      "longitude": "-90.11670745721872"
    }
  },
  {
    "service_request": "2024-1089746",
    "request_type": "Traffic Signals/Signs/Striping/Streetlights",
    "request_reason": "Street Light Outage/Malfunction",
    "date_created": "2024-05-01T21:31:54.000",
    "date_modified": "2024-05-01T21:31:54.000",
    "request_status": "Pending",
    "responsible_agency": "Department of Public Works",
    "final_address": "42 Versailles Blvd",
    "address_councildis": "A",
    "status": "Assigned to Contractor",
    "contractor": "Legacy Professional Services",
    "rowid": "1089746",
    "final_x": "3667444.8905",
    "final_y": "529955.053953",
    "longitude": "-90.11250410239965",
    "latitude": "29.951611855332235",
    "geocoded_column": {
      "latitude": "29.951611855332235",
      "longitude": "-90.11250410239965"
    }
  },
  {
    "service_request": "2024-1089745",
    "request_type": "Traffic Signals/Signs/Striping/Streetlights",
    "request_reason": "Street Light Outage/Malfunction",
    "date_created": "2024-05-01T21:30:47.000",
    "date_modified": "2024-05-01T21:30:48.000",
    "request_status": "Pending",
    "responsible_agency": "Department of Public Works",
    "final_address": "23 Versailles Blvd",
    "address_councildis": "A",
    "status": "Assigned to Contractor",
    "contractor": "Legacy Professional Services",
    "rowid": "1089745",
    "final_x": "3667254.13748",
    "final_y": "529132.268928",
    "longitude": "-90.11313407599573",
    "latitude": "29.94935505125669",
    "geocoded_column": {
      "latitude": "29.94935505125669",
      "longitude": "-90.11313407599573"
    }
  },
  {
    "service_request": "2024-1089744",
    "request_type": "Traffic Signals/Signs/Striping/Streetlights",
    "request_reason": "Street Light Outage/Malfunction",
    "date_created": "2024-05-01T21:29:34.000",
    "date_modified": "2024-05-01T21:29:34.000",
    "request_status": "Pending",
    "responsible_agency": "Department of Public Works",
    "final_address": "17 Versailles Blvd",
    "address_councildis": "A",
    "status": "Assigned to Contractor",
    "contractor": "Legacy Professional Services",
    "rowid": "1089744",
    "final_x": "3667178.86778",
    "final_y": "528969.64992",
    "longitude": "-90.11337720356356",
    "latitude": "29.948910105580993",
    "geocoded_column": {
      "latitude": "29.948910105580993",
      "longitude": "-90.11337720356356"
    }
  },
  {
    "service_request": "2024-1089743",
    "request_type": "Traffic Signals/Signs/Striping/Streetlights",
    "request_reason": "Street Light Outage/Malfunction",
    "date_created": "2024-05-01T21:28:06.000",
    "date_modified": "2024-05-01T21:28:06.000",
    "request_status": "Pending",
    "responsible_agency": "Department of Public Works",
    "final_address": "8 Versailles Blvd",
    "address_councildis": "A",
    "status": "Assigned to Contractor",
    "contractor": "Legacy Professional Services",
    "rowid": "1089743",
    "final_x": "3666905.26682",
    "final_y": "529000.388864",
    "longitude": "-90.11424005041931",
    "latitude": "29.949002634595903",
    "geocoded_column": {
      "latitude": "29.949002634595903",
      "longitude": "-90.11424005041931"
    }
  },
  {
    "service_request": "2024-1089742",
    "request_type": "Traffic Signals/Signs/Striping/Streetlights",
    "request_reason": "Street Light Outage/Malfunction",
    "date_created": "2024-05-01T21:26:40.000",
    "date_modified": "2024-05-01T21:26:40.000",
    "request_status": "Pending",
    "responsible_agency": "Department of Public Works",
    "final_address": "5 Versailles Blvd",
    "address_councildis": "A",
    "status": "Assigned to Contractor",
    "contractor": "Legacy Professional Services",
    "rowid": "1089742",
    "final_x": "3667046.22778",
    "final_y": "528683.194624",
    "longitude": "-90.11380563308809",
    "latitude": "29.948126328888005",
    "geocoded_column": {
      "latitude": "29.948126328888005",
      "longitude": "-90.11380563308809"
    }
  },
  {
    "service_request": "2024-1089741",
    "request_type": "Traffic Signals/Signs/Striping/Streetlights",
    "request_reason": "Street Light Outage/Malfunction",
    "date_created": "2024-05-01T21:25:08.000",
    "date_modified": "2024-05-01T21:25:08.000",
    "request_status": "Pending",
    "responsible_agency": "Department of Public Works",
    "final_address": "2 Versailles Blvd",
    "address_councildis": "A",
    "status": "Assigned to Contractor",
    "contractor": "Legacy Professional Services",
    "rowid": "1089741",
    "final_x": "3666839.58125",
    "final_y": "528811.059392",
    "longitude": "-90.11445380807919",
    "latitude": "29.948483961417054",
    "geocoded_column": {
      "latitude": "29.948483961417054",
      "longitude": "-90.11445380807919"
    }
  },
  {
    "service_request": "2024-1089740",
    "request_type": "Trash/Recycling",
    "request_reason": "Request a Large Item Pick Up",
    "date_created": "2024-05-01T21:00:16.000",
    "date_modified": "2024-05-01T21:00:16.000",
    "request_status": "Pending",
    "responsible_agency": "Department of Sanitation",
    "final_address": "5015 St Claude Ave",
    "address_councildis": "E",
    "status": "Assigned to Contractor",
    "contractor": "Waste Pro",
    "rowid": "1089740",
    "final_x": "3696113.05085",
    "final_y": "534351.361221",
    "longitude": "-90.02182547915295",
    "latitude": "29.962829149857008",
    "geocoded_column": {
      "latitude": "29.962829149857008",
      "longitude": "-90.02182547915295"
    }
  },
  {
    "service_request": "2024-1089739",
    "request_type": "Trash/Recycling",
    "request_reason": "Request a Large Item Pick Up",
    "date_created": "2024-05-01T20:43:43.000",
    "date_modified": "2024-05-01T20:43:43.000",
    "request_status": "Pending",
    "responsible_agency": "Department of Sanitation",
    "final_address": "6221 Louis Xiv St",
    "address_councildis": "A",
    "status": "Assigned to Contractor",
    "contractor": "IV Waste",
    "rowid": "1089739",
    "final_x": "3668283.30618",
    "final_y": "548850.434515",
    "longitude": "-90.10921940060015",
    "latitude": "30.003543195940278",
    "geocoded_column": {
      "latitude": "30.003543195940278",
      "longitude": "-90.10921940060015"
    }
  },
  {
    "service_request": "2024-1089738",
    "request_type": "Trash/Recycling",
    "request_reason": "Order Trash Cart",
    "date_created": "2024-05-01T20:34:43.000",
    "date_modified": "2024-05-01T20:34:57.000",
    "request_status": "Pending",
    "responsible_agency": "Department of Sanitation",
    "final_address": "4711 Camp St",
    "address_councildis": "B",
    "status": "Assigned to Contractor",
    "contractor": "IV Waste",
    "rowid": "1089738",
    "final_x": "3669794.47937",
    "final_y": "519064.299831",
    "longitude": "-90.10545371290152",
    "latitude": "29.92159674915071",
    "geocoded_column": {
      "latitude": "29.92159674915071",
      "longitude": "-90.10545371290152"
    }
  },
  {
    "service_request": "2024-1089737",
    "request_type": "Trash/Recycling",
    "request_reason": "Missed Trash Pick-Up",
    "date_created": "2024-05-01T20:22:57.000",
    "date_modified": "2024-05-01T20:22:57.000",
    "request_status": "Pending",
    "responsible_agency": "Department of Sanitation",
    "final_address": "4636 Marigny St",
    "address_councildis": "D",
    "status": "Assigned to Contractor",
    "contractor": "IV Waste",
    "rowid": "1089737",
    "final_x": "3684372.02031",
    "final_y": "549754.213844",
    "longitude": "-90.0583608727301",
    "latitude": "30.005545849114256",
    "geocoded_column": {
      "latitude": "30.005545849114256",
      "longitude": "-90.0583608727301"
    }
  },
  {
    "service_request": "2024-1089736",
    "request_type": "Trash/Recycling",
    "request_reason": "Repair Recycling Cart",
    "date_created": "2024-05-01T20:21:27.000",
    "date_modified": "2024-05-01T20:21:27.000",
    "request_status": "Pending",
    "responsible_agency": "Department of Sanitation",
    "final_address": "4636 Marigny St",
    "address_councildis": "D",
    "status": "Pending",
    "rowid": "1089736",
    "final_x": "3684372.02031",
    "final_y": "549754.213844",
    "longitude": "-90.0583608727301",
    "latitude": "30.005545849114256",
    "geocoded_column": {
      "latitude": "30.005545849114256",
      "longitude": "-90.0583608727301"
    }
  },
  {
    "service_request": "2024-1089735",
    "request_type": "Trash/Recycling",
    "request_reason": "Missed Trash Pick-Up",
    "date_created": "2024-05-01T20:19:54.000",
    "date_modified": "2024-05-01T20:19:55.000",
    "request_status": "Pending",
    "responsible_agency": "Department of Sanitation",
    "final_address": "6031 Perrier St",
    "address_councildis": "A",
    "status": "Assigned to Contractor",
    "contractor": "IV Waste",
    "rowid": "1089735",
    "final_x": "3664876.20525",
    "final_y": "520636.762041",
    "longitude": "-90.1209261245309",
    "latitude": "29.92606452997952",
    "geocoded_column": {
      "latitude": "29.92606452997952",
      "longitude": "-90.1209261245309"
    }
  },
  {
    "service_request": "2024-1089734",
    "request_type": "Traffic Signals/Signs/Striping/Streetlights",
    "request_reason": "Street Light Outage/Malfunction",
    "date_created": "2024-05-01T20:19:24.000",
    "date_modified": "2024-05-01T20:19:24.000",
    "request_status": "Pending",
    "responsible_agency": "Department of Public Works",
    "final_address": "8001 Hickory St",
    "address_councildis": "A",
    "status": "Assigned to Contractor",
    "contractor": "Legacy Professional Services",
    "rowid": "1089734",
    "final_x": "3663712.68627",
    "final_y": "529687.265409",
    "longitude": "-90.12429757677877",
    "latitude": "29.950984334930467",
    "geocoded_column": {
      "latitude": "29.950984334930467",
      "longitude": "-90.12429757677877"
    }
  },
  {
    "service_request": "2024-1089733",
    "request_type": "Traffic Signals/Signs/Striping/Streetlights",
    "request_reason": "Street Name Sign Damaged or Missing",
    "date_created": "2024-05-01T19:42:26.000",
    "date_modified": "2024-05-01T19:42:26.000",
    "request_status": "Pending",
    "responsible_agency": "Department of Public Works",
    "final_address": "BURDETTE ST & OAK ST",
    "address_councildis": "A",
    "status": "Pending",
    "rowid": "1089733",
    "final_x": "3662801.1",
    "final_y": "527619.48",
    "longitude": "-90.12724464518514",
    "latitude": "29.945325005387996",
    "geocoded_column": {
      "latitude": "29.945325005387996",
      "longitude": "-90.12724464518514"
    }
  },
  {
    "service_request": "2024-1089732",
    "request_type": "Trash/Recycling",
    "request_reason": "MIssed Recycling Pick-Up",
    "date_created": "2024-05-01T19:38:56.000",
    "date_modified": "2024-05-01T19:38:56.000",
    "request_status": "Pending",
    "responsible_agency": "Department of Sanitation",
    "final_address": "2525 Mistletoe St",
    "address_councildis": "A",
    "status": "Assigned to Contractor",
    "contractor": "IV Waste",
    "rowid": "1089732",
    "final_x": "3662383.68179",
    "final_y": "534539.356613",
    "longitude": "-90.12833281059393",
    "latitude": "29.96436450386319",
    "geocoded_column": {
      "latitude": "29.96436450386319",
      "longitude": "-90.12833281059393"
    }
  },
  {
    "service_request": "2024-1089731",
    "request_type": "Trash/Recycling",
    "request_reason": "Request a Large Item Pick Up",
    "date_created": "2024-05-01T19:38:55.000",
    "date_modified": "2024-05-01T19:38:56.000",
    "request_status": "Pending",
    "responsible_agency": "Department of Sanitation",
    "final_address": "3616 State Street Dr",
    "address_councildis": "A",
    "status": "Assigned to Contractor",
    "contractor": "IV Waste",
    "rowid": "1089731",
    "final_x": "3667876.00468",
    "final_y": "529135.954944",
    "longitude": "-90.11117043336019",
    "latitude": "29.949346963014328",
    "geocoded_column": {
      "latitude": "29.949346963014328",
      "longitude": "-90.11117043336019"
    }
  },
  {
    "service_request": "2024-1089730",
    "request_type": "Trash/Recycling",
    "request_reason": "Request a Large Item Pick Up",
    "date_created": "2024-05-01T19:34:32.000",
    "date_modified": "2024-05-01T19:34:32.000",
    "request_status": "Pending",
    "responsible_agency": "Department of Sanitation",
    "final_address": "6039 Elysian Fields Ave",
    "address_councildis": "D",
    "status": "Assigned to Contractor",
    "contractor": "IV Waste",
    "rowid": "1089730",
    "final_x": "3683605.41135",
    "final_y": "555278.962713",
    "longitude": "-90.06058888945341",
    "latitude": "30.02076032775984",
    "geocoded_column": {
      "latitude": "30.02076032775984",
      "longitude": "-90.06058888945341"
    }
  },
  {
    "service_request": "2024-1089729",
    "request_type": "Trash/Recycling",
    "request_reason": "Request a Large Item Pick Up",
    "date_created": "2024-05-01T19:28:28.000",
    "date_modified": "2024-05-01T19:28:29.000",
    "request_status": "Pending",
    "responsible_agency": "Department of Sanitation",
    "final_address": "420 Delery St",
    "address_councildis": "E",
    "status": "Assigned to Contractor",
    "contractor": "Waste Pro",
    "rowid": "1089729",
    "final_x": "3699517.16925",
    "final_y": "530761.234626",
    "longitude": "-90.01120659014201",
    "latitude": "29.952850003967722",
    "geocoded_column": {
      "latitude": "29.952850003967722",
      "longitude": "-90.01120659014201"
    }
  },
  {
    "service_request": "2024-1089728",
    "request_type": "Abandoned Vehicles",
    "request_reason": "Abandoned/Junk Vehicles",
    "date_created": "2024-05-01T19:05:10.000",
    "date_modified": "2024-05-01T19:05:10.000",
    "request_status": "Pending",
    "responsible_agency": "Department of Public Works",
    "final_address": "1233 Second St",
    "address_councildis": "B",
    "status": "Pending",
    "rowid": "1089728",
    "final_x": "3677509.5915",
    "final_y": "521889.51033",
    "longitude": "-90.08100295926948",
    "latitude": "29.929135577338023",
    "geocoded_column": {
      "latitude": "29.929135577338023",
      "longitude": "-90.08100295926948"
    }
  },
  {
    "service_request": "2024-1089727",
    "request_type": "Healthy Homes",
    "request_reason": "Healthy Homes",
    "date_created": "2024-05-01T19:03:40.000",
    "date_modified": "2024-05-01T19:03:40.000",
    "request_status": "Pending",
    "responsible_agency": "Department of Code Enforcement",
    "final_address": "1127 Music St",
    "address_councildis": "C",
    "status": "Pending",
    "rowid": "1089727",
    "final_x": "3686862.23106",
    "final_y": "536749.05524",
    "longitude": "-90.05095357683722",
    "latitude": "29.96970987428545",
    "geocoded_column": {
      "latitude": "29.96970987428545",
      "longitude": "-90.05095357683722"
    }
  },
  {
    "service_request": "2024-1089726",
    "request_type": "Mosquito, Termite & Rodent Control",
    "request_reason": "Mosquito Complaint",
    "date_created": "2024-05-01T18:56:23.000",
    "date_modified": "2024-05-01T18:56:23.000",
    "request_status": "Pending",
    "responsible_agency": "Mosquito, Termite & Rodent Control Board",
    "final_address": "3920 S Pin Oak Ave",
    "address_councildis": "C",
    "status": "Pending",
    "rowid": "1089726",
    "final_x": "3704935.83217",
    "final_y": "513637.39877",
    "longitude": "-89.99472864771663",
    "latitude": "29.905592410816674",
    "geocoded_column": {
      "latitude": "29.905592410816674",
      "longitude": "-89.99472864771663"
    }
  },
  {
    "service_request": "2024-1089725",
    "request_type": "Roads/Drainage",
    "request_reason": "Pothole",
    "date_created": "2024-05-01T18:54:15.000",
    "date_modified": "2024-05-01T18:54:15.000",
    "request_status": "Pending",
    "responsible_agency": "Department of Public Works",
    "final_address": "2814 Mercedes Blvd",
    "address_councildis": "C",
    "status": "Pending",
    "rowid": "1089725",
    "final_x": "3698085.31965",
    "final_y": "520920.740537",
    "longitude": "-90.01608490880344",
    "latitude": "29.925837412280835",
    "geocoded_column": {
      "latitude": "29.925837412280835",
      "longitude": "-90.01608490880344"
    }
  },
  {
    "service_request": "2024-1089724",
    "request_type": "Mosquito, Termite & Rodent Control",
    "request_reason": "Non-Rodent Complaint (Mice, Possums, Snakes)",
    "date_created": "2024-05-01T18:46:34.000",
    "date_modified": "2024-05-01T18:46:34.000",
    "request_status": "Pending",
    "responsible_agency": "Mosquito, Termite & Rodent Control Board",
    "final_address": "4400 BLK S Miro St",
    "address_councildis": "B",
    "status": "Pending",
    "rowid": "1089724",
    "final_x": "3669934.91501",
    "final_y": "527806.38512",
    "longitude": "-90.10471453169062",
    "latitude": "29.945630535391388",
    "geocoded_column": {
      "latitude": "29.945630535391388",
      "longitude": "-90.10471453169062"
    }
  },
  {
    "service_request": "2024-1089723",
    "request_type": "Abandoned Vehicles",
    "request_reason": "Abandoned/Junk Vehicles",
    "date_created": "2024-05-01T18:46:28.000",
    "date_modified": "2024-05-01T18:46:28.000",
    "request_status": "Pending",
    "responsible_agency": "Department of Public Works",
    "final_address": "6018 St Anthony Ave",
    "address_councildis": "D",
    "status": "Pending",
    "rowid": "1089723",
    "final_x": "3681932.98997",
    "final_y": "554886.100568",
    "longitude": "-90.06588697615082",
    "latitude": "30.019731073090032",
    "geocoded_column": {
      "latitude": "30.019731073090032",
      "longitude": "-90.06588697615082"
    }
  },
  {
    "service_request": "2024-1089722",
    "request_type": "Trash/Recycling",
    "request_reason": "Return Trash Cart",
    "date_created": "2024-05-01T18:30:22.000",
    "date_modified": "2024-05-01T18:30:23.000",
    "request_status": "Pending",
    "responsible_agency": "Department of Sanitation",
    "final_address": "3904 Louisiana Avenue Prkwy",
    "address_councildis": "B",
    "status": "Assigned to Contractor",
    "contractor": "IV Waste",
    "rowid": "1089722",
    "final_x": "3671130.59956",
    "final_y": "529084.515584",
    "longitude": "-90.10089594990632",
    "latitude": "29.949109669006113",
    "geocoded_column": {
      "latitude": "29.949109669006113",
      "longitude": "-90.10089594990632"
    }
  },
  {
    "service_request": "2024-1089721",
    "request_type": "Property Maintenance",
    "request_reason": "Property Maintenance",
    "date_created": "2024-05-01T18:09:09.000",
    "date_modified": "2024-05-01T18:09:09.000",
    "request_status": "Pending",
    "responsible_agency": "Department of Code Enforcement",
    "final_address": "835 Broadway St",
    "address_councildis": "A",
    "status": "Pending",
    "rowid": "1089721",
    "final_x": "3663580.36397",
    "final_y": "525520.834685",
    "longitude": "-90.1248541327603",
    "latitude": "29.939531824420126",
    "geocoded_column": {
      "latitude": "29.939531824420126",
      "longitude": "-90.1248541327603"
    }
  },
  {
    "service_request": "2024-1089720",
    "request_type": "Trash/Recycling",
    "request_reason": "Replace Trash Cart",
    "date_created": "2024-05-01T18:07:53.000",
    "date_modified": "2024-05-01T18:07:54.000",
    "request_status": "Pending",
    "responsible_agency": "Department of Sanitation",
    "final_address": "6379 Bellaire Dr",
    "address_councildis": "A",
    "status": "Assigned to Contractor",
    "contractor": "IV Waste",
    "rowid": "1089720",
    "final_x": "3664491.28749",
    "final_y": "550426.216276",
    "longitude": "-90.12114638619035",
    "latitude": "30.00798689603218",
    "geocoded_column": {
      "latitude": "30.00798689603218",
      "longitude": "-90.12114638619035"
    }
  },
  {
    "service_request": "2024-1089719",
    "request_type": "Trash/Recycling",
    "request_reason": "Replace Trash Cart",
    "date_created": "2024-05-01T18:05:55.000",
    "date_modified": "2024-05-01T18:05:56.000",
    "request_status": "Pending",
    "responsible_agency": "Department of Sanitation",
    "final_address": "6379 Bellaire Dr",
    "address_councildis": "A",
    "status": "Assigned to Contractor",
    "contractor": "IV Waste",
    "rowid": "1089719",
    "final_x": "3664491.28749",
    "final_y": "550426.216276",
    "longitude": "-90.12114638619035",
    "latitude": "30.00798689603218",
    "geocoded_column": {
      "latitude": "30.00798689603218",
      "longitude": "-90.12114638619035"
    }
  },
  {
    "service_request": "2024-1089718",
    "request_type": "Abandoned Vehicles",
    "request_reason": "Abandoned/Junk Vehicles",
    "date_created": "2024-05-01T18:03:13.000",
    "date_modified": "2024-05-01T18:03:13.000",
    "request_status": "Pending",
    "responsible_agency": "Department of Public Works",
    "final_address": "1119 N Johnson St",
    "address_councildis": "D",
    "status": "Pending",
    "rowid": "1089718",
    "final_x": "3679633.69282",
    "final_y": "536842.09524",
    "longitude": "-90.07377871642537",
    "latitude": "29.970186166771573",
    "geocoded_column": {
      "latitude": "29.970186166771573",
      "longitude": "-90.07377871642537"
    }
  },
  {
    "service_request": "2024-1089717",
    "request_type": "Trash/Recycling",
    "request_reason": "Missed Trash Pick-Up",
    "date_created": "2024-05-01T17:43:47.000",
    "date_modified": "2024-05-01T17:43:48.000",
    "request_status": "Pending",
    "responsible_agency": "Department of Sanitation",
    "final_address": "5024 S Claiborne Ave",
    "address_councildis": "B",
    "status": "Assigned to Contractor",
    "contractor": "IV Waste",
    "rowid": "1089717",
    "final_x": "3668632.3865",
    "final_y": "525959.016573",
    "longitude": "-90.10888938290474",
    "latitude": "29.94058920842743",
    "geocoded_column": {
      "latitude": "29.94058920842743",
      "longitude": "-90.10888938290474"
    }
  },
  {
    "service_request": "2024-1089716",
    "request_type": "Trash/Recycling",
    "request_reason": "Repair Trash Cart",
    "date_created": "2024-05-01T17:42:48.000",
    "date_modified": "2024-05-01T17:42:48.000",
    "request_status": "Pending",
    "responsible_agency": "Department of Sanitation",
    "final_address": "317 Eleonore St",
    "address_councildis": "A",
    "status": "Assigned to Contractor",
    "contractor": "IV Waste",
    "rowid": "1089716",
    "final_x": "3664919.68557",
    "final_y": "517485.154358",
    "longitude": "-90.12089413886467",
    "latitude": "29.917397330352124",
    "geocoded_column": {
      "latitude": "29.917397330352124",
      "longitude": "-90.12089413886467"
    }
  },
  {
    "service_request": "2024-1089715",
    "request_type": "Trash/Recycling",
    "request_reason": "Replace Trash Cart",
    "date_created": "2024-05-01T17:41:48.000",
    "date_modified": "2024-05-01T17:41:48.000",
    "request_status": "Pending",
    "responsible_agency": "Department of Sanitation",
    "final_address": "7030 Vicksburg St",
    "address_councildis": "A",
    "status": "Assigned to Contractor",
    "contractor": "IV Waste",
    "rowid": "1089715",
    "final_x": "3669427.67642",
    "final_y": "554212.899992",
    "longitude": "-90.10542259742357",
    "latitude": "30.018254425057947",
    "geocoded_column": {
      "latitude": "30.018254425057947",
      "longitude": "-90.10542259742357"
    }
  },
  {
    "service_request": "2024-1089714",
    "request_type": "Trash/Recycling",
    "request_reason": "Order Recycling Cart",
    "date_created": "2024-05-01T17:40:51.000",
    "date_modified": "2024-05-01T17:40:51.000",
    "request_status": "Pending",
    "responsible_agency": "Department of Sanitation",
    "final_address": "7030 Vicksburg St",
    "address_councildis": "A",
    "status": "Pending",
    "rowid": "1089714",
    "final_x": "3669427.67642",
    "final_y": "554212.899992",
    "longitude": "-90.10542259742357",
    "latitude": "30.018254425057947",
    "geocoded_column": {
      "latitude": "30.018254425057947",
      "longitude": "-90.10542259742357"
    }
  },
  {
    "service_request": "2024-1089713",
    "request_type": "Trash/Recycling",
    "request_reason": "Replace Recycling Cart",
    "date_created": "2024-05-01T17:37:40.000",
    "date_modified": "2024-05-01T17:37:40.000",
    "request_status": "Pending",
    "responsible_agency": "Department of Sanitation",
    "final_address": "6060 Chestnut St",
    "address_councildis": "A",
    "status": "Pending",
    "rowid": "1089713",
    "final_x": "3664493.20845",
    "final_y": "519950.4654",
    "longitude": "-90.12215803894134",
    "latitude": "29.924188567075998",
    "geocoded_column": {
      "latitude": "29.924188567075998",
      "longitude": "-90.12215803894134"
    }
  },
  {
    "service_request": "2024-1089712",
    "request_type": "Trash/Recycling",
    "request_reason": "Request a Large Item Pick Up",
    "date_created": "2024-05-01T17:32:04.000",
    "date_modified": "2024-05-01T17:32:05.000",
    "request_status": "Pending",
    "responsible_agency": "Department of Sanitation",
    "final_address": "3851 Red Cypress Dr",
    "address_councildis": "C",
    "status": "Assigned to Contractor",
    "contractor": "Richards Disposal",
    "rowid": "1089712",
    "final_x": "3703895.24945",
    "final_y": "512162.165937",
    "longitude": "-89.99806702184479",
    "latitude": "29.90156940658349",
    "geocoded_column": {
      "latitude": "29.90156940658349",
      "longitude": "-89.99806702184479"
    }
  },
  {
    "service_request": "2024-1089711",
    "request_type": "Abandoned Vehicles",
    "request_reason": "Abandoned/Junk Vehicles",
    "date_created": "2024-05-01T17:27:14.000",
    "date_modified": "2024-05-01T17:27:14.000",
    "request_status": "Pending",
    "responsible_agency": "Department of Public Works",
    "final_address": "158 Huntlee Dr",
    "address_councildis": "C",
    "status": "Pending",
    "rowid": "1089711",
    "final_x": "3702478.95345",
    "final_y": "523550.428091",
    "longitude": "-90.00211917709747",
    "latitude": "29.932928525978056",
    "geocoded_column": {
      "latitude": "29.932928525978056",
      "longitude": "-90.00211917709747"
    }
  },
  {
    "service_request": "2024-1089710",
    "request_type": "Traffic Signals/Signs/Striping/Streetlights",
    "request_reason": "Street Light Outage/Malfunction",
    "date_created": "2024-05-01T17:18:06.000",
    "date_modified": "2024-05-01T17:18:07.000",
    "request_status": "Pending",
    "responsible_agency": "Department of Public Works",
    "final_address": "10100 Morrison Rd",
    "address_councildis": "E",
    "status": "Assigned to Contractor",
    "contractor": "Legacy Professional Services",
    "rowid": "1089710",
    "final_x": "3709596.69061",
    "final_y": "563840.762913",
    "longitude": "-89.97814490810929",
    "latitude": "30.043482469954732",
    "geocoded_column": {
      "latitude": "30.043482469954732",
      "longitude": "-89.97814490810929"
    }
  },
  {
    "service_request": "2024-1089709",
    "request_type": "Abandoned Vehicles",
    "request_reason": "Abandoned/Junk Vehicles",
    "date_created": "2024-05-01T17:18:02.000",
    "date_modified": "2024-05-01T17:18:02.000",
    "request_status": "Pending",
    "responsible_agency": "Department of Public Works",
    "final_address": "4116 S Derbigny St",
    "address_councildis": "B",
    "status": "Pending",
    "rowid": "1089709",
    "final_x": "3671225.7634",
    "final_y": "526307.868094",
    "longitude": "-90.10068978777376",
    "latitude": "29.941471980835352",
    "geocoded_column": {
      "latitude": "29.941471980835352",
      "longitude": "-90.10068978777376"
    }
  },
  {
    "service_request": "2024-1089708",
    "request_type": "Property Maintenance",
    "request_reason": "Property Maintenance",
    "date_created": "2024-05-01T17:16:00.000",
    "date_modified": "2024-05-01T17:16:00.000",
    "request_status": "Pending",
    "responsible_agency": "Department of Code Enforcement",
    "final_address": "6245 London Ave",
    "address_councildis": "D",
    "status": "Pending",
    "rowid": "1089708",
    "final_x": "3680611.74728",
    "final_y": "555899.107673",
    "longitude": "-90.07002638112795",
    "latitude": "30.022556591309144",
    "geocoded_column": {
      "latitude": "30.022556591309144",
      "longitude": "-90.07002638112795"
    }
  },
  {
    "service_request": "2024-1089707",
    "request_type": "Property Maintenance",
    "request_reason": "Property Maintenance",
    "date_created": "2024-05-01T17:05:24.000",
    "date_modified": "2024-05-01T17:05:24.000",
    "request_status": "Pending",
    "responsible_agency": "Department of Code Enforcement",
    "final_address": "6237 London Ave",
    "address_councildis": "D",
    "status": "Pending",
    "rowid": "1089707",
    "final_x": "3680617.17039",
    "final_y": "555852.897241",
    "longitude": "-90.07001085523875",
    "latitude": "30.022429365126367",
    "geocoded_column": {
      "latitude": "30.022429365126367",
      "longitude": "-90.07001085523875"
    }
  },
  {
    "service_request": "2024-1089706",
    "request_type": "Property Maintenance",
    "request_reason": "Property Maintenance",
    "date_created": "2024-05-01T17:05:14.000",
    "date_modified": "2024-05-01T17:05:14.000",
    "request_status": "Pending",
    "responsible_agency": "Department of Code Enforcement",
    "final_address": "6405 Lafaye St",
    "address_councildis": "D",
    "status": "Pending",
    "rowid": "1089706",
    "final_x": "3687047.26358",
    "final_y": "556864.985562",
    "longitude": "-90.04965753149375",
    "latitude": "30.025015732583277",
    "geocoded_column": {
      "latitude": "30.025015732583277",
      "longitude": "-90.04965753149375"
    }
  },
  {
    "service_request": "2024-1089705",
    "request_type": "Abandoned Vehicles",
    "request_reason": "Abandoned/Junk Vehicles",
    "date_created": "2024-05-01T17:02:57.000",
    "date_modified": "2024-05-01T17:02:57.000",
    "request_status": "Pending",
    "responsible_agency": "Department of Public Works",
    "final_address": "3411 Coliseum St",
    "address_councildis": "B",
    "status": "Pending",
    "rowid": "1089705",
    "final_x": "3674419.98766",
    "final_y": "520548.178488",
    "longitude": "-90.09080216983864",
    "latitude": "29.925539835465116",
    "geocoded_column": {
      "latitude": "29.925539835465116",
      "longitude": "-90.09080216983864"
    }
  },
  {
    "service_request": "2024-1089704",
    "request_type": "Property Maintenance",
    "request_reason": "Property Maintenance",
    "date_created": "2024-05-01T17:01:13.000",
    "date_modified": "2024-05-01T17:01:13.000",
    "request_status": "Pending",
    "responsible_agency": "Department of Code Enforcement",
    "final_address": "6271 London Ave",
    "address_councildis": "D",
    "status": "Pending",
    "rowid": "1089704",
    "final_x": "3680583.86075",
    "final_y": "556099.636506",
    "longitude": "-90.07010751057294",
    "latitude": "30.02310881755544",
    "geocoded_column": {
      "latitude": "30.02310881755544",
      "longitude": "-90.07010751057294"
    }
  },
  {
    "service_request": "2024-1089703",
    "request_type": "Property Maintenance",
    "request_reason": "Property Maintenance",
    "date_created": "2024-05-01T16:59:47.000",
    "date_modified": "2024-05-01T16:59:47.000",
    "request_status": "Pending",
    "responsible_agency": "Department of Code Enforcement",
    "final_address": "6237 London Ave",
    "address_councildis": "D",
    "status": "Pending",
    "rowid": "1089703",
    "final_x": "3680617.17039",
    "final_y": "555852.897241",
    "longitude": "-90.07001085523875",
    "latitude": "30.022429365126367",
    "geocoded_column": {
      "latitude": "30.022429365126367",
      "longitude": "-90.07001085523875"
    }
  },
  {
    "service_request": "2024-1089702",
    "request_type": "Traffic Signals/Signs/Striping/Streetlights",
    "request_reason": "Street Name Sign Damaged or Missing",
    "date_created": "2024-05-01T16:58:33.000",
    "date_modified": "2024-05-01T16:58:33.000",
    "request_status": "Pending",
    "responsible_agency": "Department of Public Works",
    "final_address": "4001 Earhart Blvd",
    "address_councildis": "B",
    "status": "Pending",
    "rowid": "1089702",
    "final_x": "3672053.39342",
    "final_y": "531868.169411",
    "longitude": "-90.09788751399965",
    "latitude": "29.95673647398991",
    "geocoded_column": {
      "latitude": "29.95673647398991",
      "longitude": "-90.09788751399965"
    }
  },
  {
    "service_request": "2024-1089701",
    "request_type": "Abandoned Vehicles",
    "request_reason": "Abandoned/Junk Vehicles",
    "date_created": "2024-05-01T16:55:57.000",
    "date_modified": "2024-05-01T16:55:58.000",
    "request_status": "Pending",
    "responsible_agency": "Department of Public Works",
    "final_address": "2235 Pine St",
    "address_councildis": "A",
    "status": "Pending",
    "rowid": "1089701",
    "final_x": "3666137.97057",
    "final_y": "529881.231425",
    "longitude": "-90.11663321547826",
    "latitude": "29.95144709041965",
    "geocoded_column": {
      "latitude": "29.95144709041965",
      "longitude": "-90.11663321547826"
    }
  },
  {
    "service_request": "2024-1089700",
    "request_type": "Trash/Recycling",
    "request_reason": "Order Trash Cart",
    "date_created": "2024-05-01T16:53:09.000",
    "date_modified": "2024-05-01T16:53:10.000",
    "request_status": "Pending",
    "responsible_agency": "Department of Sanitation",
    "final_address": "2119 N Villere St",
    "address_councildis": "C",
    "status": "Assigned to Contractor",
    "contractor": "IV Waste",
    "rowid": "1089700",
    "final_x": "3684670.39183",
    "final_y": "537423.272456",
    "longitude": "-90.05785188883098",
    "latitude": "29.971631004799004",
    "geocoded_column": {
      "latitude": "29.971631004799004",
      "longitude": "-90.05785188883098"
    }
  },
  {
    "service_request": "2024-1089699",
    "request_type": "Traffic Signals/Signs/Striping/Streetlights",
    "request_reason": "Traffic Sign Missing/Damaged",
    "date_created": "2024-05-01T16:53:07.000",
    "date_modified": "2024-05-01T16:53:07.000",
    "request_status": "Pending",
    "responsible_agency": "Department of Public Works",
    "final_address": "4040 Euphrosine St",
    "address_councildis": "B",
    "status": "Pending",
    "rowid": "1089699",
    "final_x": "3672092.45595",
    "final_y": "531958.447171",
    "longitude": "-90.09776109287601",
    "latitude": "29.956983549732936",
    "geocoded_column": {
      "latitude": "29.956983549732936",
      "longitude": "-90.09776109287601"
    }
  },
  {
    "service_request": "2024-1089698",
    "request_type": "Abandoned Vehicles",
    "request_reason": "Abandoned/Junk Vehicles",
    "date_created": "2024-05-01T16:49:45.000",
    "date_modified": "2024-05-01T16:52:07.000",
    "request_status": "Pending",
    "responsible_agency": "Department of Public Works",
    "final_address": "3501 Mansfield Ave",
    "address_councildis": "C",
    "status": "Pending",
    "rowid": "1089698",
    "final_x": "3708997.48126",
    "final_y": "517913.28671",
    "longitude": "-89.98175077239097",
    "latitude": "29.91721852494844",
    "geocoded_column": {
      "latitude": "29.91721852494844",
      "longitude": "-89.98175077239097"
    }
  },
  {
    "service_request": "2024-1089697",
    "request_type": "Trash/Recycling",
    "request_reason": "Missed Trash Pick-Up",
    "date_created": "2024-05-01T16:48:05.000",
    "date_modified": "2024-05-01T16:48:05.000",
    "request_status": "Pending",
    "responsible_agency": "Department of Sanitation",
    "final_address": "383 Broadway St",
    "address_councildis": "A",
    "status": "Assigned to Contractor",
    "contractor": "IV Waste",
    "rowid": "1089697",
    "final_x": "3661986.98522",
    "final_y": "523132.345659",
    "longitude": "-90.1299638639817",
    "latitude": "29.933010345861852",
    "geocoded_column": {
      "latitude": "29.933010345861852",
      "longitude": "-90.1299638639817"
    }
  },
  {
    "service_request": "2024-1089696",
    "request_type": "Trash/Recycling",
    "request_reason": "MIssed Recycling Pick-Up",
    "date_created": "2024-05-01T16:46:56.000",
    "date_modified": "2024-05-01T16:46:56.000",
    "request_status": "Pending",
    "responsible_agency": "Department of Sanitation",
    "final_address": "6016 St Charles Ave",
    "address_councildis": "A",
    "status": "Assigned to Contractor",
    "contractor": "IV Waste",
    "rowid": "1089696",
    "final_x": "3665536.5257",
    "final_y": "522450.08089",
    "longitude": "-90.11878100278054",
    "latitude": "29.931031355859783",
    "geocoded_column": {
      "latitude": "29.931031355859783",
      "longitude": "-90.11878100278054"
    }
  },
  {
    "service_request": "2024-1089695",
    "request_type": "Trash/Recycling",
    "request_reason": "Request a Large Item Pick Up",
    "date_created": "2024-05-01T16:46:53.000",
    "date_modified": "2024-05-01T16:46:54.000",
    "request_status": "Pending",
    "responsible_agency": "Department of Sanitation",
    "final_address": "322 Alix St",
    "address_councildis": "C",
    "status": "Assigned to Contractor",
    "contractor": "Richards Disposal",
    "rowid": "1089695",
    "final_x": "3686540.80905",
    "final_y": "530085.101249",
    "longitude": "-90.05220395578007",
    "latitude": "29.951396189025203",
    "geocoded_column": {
      "latitude": "29.951396189025203",
      "longitude": "-90.05220395578007"
    }
  },
  {
    "service_request": "2024-1089694",
    "request_type": "Roads/Drainage",
    "request_reason": "Street Subsidence (Sinking)",
    "date_created": "2024-05-01T16:44:12.000",
    "date_modified": "2024-05-01T16:44:13.000",
    "request_status": "Pending",
    "responsible_agency": "Department of Public Works",
    "final_address": "SULLEN PL & STRATFORD PL",
    "address_councildis": "C",
    "status": "Pending",
    "rowid": "1089694",
    "final_x": "3707506.4",
    "final_y": "516189.08",
    "longitude": "-89.98652119182015",
    "latitude": "29.912525831551587",
    "geocoded_column": {
      "latitude": "29.912525831551587",
      "longitude": "-89.98652119182015"
    }
  },
  {
    "service_request": "2024-1089693",
    "request_type": "Trash/Recycling",
    "request_reason": "Repair Trash Cart",
    "date_created": "2024-05-01T16:43:16.000",
    "date_modified": "2024-05-01T16:43:16.000",
    "request_status": "Pending",
    "responsible_agency": "Department of Sanitation",
    "final_address": "856 City Park Ave",
    "address_councildis": "A",
    "status": "Assigned to Contractor",
    "contractor": "IV Waste",
    "rowid": "1089693",
    "final_x": "3671503.48763",
    "final_y": "541626.546636",
    "longitude": "-90.09929208664855",
    "latitude": "29.98358501864532",
    "geocoded_column": {
      "latitude": "29.98358501864532",
      "longitude": "-90.09929208664855"
    }
  },
  {
    "service_request": "2024-1089692",
    "request_type": "Trash/Recycling",
    "request_reason": "Request a Large Item Pick Up",
    "date_created": "2024-05-01T16:41:17.000",
    "date_modified": "2024-05-01T16:41:17.000",
    "request_status": "Pending",
    "responsible_agency": "Department of Sanitation",
    "final_address": "605 S Scott St",
    "address_councildis": "B",
    "status": "Assigned to Contractor",
    "contractor": "IV Waste",
    "rowid": "1089692",
    "final_x": "3670504.04987",
    "final_y": "536217.742343",
    "longitude": "-90.10263233906836",
    "latitude": "29.968742194222905",
    "geocoded_column": {
      "latitude": "29.968742194222905",
      "longitude": "-90.10263233906836"
    }
  },
  {
    "service_request": "2024-1089691",
    "request_type": "Trash/Recycling",
    "request_reason": "Request a Large Item Pick Up",
    "date_created": "2024-05-01T16:39:59.000",
    "date_modified": "2024-05-01T16:40:00.000",
    "request_status": "Pending",
    "responsible_agency": "Department of Sanitation",
    "final_address": "320 Alix St",
    "address_councildis": "C",
    "status": "Assigned to Contractor",
    "contractor": "Richards Disposal",
    "rowid": "1089691",
    "final_x": "3686532.61436",
    "final_y": "530078.590081",
    "longitude": "-90.05223006039935",
    "latitude": "29.95137853746635",
    "geocoded_column": {
      "latitude": "29.95137853746635",
      "longitude": "-90.05223006039935"
    }
  },
  {
    "service_request": "2024-1089690",
    "request_type": "Trash/Recycling",
    "request_reason": "Illegal Dumping",
    "date_created": "2024-05-01T16:39:06.000",
    "date_modified": "2024-05-01T16:39:07.000",
    "request_status": "Pending",
    "responsible_agency": "Department of Sanitation",
    "final_address": "2138 Annette St",
    "address_councildis": "D",
    "status": "Pending",
    "rowid": "1089690",
    "final_x": "3682796.25301",
    "final_y": "540155.230027",
    "longitude": "-90.0636750923013",
    "latitude": "29.979200167105436",
    "geocoded_column": {
      "latitude": "29.979200167105436",
      "longitude": "-90.0636750923013"
    }
  },
  {
    "service_request": "2024-1089689",
    "request_type": "Parks & Parkways",
    "request_reason": "Request Tree Service (Right of Way/Public Property)",
    "date_created": "2024-05-01T16:37:22.000",
    "date_modified": "2024-05-01T16:37:22.000",
    "request_status": "Pending",
    "responsible_agency": "Department of Parks & Parkway",
    "final_address": "5900 BLK General Diaz St",
    "address_councildis": "A",
    "status": "Pending",
    "rowid": "1089689",
    "final_x": "3669472.17086",
    "final_y": "546854.508113",
    "longitude": "-90.10553113968012",
    "latitude": "29.99802011545594",
    "geocoded_column": {
      "latitude": "29.99802011545594",
      "longitude": "-90.10553113968012"
    }
  },
  {
    "service_request": "2024-1089687",
    "request_type": "Trash/Recycling",
    "request_reason": "Order Trash Cart",
    "date_created": "2024-05-01T16:31:54.000",
    "date_modified": "2024-05-01T16:31:55.000",
    "request_status": "Pending",
    "responsible_agency": "Department of Sanitation",
    "final_address": "5323 Painters St",
    "address_councildis": "D",
    "status": "Assigned to Contractor",
    "contractor": "IV Waste",
    "rowid": "1089687",
    "final_x": "3686106.41564",
    "final_y": "552447.78255",
    "longitude": "-90.05278644058919",
    "latitude": "30.012899002438676",
    "geocoded_column": {
      "latitude": "30.012899002438676",
      "longitude": "-90.05278644058919"
    }
  },
  {
    "service_request": "2024-1089686",
    "request_type": "Property Maintenance",
    "request_reason": "Property Maintenance",
    "date_created": "2024-05-01T16:30:47.000",
    "date_modified": "2024-05-01T16:30:47.000",
    "request_status": "Pending",
    "responsible_agency": "Department of Code Enforcement",
    "final_address": "1412 Hendee St",
    "address_councildis": "C",
    "status": "Pending",
    "rowid": "1089686",
    "final_x": "3690769.26396",
    "final_y": "526083.276542",
    "longitude": "-90.03899534694618",
    "latitude": "29.940261871342354",
    "geocoded_column": {
      "latitude": "29.940261871342354",
      "longitude": "-90.03899534694618"
    }
  },
  {
    "service_request": "2024-1089685",
    "request_type": "Trash/Recycling",
    "request_reason": "Request a Large Item Pick Up",
    "date_created": "2024-05-01T16:27:13.000",
    "date_modified": "2024-05-01T16:27:14.000",
    "request_status": "Pending",
    "responsible_agency": "Department of Sanitation",
    "final_address": "7701 Symmes Ave",
    "address_councildis": "E",
    "status": "Assigned to Contractor",
    "contractor": "Waste Pro",
    "rowid": "1089685",
    "final_x": "3707781.64875",
    "final_y": "564826.71517",
    "longitude": "-89.98384446453092",
    "latitude": "30.046252344682884",
    "geocoded_column": {
      "latitude": "30.046252344682884",
      "longitude": "-89.98384446453092"
    }
  },
  {
    "service_request": "2024-1089684",
    "request_type": "Property Maintenance",
    "request_reason": "Property Maintenance",
    "date_created": "2024-05-01T16:27:05.000",
    "date_modified": "2024-05-01T16:27:05.000",
    "request_status": "Pending",
    "responsible_agency": "Department of Code Enforcement",
    "final_address": "3320 Lamarque St",
    "address_councildis": "C",
    "status": "Pending",
    "rowid": "1089684",
    "final_x": "3696550.50896",
    "final_y": "526665.70931",
    "longitude": "-90.02072207647424",
    "latitude": "29.941682527405867",
    "geocoded_column": {
      "latitude": "29.941682527405867",
      "longitude": "-90.02072207647424"
    }
  },
  {
    "service_request": "2024-1089683",
    "request_type": "Abandoned Vehicles",
    "request_reason": "Abandoned/Junk Vehicles",
    "date_created": "2024-05-01T16:26:47.000",
    "date_modified": "2024-05-01T16:26:47.000",
    "request_status": "Pending",
    "responsible_agency": "Department of Public Works",
    "final_address": "400 Austerlitz St",
    "address_councildis": "B",
    "status": "Pending",
    "rowid": "1089683",
    "final_x": "3672988.79553",
    "final_y": "517439.679478",
    "longitude": "-90.0954260216559",
    "latitude": "29.917035052477043",
    "geocoded_column": {
      "latitude": "29.917035052477043",
      "longitude": "-90.0954260216559"
    }
  },
  {
    "service_request": "2024-1089682",
    "request_type": "Abandoned Vehicles",
    "request_reason": "Abandoned/Junk Vehicles",
    "date_created": "2024-05-01T16:25:16.000",
    "date_modified": "2024-05-01T16:25:16.000",
    "request_status": "Pending",
    "responsible_agency": "Department of Public Works",
    "final_address": "400 Austerlitz St",
    "address_councildis": "B",
    "status": "Pending",
    "rowid": "1089682",
    "final_x": "3672988.79553",
    "final_y": "517439.679478",
    "longitude": "-90.0954260216559",
    "latitude": "29.917035052477043",
    "geocoded_column": {
      "latitude": "29.917035052477043",
      "longitude": "-90.0954260216559"
    }
  },
  {
    "service_request": "2024-1089681",
    "request_type": "Trash/Recycling",
    "request_reason": "Request a Large Item Pick Up",
    "date_created": "2024-05-01T16:24:15.000",
    "date_modified": "2024-05-01T17:02:25.000",
    "case_close_date": "2024-05-01T12:02:25.000",
    "request_status": "Closed",
    "responsible_agency": "Department of Sanitation",
    "final_address": "7444 Garfield St",
    "address_councildis": "A",
    "status": "Assigned to Contractor",
    "contractor": "IV Waste",
    "contractor_action": "Completed",
    "rowid": "1089681",
    "final_x": "3661256.47866",
    "final_y": "523857.930043",
    "longitude": "-90.132246022619",
    "latitude": "29.935026549521503",
    "geocoded_column": {
      "latitude": "29.935026549521503",
      "longitude": "-90.132246022619"
    }
  },
  {
    "service_request": "2024-1089680",
    "request_type": "Trash/Recycling",
    "request_reason": "Return Trash Cart",
    "date_created": "2024-05-01T16:22:14.000",
    "date_modified": "2024-05-01T16:22:15.000",
    "request_status": "Pending",
    "responsible_agency": "Department of Sanitation",
    "final_address": "8429 Hickory St",
    "address_councildis": "A",
    "status": "Assigned to Contractor",
    "contractor": "IV Waste",
    "rowid": "1089680",
    "final_x": "3662427.32947",
    "final_y": "530853.292482",
    "longitude": "-90.12831738866616",
    "latitude": "29.954227763148374",
    "geocoded_column": {
      "latitude": "29.954227763148374",
      "longitude": "-90.12831738866616"
    }
  },
  {
    "service_request": "2024-1089679",
    "request_type": "Parks & Parkways",
    "request_reason": "Request Tree Service (Right of Way/Public Property)",
    "date_created": "2024-05-01T16:21:30.000",
    "date_modified": "2024-05-01T16:21:31.000",
    "request_status": "Pending",
    "responsible_agency": "Department of Parks & Parkway",
    "final_address": "729 Louisiana Ave",
    "address_councildis": "B",
    "status": "Pending",
    "rowid": "1089679",
    "final_x": "3675621.88021",
    "final_y": "518438.725686",
    "longitude": "-90.08708058498003",
    "latitude": "29.919703628025463",
    "geocoded_column": {
      "latitude": "29.919703628025463",
      "longitude": "-90.08708058498003"
    }
  },
  {
    "service_request": "2024-1089678",
    "request_type": "Trash/Recycling",
    "request_reason": "MIssed Recycling Pick-Up",
    "date_created": "2024-05-01T16:17:11.000",
    "date_modified": "2024-05-01T16:17:12.000",
    "request_status": "Pending",
    "responsible_agency": "Department of Sanitation",
    "final_address": "4526 Sierra Madre Dr",
    "address_councildis": "E",
    "status": "Assigned to Contractor",
    "contractor": "Waste Pro",
    "rowid": "1089678",
    "final_x": "3713930.66693",
    "final_y": "555470.136217",
    "longitude": "-89.9647638142446",
    "latitude": "30.02032493491354",
    "geocoded_column": {
      "latitude": "30.02032493491354",
      "longitude": "-89.9647638142446"
    }
  },
  {
    "service_request": "2024-1089677",
    "request_type": "Trash/Recycling",
    "request_reason": "Order Trash Cart",
    "date_created": "2024-05-01T16:14:03.000",
    "date_modified": "2024-05-01T16:14:03.000",
    "request_status": "Pending",
    "responsible_agency": "Department of Sanitation",
    "final_address": "4629 Willow St",
    "address_councildis": "B",
    "status": "Assigned to Contractor",
    "contractor": "IV Waste",
    "rowid": "1089677",
    "final_x": "3669396.04385",
    "final_y": "525365.423933",
    "longitude": "-90.10649844648255",
    "latitude": "29.93893455990087",
    "geocoded_column": {
      "latitude": "29.93893455990087",
      "longitude": "-90.10649844648255"
    }
  },
  {
    "service_request": "2024-1089676",
    "request_type": "Roads/Drainage",
    "request_reason": "Damaged Sidewalk",
    "date_created": "2024-05-01T16:11:14.000",
    "date_modified": "2024-05-01T16:11:14.000",
    "request_status": "Pending",
    "responsible_agency": "Department of Public Works",
    "final_address": "4009 Hamilton St",
    "address_councildis": "A",
    "status": "Pending",
    "rowid": "1089676",
    "final_x": "3666140.11821",
    "final_y": "538143.417673",
    "longitude": "-90.11634935677667",
    "latitude": "29.974165319031936",
    "geocoded_column": {
      "latitude": "29.974165319031936",
      "longitude": "-90.11634935677667"
    }
  },
  {
    "service_request": "2024-1089674",
    "request_type": "Trash/Recycling",
    "request_reason": "Repair Recycling Cart",
    "date_created": "2024-05-01T16:01:56.000",
    "date_modified": "2024-05-01T16:01:56.000",
    "request_status": "Pending",
    "responsible_agency": "Department of Sanitation",
    "final_address": "5415 Bellaire Dr",
    "address_councildis": "A",
    "status": "Pending",
    "rowid": "1089674",
    "final_x": "3664075.03303",
    "final_y": "543747.530894",
    "longitude": "-90.12268439979964",
    "latitude": "29.98963489841442",
    "geocoded_column": {
      "latitude": "29.98963489841442",
      "longitude": "-90.12268439979964"
    }
  },
  {
    "service_request": "2024-1089673",
    "request_type": "Trash/Recycling",
    "request_reason": "MIssed Recycling Pick-Up",
    "date_created": "2024-05-01T16:00:17.000",
    "date_modified": "2024-05-01T16:00:17.000",
    "request_status": "Pending",
    "responsible_agency": "Department of Sanitation",
    "final_address": "3509 Nashville Ave",
    "address_councildis": "A",
    "status": "Assigned to Contractor",
    "contractor": "IV Waste",
    "rowid": "1089673",
    "final_x": "3668279.3778",
    "final_y": "528505.468224",
    "longitude": "-90.10991805566245",
    "latitude": "29.94760149341001",
    "geocoded_column": {
      "latitude": "29.94760149341001",
      "longitude": "-90.10991805566245"
    }
  },
  {
    "service_request": "2024-1089672",
    "request_type": "Trash/Recycling",
    "request_reason": "Request a Large Item Pick Up",
    "date_created": "2024-05-01T15:58:21.000",
    "date_modified": "2024-05-01T15:58:29.000",
    "request_status": "Pending",
    "responsible_agency": "Department of Sanitation",
    "final_address": "2215 General Taylor St",
    "address_councildis": "B",
    "status": "Assigned to Contractor",
    "contractor": "IV Waste",
    "rowid": "1089672",
    "final_x": "3672149.23681",
    "final_y": "523295.765307",
    "longitude": "-90.0978767304784",
    "latitude": "29.933162327276804",
    "geocoded_column": {
      "latitude": "29.933162327276804",
      "longitude": "-90.0978767304784"
    }
  },
  {
    "service_request": "2024-1089671",
    "request_type": "Abandoned Vehicles",
    "request_reason": "Abandoned/Junk Vehicles",
    "date_created": "2024-05-01T15:55:04.000",
    "date_modified": "2024-05-01T15:55:04.000",
    "request_status": "Pending",
    "responsible_agency": "Department of Public Works",
    "final_address": "823 N Alexander St, New Orleans, Louisiana, 70119",
    "address_councildis": "A",
    "status": "Pending",
    "rowid": "1089671",
    "final_x": "3671655.04571",
    "final_y": "541419.81326",
    "longitude": "-90.09882042003532",
    "latitude": "29.983012083575773",
    "geocoded_column": {
      "latitude": "29.983012083575773",
      "longitude": "-90.09882042003532"
    }
  },
  {
    "service_request": "2024-1089670",
    "request_type": "Property Maintenance",
    "request_reason": "Property Maintenance",
    "date_created": "2024-05-01T15:48:39.000",
    "date_modified": "2024-05-01T15:48:39.000",
    "request_status": "Pending",
    "responsible_agency": "Department of Code Enforcement",
    "final_address": "1549 Gordon St",
    "address_councildis": "E",
    "status": "Pending",
    "rowid": "1089670",
    "final_x": "3699869.32567",
    "final_y": "535120.600006",
    "longitude": "-90.00993566465405",
    "latitude": "29.964825528888856",
    "geocoded_column": {
      "latitude": "29.964825528888856",
      "longitude": "-90.00993566465405"
    }
  },
  {
    "service_request": "2024-1089669",
    "request_type": "Property Maintenance",
    "request_reason": "Property Maintenance",
    "date_created": "2024-05-01T15:45:33.000",
    "date_modified": "2024-05-01T15:45:33.000",
    "request_status": "Pending",
    "responsible_agency": "Department of Code Enforcement",
    "final_address": "4700 Marque Dr",
    "address_councildis": "E",
    "status": "Pending",
    "rowid": "1089669",
    "final_x": "3710023.18174",
    "final_y": "555414.784025",
    "longitude": "-89.97711221630368",
    "latitude": "30.020300484912998",
    "geocoded_column": {
      "latitude": "30.020300484912998",
      "longitude": "-89.97711221630368"
    }
  },
  {
    "service_request": "2024-1089668",
    "request_type": "Traffic Signals/Signs/Striping/Streetlights",
    "request_reason": "Street Light Outage/Malfunction",
    "date_created": "2024-05-01T15:45:31.000",
    "date_modified": "2024-05-01T15:45:32.000",
    "request_status": "Pending",
    "responsible_agency": "Department of Public Works",
    "final_address": "1475 Gardena Dr",
    "address_councildis": "D",
    "status": "Assigned to Contractor",
    "contractor": "Legacy Professional Services",
    "rowid": "1089668",
    "final_x": "3678201.63285",
    "final_y": "551566.851733",
    "longitude": "-90.07779176909763",
    "latitude": "30.01071729573851",
    "geocoded_column": {
      "latitude": "30.01071729573851",
      "longitude": "-90.07779176909763"
    }
  },
  {
    "service_request": "2024-1089667",
    "request_type": "Trash/Recycling",
    "request_reason": "Return Trash Cart",
    "date_created": "2024-05-01T15:37:10.000",
    "date_modified": "2024-05-01T15:37:11.000",
    "request_status": "Pending",
    "responsible_agency": "Department of Sanitation",
    "final_address": "2910 N Rampart St",
    "address_councildis": "C",
    "status": "Assigned to Contractor",
    "contractor": "IV Waste",
    "rowid": "1089667",
    "final_x": "3688166.89052",
    "final_y": "535712.937415",
    "longitude": "-90.04687009372843",
    "latitude": "29.96682069969533",
    "geocoded_column": {
      "latitude": "29.96682069969533",
      "longitude": "-90.04687009372843"
    }
  },
  {
    "service_request": "2024-1089666",
    "request_type": "Property Maintenance",
    "request_reason": "Property Maintenance",
    "date_created": "2024-05-01T15:36:38.000",
    "date_modified": "2024-05-01T15:46:19.000",
    "request_status": "Pending",
    "responsible_agency": "Department of Code Enforcement",
    "final_address": "4927 Tchoupitoulas St",
    "address_councildis": "B",
    "status": "Pending",
    "rowid": "1089666",
    "final_x": "3668734.7993",
    "final_y": "517263.653749",
    "longitude": "-90.10885941444957",
    "latitude": "29.916676721447683",
    "geocoded_column": {
      "latitude": "29.916676721447683",
      "longitude": "-90.10885941444957"
    }
  },
  {
    "service_request": "2024-1089665",
    "request_type": "Parks & Parkways",
    "request_reason": "Request Tree Service (Right of Way/Public Property)",
    "date_created": "2024-05-01T15:36:12.000",
    "date_modified": "2024-05-01T15:36:45.000",
    "request_status": "Pending",
    "responsible_agency": "Department of Parks & Parkway",
    "final_address": "7420 Seven Oaks Rd",
    "address_councildis": "E",
    "status": "Pending",
    "rowid": "1089665",
    "final_x": "3712473.28018",
    "final_y": "565316.895586",
    "longitude": "-89.96899820635286",
    "latitude": "30.047447378716654",
    "geocoded_column": {
      "latitude": "30.047447378716654",
      "longitude": "-89.96899820635286"
    }
  },
  {
    "service_request": "2024-1089664",
    "request_type": "Roads/Drainage",
    "request_reason": "Catch Basin - Clogged",
    "date_created": "2024-05-01T15:35:33.000",
    "date_modified": "2024-05-01T15:35:34.000",
    "request_status": "Pending",
    "responsible_agency": "Department of Public Works",
    "final_address": "3716 Inwood Ave",
    "address_councildis": "C",
    "status": "Pending",
    "rowid": "1089664",
    "final_x": "3704511.4506",
    "final_y": "514822.171251",
    "longitude": "-89.99602437134435",
    "latitude": "29.908863756087023",
    "geocoded_column": {
      "latitude": "29.908863756087023",
      "longitude": "-89.99602437134435"
    }
  },
  {
    "service_request": "2024-1089663",
    "request_type": "Trash/Recycling",
    "request_reason": "Return Recycling Cart",
    "date_created": "2024-05-01T15:28:34.000",
    "date_modified": "2024-05-01T15:28:34.000",
    "request_status": "Pending",
    "responsible_agency": "Department of Sanitation",
    "final_address": "3028 Upperline St",
    "address_councildis": "B",
    "status": "Pending",
    "rowid": "1089663",
    "final_x": "3669206.0658",
    "final_y": "526108.071998",
    "longitude": "-90.10707313917042",
    "latitude": "29.940982193778677",
    "geocoded_column": {
      "latitude": "29.940982193778677",
      "longitude": "-90.10707313917042"
    }
  },
  {
    "service_request": "2024-1089662",
    "request_type": "Trash/Recycling",
    "request_reason": "Replace Trash Cart",
    "date_created": "2024-05-01T15:26:32.000",
    "date_modified": "2024-05-01T15:26:33.000",
    "request_status": "Pending",
    "responsible_agency": "Department of Sanitation",
    "final_address": "3028 Upperline St",
    "address_councildis": "B",
    "status": "Assigned to Contractor",
    "contractor": "IV Waste",
    "rowid": "1089662",
    "final_x": "3669206.0658",
    "final_y": "526108.071998",
    "longitude": "-90.10707313917042",
    "latitude": "29.940982193778677",
    "geocoded_column": {
      "latitude": "29.940982193778677",
      "longitude": "-90.10707313917042"
    }
  },
  {
    "service_request": "2024-1089661",
    "request_type": "Trash/Recycling",
    "request_reason": "Repair Trash Cart",
    "date_created": "2024-05-01T15:25:55.000",
    "date_modified": "2024-05-01T15:25:56.000",
    "request_status": "Pending",
    "responsible_agency": "Department of Sanitation",
    "final_address": "4436 Toulouse St",
    "address_councildis": "A",
    "status": "Assigned to Contractor",
    "contractor": "IV Waste",
    "rowid": "1089661",
    "final_x": "3670798.09902",
    "final_y": "540605.186443",
    "longitude": "-90.10155476208497",
    "latitude": "29.98079749604201",
    "geocoded_column": {
      "latitude": "29.98079749604201",
      "longitude": "-90.10155476208497"
    }
  },
  {
    "service_request": "2024-1089660",
    "request_type": "Trash/Recycling",
    "request_reason": "Request a Large Item Pick Up",
    "date_created": "2024-05-01T15:25:12.000",
    "date_modified": "2024-05-01T15:25:12.000",
    "request_status": "Pending",
    "responsible_agency": "Department of Sanitation",
    "final_address": "ANNUNCIATION ST & FOUCHER ST",
    "address_councildis": "B",
    "status": "Assigned to Contractor",
    "contractor": "IV Waste",
    "rowid": "1089660",
    "final_x": "3674523.2",
    "final_y": "518271.68",
    "longitude": "-90.09055430142037",
    "latitude": "29.919277117668983",
    "geocoded_column": {
      "latitude": "29.919277117668983",
      "longitude": "-90.09055430142037"
    }
  },
  {
    "service_request": "2024-1089658",
    "request_type": "Trash/Recycling",
    "request_reason": "Request a Large Item Pick Up",
    "date_created": "2024-05-01T15:23:03.000",
    "date_modified": "2024-05-01T16:58:48.000",
    "case_close_date": "2024-05-01T11:58:48.000",
    "request_status": "Closed",
    "responsible_agency": "Department of Sanitation",
    "final_address": "1915 Mirabeau Ave",
    "address_councildis": "D",
    "status": "Assigned to Contractor",
    "contractor": "IV Waste",
    "contractor_action": "Completed",
    "rowid": "1089658",
    "final_x": "3681712.87503",
    "final_y": "550665.03906",
    "longitude": "-90.06672989514",
    "latitude": "30.00813137944934",
    "geocoded_column": {
      "latitude": "30.00813137944934",
      "longitude": "-90.06672989514"
    }
  },
  {
    "service_request": "2024-1089657",
    "request_type": "Trash/Recycling",
    "request_reason": "Replace Trash Cart",
    "date_created": "2024-05-01T15:21:59.000",
    "date_modified": "2024-05-01T15:22:00.000",
    "request_status": "Pending",
    "responsible_agency": "Department of Sanitation",
    "final_address": "4023 Monroe St",
    "address_councildis": "A",
    "status": "Assigned to Contractor",
    "contractor": "IV Waste",
    "rowid": "1089657",
    "final_x": "3667204.6322",
    "final_y": "537225.819464",
    "longitude": "-90.11301822740214",
    "latitude": "29.97161109973366",
    "geocoded_column": {
      "latitude": "29.97161109973366",
      "longitude": "-90.11301822740214"
    }
  },
  {
    "service_request": "2024-1089656",
    "request_type": "Property Maintenance",
    "request_reason": "Property Maintenance",
    "date_created": "2024-05-01T15:20:35.000",
    "date_modified": "2024-05-01T15:20:36.000",
    "request_status": "Pending",
    "responsible_agency": "Department of Code Enforcement",
    "final_address": "515 Robert St",
    "address_councildis": "B",
    "status": "Pending",
    "rowid": "1089656",
    "final_x": "3668638.70286",
    "final_y": "517362.079221",
    "longitude": "-90.10915941627016",
    "latitude": "29.91695018388594",
    "geocoded_column": {
      "latitude": "29.91695018388594",
      "longitude": "-90.10915941627016"
    }
  },
  {
    "service_request": "2024-1089655",
    "request_type": "Roads/Drainage",
    "request_reason": "Pothole",
    "date_created": "2024-05-01T15:18:59.000",
    "date_modified": "2024-05-01T15:18:59.000",
    "request_status": "Pending",
    "responsible_agency": "Department of Public Works",
    "final_address": "5336 Pasteur Blvd",
    "address_councildis": "D",
    "status": "Pending",
    "rowid": "1089655",
    "final_x": "3682854.22453",
    "final_y": "552667.356822",
    "longitude": "-90.06305389724125",
    "latitude": "30.013602287085703",
    "geocoded_column": {
      "latitude": "30.013602287085703",
      "longitude": "-90.06305389724125"
    }
  },
  {
    "service_request": "2024-1089653",
    "request_type": "Trash/Recycling",
    "request_reason": "Request a Large Item Pick Up",
    "date_created": "2024-05-01T15:04:49.000",
    "date_modified": "2024-05-01T15:04:49.000",
    "request_status": "Pending",
    "responsible_agency": "Department of Sanitation",
    "final_address": "3829 Banks St",
    "address_councildis": "A",
    "status": "Assigned to Contractor",
    "contractor": "IV Waste",
    "rowid": "1089653",
    "final_x": "3671204.24276",
    "final_y": "536838.852104",
    "longitude": "-90.10039997732386",
    "latitude": "29.970429339973748",
    "geocoded_column": {
      "latitude": "29.970429339973748",
      "longitude": "-90.10039997732386"
    }
  },
  {
    "service_request": "2024-1089652",
    "request_type": "Abandoned Vehicles",
    "request_reason": "Abandoned/Junk Vehicles",
    "date_created": "2024-05-01T15:03:47.000",
    "date_modified": "2024-05-01T15:04:37.000",
    "request_status": "Pending",
    "responsible_agency": "Department of Public Works",
    "final_address": "N VILLERE ST & PIETY ST",
    "address_councildis": "C",
    "status": "Pending",
    "rowid": "1089652",
    "final_x": "3690115.4",
    "final_y": "536903.38",
    "longitude": "-90.04067431364899",
    "latitude": "29.97003370208846",
    "geocoded_column": {
      "latitude": "29.97003370208846",
      "longitude": "-90.04067431364899"
    }
  },
  {
    "service_request": "2024-1089651",
    "request_type": "Trash/Recycling",
    "request_reason": "Request a Large Item Pick Up",
    "date_created": "2024-05-01T14:59:18.000",
    "date_modified": "2024-05-01T14:59:19.000",
    "request_status": "Pending",
    "responsible_agency": "Department of Sanitation",
    "final_address": "4152 Iberville St",
    "address_councildis": "A",
    "status": "Assigned to Contractor",
    "contractor": "IV Waste",
    "rowid": "1089651",
    "final_x": "3670935.69467",
    "final_y": "538929.70177",
    "longitude": "-90.10117707893001",
    "latitude": "29.976186413954",
    "geocoded_column": {
      "latitude": "29.976186413954",
      "longitude": "-90.10117707893001"
    }
  },
  {
    "service_request": "2024-1089650",
    "request_type": "Trash/Recycling",
    "request_reason": "Request a Large Item Pick Up",
    "date_created": "2024-05-01T14:56:57.000",
    "date_modified": "2024-05-01T14:56:57.000",
    "request_status": "Pending",
    "responsible_agency": "Department of Sanitation",
    "final_address": "7807 Read Blvd",
    "address_councildis": "E",
    "status": "Assigned to Contractor",
    "contractor": "Waste Pro",
    "rowid": "1089650",
    "final_x": "3708473.06961",
    "final_y": "564953.453602",
    "longitude": "-89.98165451406747",
    "latitude": "30.046578416157903",
    "geocoded_column": {
      "latitude": "30.046578416157903",
      "longitude": "-89.98165451406747"
    }
  },
  {
    "service_request": "2024-1089649",
    "request_type": "Safety & Permits",
    "request_reason": "Licenses & Permits",
    "date_created": "2024-05-01T14:55:10.000",
    "date_modified": "2024-05-01T14:55:10.000",
    "request_status": "Pending",
    "responsible_agency": "Safety and Permits",
    "final_address": "4863 Feliciana Dr",
    "address_councildis": "D",
    "status": "Pending",
    "rowid": "1089649",
    "final_x": "3690155.67715",
    "final_y": "551250.011797",
    "longitude": "-90.04003572785251",
    "latitude": "30.009480524059978",
    "geocoded_column": {
      "latitude": "30.009480524059978",
      "longitude": "-90.04003572785251"
    }
  },
  {
    "service_request": "2024-1089648",
    "request_type": "Trash/Recycling",
    "request_reason": "Replace Trash Cart",
    "date_created": "2024-05-01T14:54:37.000",
    "date_modified": "2024-05-01T14:54:37.000",
    "request_status": "Pending",
    "responsible_agency": "Department of Sanitation",
    "final_address": "1015 St Ann St Apt 1A",
    "address_councildis": "C",
    "status": "Assigned to Contractor",
    "contractor": "Empire Services",
    "rowid": "1089648",
    "final_x": "3681840.91343",
    "final_y": "533544.642245",
    "longitude": "-90.0669231826181",
    "latitude": "29.96105240436509",
    "geocoded_column": {
      "latitude": "29.96105240436509",
      "longitude": "-90.0669231826181"
    }
  },
  {
    "service_request": "2024-1089647",
    "request_type": "Traffic Signals/Signs/Striping/Streetlights",
    "request_reason": "Street Light Outage/Malfunction",
    "date_created": "2024-05-01T14:54:10.000",
    "date_modified": "2024-05-01T14:54:10.000",
    "request_status": "Pending",
    "responsible_agency": "Department of Public Works",
    "final_address": "HAMMOND ST & WERNER DR",
    "address_councildis": "E",
    "status": "Assigned to Contractor",
    "contractor": "Legacy Professional Services",
    "rowid": "1089647",
    "final_x": "3704733.3",
    "final_y": "555620.58",
    "longitude": "-89.99381887699023",
    "latitude": "30.02103744121229",
    "geocoded_column": {
      "latitude": "30.02103744121229",
      "longitude": "-89.99381887699023"
    }
  },
  {
    "service_request": "2024-1089646",
    "request_type": "Abandoned Vehicles",
    "request_reason": "Abandoned/Junk Vehicles",
    "date_created": "2024-05-01T14:53:52.000",
    "date_modified": "2024-05-01T14:53:52.000",
    "request_status": "Pending",
    "responsible_agency": "Department of Public Works",
    "final_address": "8923 Marks St",
    "address_councildis": "A",
    "status": "Pending",
    "rowid": "1089646",
    "final_x": "3666681.46081",
    "final_y": "538045.193289",
    "longitude": "-90.11464296494081",
    "latitude": "29.97387941442471",
    "geocoded_column": {
      "latitude": "29.97387941442471",
      "longitude": "-90.11464296494081"
    }
  },
  {
    "service_request": "2024-1089645",
    "request_type": "Traffic Signals/Signs/Striping/Streetlights",
    "request_reason": "Street Light Outage/Malfunction",
    "date_created": "2024-05-01T14:53:44.000",
    "date_modified": "2024-05-01T14:53:45.000",
    "request_status": "Pending",
    "responsible_agency": "Department of Public Works",
    "final_address": "BONITA DR & HAMMOND ST",
    "address_councildis": "E",
    "status": "Assigned to Contractor",
    "contractor": "Legacy Professional Services",
    "rowid": "1089645",
    "final_x": "3704449.0",
    "final_y": "555594.28",
    "longitude": "-89.99471814771157",
    "latitude": "30.0209742617783",
    "geocoded_column": {
      "latitude": "30.0209742617783",
      "longitude": "-89.99471814771157"
    }
  },
  {
    "service_request": "2024-1089643",
    "request_type": "Property Maintenance",
    "request_reason": "Property Maintenance",
    "date_created": "2024-05-01T14:49:36.000",
    "date_modified": "2024-05-01T14:51:46.000",
    "request_status": "Pending",
    "responsible_agency": "Department of Code Enforcement",
    "final_address": "4998 Citrus Dr",
    "address_councildis": "E",
    "status": "Pending",
    "rowid": "1089643",
    "final_x": "3710609.78046",
    "final_y": "557196.435611",
    "longitude": "-89.97519203877812",
    "latitude": "30.0251802245945",
    "geocoded_column": {
      "latitude": "30.0251802245945",
      "longitude": "-89.97519203877812"
    }
  },
  {
    "service_request": "2024-1089642",
    "request_type": "Roads/Drainage",
    "request_reason": "Pothole",
    "date_created": "2024-05-01T14:46:55.000",
    "date_modified": "2024-05-01T14:46:56.000",
    "request_status": "Pending",
    "responsible_agency": "Department of Public Works",
    "final_address": "NEWCASTLE ST & DORCHESTER ST",
    "address_councildis": "E",
    "status": "Pending",
    "rowid": "1089642",
    "final_x": "3697420.5",
    "final_y": "558755.38",
    "longitude": "-90.0168113060437",
    "latitude": "30.029889978870468",
    "geocoded_column": {
      "latitude": "30.029889978870468",
      "longitude": "-90.0168113060437"
    }
  },
  {
    "service_request": "2024-1089641",
    "request_type": "Trash/Recycling",
    "request_reason": "Missed Trash Pick-Up",
    "date_created": "2024-05-01T14:45:22.000",
    "date_modified": "2024-05-01T14:45:23.000",
    "request_status": "Pending",
    "responsible_agency": "Department of Sanitation",
    "final_address": "1207 Soniat St",
    "address_councildis": "B",
    "status": "Assigned to Contractor",
    "contractor": "IV Waste",
    "rowid": "1089641",
    "final_x": "3668428.42766",
    "final_y": "519725.781304",
    "longitude": "-90.10974346449065",
    "latitude": "29.92345579475687",
    "geocoded_column": {
      "latitude": "29.92345579475687",
      "longitude": "-90.10974346449065"
    }
  },
  {
    "service_request": "2024-1089640",
    "request_type": "Traffic Signals/Signs/Striping/Streetlights",
    "request_reason": "Street Light Outage/Malfunction",
    "date_created": "2024-05-01T14:44:18.000",
    "date_modified": "2024-05-01T14:44:19.000",
    "request_status": "Pending",
    "responsible_agency": "Department of Public Works",
    "final_address": "1601 Jay St",
    "address_councildis": "D",
    "status": "Assigned to Contractor",
    "contractor": "Legacy Professional Services",
    "rowid": "1089640",
    "final_x": "3678684.48661",
    "final_y": "556938.216474",
    "longitude": "-90.07608004360104",
    "latitude": "30.025472045651135",
    "geocoded_column": {
      "latitude": "30.025472045651135",
      "longitude": "-90.07608004360104"
    }
  },
  {
    "service_request": "2024-1089639",
    "request_type": "Roads/Drainage",
    "request_reason": "Pothole",
    "date_created": "2024-05-01T14:43:47.000",
    "date_modified": "2024-05-01T14:43:47.000",
    "request_status": "Pending",
    "responsible_agency": "Department of Public Works",
    "final_address": "GENERAL DE GAULLE DR & RUE PARC FONTAINE",
    "address_councildis": "C",
    "status": "Pending",
    "rowid": "1089639",
    "final_x": "3699739.8",
    "final_y": "518436.18",
    "longitude": "-90.01095275472566",
    "latitude": "29.91895331992069",
    "geocoded_column": {
      "latitude": "29.91895331992069",
      "longitude": "-90.01095275472566"
    }
  },
  {
    "service_request": "2024-1089638",
    "request_type": "Trash/Recycling",
    "request_reason": "Return Trash Cart",
    "date_created": "2024-05-01T14:42:32.000",
    "date_modified": "2024-05-01T14:42:32.000",
    "request_status": "Pending",
    "responsible_agency": "Department of Sanitation",
    "final_address": "4616 Shalimar Dr",
    "address_councildis": "D",
    "status": "Assigned to Contractor",
    "contractor": "Waste Pro",
    "rowid": "1089638",
    "final_x": "3697175.03613",
    "final_y": "553563.849047",
    "longitude": "-90.01777531707988",
    "latitude": "30.015622994795326",
    "geocoded_column": {
      "latitude": "30.015622994795326",
      "longitude": "-90.01777531707988"
    }
  },
  {
    "service_request": "2024-1089637",
    "request_type": "Roads/Drainage",
    "request_reason": "Pothole",
    "date_created": "2024-05-01T14:42:23.000",
    "date_modified": "2024-05-01T14:42:23.000",
    "request_status": "Pending",
    "responsible_agency": "Department of Public Works",
    "final_address": "831 Third St",
    "address_councildis": "B",
    "status": "Pending",
    "rowid": "1089637",
    "final_x": "3678067.34875",
    "final_y": "520473.358264",
    "longitude": "-90.07929115387763",
    "latitude": "29.9252248468082",
    "geocoded_column": {
      "latitude": "29.9252248468082",
      "longitude": "-90.07929115387763"
    }
  },
  {
    "service_request": "2024-1089636",
    "request_type": "Roads/Drainage",
    "request_reason": "Street Flooding / Drainage",
    "date_created": "2024-05-01T14:42:10.000",
    "date_modified": "2024-05-01T14:42:10.000",
    "request_status": "Pending",
    "responsible_agency": "Department of Public Works",
    "final_address": "637 Esplanade Ave",
    "address_councildis": "C",
    "status": "Pending",
    "rowid": "1089636",
    "final_x": "3684134.44079",
    "final_y": "534428.881477",
    "longitude": "-90.05964961872107",
    "latitude": "29.96341385882405",
    "geocoded_column": {
      "latitude": "29.96341385882405",
      "longitude": "-90.05964961872107"
    }
  },
  {
    "service_request": "2024-1089635",
    "request_type": "Safety & Permits",
    "request_reason": "Licenses & Permits",
    "date_created": "2024-05-01T14:33:18.000",
    "date_modified": "2024-05-01T14:33:18.000",
    "request_status": "Pending",
    "responsible_agency": "Safety and Permits",
    "final_address": "800 BLK Frenchmen St",
    "address_councildis": "C",
    "status": "Pending",
    "rowid": "1089635",
    "final_x": "3684662.61751",
    "final_y": "535372.043217",
    "longitude": "-90.05794854601137",
    "latitude": "29.965991073949734",
    "geocoded_column": {
      "latitude": "29.965991073949734",
      "longitude": "-90.05794854601137"
    }
  },
  {
    "service_request": "2024-1089634",
    "request_type": "Trash/Recycling",
    "request_reason": "Request a Large Item Pick Up",
    "date_created": "2024-05-01T14:29:03.000",
    "date_modified": "2024-05-01T14:29:03.000",
    "request_status": "Pending",
    "responsible_agency": "Department of Sanitation",
    "final_address": "7411 Spring Lake Dr",
    "address_councildis": "E",
    "status": "Assigned to Contractor",
    "contractor": "Waste Pro",
    "rowid": "1089634",
    "final_x": "3700782.20445",
    "final_y": "559197.249436",
    "longitude": "-90.00617223358309",
    "latitude": "30.030998317375992",
    "geocoded_column": {
      "latitude": "30.030998317375992",
      "longitude": "-90.00617223358309"
    }
  },
  {
    "service_request": "2024-1089633",
    "request_type": "Traffic Signals/Signs/Striping/Streetlights",
    "request_reason": "Street Light Outage/Malfunction",
    "date_created": "2024-05-01T14:27:21.000",
    "date_modified": "2024-05-01T14:27:22.000",
    "request_status": "Pending",
    "responsible_agency": "Department of Public Works",
    "final_address": "5851 General Haig St",
    "address_councildis": "A",
    "status": "Assigned to Contractor",
    "contractor": "Legacy Professional Services",
    "rowid": "1089633",
    "final_x": "3670508.57102",
    "final_y": "546185.99688",
    "longitude": "-90.1022798462466",
    "latitude": "29.996151364830524",
    "geocoded_column": {
      "latitude": "29.996151364830524",
      "longitude": "-90.1022798462466"
    }
  },
  {
    "service_request": "2024-1089632",
    "request_type": "Trash/Recycling",
    "request_reason": "MIssed Recycling Pick-Up",
    "date_created": "2024-05-01T14:26:03.000",
    "date_modified": "2024-05-01T14:26:03.000",
    "request_status": "Pending",
    "responsible_agency": "Department of Sanitation",
    "final_address": "4619 Cerise Ave",
    "address_councildis": "E",
    "status": "Assigned to Contractor",
    "contractor": "Waste Pro",
    "rowid": "1089632",
    "final_x": "3708758.92286",
    "final_y": "554893.2726",
    "longitude": "-89.9811262933771",
    "latitude": "30.018907615692598",
    "geocoded_column": {
      "latitude": "30.018907615692598",
      "longitude": "-89.9811262933771"
    }
  },
  {
    "service_request": "2024-1089631",
    "request_type": "Trash/Recycling",
    "request_reason": "Order Recycling Cart",
    "date_created": "2024-05-01T14:22:27.000",
    "date_modified": "2024-05-01T14:22:28.000",
    "request_status": "Pending",
    "responsible_agency": "Department of Sanitation",
    "final_address": "1411 Lesseps St",
    "address_councildis": "D",
    "status": "Pending",
    "rowid": "1089631",
    "final_x": "3693036.27549",
    "final_y": "536276.348679",
    "longitude": "-90.0314724346819",
    "latitude": "29.968218660017964",
    "geocoded_column": {
      "latitude": "29.968218660017964",
      "longitude": "-90.0314724346819"
    }
  },
  {
    "service_request": "2024-1089630",
    "request_type": "Trash/Recycling",
    "request_reason": "Request a Large Item Pick Up",
    "date_created": "2024-05-01T14:18:39.000",
    "date_modified": "2024-05-01T14:18:39.000",
    "request_status": "Pending",
    "responsible_agency": "Department of Sanitation",
    "final_address": "14550 Tilbury Rd",
    "address_councildis": "E",
    "status": "Assigned to Contractor",
    "contractor": "Waste Pro",
    "rowid": "1089630",
    "final_x": "3720952.22073",
    "final_y": "573149.479145",
    "longitude": "-89.94189982016891",
    "latitude": "30.06870339330108",
    "geocoded_column": {
      "latitude": "30.06870339330108",
      "longitude": "-89.94189982016891"
    }
  },
  {
    "service_request": "2024-1089629",
    "request_type": "Property Maintenance",
    "request_reason": "Property Maintenance",
    "date_created": "2024-05-01T14:18:08.000",
    "date_modified": "2024-05-01T14:18:08.000",
    "request_status": "Pending",
    "responsible_agency": "Department of Code Enforcement",
    "final_address": "4671 Charlmark Dr",
    "address_councildis": "E",
    "status": "Pending",
    "rowid": "1089629",
    "final_x": "3711550.09054",
    "final_y": "555669.101145",
    "longitude": "-89.97227815950318",
    "latitude": "30.02094997615264",
    "geocoded_column": {
      "latitude": "30.02094997615264",
      "longitude": "-89.97227815950318"
    }
  },
  {
    "service_request": "2024-1089626",
    "request_type": "Trash/Recycling",
    "request_reason": "Missed Trash Pick-Up",
    "date_created": "2024-05-01T14:17:01.000",
    "date_modified": "2024-05-01T14:17:01.000",
    "request_status": "Pending",
    "responsible_agency": "Department of Sanitation",
    "final_address": "7450 Strathmore Dr",
    "address_councildis": "E",
    "status": "Assigned to Contractor",
    "contractor": "Waste Pro",
    "rowid": "1089626",
    "final_x": "3714505.65919",
    "final_y": "566818.649059",
    "longitude": "-89.96251805596891",
    "latitude": "30.05150989344262",
    "geocoded_column": {
      "latitude": "30.05150989344262",
      "longitude": "-89.96251805596891"
    }
  },
  {
    "service_request": "2024-1089625",
    "request_type": "Trash/Recycling",
    "request_reason": "Request a Large Item Pick Up",
    "date_created": "2024-05-01T14:16:13.000",
    "date_modified": "2024-05-01T14:16:13.000",
    "request_status": "Pending",
    "responsible_agency": "Department of Sanitation",
    "final_address": "4973 Chantilly Dr",
    "address_councildis": "E",
    "status": "Assigned to Contractor",
    "contractor": "Waste Pro",
    "rowid": "1089625",
    "final_x": "3700827.18922",
    "final_y": "555591.306009",
    "longitude": "-90.00616206248566",
    "latitude": "30.02108192779831",
    "geocoded_column": {
      "latitude": "30.02108192779831",
      "longitude": "-90.00616206248566"
    }
  },
  {
    "service_request": "2024-1089624",
    "request_type": "Property Maintenance",
    "request_reason": "Property Maintenance",
    "date_created": "2024-05-01T14:14:01.000",
    "date_modified": "2024-05-01T14:14:02.000",
    "request_status": "Pending",
    "responsible_agency": "Department of Code Enforcement",
    "final_address": "10131 Springwood St",
    "address_councildis": "E",
    "status": "Pending",
    "rowid": "1089624",
    "final_x": "3713111.34034",
    "final_y": "555747.700441",
    "longitude": "-89.96734215145331",
    "latitude": "30.021115009391245",
    "geocoded_column": {
      "latitude": "30.021115009391245",
      "longitude": "-89.96734215145331"
    }
  },
  {
    "service_request": "2024-1089623",
    "request_type": "Trash/Recycling",
    "request_reason": "Request a Large Item Pick Up",
    "date_created": "2024-05-01T14:11:33.000",
    "date_modified": "2024-05-01T14:11:33.000",
    "request_status": "Pending",
    "responsible_agency": "Department of Sanitation",
    "final_address": "725 Napoleon Ave",
    "address_councildis": "B",
    "status": "Assigned to Contractor",
    "contractor": "IV Waste",
    "rowid": "1089623",
    "final_x": "3671210.86254",
    "final_y": "518268.895926",
    "longitude": "-90.10100979535594",
    "latitude": "29.91936783071306",
    "geocoded_column": {
      "latitude": "29.91936783071306",
      "longitude": "-90.10100979535594"
    }
  },
  {
    "service_request": "2024-1089622",
    "request_type": "Trash/Recycling",
    "request_reason": "Replace Recycling Cart",
    "date_created": "2024-05-01T14:10:00.000",
    "date_modified": "2024-05-01T14:10:00.000",
    "request_status": "Pending",
    "responsible_agency": "Department of Sanitation",
    "final_address": "3501 Banks St",
    "address_councildis": "B",
    "status": "Pending",
    "rowid": "1089622",
    "final_x": "3672145.74228",
    "final_y": "536133.400391",
    "longitude": "-90.09745063932331",
    "latitude": "29.968461696025173",
    "geocoded_column": {
      "latitude": "29.968461696025173",
      "longitude": "-90.09745063932331"
    }
  },
  {
    "service_request": "2024-1089621",
    "request_type": "Property Maintenance",
    "request_reason": "Property Maintenance",
    "date_created": "2024-05-01T14:07:21.000",
    "date_modified": "2024-05-01T14:07:21.000",
    "request_status": "Pending",
    "responsible_agency": "Department of Code Enforcement",
    "final_address": "4710 Marque Dr",
    "address_councildis": "E",
    "status": "Pending",
    "rowid": "1089621",
    "final_x": "3710017.01048",
    "final_y": "555476.346841",
    "longitude": "-89.97712941308995",
    "latitude": "30.020469959459167",
    "geocoded_column": {
      "latitude": "30.020469959459167",
      "longitude": "-89.97712941308995"
    }
  },
  {
    "service_request": "2024-1089620",
    "request_type": "Trash/Recycling",
    "request_reason": "Replace Trash Cart",
    "date_created": "2024-05-01T14:04:08.000",
    "date_modified": "2024-05-01T14:04:09.000",
    "request_status": "Pending",
    "responsible_agency": "Department of Sanitation",
    "final_address": "3536 Toledano St",
    "address_councildis": "B",
    "status": "Assigned to Contractor",
    "contractor": "IV Waste",
    "rowid": "1089620",
    "final_x": "3671632.52481",
    "final_y": "528449.20352",
    "longitude": "-90.09933275149187",
    "latitude": "29.947347915464537",
    "geocoded_column": {
      "latitude": "29.947347915464537",
      "longitude": "-90.09933275149187"
    }
  },
  {
    "service_request": "2024-1089619",
    "request_type": "Abandoned Vehicles",
    "request_reason": "Abandoned/Junk Vehicles",
    "date_created": "2024-05-01T13:55:56.000",
    "date_modified": "2024-05-01T13:55:56.000",
    "request_status": "Pending",
    "responsible_agency": "Department of Public Works",
    "final_address": "3418 Baronne St",
    "address_councildis": "B",
    "status": "Pending",
    "rowid": "1089619",
    "final_x": "3673746.16232",
    "final_y": "522116.098618",
    "longitude": "-90.09287565119241",
    "latitude": "29.929871184702566",
    "geocoded_column": {
      "latitude": "29.929871184702566",
      "longitude": "-90.09287565119241"
    }
  },
  {
    "service_request": "2024-1089618",
    "request_type": "Trash/Recycling",
    "request_reason": "Request a Large Item Pick Up",
    "date_created": "2024-05-01T13:49:39.000",
    "date_modified": "2024-05-01T13:50:50.000",
    "request_status": "Pending",
    "responsible_agency": "Department of Sanitation",
    "final_address": "2619 Republic St",
    "address_councildis": "D",
    "status": "Assigned to Contractor",
    "contractor": "IV Waste",
    "rowid": "1089618",
    "final_x": "3680797.03227",
    "final_y": "541762.884684",
    "longitude": "-90.06993342280035",
    "latitude": "29.983681417085847",
    "geocoded_column": {
      "latitude": "29.983681417085847",
      "longitude": "-90.06993342280035"
    }
  },
  {
    "service_request": "2024-1089617",
    "request_type": "Trash/Recycling",
    "request_reason": "Request a Large Item Pick Up",
    "date_created": "2024-05-01T13:49:23.000",
    "date_modified": "2024-05-01T13:49:23.000",
    "request_status": "Pending",
    "responsible_agency": "Department of Sanitation",
    "final_address": "2617 Republic St",
    "address_councildis": "D",
    "status": "Assigned to Contractor",
    "contractor": "IV Waste",
    "rowid": "1089617",
    "final_x": "3680798.07394",
    "final_y": "541750.905484",
    "longitude": "-90.06993054984088",
    "latitude": "29.983648446893113",
    "geocoded_column": {
      "latitude": "29.983648446893113",
      "longitude": "-90.06993054984088"
    }
  },
  {
    "service_request": "2024-1089616",
    "request_type": "Property Maintenance",
    "request_reason": "Property Maintenance",
    "date_created": "2024-05-01T13:46:08.000",
    "date_modified": "2024-05-01T15:06:26.000",
    "case_close_date": "2024-05-01T10:06:26.000",
    "request_status": "Closed",
    "responsible_agency": "Department of Code Enforcement",
    "final_address": "2926 Metropolitan St",
    "address_councildis": "D",
    "status": "Referred to Code Enforcement",
    "rowid": "1089616",
    "final_x": "3691089.82377",
    "final_y": "543314.195534",
    "longitude": "-90.0373680118453",
    "latitude": "29.987630897769048",
    "geocoded_column": {
      "latitude": "29.987630897769048",
      "longitude": "-90.0373680118453"
    }
  },
  {
    "service_request": "2024-1089615",
    "request_type": "Traffic Signals/Signs/Striping/Streetlights",
    "request_reason": "Street Light Outage/Malfunction",
    "date_created": "2024-05-01T13:44:57.000",
    "date_modified": "2024-05-01T13:44:57.000",
    "request_status": "Pending",
    "responsible_agency": "Department of Public Works",
    "final_address": "6578 Marshal Foch St",
    "address_councildis": "A",
    "status": "Assigned to Contractor",
    "contractor": "Legacy Professional Services",
    "rowid": "1089615",
    "final_x": "3670099.7929",
    "final_y": "551193.027413",
    "longitude": "-90.103401373583",
    "latitude": "30.00993102160632",
    "geocoded_column": {
      "latitude": "30.00993102160632",
      "longitude": "-90.103401373583"
    }
  },
  {
    "service_request": "2024-1089614",
    "request_type": "Trash/Recycling",
    "request_reason": "Illegal Dumping",
    "date_created": "2024-05-01T13:42:10.000",
    "date_modified": "2024-05-01T13:42:46.000",
    "case_close_date": "2024-05-01T08:42:46.000",
    "request_status": "Closed",
    "responsible_agency": "Department of Sanitation",
    "final_address": "PRESS ST & MARCUS CHRISTIAN CIR",
    "address_councildis": "D",
    "status": "Resolved",
    "rowid": "1089614",
    "final_x": "3689902.2",
    "final_y": "543149.58",
    "longitude": "-90.04112515952674",
    "latitude": "29.987215144559986",
    "geocoded_column": {
      "latitude": "29.987215144559986",
      "longitude": "-90.04112515952674"
    }
  },
  {
    "service_request": "2024-1089613",
    "request_type": "Traffic Signals/Signs/Striping/Streetlights",
    "request_reason": "Street Light Outage/Malfunction",
    "date_created": "2024-05-01T13:41:49.000",
    "date_modified": "2024-05-01T13:41:49.000",
    "request_status": "Pending",
    "responsible_agency": "Department of Public Works",
    "final_address": "5350 Perrier St",
    "address_councildis": "B",
    "status": "Assigned to Contractor",
    "contractor": "Legacy Professional Services",
    "rowid": "1089613",
    "final_x": "3667215.62458",
    "final_y": "519952.061368",
    "longitude": "-90.11356424076787",
    "latitude": "29.92411354877284",
    "geocoded_column": {
      "latitude": "29.92411354877284",
      "longitude": "-90.11356424076787"
    }
  },
  {
    "service_request": "2024-1089612",
    "request_type": "Trash/Recycling",
    "request_reason": "Illegal Dumping",
    "date_created": "2024-05-01T13:40:01.000",
    "date_modified": "2024-05-01T13:43:51.000",
    "case_close_date": "2024-04-30T19:00:00.000",
    "request_status": "Closed",
    "responsible_agency": "Department of Sanitation",
    "final_address": "PRESS ST & MARCUS CHRISTIAN CIR",
    "address_councildis": "D",
    "status": "Resolved",
    "rowid": "1089612",
    "final_x": "3689902.2",
    "final_y": "543149.58",
    "longitude": "-90.04112515952674",
    "latitude": "29.987215144559986",
    "geocoded_column": {
      "latitude": "29.987215144559986",
      "longitude": "-90.04112515952674"
    }
  },
  {
    "service_request": "2024-1089611",
    "request_type": "Trash/Recycling",
    "request_reason": "Start Trash Service",
    "date_created": "2024-05-01T13:37:22.000",
    "date_modified": "2024-05-01T13:37:23.000",
    "request_status": "Pending",
    "responsible_agency": "Department of Sanitation",
    "final_address": "5298 Tullis Dr",
    "address_councildis": "C",
    "status": "Assigned to Contractor",
    "contractor": "Richards Disposal",
    "rowid": "1089611",
    "final_x": "3703374.38186",
    "final_y": "511983.000432",
    "longitude": "-89.99971741443133",
    "latitude": "29.901093441642185",
    "geocoded_column": {
      "latitude": "29.901093441642185",
      "longitude": "-89.99971741443133"
    }
  },