[
  {
    "service_request": "2022-904668",
    "request_type": "Traffic Signals/Signs/Striping/Streetlights",
    "request_reason": "Street Light Outage/Malfunction",
    "date_created": "2022-07-29T01:26:17.000",
    "date_modified": "2022-07-29T01:26:18.000",
    "request_status": "Pending",
    "responsible_agency": "Department of Public Works",
    "final_address": "3800 Red Oak Ct",
    "address_councildis": "C",
    "status": "Pending",
    "contractor": "Royal Engineering",
    "rowid": "904668",
    "final_x": "3703459.98334",
    "final_y": "513804.14917",
    "longitude": "-89.99938035577918",
    "latitude": "29.906098243201306",
    "geocoded_column": {
      "latitude": "29.906098243201306",
      "longitude": "-89.99938035577918"
    }
  },
  {
    "service_request": "2022-904667",
    "request_type": "Trash/Recycling",
    "request_reason": "Missed Trash Pick-Up",
    "date_created": "2022-07-29T01:15:10.000",
    "date_modified": "2022-07-29T01:15:11.000",
    "request_status": "Pending",
    "responsible_agency": "Department of Sanitation",
    "final_address": "131 S Rendon St",
    "address_councildis": "B",
    "status": "Assigned to Contractor",
    "contractor": "Richards Disposal",
    "rowid": "904667",
    "final_x": "3673353.23329",
    "final_y": "536264.249415",
    "longitude": "-90.09363284460643",
    "latitude": "29.968785620484017",
    "geocoded_column": {
      "latitude": "29.968785620484017",
      "longitude": "-90.09363284460643"
    }
  },
  {
    "service_request": "2022-904664",
    "request_type": "Trash/Recycling",
    "request_reason": "Order Trash Cart",
    "date_created": "2022-07-28T23:37:07.000",
    "date_modified": "2022-07-28T23:37:08.000",
    "request_status": "Pending",
    "responsible_agency": "Department of Sanitation",
    "final_address": "35 Yellowstone Dr",
    "address_councildis": "C",
    "status": "Assigned to Contractor",
    "contractor": "Richards Disposal",
    "rowid": "904664",
    "final_x": "3700151.21328",
    "final_y": "517476.379766",
    "longitude": "-90.0096891406732",
    "latitude": "29.916301134849935",
    "geocoded_column": {
      "latitude": "29.916301134849935",
      "longitude": "-90.0096891406732"
    }
  },
  {
    "service_request": "2022-904663",
    "request_type": "Trash/Recycling",
    "request_reason": "Order Trash Cart",
    "date_created": "2022-07-28T23:34:28.000",
    "date_modified": "2022-07-28T23:34:28.000",
    "request_status": "Pending",
    "responsible_agency": "Department of Sanitation",
    "final_address": "2451 Dreux Ave",
    "address_councildis": "D",
    "status": "Assigned to Contractor",
    "contractor": "Metro Disposal",
    "rowid": "904663",
    "final_x": "3685660.92937",
    "final_y": "552216.986966",
    "longitude": "-90.05420207276258",
    "latitude": "30.012278080790203",
    "geocoded_column": {
      "latitude": "30.012278080790203",
      "longitude": "-90.05420207276258"
    }
  },
  {
    "service_request": "2022-904661",
    "request_type": "Roads/Drainage",
    "request_reason": "Catch Basin - Clogged",
    "date_created": "2022-07-28T22:37:18.000",
    "date_modified": "2022-07-28T22:37:18.000",
    "request_status": "Pending",
    "responsible_agency": "Department of Public Works",
    "final_address": "2402 Pine St",
    "address_councildis": "A",
    "status": "Pending",
    "rowid": "904661",
    "final_x": "3666304.53025",
    "final_y": "530364.234178",
    "longitude": "-90.1160910980734",
    "latitude": "29.952770326753082",
    "geocoded_column": {
      "latitude": "29.952770326753082",
      "longitude": "-90.1160910980734"
    }
  },
  {
    "service_request": "2022-904660",
    "request_type": "Trash/Recycling",
    "request_reason": "Missed Trash Pick-Up",
    "date_created": "2022-07-28T22:29:52.000",
    "date_modified": "2022-07-28T22:29:52.000",
    "request_status": "Pending",
    "responsible_agency": "Department of Sanitation",
    "final_address": "1314 Pauline St",
    "address_councildis": "D",
    "status": "Assigned to Contractor",
    "contractor": "Metro Disposal",
    "rowid": "904660",
    "final_x": "3691394.50435",
    "final_y": "536335.275847",
    "longitude": "-90.03665509241793",
    "latitude": "29.968431876642164",
    "geocoded_column": {
      "latitude": "29.968431876642164",
      "longitude": "-90.03665509241793"
    }
  },
  {
    "service_request": "2022-904659",
    "request_type": "Property Maintenance",
    "request_reason": "Property Maintenance",
    "date_created": "2022-07-28T22:15:39.000",
    "date_modified": "2022-07-28T22:15:39.000",
    "request_status": "Pending",
    "responsible_agency": "Department of Code Enforcement",
    "final_address": "LAKE FOREST BLVD & PARC BRITTANY BLVD",
    "address_councildis": "E",
    "status": "Pending",
    "rowid": "904659",
    "final_x": "3703013.1",
    "final_y": "556785.28",
    "longitude": "-89.99921133030972",
    "latitude": "30.024295099116646",
    "geocoded_column": {
      "latitude": "30.024295099116646",
      "longitude": "-89.99921133030972"
    }
  },
  {
    "service_request": "2022-904658",
    "request_type": "Trash/Recycling",
    "request_reason": "MIssed Recycling Pick-Up",
    "date_created": "2022-07-28T22:13:48.000",
    "date_modified": "2022-07-28T22:13:49.000",
    "request_status": "Pending",
    "responsible_agency": "Department of Sanitation",
    "final_address": "3519 Octavia St",
    "address_councildis": "A",
    "status": "Assigned to Contractor",
    "contractor": "Richards Disposal",
    "rowid": "904658",
    "final_x": "3668621.03009",
    "final_y": "528481.366784",
    "longitude": "-90.10884013589454",
    "latitude": "29.947525187559744",
    "geocoded_column": {
      "latitude": "29.947525187559744",
      "longitude": "-90.10884013589454"
    }
  },
  {
    "service_request": "2022-904657",
    "request_type": "Traffic Signals/Signs/Striping/Streetlights",
    "request_reason": "Street Light Outage/Malfunction",
    "date_created": "2022-07-28T22:09:42.000",
    "date_modified": "2022-07-28T22:09:43.000",
    "request_status": "Pending",
    "responsible_agency": "Department of Public Works",
    "final_address": "BROADWAY ST & S CLAIBORNE AVE",
    "address_councildis": "A",
    "status": "Pending",
    "contractor": "Royal Engineering",
    "rowid": "904657",
    "final_x": "3666389.3",
    "final_y": "529836.88",
    "longitude": "-90.11584112478184",
    "latitude": "29.951317797937595",
    "geocoded_column": {
      "latitude": "29.951317797937595",
      "longitude": "-90.11584112478184"
    }
  },
  {
    "service_request": "2022-904656",
    "request_type": "Traffic Signals/Signs/Striping/Streetlights",
    "request_reason": "Street Light Outage/Malfunction",
    "date_created": "2022-07-28T22:08:40.000",
    "date_modified": "2022-07-28T22:08:41.000",
    "request_status": "Pending",
    "responsible_agency": "Department of Public Works",
    "final_address": "5829 Alfred St",
    "address_councildis": "D",
    "status": "Pending",
    "contractor": "Royal Engineering",
    "rowid": "904656",
    "final_x": "3677276.84136",
    "final_y": "553909.413079",
    "longitude": "-90.08063263325307",
    "latitude": "30.01718632800667",
    "geocoded_column": {
      "latitude": "30.01718632800667",
      "longitude": "-90.08063263325307"
    }
  },
  {
    "service_request": "2022-904655",
    "request_type": "Trash/Recycling",
    "request_reason": "Request a Large Item Pick Up",
    "date_created": "2022-07-28T21:53:54.000",
    "date_modified": "2022-07-28T21:53:54.000",
    "request_status": "Pending",
    "responsible_agency": "Department of Sanitation",
    "final_address": "3011 Banks St",
    "address_councildis": "B",
    "status": "Assigned to Contractor",
    "contractor": "Richards Disposal",
    "rowid": "904655",
    "final_x": "3673570.03105",
    "final_y": "535018.804998",
    "longitude": "-90.09299075878157",
    "latitude": "29.96535461676896",
    "geocoded_column": {
      "latitude": "29.96535461676896",
      "longitude": "-90.09299075878157"
    }
  },
  {
    "service_request": "2022-904654",
    "request_type": "Roads/Drainage",
    "request_reason": "Catch Basin - Clogged",
    "date_created": "2022-07-28T21:52:15.000",
    "date_modified": "2022-07-28T21:52:15.000",
    "request_status": "Pending",
    "responsible_agency": "Department of Public Works",
    "final_address": "2200 Leon C Simon Dr",
    "address_councildis": "D",
    "status": "Pending",
    "rowid": "904654",
    "final_x": "3683504.51221",
    "final_y": "556759.853978",
    "longitude": "-90.06085573750497",
    "latitude": "30.024835314318533",
    "geocoded_column": {
      "latitude": "30.024835314318533",
      "longitude": "-90.06085573750497"
    }
  },
  {
    "service_request": "2022-904652",
    "request_type": "Traffic Signals/Signs/Striping/Streetlights",
    "request_reason": "Traffic Signal Malfunctioning/Damaged",
    "date_created": "2022-07-28T21:37:30.000",
    "date_modified": "2022-07-28T21:37:31.000",
    "request_status": "Pending",
    "responsible_agency": "Department of Public Works",
    "final_address": "BROADWAY ST & S CLAIBORNE AVE",
    "address_councildis": "A",
    "status": "Pending",
    "rowid": "904652",
    "final_x": "3666389.3",
    "final_y": "529836.88",
    "longitude": "-90.11584112478184",
    "latitude": "29.951317797937595",
    "geocoded_column": {
      "latitude": "29.951317797937595",
      "longitude": "-90.11584112478184"
    }
  },
  {
    "service_request": "2022-904651",
    "request_type": "Trash/Recycling",
    "request_reason": "Order Recycling Cart",
    "date_created": "2022-07-28T21:10:11.000",
    "date_modified": "2022-07-28T21:10:11.000",
    "request_status": "Pending",
    "responsible_agency": "Department of Sanitation",
    "final_address": "530 Ptolemy St",
    "address_councildis": "C",
    "status": "Pending",
    "rowid": "904651",
    "final_x": "3687422.38991",
    "final_y": "526103.727166",
    "longitude": "-90.04956120709441",
    "latitude": "29.94042163369699",
    "geocoded_column": {
      "latitude": "29.94042163369699",
      "longitude": "-90.04956120709441"
    }
  },
  {
    "service_request": "2022-904649",
    "request_type": "Trash/Recycling",
    "request_reason": "Missed Trash Pick-Up",
    "date_created": "2022-07-28T21:03:07.000",
    "date_modified": "2022-07-28T21:03:08.000",
    "request_status": "Pending",
    "responsible_agency": "Department of Sanitation",
    "final_address": "1716 Peniston St",
    "address_councildis": "B",
    "status": "Assigned to Contractor",
    "contractor": "Richards Disposal",
    "rowid": "904649",
    "final_x": "3672703.25512",
    "final_y": "521676.042169",
    "longitude": "-90.09618293650352",
    "latitude": "29.928692174491566",
    "geocoded_column": {
      "latitude": "29.928692174491566",
      "longitude": "-90.09618293650352"
    }
  },
  {
    "service_request": "2022-904648",
    "request_type": "Property Maintenance",
    "request_reason": "Property Maintenance",
    "date_created": "2022-07-28T21:02:51.000",
    "date_modified": "2022-07-28T21:02:51.000",
    "request_status": "Pending",
    "responsible_agency": "Department of Code Enforcement",
    "final_address": "1306 Ptolemy St",
    "address_councildis": "C",
    "status": "Pending",
    "rowid": "904648",
    "final_x": "3689433.50134",
    "final_y": "526061.114878",
    "longitude": "-90.04321333509984",
    "latitude": "29.940242355685957",
    "geocoded_column": {
      "latitude": "29.940242355685957",
      "longitude": "-90.04321333509984"
    }
  },
  {
    "service_request": "2022-904647",
    "request_type": "Trash/Recycling",
    "request_reason": "MIssed Recycling Pick-Up",
    "date_created": "2022-07-28T20:45:19.000",
    "date_modified": "2022-07-28T20:45:20.000",
    "request_status": "Pending",
    "responsible_agency": "Department of Sanitation",
    "final_address": "4630 Willow St",
    "address_councildis": "B",
    "status": "Assigned to Contractor",
    "contractor": "Richards Disposal",
    "rowid": "904647",
    "final_x": "3669421.65652",
    "final_y": "525290.805181",
    "longitude": "-90.10642010656171",
    "latitude": "29.938728628353758",
    "geocoded_column": {
      "latitude": "29.938728628353758",
      "longitude": "-90.10642010656171"
    }
  },
  {
    "service_request": "2022-904645",
    "request_type": "Trash/Recycling",
    "request_reason": "MIssed Recycling Pick-Up",
    "date_created": "2022-07-28T20:38:10.000",
    "date_modified": "2022-07-28T20:38:11.000",
    "request_status": "Pending",
    "responsible_agency": "Department of Sanitation",
    "final_address": "1301 General Taylor St",
    "address_councildis": "B",
    "status": "Assigned to Contractor",
    "contractor": "Richards Disposal",
    "rowid": "904645",
    "final_x": "3672844.37032",
    "final_y": "520291.135864",
    "longitude": "-90.09578468200387",
    "latitude": "29.924879936904606",
    "geocoded_column": {
      "latitude": "29.924879936904606",
      "longitude": "-90.09578468200387"
    }
  },
  {
    "service_request": "2022-904644",
    "request_type": "Traffic Signals/Signs/Striping/Streetlights",
    "request_reason": "Street Name Sign Damaged or Missing",
    "date_created": "2022-07-28T20:30:29.000",
    "date_modified": "2022-07-28T20:30:29.000",
    "request_status": "Pending",
    "responsible_agency": "Department of Public Works",
    "final_address": "2323 Filmore Ave",
    "address_councildis": "D",
    "status": "Pending",
    "rowid": "904644",
    "final_x": "3684630.42613",
    "final_y": "552543.253782",
    "longitude": "-90.0574463999321",
    "latitude": "30.01320678639251",
    "geocoded_column": {
      "latitude": "30.01320678639251",
      "longitude": "-90.0574463999321"
    }
  },
  {
    "service_request": "2022-904643",
    "request_type": "Trash/Recycling",
    "request_reason": "Illegal Dumping",
    "date_created": "2022-07-28T20:30:04.000",
    "date_modified": "2022-07-28T20:30:04.000",
    "request_status": "Pending",
    "responsible_agency": "Department of Sanitation",
    "final_address": "4557 N Rampart St",
    "address_councildis": "C",
    "status": "Pending",
    "rowid": "904643",
    "final_x": "3693626.57072",
    "final_y": "534454.546245",
    "longitude": "-90.02967372290381",
    "latitude": "29.96319089269427",
    "geocoded_column": {
      "latitude": "29.96319089269427",
      "longitude": "-90.02967372290381"
    }
  },
  {
    "service_request": "2022-904642",
    "request_type": "Traffic Signals/Signs/Striping/Streetlights",
    "request_reason": "Traffic Sign Missing/Damaged",
    "date_created": "2022-07-28T20:21:16.000",
    "date_modified": "2022-07-28T20:21:17.000",
    "request_status": "Pending",
    "responsible_agency": "Department of Public Works",
    "final_address": "GENERAL DE GAULLE DR & SANDRA DR",
    "address_councildis": "C",
    "status": "Pending",
    "rowid": "904642",
    "final_x": "3695519.3",
    "final_y": "521133.58",
    "longitude": "-90.0241773504677",
    "latitude": "29.926503510789804",
    "geocoded_column": {
      "latitude": "29.926503510789804",
      "longitude": "-90.0241773504677"
    }
  },
  {
    "service_request": "2022-904641",
    "request_type": "Trash/Recycling",
    "request_reason": "MIssed Recycling Pick-Up",
    "date_created": "2022-07-28T20:12:05.000",
    "date_modified": "2022-07-28T20:12:06.000",
    "request_status": "Pending",
    "responsible_agency": "Department of Sanitation",
    "final_address": "1200 Block of Delachaise St, New Orleans, Louisiana, 70115",
    "status": "Assigned to Contractor",
    "rowid": "904641",
    "longitude": "0.0",
    "latitude": "0.0",
    "geocoded_column": {
      "latitude": "0.0",
      "longitude": "0.0"
    }
  },
  {
    "service_request": "2022-904640",
    "request_type": "Traffic Signals/Signs/Striping/Streetlights",
    "request_reason": "Street Light Outage/Malfunction",
    "date_created": "2022-07-28T20:07:45.000",
    "date_modified": "2022-07-28T20:07:46.000",
    "request_status": "Pending",
    "responsible_agency": "Department of Public Works",
    "final_address": "2100 Napoleon Ave",
    "address_councildis": "B",
    "status": "Pending",
    "contractor": "Royal Engineering",
    "rowid": "904640",
    "final_x": "3670394.96826",
    "final_y": "522656.31161",
    "longitude": "-90.10343652210679",
    "latitude": "29.931455927719163",
    "geocoded_column": {
      "latitude": "29.931455927719163",
      "longitude": "-90.10343652210679"
    }
  },
  {
    "service_request": "2022-904639",
    "request_type": "Trash/Recycling",
    "request_reason": "MIssed Recycling Pick-Up",
    "date_created": "2022-07-28T19:59:23.000",
    "date_modified": "2022-07-28T19:59:23.000",
    "request_status": "Pending",
    "responsible_agency": "Department of Sanitation",
    "final_address": "6220 Freret St",
    "address_councildis": "A",
    "status": "Assigned to Contractor",
    "contractor": "Richards Disposal",
    "rowid": "904639",
    "final_x": "3665733.71892",
    "final_y": "524645.390204",
    "longitude": "-90.11808498670464",
    "latitude": "29.93706200929093",
    "geocoded_column": {
      "latitude": "29.93706200929093",
      "longitude": "-90.11808498670464"
    }
  },
  {
    "service_request": "2022-904638",
    "request_type": "Abandoned Vehicles",
    "request_reason": "Abandoned/Junk Vehicles",
    "date_created": "2022-07-28T19:48:20.000",
    "date_modified": "2022-07-28T19:48:20.000",
    "request_status": "Pending",
    "responsible_agency": "Department of Public Works",
    "final_address": "1125 Kerlerec St",
    "address_councildis": "C",
    "status": "Pending",
    "rowid": "904638",
    "final_x": "3682956.44898",
    "final_y": "535745.377415",
    "longitude": "-90.06332350495481",
    "latitude": "29.967069721729363",
    "geocoded_column": {
      "latitude": "29.967069721729363",
      "longitude": "-90.06332350495481"
    }
  },
  {
    "service_request": "2022-904637",
    "request_type": "Roads/Drainage",
    "request_reason": "Pothole",
    "date_created": "2022-07-28T19:42:32.000",
    "date_modified": "2022-07-28T19:42:32.000",
    "request_status": "Pending",
    "responsible_agency": "Department of Public Works",
    "final_address": "3023 St Ann St",
    "address_councildis": "A",
    "status": "Pending",
    "rowid": "904637",
    "final_x": "3675815.53198",
    "final_y": "538153.110921",
    "longitude": "-90.08579180268153",
    "latitude": "29.973905865920592",
    "geocoded_column": {
      "latitude": "29.973905865920592",
      "longitude": "-90.08579180268153"
    }
  },
  {
    "service_request": "2022-904636",
    "request_type": "Roads/Drainage",
    "request_reason": "Man hole cover issue",
    "date_created": "2022-07-28T19:42:12.000",
    "date_modified": "2022-07-28T19:42:12.000",
    "request_status": "Pending",
    "responsible_agency": "Department of Public Works",
    "final_address": "6820 Mayo Rd",
    "address_councildis": "E",
    "status": "Pending",
    "rowid": "904636",
    "final_x": "3701906.78557",
    "final_y": "557195.985371",
    "longitude": "-90.0026919876365",
    "latitude": "30.025459752254257",
    "geocoded_column": {
      "latitude": "30.025459752254257",
      "longitude": "-90.0026919876365"
    }
  },
  {
    "service_request": "2022-904635",
    "request_type": "Trash/Recycling",
    "request_reason": "Request a Large Item Pick Up",
    "date_created": "2022-07-28T19:39:13.000",
    "date_modified": "2022-07-28T19:39:14.000",
    "request_status": "Pending",
    "responsible_agency": "Department of Sanitation",
    "final_address": "2201 Robert St",
    "address_councildis": "B",
    "status": "Assigned to Contractor",
    "contractor": "Richards Disposal",
    "rowid": "904635",
    "final_x": "3668848.1394",
    "final_y": "523611.885499",
    "longitude": "-90.10828743784307",
    "latitude": "29.934129012184208",
    "geocoded_column": {
      "latitude": "29.934129012184208",
      "longitude": "-90.10828743784307"
    }
  },
  {
    "service_request": "2022-904634",
    "request_type": "Abandoned Vehicles",
    "request_reason": "Abandoned/Junk Vehicles",
    "date_created": "2022-07-28T19:36:21.000",
    "date_modified": "2022-07-28T19:36:22.000",
    "request_status": "Pending",
    "responsible_agency": "Department of Public Works",
    "final_address": "CURRAN BLVD & SWIFT ST",
    "address_councildis": "E",
    "status": "Pending",
    "rowid": "904634",
    "final_x": "3695401.5",
    "final_y": "558899.68",
    "longitude": "-90.02318609146299",
    "latitude": "30.03035037855851",
    "geocoded_column": {
      "latitude": "30.03035037855851",
      "longitude": "-90.02318609146299"
    }
  },
  {
    "service_request": "2022-904633",
    "request_type": "Roads/Drainage",
    "request_reason": "Man hole cover issue",
    "date_created": "2022-07-28T19:30:12.000",
    "date_modified": "2022-07-28T19:30:12.000",
    "request_status": "Pending",
    "responsible_agency": "Department of Public Works",
    "final_address": "DWYER RD & CAMELIA ST",
    "address_councildis": "E",
    "status": "Pending",
    "rowid": "904633",
    "final_x": "3701393.2",
    "final_y": "555776.68",
    "longitude": "-90.00436684786617",
    "latitude": "30.021573596991846",
    "geocoded_column": {
      "latitude": "30.021573596991846",
      "longitude": "-90.00436684786617"
    }
  },
  {
    "service_request": "2022-904632",
    "request_type": "Abandoned Vehicles",
    "request_reason": "Abandoned/Junk Vehicles",
    "date_created": "2022-07-28T19:22:02.000",
    "date_modified": "2022-07-28T19:22:02.000",
    "request_status": "Pending",
    "responsible_agency": "Department of Public Works",
    "final_address": "3503 Urquhart St",
    "address_councildis": "C",
    "status": "Pending",
    "rowid": "904632",
    "final_x": "3690694.61827",
    "final_y": "536393.581575",
    "longitude": "-90.03886327918165",
    "latitude": "29.968613956090735",
    "geocoded_column": {
      "latitude": "29.968613956090735",
      "longitude": "-90.03886327918165"
    }
  },
  {
    "service_request": "2022-904631",
    "request_type": "Trash/Recycling",
    "request_reason": "Request a Large Item Pick Up",
    "date_created": "2022-07-28T19:21:26.000",
    "date_modified": "2022-07-28T19:21:27.000",
    "request_status": "Pending",
    "responsible_agency": "Department of Sanitation",
    "final_address": "38 Yosemite Dr",
    "address_councildis": "C",
    "status": "Assigned to Contractor",
    "contractor": "Richards Disposal",
    "rowid": "904631",
    "final_x": "3700024.74167",
    "final_y": "517167.475381",
    "longitude": "-90.01009959283464",
    "latitude": "29.915455769514928",
    "geocoded_column": {
      "latitude": "29.915455769514928",
      "longitude": "-90.01009959283464"
    }
  },
  {
    "service_request": "2022-904630",
    "request_type": "Abandoned Vehicles",
    "request_reason": "Abandoned/Junk Vehicles",
    "date_created": "2022-07-28T19:20:24.000",
    "date_modified": "2022-07-28T21:07:17.000",
    "request_status": "Pending",
    "responsible_agency": "Department of Public Works",
    "final_address": "New Orleans,LA",
    "status": "Pending",
    "rowid": "904630",
    "longitude": "0.0",
    "latitude": "0.0",
    "geocoded_column": {
      "latitude": "0.0",
      "longitude": "0.0"
    }
  },
  {
    "service_request": "2022-904629",
    "request_type": "Abandoned Vehicles",
    "request_reason": "Abandoned/Junk Vehicles",
    "date_created": "2022-07-28T19:18:58.000",
    "date_modified": "2022-07-28T19:18:58.000",
    "request_status": "Pending",
    "responsible_agency": "Department of Public Works",
    "final_address": "3503 Urquhart St",
    "address_councildis": "C",
    "status": "Pending",
    "rowid": "904629",
    "final_x": "3690694.61827",
    "final_y": "536393.581575",
    "longitude": "-90.03886327918165",
    "latitude": "29.968613956090735",
    "geocoded_column": {
      "latitude": "29.968613956090735",
      "longitude": "-90.03886327918165"
    }
  },
  {
    "service_request": "2022-904627",
    "request_type": "Trash/Recycling",
    "request_reason": "Missed Trash Pick-Up",
    "date_created": "2022-07-28T19:15:56.000",
    "date_modified": "2022-07-28T19:15:56.000",
    "request_status": "Pending",
    "responsible_agency": "Department of Sanitation",
    "final_address": "1314 Pauline St",
    "address_councildis": "D",
    "status": "Assigned to Contractor",
    "contractor": "Metro Disposal",
    "rowid": "904627",
    "final_x": "3691394.50435",
    "final_y": "536335.275847",
    "longitude": "-90.03665509241793",
    "latitude": "29.968431876642164",
    "geocoded_column": {
      "latitude": "29.968431876642164",
      "longitude": "-90.03665509241793"
    }
  },
  {
    "service_request": "2022-904626",
    "request_type": "Trash/Recycling",
    "request_reason": "Repair Trash Cart",
    "date_created": "2022-07-28T19:02:20.000",
    "date_modified": "2022-07-28T19:02:21.000",
    "request_status": "Pending",
    "responsible_agency": "Department of Sanitation",
    "final_address": "2415 Peniston St",
    "address_councildis": "B",
    "status": "Assigned to Contractor",
    "contractor": "Richards Disposal",
    "rowid": "904626",
    "final_x": "3672262.10036",
    "final_y": "524036.298172",
    "longitude": "-90.09749521269318",
    "latitude": "29.93519520654297",
    "geocoded_column": {
      "latitude": "29.93519520654297",
      "longitude": "-90.09749521269318"
    }
  },
  {
    "service_request": "2022-904625",
    "request_type": "Trash/Recycling",
    "request_reason": "Missed Trash Pick-Up",
    "date_created": "2022-07-28T19:01:56.000",
    "date_modified": "2022-07-28T19:01:57.000",
    "request_status": "Pending",
    "responsible_agency": "Department of Sanitation",
    "final_address": "2415 Peniston St",
    "address_councildis": "B",
    "status": "Assigned to Contractor",
    "contractor": "Richards Disposal",
    "rowid": "904625",
    "final_x": "3672262.10036",
    "final_y": "524036.298172",
    "longitude": "-90.09749521269318",
    "latitude": "29.93519520654297",
    "geocoded_column": {
      "latitude": "29.93519520654297",
      "longitude": "-90.09749521269318"
    }
  },
  {
    "service_request": "2022-904624",
    "request_type": "Trash/Recycling",
    "request_reason": "Missed Trash Pick-Up",
    "date_created": "2022-07-28T19:00:28.000",
    "date_modified": "2022-07-28T19:00:29.000",
    "request_status": "Pending",
    "responsible_agency": "Department of Sanitation",
    "final_address": "1530 Fourth St",
    "address_councildis": "B",
    "status": "Assigned to Contractor",
    "contractor": "Richards Disposal",
    "rowid": "904624",
    "final_x": "3676290.45633",
    "final_y": "522451.070842",
    "longitude": "-90.08483222028408",
    "latitude": "29.930716267468316",
    "geocoded_column": {
      "latitude": "29.930716267468316",
      "longitude": "-90.08483222028408"
    }
  },
  {
    "service_request": "2022-904623",
    "request_type": "Trash/Recycling",
    "request_reason": "Missed Trash Pick-Up",
    "date_created": "2022-07-28T18:54:24.000",
    "date_modified": "2022-07-28T18:54:25.000",
    "request_status": "Pending",
    "responsible_agency": "Department of Sanitation",
    "final_address": "1500 Lesseps St",
    "address_councildis": "D",
    "status": "Assigned to Contractor",
    "contractor": "Metro Disposal",
    "rowid": "904623",
    "final_x": "3693010.07145",
    "final_y": "536630.012295",
    "longitude": "-90.03154249887861",
    "latitude": "29.969191928370936",
    "geocoded_column": {
      "latitude": "29.969191928370936",
      "longitude": "-90.03154249887861"
    }
  },
  {
    "service_request": "2022-904622",
    "request_type": "Trash/Recycling",
    "request_reason": "Repair Trash Cart",
    "date_created": "2022-07-28T18:53:07.000",
    "date_modified": "2022-07-28T18:53:08.000",
    "request_status": "Pending",
    "responsible_agency": "Department of Sanitation",
    "final_address": "4650 Knight Dr",
    "address_councildis": "E",
    "status": "Assigned to Contractor",
    "contractor": "Metro Disposal",
    "rowid": "904622",
    "final_x": "3708120.95704",
    "final_y": "554951.786712",
    "longitude": "-89.98313984369432",
    "latitude": "30.019089192317633",
    "geocoded_column": {
      "latitude": "30.019089192317633",
      "longitude": "-89.98313984369432"
    }
  },
  {
    "service_request": "2022-904621",
    "request_type": "Trash/Recycling",
    "request_reason": "Missed Trash Pick-Up",
    "date_created": "2022-07-28T18:50:48.000",
    "date_modified": "2022-07-28T18:50:49.000",
    "request_status": "Pending",
    "responsible_agency": "Department of Sanitation",
    "final_address": "1832 France St",
    "address_councildis": "D",
    "status": "Assigned to Contractor",
    "contractor": "Metro Disposal",
    "rowid": "904621",
    "final_x": "3693036.40752",
    "final_y": "538023.034441",
    "longitude": "-90.03140934283263",
    "latitude": "29.973021422067077",
    "geocoded_column": {
      "latitude": "29.973021422067077",
      "longitude": "-90.03140934283263"
    }
  },
  {
    "service_request": "2022-904620",
    "request_type": "Trash/Recycling",
    "request_reason": "Missed Trash Pick-Up",
    "date_created": "2022-07-28T18:48:33.000",
    "date_modified": "2022-07-28T18:48:34.000",
    "request_status": "Pending",
    "responsible_agency": "Department of Sanitation",
    "final_address": "2707 Coliseum St, New Orleans, Louisiana, 70130",
    "address_councildis": "B",
    "status": "Assigned to Contractor",
    "contractor": "Richards Disposal",
    "rowid": "904620",
    "final_x": "3676644.92129",
    "final_y": "521884.227322",
    "longitude": "-90.08373273941149",
    "latitude": "29.92914700768125",
    "geocoded_column": {
      "latitude": "29.92914700768125",
      "longitude": "-90.08373273941149"
    }
  },
  {
    "service_request": "2022-904619",
    "request_type": "Trash/Recycling",
    "request_reason": "Request a Large Item Pick Up",
    "date_created": "2022-07-28T18:35:49.000",
    "date_modified": "2022-07-28T18:35:49.000",
    "request_status": "Pending",
    "responsible_agency": "Department of Sanitation",
    "final_address": "7816 Cohn St",
    "address_councildis": "A",
    "status": "Assigned to Contractor",
    "contractor": "Richards Disposal",
    "rowid": "904619",
    "final_x": "3664307.34426",
    "final_y": "529505.967361",
    "longitude": "-90.12242598711182",
    "latitude": "29.950468557573856",
    "geocoded_column": {
      "latitude": "29.950468557573856",
      "longitude": "-90.12242598711182"
    }
  },
  {
    "service_request": "2022-904618",
    "request_type": "Trash/Recycling",
    "request_reason": "Missed Trash Pick-Up",
    "date_created": "2022-07-28T18:34:55.000",
    "date_modified": "2022-07-28T18:34:56.000",
    "request_status": "Pending",
    "responsible_agency": "Department of Sanitation",
    "final_address": "2729 Edna St",
    "address_councildis": "D",
    "status": "Assigned to Contractor",
    "contractor": "Metro Disposal",
    "rowid": "904618",
    "final_x": "3689619.9638",
    "final_y": "545327.968975",
    "longitude": "-90.04193909236174",
    "latitude": "29.993213679326495",
    "geocoded_column": {
      "latitude": "29.993213679326495",
      "longitude": "-90.04193909236174"
    }
  },
  {
    "service_request": "2022-904617",
    "request_type": "Trash/Recycling",
    "request_reason": "Request a Large Item Pick Up",
    "date_created": "2022-07-28T18:32:36.000",
    "date_modified": "2022-07-28T18:32:37.000",
    "request_status": "Pending",
    "responsible_agency": "Department of Sanitation",
    "final_address": "6022 Cameron Blvd",
    "address_councildis": "D",
    "status": "Assigned to Contractor",
    "contractor": "Metro Disposal",
    "rowid": "904617",
    "final_x": "3682272.37026",
    "final_y": "554982.240216",
    "longitude": "-90.06481128323975",
    "latitude": "30.01998509547522",
    "geocoded_column": {
      "latitude": "30.01998509547522",
      "longitude": "-90.06481128323975"
    }
  },
  {
    "service_request": "2022-904616",
    "request_type": "Trash/Recycling",
    "request_reason": "Order Recycling Cart",
    "date_created": "2022-07-28T18:32:07.000",
    "date_modified": "2022-07-28T18:32:08.000",
    "request_status": "Pending",
    "responsible_agency": "Department of Sanitation",
    "final_address": "6022 Cameron Blvd",
    "address_councildis": "D",
    "status": "Pending",
    "rowid": "904616",
    "final_x": "3682272.37026",
    "final_y": "554982.240216",
    "longitude": "-90.06481128323975",
    "latitude": "30.01998509547522",
    "geocoded_column": {
      "latitude": "30.01998509547522",
      "longitude": "-90.06481128323975"
    }
  },
  {
    "service_request": "2022-904615",
    "request_type": "Trash/Recycling",
    "request_reason": "Order Trash Cart",
    "date_created": "2022-07-28T18:31:57.000",
    "date_modified": "2022-07-28T18:31:58.000",
    "request_status": "Pending",
    "responsible_agency": "Department of Sanitation",
    "final_address": "6022 Cameron Blvd",
    "address_councildis": "D",
    "status": "Assigned to Contractor",
    "contractor": "Metro Disposal",
    "rowid": "904615",
    "final_x": "3682272.37026",
    "final_y": "554982.240216",
    "longitude": "-90.06481128323975",
    "latitude": "30.01998509547522",
    "geocoded_column": {
      "latitude": "30.01998509547522",
      "longitude": "-90.06481128323975"
    }
  },
  {
    "service_request": "2022-904614",
    "request_type": "Trash/Recycling",
    "request_reason": "Start Trash Service",
    "date_created": "2022-07-28T18:30:50.000",
    "date_modified": "2022-07-28T18:31:50.000",
    "request_status": "Pending",
    "responsible_agency": "Department of Sanitation",
    "final_address": "6022 Cameron Blvd",
    "address_councildis": "D",
    "status": "Assigned to Contractor",
    "contractor": "Metro Disposal",
    "rowid": "904614",
    "final_x": "3682272.37026",
    "final_y": "554982.240216",
    "longitude": "-90.06481128323975",
    "latitude": "30.01998509547522",
    "geocoded_column": {
      "latitude": "30.01998509547522",
      "longitude": "-90.06481128323975"
    }
  },
  {
    "service_request": "2022-904613",
    "request_type": "Roads/Drainage",
    "request_reason": "Street Subsidence (Sinking)",
    "date_created": "2022-07-28T18:26:36.000",
    "date_modified": "2022-07-28T18:26:37.000",
    "request_status": "Pending",
    "responsible_agency": "Department of Public Works",
    "final_address": "5410 N Villere St",
    "address_councildis": "E",
    "status": "Pending",
    "rowid": "904613",
    "final_x": "3697560.12266",
    "final_y": "535015.74439",
    "longitude": "-90.01723173983055",
    "latitude": "29.96461034542749",
    "geocoded_column": {
      "latitude": "29.96461034542749",
      "longitude": "-90.01723173983055"
    }
  },
  {
    "service_request": "2022-904612",
    "request_type": "Trash/Recycling",
    "request_reason": "MIssed Recycling Pick-Up",
    "date_created": "2022-07-28T18:23:08.000",
    "date_modified": "2022-07-28T18:23:09.000",
    "case_close_date": "2021-05-12T19:00:00.000",
    "request_status": "Pending",
    "responsible_agency": "Department of Sanitation",
    "final_address": "2201 Robert St",
    "address_councildis": "B",
    "status": "Assigned to Contractor",
    "contractor": "Richards Disposal",
    "rowid": "904612",
    "final_x": "3668848.1394",
    "final_y": "523611.885499",
    "longitude": "-90.10828743784307",
    "latitude": "29.934129012184208",
    "geocoded_column": {
      "latitude": "29.934129012184208",
      "longitude": "-90.10828743784307"
    }
  },
  {
    "service_request": "2022-904611",
    "request_type": "Trash/Recycling",
    "request_reason": "Order Trash Cart",
    "date_created": "2022-07-28T18:22:27.000",
    "date_modified": "2022-07-28T18:22:28.000",
    "request_status": "Pending",
    "responsible_agency": "Department of Sanitation",
    "final_address": "6834 Bellaire Dr",
    "address_councildis": "A",
    "status": "Assigned to Contractor",
    "contractor": "Metro Disposal",
    "rowid": "904611",
    "final_x": "3664564.54599",
    "final_y": "553660.467095",
    "longitude": "-90.12080681288887",
    "latitude": "30.016877827845466",
    "geocoded_column": {
      "latitude": "30.016877827845466",
      "longitude": "-90.12080681288887"
    }
  },
  {
    "service_request": "2022-904610",
    "request_type": "Trash/Recycling",
    "request_reason": "Order Trash Cart",
    "date_created": "2022-07-28T18:20:02.000",
    "date_modified": "2022-07-28T18:20:03.000",
    "request_status": "Pending",
    "responsible_agency": "Department of Sanitation",
    "final_address": "6900 Bellaire Dr",
    "address_councildis": "A",
    "status": "Assigned to Contractor",
    "contractor": "Metro Disposal",
    "rowid": "904610",
    "final_x": "3664578.62253",
    "final_y": "553700.069783",
    "longitude": "-90.12076101254027",
    "latitude": "30.016986311775305",
    "geocoded_column": {
      "latitude": "30.016986311775305",
      "longitude": "-90.12076101254027"
    }
  },
  {
    "service_request": "2022-904609",
    "request_type": "Property Maintenance",
    "request_reason": "Property Maintenance",
    "date_created": "2022-07-28T18:15:44.000",
    "date_modified": "2022-07-28T18:15:44.000",
    "request_status": "Pending",
    "responsible_agency": "Department of Code Enforcement",
    "final_address": "1412 Congress St",
    "address_councildis": "C",
    "status": "Pending",
    "rowid": "904609",
    "final_x": "3690990.24201",
    "final_y": "536814.899144",
    "longitude": "-90.03791464420495",
    "latitude": "29.96976324458857",
    "geocoded_column": {
      "latitude": "29.96976324458857",
      "longitude": "-90.03791464420495"
    }
  },
  {
    "service_request": "2022-904608",
    "request_type": "Roads/Drainage",
    "request_reason": "Catch Basin - Clogged",
    "date_created": "2022-07-28T18:13:05.000",
    "date_modified": "2022-07-28T18:13:05.000",
    "request_status": "Pending",
    "responsible_agency": "Department of Public Works",
    "final_address": "821 Spain St",
    "address_councildis": "C",
    "status": "Pending",
    "rowid": "904608",
    "final_x": "3686239.73206",
    "final_y": "535495.925766",
    "longitude": "-90.05296370159517",
    "latitude": "29.9662833457551",
    "geocoded_column": {
      "latitude": "29.9662833457551",
      "longitude": "-90.05296370159517"
    }
  },
  {
    "service_request": "2022-904607",
    "request_type": "Trash/Recycling",
    "request_reason": "Missed Trash Pick-Up",
    "date_created": "2022-07-28T18:05:14.000",
    "date_modified": "2022-07-28T18:05:15.000",
    "request_status": "Pending",
    "responsible_agency": "Department of Sanitation",
    "final_address": "3809 Marais St",
    "address_councildis": "D",
    "status": "Assigned to Contractor",
    "contractor": "Metro Disposal",
    "rowid": "904607",
    "final_x": "3691417.83222",
    "final_y": "535845.597895",
    "longitude": "-90.03659892284641",
    "latitude": "29.9670847088675",
    "geocoded_column": {
      "latitude": "29.9670847088675",
      "longitude": "-90.03659892284641"
    }
  },
  {
    "service_request": "2022-904606",
    "request_type": "Trash/Recycling",
    "request_reason": "Missed Trash Pick-Up",
    "date_created": "2022-07-28T18:03:44.000",
    "date_modified": "2022-07-28T18:03:45.000",
    "request_status": "Pending",
    "responsible_agency": "Department of Sanitation",
    "final_address": "3117 N Villere St",
    "address_councildis": "C",
    "status": "Assigned to Contractor",
    "contractor": "Metro Disposal",
    "rowid": "904606",
    "final_x": "3689429.97321",
    "final_y": "537103.568072",
    "longitude": "-90.04283183289137",
    "latitude": "29.97060539285459",
    "geocoded_column": {
      "latitude": "29.97060539285459",
      "longitude": "-90.04283183289137"
    }
  },
  {
    "service_request": "2022-904604",
    "request_type": "Trash/Recycling",
    "request_reason": "Request a Large Item Pick Up",
    "date_created": "2022-07-28T17:47:13.000",
    "date_modified": "2022-07-28T17:47:14.000",
    "request_status": "Pending",
    "responsible_agency": "Department of Sanitation",
    "final_address": "2316 George Nick Connor Dr",
    "address_councildis": "D",
    "status": "Assigned to Contractor",
    "contractor": "Metro Disposal",
    "rowid": "904604",
    "final_x": "3681186.85813",
    "final_y": "540591.867083",
    "longitude": "-90.06874296621497",
    "latitude": "29.980449703386526",
    "geocoded_column": {
      "latitude": "29.980449703386526",
      "longitude": "-90.06874296621497"
    }
  },
  {
    "service_request": "2022-904603",
    "request_type": "Abandoned Vehicles",
    "request_reason": "Abandoned/Junk Vehicles",
    "date_created": "2022-07-28T17:46:03.000",
    "date_modified": "2022-07-28T17:46:03.000",
    "request_status": "Pending",
    "responsible_agency": "Department of Public Works",
    "final_address": "3710 Earhart Blvd",
    "address_councildis": "B",
    "status": "Pending",
    "rowid": "904603",
    "final_x": "3673237.34804",
    "final_y": "530755.296642",
    "longitude": "-90.09418696095834",
    "latitude": "29.95364128979086",
    "geocoded_column": {
      "latitude": "29.95364128979086",
      "longitude": "-90.09418696095834"
    }
  },
  {
    "service_request": "2022-904602",
    "request_type": "Trash/Recycling",
    "request_reason": "Missed Trash Pick-Up",
    "date_created": "2022-07-28T17:45:36.000",
    "date_modified": "2022-07-28T17:45:37.000",
    "request_status": "Pending",
    "responsible_agency": "Department of Sanitation",
    "final_address": "New Orleans, Louisiana",
    "status": "Assigned to Contractor",
    "rowid": "904602",
    "longitude": "0.0",
    "latitude": "0.0",
    "geocoded_column": {
      "latitude": "0.0",
      "longitude": "0.0"
    }
  },
  {
    "service_request": "2022-904601",
    "request_type": "Trash/Recycling",
    "request_reason": "MIssed Recycling Pick-Up",
    "date_created": "2022-07-28T17:45:15.000",
    "date_modified": "2022-07-28T17:45:15.000",
    "request_status": "Pending",
    "responsible_agency": "Department of Sanitation",
    "final_address": "5826 Clara St",
    "address_councildis": "A",
    "status": "Assigned to Contractor",
    "contractor": "Richards Disposal",
    "rowid": "904601",
    "final_x": "3666914.57978",
    "final_y": "525225.735933",
    "longitude": "-90.11433743670578",
    "latitude": "29.938623284611396",
    "geocoded_column": {
      "latitude": "29.938623284611396",
      "longitude": "-90.11433743670578"
    }
  },
  {
    "service_request": "2022-904600",
    "request_type": "Trash/Recycling",
    "request_reason": "Request a Large Item Pick Up",
    "date_created": "2022-07-28T17:44:17.000",
    "date_modified": "2022-07-28T17:44:17.000",
    "request_status": "Pending",
    "responsible_agency": "Department of Sanitation",
    "final_address": "2314 George Nick Connor Dr",
    "address_councildis": "D",
    "status": "Assigned to Contractor",
    "contractor": "Metro Disposal",
    "rowid": "904600",
    "final_x": "3681187.21493",
    "final_y": "540579.730443",
    "longitude": "-90.06874226234169",
    "latitude": "29.980416321030326",
    "geocoded_column": {
      "latitude": "29.980416321030326",
      "longitude": "-90.06874226234169"
    }
  },
  {
    "service_request": "2022-904599",
    "request_type": "Trash/Recycling",
    "request_reason": "Replace Trash Cart",
    "date_created": "2022-07-28T17:43:39.000",
    "date_modified": "2022-07-28T17:43:40.000",
    "request_status": "Pending",
    "responsible_agency": "Department of Sanitation",
    "final_address": "5000 Congress Dr",
    "address_councildis": "D",
    "status": "Assigned to Contractor",
    "contractor": "Metro Disposal",
    "rowid": "904599",
    "final_x": "3691933.85149",
    "final_y": "552713.046102",
    "longitude": "-90.03436547727122",
    "latitude": "30.013448020813893",
    "geocoded_column": {
      "latitude": "30.013448020813893",
      "longitude": "-90.03436547727122"
    }
  },
  {
    "service_request": "2022-904598",
    "request_type": "Safety & Permits",
    "request_reason": "Licenses & Permits",
    "date_created": "2022-07-28T17:40:40.000",
    "date_modified": "2022-07-28T17:40:40.000",
    "request_status": "Pending",
    "responsible_agency": "Safety and Permits",
    "status": "Pending",
    "rowid": "904598",
    "longitude": "0.0",
    "latitude": "0.0",
    "geocoded_column": {
      "latitude": "0.0",
      "longitude": "0.0"
    }
  },
  {
    "service_request": "2022-904597",
    "request_type": "Roads/Drainage",
    "request_reason": "Street Flooding / Drainage",
    "date_created": "2022-07-28T17:37:00.000",
    "date_modified": "2022-07-28T17:37:00.000",
    "request_status": "Pending",
    "responsible_agency": "Department of Public Works",
    "final_address": "4425 Fort Macomb Rd",
    "address_councildis": "E",
    "status": "Pending",
    "rowid": "904597",
    "final_x": "3763448.03875",
    "final_y": "573390.900522",
    "longitude": "-89.80755453626655",
    "latitude": "30.067879791275477",
    "geocoded_column": {
      "latitude": "30.067879791275477",
      "longitude": "-89.80755453626655"
    }
  },
  {
    "service_request": "2022-904595",
    "request_type": "Property Maintenance",
    "request_reason": "Property Maintenance",
    "date_created": "2022-07-28T17:30:31.000",
    "date_modified": "2022-07-28T17:30:31.000",
    "request_status": "Pending",
    "responsible_agency": "Department of Code Enforcement",
    "final_address": "8933 Forshey St",
    "address_councildis": "A",
    "status": "Pending",
    "rowid": "904595",
    "final_x": "3664714.61421",
    "final_y": "536056.254471",
    "longitude": "-90.1209211939863",
    "latitude": "29.968467865280882",
    "geocoded_column": {
      "latitude": "29.968467865280882",
      "longitude": "-90.1209211939863"
    }
  },
  {
    "service_request": "2022-904594",
    "request_type": "Trash/Recycling",
    "request_reason": "Return Recycling Cart",
    "date_created": "2022-07-28T17:25:32.000",
    "date_modified": "2022-07-28T17:25:32.000",
    "request_status": "Pending",
    "responsible_agency": "Department of Sanitation",
    "final_address": "4611 Baronne St",
    "address_councildis": "B",
    "status": "Pending",
    "rowid": "904594",
    "final_x": "3669922.26164",
    "final_y": "521586.325625",
    "longitude": "-90.10496501509711",
    "latitude": "29.928527751624316",
    "geocoded_column": {
      "latitude": "29.928527751624316",
      "longitude": "-90.10496501509711"
    }
  },
  {
    "service_request": "2022-904593",
    "request_type": "Trash/Recycling",
    "request_reason": "MIssed Recycling Pick-Up",
    "date_created": "2022-07-28T17:24:36.000",
    "date_modified": "2022-07-28T17:24:36.000",
    "request_status": "Pending",
    "responsible_agency": "Department of Sanitation",
    "final_address": "4611 Baronne St",
    "address_councildis": "B",
    "status": "Assigned to Contractor",
    "contractor": "Richards Disposal",
    "rowid": "904593",
    "final_x": "3669922.26164",
    "final_y": "521586.325625",
    "longitude": "-90.10496501509711",
    "latitude": "29.928527751624316",
    "geocoded_column": {
      "latitude": "29.928527751624316",
      "longitude": "-90.10496501509711"
    }
  },
  {
    "service_request": "2022-904592",
    "request_type": "Roads/Drainage",
    "request_reason": "Catch Basin - Broken/Damage",
    "date_created": "2022-07-28T17:22:57.000",
    "date_modified": "2022-07-28T17:22:57.000",
    "request_status": "Pending",
    "responsible_agency": "Department of Public Works",
    "final_address": "6235 Waldo Dr",
    "address_councildis": "D",
    "status": "Pending",
    "rowid": "904592",
    "final_x": "3681127.96987",
    "final_y": "556032.864537",
    "longitude": "-90.06839057522275",
    "latitude": "30.02290871420191",
    "geocoded_column": {
      "latitude": "30.02290871420191",
      "longitude": "-90.06839057522275"
    }
  },
  {
    "service_request": "2022-904591",
    "request_type": "Abandoned Vehicles",
    "request_reason": "Abandoned/Junk Vehicles",
    "date_created": "2022-07-28T17:21:14.000",
    "date_modified": "2022-07-28T17:21:14.000",
    "request_status": "Pending",
    "responsible_agency": "Department of Public Works",
    "final_address": "1800 N Claiborne Ave",
    "address_councildis": "C",
    "status": "Pending",
    "rowid": "904591",
    "final_x": "3683436.21679",
    "final_y": "537873.607689",
    "longitude": "-90.06173381116747",
    "latitude": "29.972906987633188",
    "geocoded_column": {
      "latitude": "29.972906987633188",
      "longitude": "-90.06173381116747"
    }
  },
  {
    "service_request": "2022-904590",
    "request_type": "Trash/Recycling",
    "request_reason": "Missed Trash Pick-Up",
    "date_created": "2022-07-28T17:19:59.000",
    "date_modified": "2022-07-28T17:20:00.000",
    "request_status": "Pending",
    "responsible_agency": "Department of Sanitation",
    "final_address": "2519 Cleveland Ave, New Orleans, Louisiana, 70119",
    "address_councildis": "B",
    "status": "Assigned to Contractor",
    "contractor": "Richards Disposal",
    "rowid": "904590",
    "final_x": "3675782.61697",
    "final_y": "534302.254085",
    "longitude": "-90.0860281437797",
    "latitude": "29.963318302068597",
    "geocoded_column": {
      "latitude": "29.963318302068597",
      "longitude": "-90.0860281437797"
    }
  },
  {
    "service_request": "2022-904589",
    "request_type": "Traffic Signals/Signs/Striping/Streetlights",
    "request_reason": "Traffic Signal Malfunctioning/Damaged",
    "date_created": "2022-07-28T17:16:31.000",
    "date_modified": "2022-07-28T17:16:32.000",
    "request_status": "Pending",
    "responsible_agency": "Department of Public Works",
    "final_address": "BROADWAY ST & S CLAIBORNE AVE",
    "address_councildis": "A",
    "status": "Pending",
    "rowid": "904589",
    "final_x": "3666389.3",
    "final_y": "529836.88",
    "longitude": "-90.11584112478184",
    "latitude": "29.951317797937595",
    "geocoded_column": {
      "latitude": "29.951317797937595",
      "longitude": "-90.11584112478184"
    }
  },
  {
    "service_request": "2022-904588",
    "request_type": "Roads/Drainage",
    "request_reason": "Pothole",
    "date_created": "2022-07-28T17:14:50.000",
    "date_modified": "2022-07-28T17:14:51.000",
    "request_status": "Pending",
    "responsible_agency": "Department of Public Works",
    "final_address": "LEAKE AVE & S CARROLLTON AVE",
    "address_councildis": "A",
    "status": "Pending",
    "rowid": "904588",
    "final_x": "3660454.2",
    "final_y": "526673.38",
    "longitude": "-90.1346858442484",
    "latitude": "29.942791247360123",
    "geocoded_column": {
      "latitude": "29.942791247360123",
      "longitude": "-90.1346858442484"
    }
  },
  {
    "service_request": "2022-904586",
    "request_type": "Trash/Recycling",
    "request_reason": "Missed Trash Pick-Up",
    "date_created": "2022-07-28T17:13:26.000",
    "date_modified": "2022-07-28T17:13:27.000",
    "request_status": "Pending",
    "responsible_agency": "Department of Sanitation",
    "final_address": "1735 Feliciana St",
    "address_councildis": "D",
    "status": "Assigned to Contractor",
    "contractor": "Metro Disposal",
    "rowid": "904586",
    "final_x": "3689393.39516",
    "final_y": "538520.101641",
    "longitude": "-90.04289696927974",
    "latitude": "29.974501493659407",
    "geocoded_column": {
      "latitude": "29.974501493659407",
      "longitude": "-90.04289696927974"
    }
  },
  {
    "service_request": "2022-904585",
    "request_type": "Trash/Recycling",
    "request_reason": "Missed Trash Pick-Up",
    "date_created": "2022-07-28T17:07:04.000",
    "date_modified": "2022-07-28T17:07:05.000",
    "request_status": "Pending",
    "responsible_agency": "Department of Sanitation",
    "final_address": "1921 Peniston St",
    "address_councildis": "B",
    "status": "Assigned to Contractor",
    "contractor": "Richards Disposal",
    "rowid": "904585",
    "final_x": "3672635.61864",
    "final_y": "522359.34713",
    "longitude": "-90.09637316536005",
    "latitude": "29.93057305084078",
    "geocoded_column": {
      "latitude": "29.93057305084078",
      "longitude": "-90.09637316536005"
    }
  },
  {
    "service_request": "2022-904584",
    "request_type": "Trash/Recycling",
    "request_reason": "Missed Trash Pick-Up",
    "date_created": "2022-07-28T17:02:31.000",
    "date_modified": "2022-07-28T17:02:33.000",
    "request_status": "Pending",
    "responsible_agency": "Department of Sanitation",
    "final_address": "7300 BLK Dalewood Rd",
    "address_councildis": "E",
    "status": "Assigned to Contractor",
    "contractor": "Metro Disposal",
    "rowid": "904584",
    "final_x": "3700095.08599",
    "final_y": "559989.405071",
    "longitude": "-90.00831458822611",
    "latitude": "30.033198303908758",
    "geocoded_column": {
      "latitude": "30.033198303908758",
      "longitude": "-90.00831458822611"
    }
  },
  {
    "service_request": "2022-904583",
    "request_type": "Trash/Recycling",
    "request_reason": "Repair Trash Cart",
    "date_created": "2022-07-28T16:58:02.000",
    "date_modified": "2022-07-28T16:58:03.000",
    "request_status": "Pending",
    "responsible_agency": "Department of Sanitation",
    "final_address": "327 Hillary St",
    "address_councildis": "A",
    "status": "Assigned to Contractor",
    "contractor": "Richards Disposal",
    "rowid": "904583",
    "final_x": "3661348.75808",
    "final_y": "524969.162109",
    "longitude": "-90.13191791257657",
    "latitude": "29.9380794270168",
    "geocoded_column": {
      "latitude": "29.9380794270168",
      "longitude": "-90.13191791257657"
    }
  },
  {
    "service_request": "2022-904582",
    "request_type": "Traffic Signals/Signs/Striping/Streetlights",
    "request_reason": "Street Light Outage/Malfunction",
    "date_created": "2022-07-28T16:54:43.000",
    "date_modified": "2022-07-28T16:54:43.000",
    "request_status": "Pending",
    "responsible_agency": "Department of Public Works",
    "final_address": "5913 Laurel St",
    "address_councildis": "A",
    "status": "Pending",
    "contractor": "Royal Engineering",
    "rowid": "904582",
    "final_x": "3664898.12871",
    "final_y": "518130.663158",
    "longitude": "-90.12094062346756",
    "latitude": "29.919172905455273",
    "geocoded_column": {
      "latitude": "29.919172905455273",
      "longitude": "-90.12094062346756"
    }
  },
  {
    "service_request": "2022-904581",
    "request_type": "Trash/Recycling",
    "request_reason": "Replace Trash Cart",
    "date_created": "2022-07-28T16:54:10.000",
    "date_modified": "2022-07-28T16:54:11.000",
    "request_status": "Pending",
    "responsible_agency": "Department of Sanitation",
    "final_address": "327 Hillary St, New Orleans, Louisiana, 70118",
    "address_councildis": "A",
    "status": "Assigned to Contractor",
    "contractor": "Richards Disposal",
    "rowid": "904581",
    "final_x": "3661348.75808",
    "final_y": "524969.162109",
    "longitude": "-90.13191791257657",
    "latitude": "29.9380794270168",
    "geocoded_column": {
      "latitude": "29.9380794270168",
      "longitude": "-90.13191791257657"
    }
  },
  {
    "service_request": "2022-904580",
    "request_type": "Trash/Recycling",
    "request_reason": "Request a Large Item Pick Up",
    "date_created": "2022-07-28T16:52:27.000",
    "date_modified": "2022-07-28T16:52:28.000",
    "request_status": "Pending",
    "responsible_agency": "Department of Sanitation",
    "final_address": "1212 N Gayoso St",
    "address_councildis": "A",
    "status": "Assigned to Contractor",
    "contractor": "Richards Disposal",
    "rowid": "904580",
    "final_x": "3676763.55048",
    "final_y": "539421.960906",
    "longitude": "-90.08275401098841",
    "latitude": "29.977366353180507",
    "geocoded_column": {
      "latitude": "29.977366353180507",
      "longitude": "-90.08275401098841"
    }
  },
  {
    "service_request": "2022-904579",
    "request_type": "Trash/Recycling",
    "request_reason": "Request a Large Item Pick Up",
    "date_created": "2022-07-28T16:52:06.000",
    "date_modified": "2022-07-28T16:52:07.000",
    "request_status": "Pending",
    "responsible_agency": "Department of Sanitation",
    "final_address": "818 Short St",
    "address_councildis": "A",
    "status": "Assigned to Contractor",
    "contractor": "Richards Disposal",
    "rowid": "904579",
    "final_x": "3661447.03091",
    "final_y": "527202.882239",
    "longitude": "-90.13153369023013",
    "latitude": "29.944218614972545",
    "geocoded_column": {
      "latitude": "29.944218614972545",
      "longitude": "-90.13153369023013"
    }
  },
  {
    "service_request": "2022-904578",
    "request_type": "Trash/Recycling",
    "request_reason": "Missed Trash Pick-Up",
    "date_created": "2022-07-28T16:51:36.000",
    "date_modified": "2022-07-28T16:51:37.000",
    "request_status": "Pending",
    "responsible_agency": "Department of Sanitation",
    "final_address": "423 S Gayoso St",
    "address_councildis": "B",
    "status": "Assigned to Contractor",
    "contractor": "Richards Disposal",
    "rowid": "904578",
    "final_x": "3673430.24347",
    "final_y": "534769.592006",
    "longitude": "-90.09344071801274",
    "latitude": "29.964673524744832",
    "geocoded_column": {
      "latitude": "29.964673524744832",
      "longitude": "-90.09344071801274"
    }
  },
  {
    "service_request": "2022-904577",
    "request_type": "Trash/Recycling",
    "request_reason": "Request a Large Item Pick Up",
    "date_created": "2022-07-28T16:50:49.000",
    "date_modified": "2022-07-28T16:50:50.000",
    "request_status": "Pending",
    "responsible_agency": "Department of Sanitation",
    "final_address": "2315 Wirth Pl",
    "address_councildis": "A",
    "status": "Assigned to Contractor",
    "contractor": "Richards Disposal",
    "rowid": "904577",
    "final_x": "3667201.55847",
    "final_y": "524631.48678",
    "longitude": "-90.1134513846785",
    "latitude": "29.93698089211892",
    "geocoded_column": {
      "latitude": "29.93698089211892",
      "longitude": "-90.1134513846785"
    }
  },
  {
    "service_request": "2022-904576",
    "request_type": "Traffic Signals/Signs/Striping/Streetlights",
    "request_reason": "Street Light Outage/Malfunction",
    "date_created": "2022-07-28T16:50:47.000",
    "date_modified": "2022-07-28T16:50:48.000",
    "request_status": "Pending",
    "responsible_agency": "Department of Public Works",
    "final_address": "LAUREL ST & ELEONORE ST",
    "address_councildis": "A",
    "status": "Pending",
    "contractor": "Royal Engineering",
    "rowid": "904576",
    "final_x": "3665010.7",
    "final_y": "518070.38",
    "longitude": "-90.12058730564416",
    "latitude": "29.919003869977004",
    "geocoded_column": {
      "latitude": "29.919003869977004",
      "longitude": "-90.12058730564416"
    }
  },
  {
    "service_request": "2022-904575",
    "request_type": "Abandoned Vehicles",
    "request_reason": "Abandoned/Junk Vehicles",
    "date_created": "2022-07-28T16:49:51.000",
    "date_modified": "2022-07-28T16:49:51.000",
    "request_status": "Pending",
    "responsible_agency": "Department of Public Works",
    "final_address": "2849 Carondelet St",
    "address_councildis": "B",
    "status": "Pending",
    "rowid": "904575",
    "final_x": "3675355.83592",
    "final_y": "522660.253946",
    "longitude": "-90.08777550750061",
    "latitude": "29.93131942144872",
    "geocoded_column": {
      "latitude": "29.93131942144872",
      "longitude": "-90.08777550750061"
    }
  },
  {
    "service_request": "2022-904574",
    "request_type": "Trash/Recycling",
    "request_reason": "MIssed Recycling Pick-Up",
    "date_created": "2022-07-28T16:49:23.000",
    "date_modified": "2022-07-28T16:49:24.000",
    "request_status": "Pending",
    "responsible_agency": "Department of Sanitation",
    "final_address": "2205 Valmont St",
    "address_councildis": "B",
    "status": "Assigned to Contractor",
    "contractor": "Richards Disposal",
    "rowid": "904574",
    "final_x": "3668244.38061",
    "final_y": "523649.721275",
    "longitude": "-90.11019221378436",
    "latitude": "29.93425078360176",
    "geocoded_column": {
      "latitude": "29.93425078360176",
      "longitude": "-90.11019221378436"
    }
  },
  {
    "service_request": "2022-904573",
    "request_type": "Trash/Recycling",
    "request_reason": "Illegal Dumping",
    "date_created": "2022-07-28T16:48:45.000",
    "date_modified": "2022-07-28T16:48:46.000",
    "request_status": "Pending",
    "responsible_agency": "Department of Sanitation",
    "final_address": "3000 BLK Baronne St",
    "address_councildis": "B",
    "status": "Pending",
    "rowid": "904573",
    "final_x": "3674709.46715",
    "final_y": "522614.789532",
    "longitude": "-90.08981757335197",
    "latitude": "29.93121371296849",
    "geocoded_column": {
      "latitude": "29.93121371296849",
      "longitude": "-90.08981757335197"
    }
  },
  {
    "service_request": "2022-904572",
    "request_type": "Trash/Recycling",
    "request_reason": "Missed Trash Pick-Up",
    "date_created": "2022-07-28T16:47:47.000",
    "date_modified": "2022-07-28T16:47:47.000",
    "request_status": "Pending",
    "responsible_agency": "Department of Sanitation",
    "final_address": "1528 Clouet St",
    "address_councildis": "D",
    "status": "Assigned to Contractor",
    "contractor": "Metro Disposal",
    "rowid": "904572",
    "final_x": "3689407.53321",
    "final_y": "537741.871944",
    "longitude": "-90.04287999834645",
    "latitude": "29.97236119872097",
    "geocoded_column": {
      "latitude": "29.97236119872097",
      "longitude": "-90.04287999834645"
    }
  },
  {
    "service_request": "2022-904571",
    "request_type": "Trash/Recycling",
    "request_reason": "Illegal Dumping",
    "date_created": "2022-07-28T16:46:27.000",
    "date_modified": "2022-07-28T16:46:27.000",
    "request_status": "Pending",
    "responsible_agency": "Department of Sanitation",
    "final_address": "4325 Loyola Ave",
    "address_councildis": "B",
    "status": "Pending",
    "rowid": "904571",
    "final_x": "3670835.39758",
    "final_y": "523068.310459",
    "longitude": "-90.10203215998733",
    "latitude": "29.93257578598287",
    "geocoded_column": {
      "latitude": "29.93257578598287",
      "longitude": "-90.10203215998733"
    }
  },
  {
    "service_request": "2022-904570",
    "request_type": "Trash/Recycling",
    "request_reason": "Missed Trash Pick-Up",
    "date_created": "2022-07-28T16:46:21.000",
    "date_modified": "2022-07-28T16:46:22.000",
    "request_status": "Pending",
    "responsible_agency": "Department of Sanitation",
    "final_address": "2206 Ursulines Ave",
    "address_councildis": "D",
    "status": "Assigned to Contractor",
    "contractor": "Richards Disposal",
    "rowid": "904570",
    "final_x": "3679167.87272",
    "final_y": "536880.164936",
    "longitude": "-90.07524850507848",
    "latitude": "29.970304916736975",
    "geocoded_column": {
      "latitude": "29.970304916736975",
      "longitude": "-90.07524850507848"
    }
  },
  {
    "service_request": "2022-904569",
    "request_type": "Trash/Recycling",
    "request_reason": "MIssed Recycling Pick-Up",
    "date_created": "2022-07-28T16:45:38.000",
    "date_modified": "2022-07-28T16:45:39.000",
    "request_status": "Pending",
    "responsible_agency": "Department of Sanitation",
    "final_address": "5014 S Prieur St",
    "address_councildis": "B",
    "status": "Assigned to Contractor",
    "contractor": "Richards Disposal",
    "rowid": "904569",
    "final_x": "3668768.77863",
    "final_y": "526573.862846",
    "longitude": "-90.1084380176283",
    "latitude": "29.942275828593395",
    "geocoded_column": {
      "latitude": "29.942275828593395",
      "longitude": "-90.1084380176283"
    }
  },
  {
    "service_request": "2022-904568",
    "request_type": "Trash/Recycling",
    "request_reason": "MIssed Recycling Pick-Up",
    "date_created": "2022-07-28T16:44:53.000",
    "date_modified": "2022-07-28T16:44:53.000",
    "request_status": "Pending",
    "responsible_agency": "Department of Sanitation",
    "final_address": "4506 St Claude Ave",
    "address_councildis": "C",
    "status": "Assigned to Contractor",
    "contractor": "Metro Disposal",
    "rowid": "904568",
    "final_x": "3693370.41769",
    "final_y": "534863.163846",
    "longitude": "-90.03046794882333",
    "latitude": "29.964322458050418",
    "geocoded_column": {
      "latitude": "29.964322458050418",
      "longitude": "-90.03046794882333"
    }
  },
  {
    "service_request": "2022-904567",
    "request_type": "Abandoned Vehicles",
    "request_reason": "Abandoned/Junk Vehicles",
    "date_created": "2022-07-28T16:43:59.000",
    "date_modified": "2022-07-28T16:44:00.000",
    "request_status": "Pending",
    "responsible_agency": "Department of Public Works",
    "final_address": "4205 Perrier St",
    "address_councildis": "B",
    "status": "Pending",
    "rowid": "904567",
    "final_x": "3671596.53287",
    "final_y": "520171.374008",
    "longitude": "-90.09972777393337",
    "latitude": "29.924587628722843",
    "geocoded_column": {
      "latitude": "29.924587628722843",
      "longitude": "-90.09972777393337"
    }
  },
  {
    "service_request": "2022-904566",
    "request_type": "Traffic Signals/Signs/Striping/Streetlights",
    "request_reason": "Traffic Signal Malfunctioning/Damaged",
    "date_created": "2022-07-28T16:42:17.000",
    "date_modified": "2022-07-28T16:42:17.000",
    "request_status": "Pending",
    "responsible_agency": "Department of Public Works",
    "final_address": "2230 Broadway St",
    "address_councildis": "A",
    "status": "Pending",
    "rowid": "904566",
    "final_x": "3666236.18849",
    "final_y": "529694.845761",
    "longitude": "-90.11632934069942",
    "latitude": "29.950931722358888",
    "geocoded_column": {
      "latitude": "29.950931722358888",
      "longitude": "-90.11632934069942"
    }
  },
  {
    "service_request": "2022-904565",
    "request_type": "Roads/Drainage",
    "request_reason": "Pothole",
    "date_created": "2022-07-28T16:41:05.000",
    "date_modified": "2022-07-28T16:41:05.000",
    "request_status": "Pending",
    "responsible_agency": "Department of Public Works",
    "final_address": "1800 BLK N Miro St",
    "address_councildis": "D",
    "status": "Pending",
    "rowid": "904565",
    "final_x": "3681900.30349",
    "final_y": "540133.139994",
    "longitude": "-90.06650561945159",
    "latitude": "29.979166694373003",
    "geocoded_column": {
      "latitude": "29.979166694373003",
      "longitude": "-90.06650561945159"
    }
  },
  {
    "service_request": "2022-904564",
    "request_type": "Trash/Recycling",
    "request_reason": "Request a Large Item Pick Up",
    "date_created": "2022-07-28T16:31:15.000",
    "date_modified": "2022-07-28T16:31:16.000",
    "request_status": "Pending",
    "responsible_agency": "Department of Sanitation",
    "final_address": "936 Moss St, New Orleans, Louisiana, 70119",
    "address_councildis": "A",
    "status": "Assigned to Contractor",
    "contractor": "Richards Disposal",
    "rowid": "904564",
    "final_x": "3674988.42037",
    "final_y": "539614.096458",
    "longitude": "-90.08835387514017",
    "latitude": "29.977947812326022",
    "geocoded_column": {
      "latitude": "29.977947812326022",
      "longitude": "-90.08835387514017"
    }
  },
  {
    "service_request": "2022-904563",
    "request_type": "Trash/Recycling",
    "request_reason": "MIssed Recycling Pick-Up",
    "date_created": "2022-07-28T16:22:58.000",
    "date_modified": "2022-07-28T16:22:58.000",
    "request_status": "Pending",
    "responsible_agency": "Department of Sanitation",
    "final_address": "5521 S Claiborne Ave",
    "address_councildis": "A",
    "status": "Assigned to Contractor",
    "contractor": "Richards Disposal",
    "rowid": "904563",
    "final_x": "3668020.69805",
    "final_y": "526758.56755",
    "longitude": "-90.11079365983107",
    "latitude": "29.942805674570323",
    "geocoded_column": {
      "latitude": "29.942805674570323",
      "longitude": "-90.11079365983107"
    }
  },
  {
    "service_request": "2022-904562",
    "request_type": "Trash/Recycling",
    "request_reason": "Missed Trash Pick-Up",
    "date_created": "2022-07-28T16:15:10.000",
    "date_modified": "2022-07-28T16:15:11.000",
    "request_status": "Pending",
    "responsible_agency": "Department of Sanitation",
    "final_address": "1135 Philip St",
    "address_councildis": "B",
    "status": "Assigned to Contractor",
    "contractor": "Richards Disposal",
    "rowid": "904562",
    "final_x": "3678404.33051",
    "final_y": "522111.522682",
    "longitude": "-90.0781707638938",
    "latitude": "29.92971911958499",
    "geocoded_column": {
      "latitude": "29.92971911958499",
      "longitude": "-90.0781707638938"
    }
  },
  {
    "service_request": "2022-904561",
    "request_type": "Trash/Recycling",
    "request_reason": "Request a Large Item Pick Up",
    "date_created": "2022-07-28T16:13:12.000",
    "date_modified": "2022-07-28T16:13:13.000",
    "request_status": "Pending",
    "responsible_agency": "Department of Sanitation",
    "final_address": "424 River Oaks Dr",
    "address_councildis": "C",
    "status": "Assigned to Contractor",
    "contractor": "Richards Disposal",
    "rowid": "904561",
    "final_x": "3701588.97655",
    "final_y": "521692.051321",
    "longitude": "-90.00499676009811",
    "latitude": "29.92784703498088",
    "geocoded_column": {
      "latitude": "29.92784703498088",
      "longitude": "-90.00499676009811"
    }
  },
  {
    "service_request": "2022-904560",
    "request_type": "Abandoned Vehicles",
    "request_reason": "Abandoned/Junk Vehicles",
    "date_created": "2022-07-28T16:10:19.000",
    "date_modified": "2022-07-28T16:11:50.000",
    "request_status": "Pending",
    "responsible_agency": "Department of Public Works",
    "final_address": "30 Westpark Ct",
    "address_councildis": "C",
    "status": "Pending",
    "rowid": "904560",
    "final_x": "3695926.97098",
    "final_y": "521726.106746",
    "longitude": "-90.02286906115742",
    "latitude": "29.928119943761857",
    "geocoded_column": {
      "latitude": "29.928119943761857",
      "longitude": "-90.02286906115742"
    }
  },
  {
    "service_request": "2022-904559",
    "request_type": "Trash/Recycling",
    "request_reason": "MIssed Recycling Pick-Up",
    "date_created": "2022-07-28T16:09:45.000",
    "date_modified": "2022-07-28T16:09:46.000",
    "request_status": "Pending",
    "responsible_agency": "Department of Sanitation",
    "final_address": "5351 Tchoupitoulas St",
    "address_councildis": "B",
    "status": "Assigned to Contractor",
    "contractor": "Richards Disposal",
    "rowid": "904559",
    "final_x": "3666843.49517",
    "final_y": "517212.276725",
    "longitude": "-90.11483089618059",
    "latitude": "29.916590888881792",
    "geocoded_column": {
      "latitude": "29.916590888881792",
      "longitude": "-90.11483089618059"
    }
  },
  {
    "service_request": "2022-904558",
    "request_type": "Trash/Recycling",
    "request_reason": "Request a Large Item Pick Up",
    "date_created": "2022-07-28T16:09:16.000",
    "date_modified": "2022-07-28T16:09:17.000",
    "request_status": "Pending",
    "responsible_agency": "Department of Sanitation",
    "final_address": "4533 Piety Dr",
    "address_councildis": "D",
    "status": "Assigned to Contractor",
    "contractor": "Metro Disposal",
    "rowid": "904558",
    "final_x": "3691792.04156",
    "final_y": "551025.713941",
    "longitude": "-90.0348739318507",
    "latitude": "30.008812902007307",
    "geocoded_column": {
      "latitude": "30.008812902007307",
      "longitude": "-90.0348739318507"
    }
  },
  {
    "service_request": "2022-904557",
    "request_type": "Property Maintenance",
    "request_reason": "Property Maintenance",
    "date_created": "2022-07-28T16:09:14.000",
    "date_modified": "2022-07-28T16:09:15.000",
    "request_status": "Pending",
    "responsible_agency": "Department of Code Enforcement",
    "final_address": "N DORGENOIS ST & GALLIER ST",
    "address_councildis": "D",
    "status": "Pending",
    "rowid": "904557",
    "final_x": "3691770.5",
    "final_y": "540915.18",
    "longitude": "-90.03530383850226",
    "latitude": "29.98101328084629",
    "geocoded_column": {
      "latitude": "29.98101328084629",
      "longitude": "-90.03530383850226"
    }
  },
  {
    "service_request": "2022-904556",
    "request_type": "Parks & Parkways",
    "request_reason": "Request Tree Service (Right of Way/Public Property)",
    "date_created": "2022-07-28T16:07:56.000",
    "date_modified": "2022-07-28T16:07:57.000",
    "request_status": "Pending",
    "responsible_agency": "Department of Parks & Parkway",
    "final_address": "8437 Sycamore St",
    "address_councildis": "A",
    "status": "Pending",
    "rowid": "904556",
    "final_x": "3663346.54611",
    "final_y": "531925.102467",
    "longitude": "-90.12537917865052",
    "latitude": "29.95714828028268",
    "geocoded_column": {
      "latitude": "29.95714828028268",
      "longitude": "-90.12537917865052"
    }
  },
  {
    "service_request": "2022-904555",
    "request_type": "Trash/Recycling",
    "request_reason": "Request a Large Item Pick Up",
    "date_created": "2022-07-28T16:07:45.000",
    "date_modified": "2022-07-28T16:07:46.000",
    "request_status": "Pending",
    "responsible_agency": "Department of Sanitation",
    "final_address": "4534 Toulouse St",
    "address_councildis": "A",
    "status": "Assigned to Contractor",
    "contractor": "Richards Disposal",
    "rowid": "904555",
    "final_x": "3670555.80615",
    "final_y": "540958.106443",
    "longitude": "-90.10230805626439",
    "latitude": "29.981775065636025",
    "geocoded_column": {
      "latitude": "29.981775065636025",
      "longitude": "-90.10230805626439"
    }
  },
  {
    "service_request": "2022-904554",
    "request_type": "Trash/Recycling",
    "request_reason": "Missed Trash Pick-Up",
    "date_created": "2022-07-28T16:00:53.000",
    "date_modified": "2022-07-28T16:00:54.000",
    "request_status": "Pending",
    "responsible_agency": "Department of Sanitation",
    "final_address": "1327 Lesseps St",
    "address_councildis": "D",
    "status": "Assigned to Contractor",
    "contractor": "Metro Disposal",
    "rowid": "904554",
    "final_x": "3692965.80157",
    "final_y": "536013.918151",
    "longitude": "-90.03170440782092",
    "latitude": "29.967499270321046",
    "geocoded_column": {
      "latitude": "29.967499270321046",
      "longitude": "-90.03170440782092"
    }
  },
  {
    "service_request": "2022-904553",
    "request_type": "Abandoned Vehicles",
    "request_reason": "Abandoned/Junk Vehicles",
    "date_created": "2022-07-28T15:59:07.000",
    "date_modified": "2022-07-28T15:59:07.000",
    "request_status": "Pending",
    "responsible_agency": "Department of Public Works",
    "final_address": "3151 Yupon St",
    "address_councildis": "D",
    "status": "Pending",
    "rowid": "904553",
    "final_x": "3675640.67669",
    "final_y": "544107.871822",
    "longitude": "-90.08613933554462",
    "latitude": "29.99028463920635",
    "geocoded_column": {
      "latitude": "29.99028463920635",
      "longitude": "-90.08613933554462"
    }
  },
  {
    "service_request": "2022-904552",
    "request_type": "Trash/Recycling",
    "request_reason": "MIssed Recycling Pick-Up",
    "date_created": "2022-07-28T15:58:17.000",
    "date_modified": "2022-07-28T15:58:17.000",
    "request_status": "Pending",
    "responsible_agency": "Department of Sanitation",
    "final_address": "CARONDELET ST & VALENCE ST",
    "address_councildis": "B",
    "status": "Assigned to Contractor",
    "contractor": "Richards Disposal",
    "rowid": "904552",
    "final_x": "3669706.6",
    "final_y": "521129.18",
    "longitude": "-90.1056612765996",
    "latitude": "29.927277102369835",
    "geocoded_column": {
      "latitude": "29.927277102369835",
      "longitude": "-90.1056612765996"
    }
  },
  {
    "service_request": "2022-904550",
    "request_type": "Property Maintenance",
    "request_reason": "Property Maintenance",
    "date_created": "2022-07-28T15:52:23.000",
    "date_modified": "2022-07-28T15:52:24.000",
    "request_status": "Pending",
    "responsible_agency": "Department of Code Enforcement",
    "final_address": "7450 Mayo Rd",
    "address_councildis": "E",
    "status": "Pending",
    "rowid": "904550",
    "final_x": "3700832.84573",
    "final_y": "560301.438045",
    "longitude": "-90.00597178643922",
    "latitude": "30.034032795083192",
    "geocoded_column": {
      "latitude": "30.034032795083192",
      "longitude": "-90.00597178643922"
    }
  },
  {
    "service_request": "2022-904549",
    "request_type": "Trash/Recycling",
    "request_reason": "Missed Trash Pick-Up",
    "date_created": "2022-07-28T15:45:48.000",
    "date_modified": "2022-07-28T15:45:49.000",
    "request_status": "Pending",
    "responsible_agency": "Department of Sanitation",
    "final_address": "322 S Gayoso St",
    "address_councildis": "B",
    "status": "Assigned to Contractor",
    "contractor": "Richards Disposal",
    "rowid": "904549",
    "final_x": "3673759.04513",
    "final_y": "535043.90279",
    "longitude": "-90.09239300207814",
    "latitude": "29.965418000014445",
    "geocoded_column": {
      "latitude": "29.965418000014445",
      "longitude": "-90.09239300207814"
    }
  },
  {
    "service_request": "2022-904548",
    "request_type": "Roads/Drainage",
    "request_reason": "Debris in Roadway",
    "date_created": "2022-07-28T15:44:32.000",
    "date_modified": "2022-07-28T15:44:33.000",
    "request_status": "Pending",
    "responsible_agency": "Department of Public Works",
    "final_address": "FRERET ST & NASHVILLE AVE",
    "address_councildis": "A",
    "status": "Pending",
    "rowid": "904548",
    "final_x": "3666869.7",
    "final_y": "524241.88",
    "longitude": "-90.11451216722769",
    "latitude": "29.935919308606362",
    "geocoded_column": {
      "latitude": "29.935919308606362",
      "longitude": "-90.11451216722769"
    }
  },
  {
    "service_request": "2022-904547",
    "request_type": "Trash/Recycling",
    "request_reason": "Request a Large Item Pick Up",
    "date_created": "2022-07-28T15:41:14.000",
    "date_modified": "2022-07-28T15:41:15.000",
    "request_status": "Pending",
    "responsible_agency": "Department of Sanitation",
    "final_address": "3224 Palmyra St",
    "address_councildis": "B",
    "status": "Assigned to Contractor",
    "contractor": "Richards Disposal",
    "rowid": "904547",
    "final_x": "3673166.43374",
    "final_y": "535676.397895",
    "longitude": "-90.09424284549077",
    "latitude": "29.96717478269423",
    "geocoded_column": {
      "latitude": "29.96717478269423",
      "longitude": "-90.09424284549077"
    }
  },
  {
    "service_request": "2022-904546",
    "request_type": "Property Maintenance",
    "request_reason": "Property Maintenance",
    "date_created": "2022-07-28T15:37:20.000",
    "date_modified": "2022-07-28T15:37:21.000",
    "request_status": "Pending",
    "responsible_agency": "Department of Code Enforcement",
    "final_address": "2417 Dryades St",
    "address_councildis": "B",
    "status": "Pending",
    "rowid": "904546",
    "final_x": "3676189.60232",
    "final_y": "524053.15878",
    "longitude": "-90.08509550687829",
    "latitude": "29.935124507872462",
    "geocoded_column": {
      "latitude": "29.935124507872462",
      "longitude": "-90.08509550687829"
    }
  },
  {
    "service_request": "2022-904545",
    "request_type": "Roads/Drainage",
    "request_reason": "Catch Basin - Clogged",
    "date_created": "2022-07-28T15:36:50.000",
    "date_modified": "2022-07-28T15:36:50.000",
    "request_status": "Pending",
    "responsible_agency": "Department of Public Works",
    "final_address": "869 Tchoupitoulas St",
    "address_councildis": "B",
    "status": "Pending",
    "rowid": "904545",
    "final_x": "3681661.37615",
    "final_y": "527281.259263",
    "longitude": "-90.06770859012786",
    "latitude": "29.943835673475743",
    "geocoded_column": {
      "latitude": "29.943835673475743",
      "longitude": "-90.06770859012786"
    }
  },
  {
    "service_request": "2022-904544",
    "request_type": "Trash/Recycling",
    "request_reason": "Illegal Dumping",
    "date_created": "2022-07-28T15:36:14.000",
    "date_modified": "2022-07-28T15:36:14.000",
    "request_status": "Pending",
    "responsible_agency": "Department of Sanitation",
    "final_address": "5700 Tullis Dr",
    "address_councildis": "C",
    "status": "Pending",
    "rowid": "904544",
    "final_x": "3705093.55531",
    "final_y": "512744.214897",
    "longitude": "-89.9942638108508",
    "latitude": "29.903131392237807",
    "geocoded_column": {
      "latitude": "29.903131392237807",
      "longitude": "-89.9942638108508"
    }
  },
  {
    "service_request": "2022-904543",
    "request_type": "Trash/Recycling",
    "request_reason": "Illegal Dumping",
    "date_created": "2022-07-28T15:35:04.000",
    "date_modified": "2022-07-28T15:35:04.000",
    "request_status": "Pending",
    "responsible_agency": "Department of Sanitation",
    "final_address": "3318 S Roman St",
    "address_councildis": "B",
    "status": "Pending",
    "rowid": "904543",
    "final_x": "3672142.74747",
    "final_y": "526940.621566",
    "longitude": "-90.09777314148151",
    "latitude": "29.943184690395363",
    "geocoded_column": {
      "latitude": "29.943184690395363",
      "longitude": "-90.09777314148151"
    }
  },
  {
    "service_request": "2022-904542",
    "request_type": "Abandoned Vehicles",
    "request_reason": "Abandoned/Junk Vehicles",
    "date_created": "2022-07-28T15:32:58.000",
    "date_modified": "2022-07-28T15:33:34.000",
    "request_status": "Pending",
    "responsible_agency": "Department of Public Works",
    "final_address": "3318 S Roman St",
    "address_councildis": "B",
    "status": "Pending",
    "rowid": "904542",
    "final_x": "3672142.74747",
    "final_y": "526940.621566",
    "longitude": "-90.09777314148151",
    "latitude": "29.943184690395363",
    "geocoded_column": {
      "latitude": "29.943184690395363",
      "longitude": "-90.09777314148151"
    }
  },
  {
    "service_request": "2022-904541",
    "request_type": "Safety & Permits",
    "request_reason": "Licenses & Permits",
    "date_created": "2022-07-28T15:31:35.000",
    "date_modified": "2022-07-28T15:31:36.000",
    "request_status": "Pending",
    "responsible_agency": "Safety and Permits",
    "final_address": "2520 Magnolia St",
    "address_councildis": "B",
    "status": "Pending",
    "rowid": "904541",
    "final_x": "3674367.69691",
    "final_y": "526183.86771",
    "longitude": "-90.09077431806041",
    "latitude": "29.941037708985725",
    "geocoded_column": {
      "latitude": "29.941037708985725",
      "longitude": "-90.09077431806041"
    }
  },
  {
    "service_request": "2022-904540",
    "request_type": "Roads/Drainage",
    "request_reason": "Pothole",
    "date_created": "2022-07-28T15:30:13.000",
    "date_modified": "2022-07-28T15:30:13.000",
    "request_status": "Pending",
    "responsible_agency": "Department of Public Works",
    "final_address": "8516 Pritchard Pl, New Orleans, Louisiana, 70118",
    "address_councildis": "A",
    "status": "Pending",
    "rowid": "904540",
    "final_x": "3664865.38695",
    "final_y": "533923.192389",
    "longitude": "-90.12051634482215",
    "latitude": "29.962598259589683",
    "geocoded_column": {
      "latitude": "29.962598259589683",
      "longitude": "-90.12051634482215"
    }
  },
  {
    "service_request": "2022-904539",
    "request_type": "Trash/Recycling",
    "request_reason": "Missed Trash Pick-Up",
    "date_created": "2022-07-28T15:26:42.000",
    "date_modified": "2022-07-28T15:26:43.000",
    "request_status": "Pending",
    "responsible_agency": "Department of Sanitation",
    "final_address": "2831 Audubon St",
    "address_councildis": "B",
    "status": "Assigned to Contractor",
    "contractor": "Richards Disposal",
    "rowid": "904539",
    "final_x": "3667694.17434",
    "final_y": "531295.870018",
    "longitude": "-90.11167184375363",
    "latitude": "29.955291355719048",
    "geocoded_column": {
      "latitude": "29.955291355719048",
      "longitude": "-90.11167184375363"
    }
  },
  {
    "service_request": "2022-904538",
    "request_type": "Trash/Recycling",
    "request_reason": "Order Trash Cart",
    "date_created": "2022-07-28T15:26:33.000",
    "date_modified": "2022-07-28T15:26:34.000",
    "request_status": "Pending",
    "responsible_agency": "Department of Sanitation",
    "final_address": "New Orleans,LA",
    "status": "Assigned to Contractor",
    "rowid": "904538",
    "longitude": "0.0",
    "latitude": "0.0",
    "geocoded_column": {
      "latitude": "0.0",
      "longitude": "0.0"
    }
  },
  {
    "service_request": "2022-904537",
    "request_type": "Trash/Recycling",
    "request_reason": "Request a Large Item Pick Up",
    "date_created": "2022-07-28T15:25:03.000",
    "date_modified": "2022-07-28T15:25:05.000",
    "request_status": "Pending",
    "responsible_agency": "Department of Sanitation",
    "final_address": "13629 N Cavelier Dr",
    "address_councildis": "E",
    "status": "Assigned to Contractor",
    "contractor": "Metro Disposal",
    "rowid": "904537",
    "final_x": "3723920.47878",
    "final_y": "569804.045414",
    "longitude": "-89.93264589736121",
    "latitude": "30.059405423528183",
    "geocoded_column": {
      "latitude": "30.059405423528183",
      "longitude": "-89.93264589736121"
    }
  },
  {
    "service_request": "2022-904536",
    "request_type": "Property Maintenance",
    "request_reason": "Property Maintenance",
    "date_created": "2022-07-28T15:24:37.000",
    "date_modified": "2022-07-28T15:24:38.000",
    "request_status": "Pending",
    "responsible_agency": "Department of Code Enforcement",
    "final_address": "2422 Carondelet St",
    "address_councildis": "B",
    "status": "Pending",
    "rowid": "904536",
    "final_x": "3676590.66491",
    "final_y": "523402.278779",
    "longitude": "-90.08385175994302",
    "latitude": "29.933322781233617",
    "geocoded_column": {
      "latitude": "29.933322781233617",
      "longitude": "-90.08385175994302"
    }
  },
  {
    "service_request": "2022-904535",
    "request_type": "Trash/Recycling",
    "request_reason": "Repair Trash Cart",
    "date_created": "2022-07-28T15:24:17.000",
    "date_modified": "2022-07-28T15:24:18.000",
    "request_status": "Pending",
    "responsible_agency": "Department of Sanitation",
    "final_address": "1512 N Robertson St",
    "address_councildis": "C",
    "status": "Assigned to Contractor",
    "contractor": "Metro Disposal",
    "rowid": "904535",
    "final_x": "3682146.09352",
    "final_y": "537037.090888",
    "longitude": "-90.06583748683254",
    "latitude": "29.970646160079063",
    "geocoded_column": {
      "latitude": "29.970646160079063",
      "longitude": "-90.06583748683254"
    }
  },
  {
    "service_request": "2022-904534",
    "request_type": "Safety & Permits",
    "request_reason": "Licenses & Permits",
    "date_created": "2022-07-28T15:23:35.000",
    "date_modified": "2022-07-28T15:23:35.000",
    "request_status": "Pending",
    "responsible_agency": "Safety and Permits",
    "final_address": "2422 Carondelet St",
    "address_councildis": "B",
    "status": "Pending",
    "rowid": "904534",
    "final_x": "3676590.66491",
    "final_y": "523402.278779",
    "longitude": "-90.08385175994302",
    "latitude": "29.933322781233617",
    "geocoded_column": {
      "latitude": "29.933322781233617",
      "longitude": "-90.08385175994302"
    }
  },
  {
    "service_request": "2022-904533",
    "request_type": "Traffic Signals/Signs/Striping/Streetlights",
    "request_reason": "Street Light Outage/Malfunction",
    "date_created": "2022-07-28T15:21:00.000",
    "date_modified": "2022-07-28T15:21:00.000",
    "request_status": "Pending",
    "responsible_agency": "Department of Public Works",
    "final_address": "518 S Rampart St",
    "address_councildis": "B",
    "status": "Pending",
    "contractor": "Royal Engineering",
    "rowid": "904533",
    "final_x": "3679326.9837",
    "final_y": "529476.803201",
    "longitude": "-90.07500277489231",
    "latitude": "29.949943377647546",
    "geocoded_column": {
      "latitude": "29.949943377647546",
      "longitude": "-90.07500277489231"
    }
  },
  {
    "service_request": "2022-904532",
    "request_type": "Traffic Signals/Signs/Striping/Streetlights",
    "request_reason": "Street Light Outage/Malfunction",
    "date_created": "2022-07-28T15:20:43.000",
    "date_modified": "2022-07-28T15:20:43.000",
    "request_status": "Pending",
    "responsible_agency": "Department of Public Works",
    "final_address": "518 S Rampart St",
    "address_councildis": "B",
    "status": "Pending",
    "contractor": "Royal Engineering",
    "rowid": "904532",
    "final_x": "3679326.9837",
    "final_y": "529476.803201",
    "longitude": "-90.07500277489231",
    "latitude": "29.949943377647546",
    "geocoded_column": {
      "latitude": "29.949943377647546",
      "longitude": "-90.07500277489231"
    }
  },
  {
    "service_request": "2022-904531",
    "request_type": "Traffic Signals/Signs/Striping/Streetlights",
    "request_reason": "Street Light Outage/Malfunction",
    "date_created": "2022-07-28T15:20:30.000",
    "date_modified": "2022-07-28T15:20:31.000",
    "request_status": "Pending",
    "responsible_agency": "Department of Public Works",
    "final_address": "518 S Rampart St",
    "address_councildis": "B",
    "status": "Pending",
    "contractor": "Royal Engineering",
    "rowid": "904531",
    "final_x": "3679326.9837",
    "final_y": "529476.803201",
    "longitude": "-90.07500277489231",
    "latitude": "29.949943377647546",
    "geocoded_column": {
      "latitude": "29.949943377647546",
      "longitude": "-90.07500277489231"
    }
  },
  {
    "service_request": "2022-904530",
    "request_type": "Property Maintenance",
    "request_reason": "Property Maintenance",
    "date_created": "2022-07-28T15:19:19.000",
    "date_modified": "2022-07-28T15:19:19.000",
    "request_status": "Pending",
    "responsible_agency": "Department of Code Enforcement",
    "final_address": "2531 Verbena St",
    "address_councildis": "D",
    "status": "Pending",
    "rowid": "904530",
    "final_x": "3686592.41986",
    "final_y": "547806.894802",
    "longitude": "-90.05141497435581",
    "latitude": "30.000123307200358",
    "geocoded_column": {
      "latitude": "30.000123307200358",
      "longitude": "-90.05141497435581"
    }
  },
  {
    "service_request": "2022-904529",
    "request_type": "Trash/Recycling",
    "request_reason": "Missed Trash Pick-Up",
    "date_created": "2022-07-28T15:18:54.000",
    "date_modified": "2022-07-28T15:18:55.000",
    "request_status": "Pending",
    "responsible_agency": "Department of Sanitation",
    "final_address": "3100 BLK Audubon St",
    "address_councildis": "B",
    "status": "Assigned to Contractor",
    "contractor": "Richards Disposal",
    "rowid": "904529",
    "final_x": "3668232.36363",
    "final_y": "532090.524517",
    "longitude": "-90.10994564321702",
    "latitude": "29.957460605946977",
    "geocoded_column": {
      "latitude": "29.957460605946977",
      "longitude": "-90.10994564321702"
    }
  },
  {
    "service_request": "2022-904528",
    "request_type": "Roads/Drainage",
    "request_reason": "Pothole",
    "date_created": "2022-07-28T15:18:42.000",
    "date_modified": "2022-07-28T15:18:42.000",
    "request_status": "Pending",
    "responsible_agency": "Department of Public Works",
    "final_address": "2318 Winthrop St",
    "address_councildis": "E",
    "status": "Pending",
    "rowid": "904528",
    "final_x": "3700406.62122",
    "final_y": "538123.950473",
    "longitude": "-90.00812924139349",
    "latitude": "29.973066585920034",
    "geocoded_column": {
      "latitude": "29.973066585920034",
      "longitude": "-90.00812924139349"
    }
  },
  {
    "service_request": "2022-904527",
    "request_type": "Property Maintenance",
    "request_reason": "Property Maintenance",
    "date_created": "2022-07-28T15:18:41.000",
    "date_modified": "2022-07-28T15:18:41.000",
    "request_status": "Pending",
    "responsible_agency": "Department of Code Enforcement",
    "final_address": "1823 Laharpe St",
    "address_councildis": "D",
    "status": "Pending",
    "rowid": "904527",
    "final_x": "3681229.19996",
    "final_y": "538089.334345",
    "longitude": "-90.06869646796822",
    "latitude": "29.973567322495995",
    "geocoded_column": {
      "latitude": "29.973567322495995",
      "longitude": "-90.06869646796822"
    }
  },
  {
    "service_request": "2022-904526",
    "request_type": "Trash/Recycling",
    "request_reason": "Repair Trash Cart",
    "date_created": "2022-07-28T15:17:44.000",
    "date_modified": "2022-07-28T15:17:45.000",
    "request_status": "Pending",
    "responsible_agency": "Department of Sanitation",
    "final_address": "2664 Eton St",
    "address_councildis": "C",
    "status": "Assigned to Contractor",
    "contractor": "Richards Disposal",
    "rowid": "904526",
    "final_x": "3704018.48574",
    "final_y": "520920.572345",
    "longitude": "-89.99735582397109",
    "latitude": "29.92564806946015",
    "geocoded_column": {
      "latitude": "29.92564806946015",
      "longitude": "-89.99735582397109"
    }
  },
  {
    "service_request": "2022-904525",
    "request_type": "Trash/Recycling",
    "request_reason": "Missed Trash Pick-Up",
    "date_created": "2022-07-28T15:17:10.000",
    "date_modified": "2022-07-28T15:17:10.000",
    "request_status": "Pending",
    "responsible_agency": "Department of Sanitation",
    "final_address": "730 Conrad St, New Orleans, Louisiana, 70124",
    "address_councildis": "A",
    "status": "Assigned to Contractor",
    "contractor": "Metro Disposal",
    "rowid": "904525",
    "final_x": "3669427.67642",
    "final_y": "554212.899992",
    "longitude": "-90.10542259742357",
    "latitude": "30.018254425057947",
    "geocoded_column": {
      "latitude": "30.018254425057947",
      "longitude": "-90.10542259742357"
    }
  },
  {
    "service_request": "2022-904524",
    "request_type": "Trash/Recycling",
    "request_reason": "Missed Trash Pick-Up",
    "date_created": "2022-07-28T15:15:07.000",
    "date_modified": "2022-07-28T15:15:08.000",
    "request_status": "Pending",
    "responsible_agency": "Department of Sanitation",
    "final_address": "2700 BLK Edna St",
    "address_councildis": "D",
    "status": "Assigned to Contractor",
    "contractor": "Metro Disposal",
    "rowid": "904524",
    "final_x": "3689686.30038",
    "final_y": "545289.876728",
    "longitude": "-90.04173090314175",
    "latitude": "29.993106883511192",
    "geocoded_column": {
      "latitude": "29.993106883511192",
      "longitude": "-90.04173090314175"
    }
  },
  {
    "service_request": "2022-904523",
    "request_type": "Trash/Recycling",
    "request_reason": "Missed Trash Pick-Up",
    "date_created": "2022-07-28T15:14:00.000",
    "date_modified": "2022-07-28T15:14:00.000",
    "request_status": "Pending",
    "responsible_agency": "Department of Sanitation",
    "final_address": "1118 Fourth St",
    "address_councildis": "B",
    "status": "Assigned to Contractor",
    "contractor": "Richards Disposal",
    "rowid": "904523",
    "final_x": "3677169.36782",
    "final_y": "521105.730297",
    "longitude": "-90.08210399821482",
    "latitude": "29.926990657273855",
    "geocoded_column": {
      "latitude": "29.926990657273855",
      "longitude": "-90.08210399821482"
    }
  },
  {
    "service_request": "2022-904522",
    "request_type": "Trash/Recycling",
    "request_reason": "Order Recycling Cart",
    "date_created": "2022-07-28T15:09:05.000",
    "date_modified": "2022-07-28T15:09:06.000",
    "request_status": "Pending",
    "responsible_agency": "Department of Sanitation",
    "final_address": "932 Nashville Ave",
    "address_councildis": "A",
    "status": "Pending",
    "rowid": "904522",
    "final_x": "3665589.26656",
    "final_y": "519587.408312",
    "longitude": "-90.11871030192053",
    "latitude": "29.923158372161414",
    "geocoded_column": {
      "latitude": "29.923158372161414",
      "longitude": "-90.11871030192053"
    }
  },
  {
    "service_request": "2022-904521",
    "request_type": "Property Maintenance",
    "request_reason": "Property Maintenance",
    "date_created": "2022-07-28T15:01:34.000",
    "date_modified": "2022-07-28T15:01:34.000",
    "request_status": "Pending",
    "responsible_agency": "Department of Code Enforcement",
    "final_address": "12345 N Interstate 10 Service Rd",
    "address_councildis": "E",
    "status": "Pending",
    "rowid": "904521",
    "final_x": "3716593.31205",
    "final_y": "566491.532899",
    "longitude": "-89.95593215830806",
    "latitude": "30.050541620166843",
    "geocoded_column": {
      "latitude": "30.050541620166843",
      "longitude": "-89.95593215830806"
    }
  },
  {
    "service_request": "2022-904520",
    "request_type": "Traffic Signals/Signs/Striping/Streetlights",
    "request_reason": "Street Light Outage/Malfunction",
    "date_created": "2022-07-28T14:59:42.000",
    "date_modified": "2022-07-28T14:59:42.000",
    "request_status": "Pending",
    "responsible_agency": "Department of Public Works",
    "final_address": "1533 Esplanade Ave",
    "address_councildis": "C",
    "status": "Pending",
    "contractor": "Royal Engineering",
    "rowid": "904520",
    "final_x": "3681429.45404",
    "final_y": "536549.216455",
    "longitude": "-90.06811773116182",
    "latitude": "29.96932645132342",
    "geocoded_column": {
      "latitude": "29.96932645132342",
      "longitude": "-90.06811773116182"
    }
  },
  {
    "service_request": "2022-904519",
    "request_type": "Trash/Recycling",
    "request_reason": "Request a Large Item Pick Up",
    "date_created": "2022-07-28T14:50:08.000",
    "date_modified": "2022-07-28T14:50:09.000",
    "request_status": "Pending",
    "responsible_agency": "Department of Sanitation",
    "final_address": "1436 Felicity St",
    "address_councildis": "B",
    "status": "Assigned to Contractor",
    "contractor": "Richards Disposal",
    "rowid": "904519",
    "final_x": "3679021.8317",
    "final_y": "523964.231804",
    "longitude": "-90.07615725125933",
    "latitude": "29.93479484770667",
    "geocoded_column": {
      "latitude": "29.93479484770667",
      "longitude": "-90.07615725125933"
    }
  },