[
  {
    "service_request": "2024-1058754",
    "request_type": "Abandoned Vehicles",
    "request_reason": "Abandoned/Junk Vehicles",
    "date_created": "2024-01-03T00:30:13.000",
    "date_modified": "2024-01-03T00:30:13.000",
    "request_status": "Pending",
    "responsible_agency": "Department of Public Works",
    "final_address": "4200 BLK Cleveland Ave",
    "address_councildis": "A",
    "status": "Pending",
    "rowid": "1058754",
    "final_x": "3670183.32364",
    "final_y": "538505.977238",
    "longitude": "-90.10356765745723",
    "latitude": "29.975043539116776",
    "geocoded_column": {
      "latitude": "29.975043539116776",
      "longitude": "-90.10356765745723"
    }
  },
  {
    "service_request": "2024-1058753",
    "request_type": "Roads/Drainage",
    "request_reason": "Pothole",
    "date_created": "2024-01-02T23:33:42.000",
    "date_modified": "2024-01-02T23:33:42.000",
    "request_status": "Pending",
    "responsible_agency": "Department of Public Works",
    "final_address": "1503 Napoleon Ave",
    "address_councildis": "B",
    "status": "Pending",
    "rowid": "1058753",
    "final_x": "3670967.88622",
    "final_y": "520626.232376",
    "longitude": "-90.10169677051358",
    "latitude": "29.925856938828442",
    "geocoded_column": {
      "latitude": "29.925856938828442",
      "longitude": "-90.10169677051358"
    }
  },
  {
    "service_request": "2024-1058752",
    "request_type": "Trash/Recycling",
    "request_reason": "Request a Large Item Pick Up",
    "date_created": "2024-01-02T23:08:21.000",
    "date_modified": "2024-01-02T23:08:21.000",
    "request_status": "Pending",
    "responsible_agency": "Department of Sanitation",
    "final_address": "4873 Chantilly Dr",
    "address_councildis": "E",
    "status": "Assigned to Contractor",
    "contractor": "Waste Pro",
    "rowid": "1058752",
    "final_x": "3700889.01284",
    "final_y": "554956.842072",
    "longitude": "-90.00598994141968",
    "latitude": "30.01933542543558",
    "geocoded_column": {
      "latitude": "30.01933542543558",
      "longitude": "-90.00598994141968"
    }
  },
  {
    "service_request": "2024-1058751",
    "request_type": "Roads/Drainage",
    "request_reason": "Pothole",
    "date_created": "2024-01-02T22:25:46.000",
    "date_modified": "2024-01-02T22:25:46.000",
    "request_status": "Pending",
    "responsible_agency": "Department of Public Works",
    "final_address": "7020 Read Blvd",
    "address_councildis": "E",
    "status": "Pending",
    "rowid": "1058751",
    "final_x": "3709784.83941",
    "final_y": "562032.053855",
    "longitude": "-89.97761791620435",
    "latitude": "30.038503122665418",
    "geocoded_column": {
      "latitude": "30.038503122665418",
      "longitude": "-89.97761791620435"
    }
  },
  {
    "service_request": "2024-1058750",
    "request_type": "Roads/Drainage",
    "request_reason": "Pothole",
    "date_created": "2024-01-02T22:16:41.000",
    "date_modified": "2024-01-02T22:16:41.000",
    "request_status": "Pending",
    "responsible_agency": "Department of Public Works",
    "final_address": "1312 Milan St",
    "address_councildis": "B",
    "status": "Pending",
    "rowid": "1058750",
    "final_x": "3671625.82823",
    "final_y": "520286.919608",
    "longitude": "-90.09963137110304",
    "latitude": "29.92490447494246",
    "geocoded_column": {
      "latitude": "29.92490447494246",
      "longitude": "-90.09963137110304"
    }
  },
  {
    "service_request": "2024-1058749",
    "request_type": "Trash/Recycling",
    "request_reason": "Repair Recycling Cart",
    "date_created": "2024-01-02T22:11:44.000",
    "date_modified": "2024-01-02T22:11:44.000",
    "request_status": "Pending",
    "responsible_agency": "Department of Sanitation",
    "final_address": "7210 Claridge Ct",
    "address_councildis": "E",
    "status": "Pending",
    "rowid": "1058749",
    "final_x": "3704861.76241",
    "final_y": "560562.167518",
    "longitude": "-89.99323036449172",
    "latitude": "30.034620753934256",
    "geocoded_column": {
      "latitude": "30.034620753934256",
      "longitude": "-89.99323036449172"
    }
  },
  {
    "service_request": "2024-1058748",
    "request_type": "Abandoned Vehicles",
    "request_reason": "Abandoned/Junk Vehicles",
    "date_created": "2024-01-02T21:45:35.000",
    "date_modified": "2024-01-02T21:45:35.000",
    "request_status": "Pending",
    "responsible_agency": "Department of Public Works",
    "final_address": "6325 West End Blvd",
    "address_councildis": "A",
    "status": "Pending",
    "rowid": "1058748",
    "final_x": "3666673.79578",
    "final_y": "549675.345492",
    "longitude": "-90.114276396443",
    "latitude": "30.00585859588137",
    "geocoded_column": {
      "latitude": "30.00585859588137",
      "longitude": "-90.114276396443"
    }
  },
  {
    "service_request": "2024-1058747",
    "request_type": "Trash/Recycling",
    "request_reason": "Missed Trash Pick-Up",
    "date_created": "2024-01-02T21:34:21.000",
    "date_modified": "2024-01-02T21:34:23.000",
    "request_status": "Pending",
    "responsible_agency": "Department of Sanitation",
    "final_address": "4222 Pitt St",
    "address_councildis": "B",
    "status": "Assigned to Contractor",
    "contractor": "Richards Disposal",
    "rowid": "1058747",
    "final_x": "3671437.90497",
    "final_y": "520554.902584",
    "longitude": "-90.10021548093425",
    "latitude": "29.92564690464922",
    "geocoded_column": {
      "latitude": "29.92564690464922",
      "longitude": "-90.10021548093425"
    }
  },
  {
    "service_request": "2024-1058746",
    "request_type": "Trash/Recycling",
    "request_reason": "Request a Large Item Pick Up",
    "date_created": "2024-01-02T20:58:03.000",
    "date_modified": "2024-01-02T20:58:04.000",
    "request_status": "Pending",
    "responsible_agency": "Department of Sanitation",
    "final_address": "4256 Vendome Pl",
    "address_councildis": "B",
    "status": "Assigned to Contractor",
    "contractor": "Richards Disposal",
    "rowid": "1058746",
    "final_x": "3669057.08378",
    "final_y": "531486.060611",
    "longitude": "-90.1073618367837",
    "latitude": "29.955774291700784",
    "geocoded_column": {
      "latitude": "29.955774291700784",
      "longitude": "-90.1073618367837"
    }
  },
  {
    "service_request": "2024-1058745",
    "request_type": "Trash/Recycling",
    "request_reason": "Request a Large Item Pick Up",
    "date_created": "2024-01-02T20:49:59.000",
    "date_modified": "2024-01-02T20:50:00.000",
    "request_status": "Pending",
    "responsible_agency": "Department of Sanitation",
    "final_address": "2123 Bienville Ave",
    "address_councildis": "B",
    "status": "Assigned to Contractor",
    "contractor": "Richards Disposal",
    "rowid": "1058745",
    "final_x": "3677613.22242",
    "final_y": "534449.635141",
    "longitude": "-90.08024220529202",
    "latitude": "29.96366863038611",
    "geocoded_column": {
      "latitude": "29.96366863038611",
      "longitude": "-90.08024220529202"
    }
  },
  {
    "service_request": "2024-1058744",
    "request_type": "Property Maintenance",
    "request_reason": "Property Maintenance",
    "date_created": "2024-01-02T20:29:06.000",
    "date_modified": "2024-01-02T20:29:06.000",
    "request_status": "Pending",
    "responsible_agency": "Department of Code Enforcement",
    "final_address": "2127 Jackson Ave",
    "address_councildis": "B",
    "status": "Pending",
    "rowid": "1058744",
    "final_x": "3676113.25486",
    "final_y": "525729.374653",
    "longitude": "-90.08527889708908",
    "latitude": "29.939735838711318",
    "geocoded_column": {
      "latitude": "29.939735838711318",
      "longitude": "-90.08527889708908"
    }
  },
  {
    "service_request": "2024-1058743",
    "request_type": "Abandoned Vehicles",
    "request_reason": "Abandoned/Junk Vehicles",
    "date_created": "2024-01-02T19:59:45.000",
    "date_modified": "2024-01-02T19:59:45.000",
    "request_status": "Pending",
    "responsible_agency": "Department of Public Works",
    "final_address": "3677 Almonaster Ave",
    "address_councildis": "D",
    "status": "Pending",
    "rowid": "1058743",
    "final_x": "3689891.76144",
    "final_y": "546988.596369",
    "longitude": "-90.04102136976529",
    "latitude": "29.99777137759929",
    "geocoded_column": {
      "latitude": "29.99777137759929",
      "longitude": "-90.04102136976529"
    }
  },
  {
    "service_request": "2024-1058742",
    "request_type": "Trash/Recycling",
    "request_reason": "Missed Trash Pick-Up",
    "date_created": "2024-01-02T19:56:41.000",
    "date_modified": "2024-01-02T19:56:43.000",
    "request_status": "Pending",
    "responsible_agency": "Department of Sanitation",
    "final_address": "1301 General Taylor St",
    "address_councildis": "B",
    "status": "Assigned to Contractor",
    "contractor": "Richards Disposal",
    "rowid": "1058742",
    "final_x": "3672844.37032",
    "final_y": "520291.135864",
    "longitude": "-90.09578468200387",
    "latitude": "29.924879936904606",
    "geocoded_column": {
      "latitude": "29.924879936904606",
      "longitude": "-90.09578468200387"
    }
  },
  {
    "service_request": "2024-1058741",
    "request_type": "Trash/Recycling",
    "request_reason": "Missed Trash Pick-Up",
    "date_created": "2024-01-02T19:56:33.000",
    "date_modified": "2024-01-02T19:56:33.000",
    "request_status": "Pending",
    "responsible_agency": "Department of Sanitation",
    "final_address": "9 Blanc Pl",
    "address_councildis": "B",
    "status": "Assigned to Contractor",
    "contractor": "Richards Disposal",
    "rowid": "1058741",
    "final_x": "3667874.285",
    "final_y": "520921.573625",
    "longitude": "-90.111452440078",
    "latitude": "29.92676010442122",
    "geocoded_column": {
      "latitude": "29.92676010442122",
      "longitude": "-90.111452440078"
    }
  },
  {
    "service_request": "2024-1058740",
    "request_type": "Trash/Recycling",
    "request_reason": "Request a Large Item Pick Up",
    "date_created": "2024-01-02T19:52:13.000",
    "date_modified": "2024-01-02T19:52:14.000",
    "request_status": "Pending",
    "responsible_agency": "Department of Sanitation",
    "final_address": "7231 Chadbourne Dr",
    "address_councildis": "E",
    "status": "Assigned to Contractor",
    "contractor": "Waste Pro",
    "rowid": "1058740",
    "final_x": "3700973.11044",
    "final_y": "557540.181275",
    "longitude": "-90.00562964358878",
    "latitude": "30.026435938521832",
    "geocoded_column": {
      "latitude": "30.026435938521832",
      "longitude": "-90.00562964358878"
    }
  },
  {
    "service_request": "2024-1058739",
    "request_type": "Trash/Recycling",
    "request_reason": "Missed Trash Pick-Up",
    "date_created": "2024-01-02T19:34:10.000",
    "date_modified": "2024-01-02T19:34:11.000",
    "request_status": "Pending",
    "responsible_agency": "Department of Sanitation",
    "final_address": "2524 Upperline St",
    "address_councildis": "B",
    "status": "Assigned to Contractor",
    "contractor": "Richards Disposal",
    "rowid": "1058739",
    "final_x": "3669094.79655",
    "final_y": "524123.458812",
    "longitude": "-90.10749146996356",
    "latitude": "29.935528421126083",
    "geocoded_column": {
      "latitude": "29.935528421126083",
      "longitude": "-90.10749146996356"
    }
  },
  {
    "service_request": "2024-1058738",
    "request_type": "Trash/Recycling",
    "request_reason": "Replace Trash Cart",
    "date_created": "2024-01-02T19:25:40.000",
    "date_modified": "2024-01-02T19:25:41.000",
    "request_status": "Pending",
    "responsible_agency": "Department of Sanitation",
    "final_address": "25 Oriole St",
    "address_councildis": "D",
    "status": "Assigned to Contractor",
    "contractor": "IV Waste",
    "rowid": "1058738",
    "final_x": "3675835.16443",
    "final_y": "556640.863898",
    "longitude": "-90.08509373500003",
    "latitude": "30.02474008994908",
    "geocoded_column": {
      "latitude": "30.02474008994908",
      "longitude": "-90.08509373500003"
    }
  },
  {
    "service_request": "2024-1058737",
    "request_type": "Roads/Drainage",
    "request_reason": "Pothole",
    "date_created": "2024-01-02T19:19:59.000",
    "date_modified": "2024-01-02T19:19:59.000",
    "request_status": "Pending",
    "responsible_agency": "Department of Public Works",
    "final_address": "5220 Atlanta St",
    "address_councildis": "B",
    "status": "Pending",
    "rowid": "1058737",
    "final_x": "3667917.40577",
    "final_y": "520685.623161",
    "longitude": "-90.1113242624008",
    "latitude": "29.926110051036336",
    "geocoded_column": {
      "latitude": "29.926110051036336",
      "longitude": "-90.1113242624008"
    }
  },
  {
    "service_request": "2024-1058736",
    "request_type": "Roads/Drainage",
    "request_reason": "Road Shoulder Repair",
    "date_created": "2024-01-02T19:18:44.000",
    "date_modified": "2024-01-02T19:18:44.000",
    "request_status": "Pending",
    "responsible_agency": "Department of Public Works",
    "final_address": "1725 Dufossat St",
    "address_councildis": "B",
    "status": "Pending",
    "rowid": "1058736",
    "final_x": "3668192.68743",
    "final_y": "522036.060218",
    "longitude": "-90.11040977787289",
    "latitude": "29.92981524824353",
    "geocoded_column": {
      "latitude": "29.92981524824353",
      "longitude": "-90.11040977787289"
    }
  },
  {
    "service_request": "2024-1058735",
    "request_type": "Roads/Drainage",
    "request_reason": "Road Shoulder Repair",
    "date_created": "2024-01-02T19:17:23.000",
    "date_modified": "2024-01-02T19:17:23.000",
    "request_status": "Pending",
    "responsible_agency": "Department of Public Works",
    "final_address": "5030 Danneel St",
    "address_councildis": "B",
    "status": "Pending",
    "rowid": "1058735",
    "final_x": "3668583.04846",
    "final_y": "522061.497338",
    "longitude": "-90.10917661362056",
    "latitude": "29.929873730703292",
    "geocoded_column": {
      "latitude": "29.929873730703292",
      "longitude": "-90.10917661362056"
    }
  },
  {
    "service_request": "2024-1058734",
    "request_type": "Roads/Drainage",
    "request_reason": "Road Shoulder Repair",
    "date_created": "2024-01-02T19:15:53.000",
    "date_modified": "2024-01-02T19:15:53.000",
    "request_status": "Pending",
    "responsible_agency": "Department of Public Works",
    "final_address": "4726 Danneel St",
    "address_councildis": "B",
    "status": "Pending",
    "rowid": "1058734",
    "final_x": "3669365.26324",
    "final_y": "522125.33817",
    "longitude": "-90.10670513030526",
    "latitude": "29.930026270988865",
    "geocoded_column": {
      "latitude": "29.930026270988865",
      "longitude": "-90.10670513030526"
    }
  },
  {
    "service_request": "2024-1058733",
    "request_type": "Trash/Recycling",
    "request_reason": "Missed Trash Pick-Up",
    "date_created": "2024-01-02T19:00:49.000",
    "date_modified": "2024-01-02T19:00:50.000",
    "request_status": "Pending",
    "responsible_agency": "Department of Sanitation",
    "final_address": "3425 Robert St",
    "address_councildis": "B",
    "status": "Assigned to Contractor",
    "contractor": "Richards Disposal",
    "rowid": "1058733",
    "final_x": "3668983.79201",
    "final_y": "527564.306239",
    "longitude": "-90.10772572324899",
    "latitude": "29.94499290492857",
    "geocoded_column": {
      "latitude": "29.94499290492857",
      "longitude": "-90.10772572324899"
    }
  },
  {
    "service_request": "2024-1058732",
    "request_type": "Traffic Signals/Signs/Striping/Streetlights",
    "request_reason": "Street Light Outage/Malfunction",
    "date_created": "2024-01-02T18:58:07.000",
    "date_modified": "2024-01-02T18:58:08.000",
    "request_status": "Pending",
    "responsible_agency": "Department of Public Works",
    "final_address": "2560 Prancer St",
    "address_councildis": "C",
    "status": "Assigned to Contractor",
    "contractor": "Legacy Professional Services",
    "rowid": "1058732",
    "final_x": "3699648.8664",
    "final_y": "521478.095865",
    "longitude": "-90.01112898731013",
    "latitude": "29.927320431549578",
    "geocoded_column": {
      "latitude": "29.927320431549578",
      "longitude": "-90.01112898731013"
    }
  },
  {
    "service_request": "2024-1058731",
    "request_type": "Trash/Recycling",
    "request_reason": "Missed Trash Pick-Up",
    "date_created": "2024-01-02T18:57:21.000",
    "date_modified": "2024-01-02T18:57:22.000",
    "request_status": "Pending",
    "responsible_agency": "Department of Sanitation",
    "final_address": "1830 General Taylor St",
    "address_councildis": "B",
    "status": "Assigned to Contractor",
    "contractor": "Richards Disposal",
    "rowid": "1058731",
    "final_x": "3672367.75022",
    "final_y": "522013.03417",
    "longitude": "-90.0972305817191",
    "latitude": "29.92962875024938",
    "geocoded_column": {
      "latitude": "29.92962875024938",
      "longitude": "-90.0972305817191"
    }
  },
  {
    "service_request": "2024-1058730",
    "request_type": "Traffic Signals/Signs/Striping/Streetlights",
    "request_reason": "Street Light Outage/Malfunction",
    "date_created": "2024-01-02T18:53:28.000",
    "date_modified": "2024-01-02T18:53:28.000",
    "request_status": "Pending",
    "responsible_agency": "Department of Public Works",
    "final_address": "1608 Farragut St",
    "address_councildis": "C",
    "status": "Assigned to Contractor",
    "contractor": "Legacy Professional Services",
    "rowid": "1058730",
    "final_x": "3692360.5407",
    "final_y": "525317.676029",
    "longitude": "-90.03399886432288",
    "latitude": "29.93810721068446",
    "geocoded_column": {
      "latitude": "29.93810721068446",
      "longitude": "-90.03399886432288"
    }
  },
  {
    "service_request": "2024-1058729",
    "request_type": "Traffic Signals/Signs/Striping/Streetlights",
    "request_reason": "Street Light Outage/Malfunction",
    "date_created": "2024-01-02T18:33:13.000",
    "date_modified": "2024-01-02T18:33:14.000",
    "request_status": "Pending",
    "responsible_agency": "Department of Public Works",
    "final_address": "1443 Burbank Dr",
    "address_councildis": "D",
    "status": "Assigned to Contractor",
    "contractor": "Legacy Professional Services",
    "rowid": "1058729",
    "final_x": "3677817.29512",
    "final_y": "554323.293272",
    "longitude": "-90.07891070245039",
    "latitude": "30.01830809144444",
    "geocoded_column": {
      "latitude": "30.01830809144444",
      "longitude": "-90.07891070245039"
    }
  },
  {
    "service_request": "2024-1058728",
    "request_type": "Roads/Drainage",
    "request_reason": "Accessibility Ramps, Curbs and Sidewalk Repair",
    "date_created": "2024-01-02T18:23:40.000",
    "date_modified": "2024-01-02T18:23:40.000",
    "request_status": "Pending",
    "responsible_agency": "Department of Public Works",
    "final_address": "1443 Burbank Dr",
    "address_councildis": "D",
    "status": "Pending",
    "rowid": "1058728",
    "final_x": "3677817.29512",
    "final_y": "554323.293272",
    "longitude": "-90.07891070245039",
    "latitude": "30.01830809144444",
    "geocoded_column": {
      "latitude": "30.01830809144444",
      "longitude": "-90.07891070245039"
    }
  },
  {
    "service_request": "2024-1058727",
    "request_type": "Trash/Recycling",
    "request_reason": "Missed Trash Pick-Up",
    "date_created": "2024-01-02T18:22:10.000",
    "date_modified": "2024-01-02T18:22:11.000",
    "request_status": "Pending",
    "responsible_agency": "Department of Sanitation",
    "final_address": "3425 Robert St",
    "address_councildis": "B",
    "status": "Assigned to Contractor",
    "contractor": "Richards Disposal",
    "rowid": "1058727",
    "final_x": "3668983.79201",
    "final_y": "527564.306239",
    "longitude": "-90.10772572324899",
    "latitude": "29.94499290492857",
    "geocoded_column": {
      "latitude": "29.94499290492857",
      "longitude": "-90.10772572324899"
    }
  },
  {
    "service_request": "2024-1058726",
    "request_type": "Trash/Recycling",
    "request_reason": "Order Trash Cart",
    "date_created": "2024-01-02T18:20:24.000",
    "date_modified": "2024-01-02T18:20:25.000",
    "request_status": "Pending",
    "responsible_agency": "Department of Sanitation",
    "final_address": "8420 Apple St",
    "address_councildis": "A",
    "status": "Assigned to Contractor",
    "contractor": "Richards Disposal",
    "rowid": "1058726",
    "final_x": "3664346.82215",
    "final_y": "532971.108484",
    "longitude": "-90.12218568865624",
    "latitude": "29.959995422497443",
    "geocoded_column": {
      "latitude": "29.959995422497443",
      "longitude": "-90.12218568865624"
    }
  },
  {
    "service_request": "2024-1058725",
    "request_type": "Roads/Drainage",
    "request_reason": "Street Subsidence (Sinking)",
    "date_created": "2024-01-02T18:14:48.000",
    "date_modified": "2024-01-02T18:14:48.000",
    "request_status": "Pending",
    "responsible_agency": "Department of Public Works",
    "final_address": "1428 Burbank Dr",
    "address_councildis": "D",
    "status": "Pending",
    "rowid": "1058725",
    "final_x": "3677705.01717",
    "final_y": "554234.256024",
    "longitude": "-90.07926853819262",
    "latitude": "30.018066650519753",
    "geocoded_column": {
      "latitude": "30.018066650519753",
      "longitude": "-90.07926853819262"
    }
  },
  {
    "service_request": "2024-1058724",
    "request_type": "Trash/Recycling",
    "request_reason": "MIssed Recycling Pick-Up",
    "date_created": "2024-01-02T18:13:40.000",
    "date_modified": "2024-01-02T18:13:41.000",
    "request_status": "Pending",
    "responsible_agency": "Department of Sanitation",
    "final_address": "4724 Toulouse St",
    "address_councildis": "A",
    "status": "Assigned to Contractor",
    "contractor": "Richards Disposal",
    "rowid": "1058724",
    "final_x": "3669984.52161",
    "final_y": "541322.2507",
    "longitude": "-90.10410010879279",
    "latitude": "29.98279320226491",
    "geocoded_column": {
      "latitude": "29.98279320226491",
      "longitude": "-90.10410010879279"
    }
  },
  {
    "service_request": "2024-1058723",
    "request_type": "Trash/Recycling",
    "request_reason": "Request a Large Item Pick Up",
    "date_created": "2024-01-02T18:10:30.000",
    "date_modified": "2024-01-02T18:10:31.000",
    "request_status": "Pending",
    "responsible_agency": "Department of Sanitation",
    "final_address": "2217 Josephine St",
    "address_councildis": "B",
    "status": "Assigned to Contractor",
    "contractor": "Richards Disposal",
    "rowid": "1058723",
    "final_x": "3676453.41659",
    "final_y": "525896.633597",
    "longitude": "-90.08419920091387",
    "latitude": "29.94018555370979",
    "geocoded_column": {
      "latitude": "29.94018555370979",
      "longitude": "-90.08419920091387"
    }
  },
  {
    "service_request": "2024-1058722",
    "request_type": "Trash/Recycling",
    "request_reason": "Missed Trash Pick-Up",
    "date_created": "2024-01-02T18:10:12.000",
    "date_modified": "2024-01-02T18:10:13.000",
    "request_status": "Pending",
    "responsible_agency": "Department of Sanitation",
    "final_address": "7406 Scottsdale Dr",
    "address_councildis": "E",
    "status": "Assigned to Contractor",
    "contractor": "Waste Pro",
    "rowid": "1058722",
    "final_x": "3704243.38519",
    "final_y": "561516.535327",
    "longitude": "-89.99514928923045",
    "latitude": "30.037264762253667",
    "geocoded_column": {
      "latitude": "30.037264762253667",
      "longitude": "-89.99514928923045"
    }
  },
  {
    "service_request": "2024-1058721",
    "request_type": "Trash/Recycling",
    "request_reason": "Replace Trash Cart",
    "date_created": "2024-01-02T18:10:01.000",
    "date_modified": "2024-01-02T18:10:02.000",
    "request_status": "Pending",
    "responsible_agency": "Department of Sanitation",
    "final_address": "4201 Tchoupitoulas St",
    "address_councildis": "B",
    "status": "Assigned to Contractor",
    "contractor": "Richards Disposal",
    "rowid": "1058721",
    "final_x": "3671901.26158",
    "final_y": "517566.162678",
    "longitude": "-90.09885444563008",
    "latitude": "29.917415102788826",
    "geocoded_column": {
      "latitude": "29.917415102788826",
      "longitude": "-90.09885444563008"
    }
  },
  {
    "service_request": "2024-1058720",
    "request_type": "Roads/Drainage",
    "request_reason": "Pothole",
    "date_created": "2024-01-02T17:53:39.000",
    "date_modified": "2024-01-02T17:53:39.000",
    "request_status": "Pending",
    "responsible_agency": "Department of Public Works",
    "final_address": "7924 Forshey St",
    "address_councildis": "B",
    "status": "Pending",
    "rowid": "1058720",
    "final_x": "3667413.09261",
    "final_y": "533504.975492",
    "longitude": "-90.11248507813944",
    "latitude": "29.961373907110254",
    "geocoded_column": {
      "latitude": "29.961373907110254",
      "longitude": "-90.11248507813944"
    }
  },
  {
    "service_request": "2024-1058719",
    "request_type": "Trash/Recycling",
    "request_reason": "Request a Large Item Pick Up",
    "date_created": "2024-01-02T17:48:15.000",
    "date_modified": "2024-01-02T17:48:16.000",
    "request_status": "Pending",
    "responsible_agency": "Department of Sanitation",
    "final_address": "503 S Genois St",
    "address_councildis": "B",
    "status": "Assigned to Contractor",
    "contractor": "Richards Disposal",
    "rowid": "1058719",
    "final_x": "3671570.75867",
    "final_y": "535905.572359",
    "longitude": "-90.09927421946203",
    "latitude": "29.967852285393064",
    "geocoded_column": {
      "latitude": "29.967852285393064",
      "longitude": "-90.09927421946203"
    }
  },
  {
    "service_request": "2024-1058718",
    "request_type": "Trash/Recycling",
    "request_reason": "Repair Trash Cart",
    "date_created": "2024-01-02T17:42:47.000",
    "date_modified": "2024-01-02T17:42:48.000",
    "request_status": "Pending",
    "responsible_agency": "Department of Sanitation",
    "final_address": "2422 Barracks St",
    "address_councildis": "D",
    "status": "Assigned to Contractor",
    "contractor": "Richards Disposal",
    "rowid": "1058718",
    "final_x": "3678954.07675",
    "final_y": "537966.408585",
    "longitude": "-90.07588604991227",
    "latitude": "29.97329816662914",
    "geocoded_column": {
      "latitude": "29.97329816662914",
      "longitude": "-90.07588604991227"
    }
  },
  {
    "service_request": "2024-1058717",
    "request_type": "Property Maintenance",
    "request_reason": "Property Maintenance",
    "date_created": "2024-01-02T17:36:05.000",
    "date_modified": "2024-01-02T17:36:05.000",
    "request_status": "Pending",
    "responsible_agency": "Department of Code Enforcement",
    "final_address": "7904 St Charles Ave",
    "address_councildis": "A",
    "status": "Pending",
    "rowid": "1058717",
    "final_x": "3661026.29478",
    "final_y": "526321.54867",
    "longitude": "-90.13289123267742",
    "latitude": "29.941807354779325",
    "geocoded_column": {
      "latitude": "29.941807354779325",
      "longitude": "-90.13289123267742"
    }
  },
  {
    "service_request": "2024-1058716",
    "request_type": "Trash/Recycling",
    "request_reason": "Missed Trash Pick-Up",
    "date_created": "2024-01-02T17:26:43.000",
    "date_modified": "2024-01-02T17:26:44.000",
    "request_status": "Pending",
    "responsible_agency": "Department of Sanitation",
    "final_address": "7209 Lake Willow Dr",
    "address_councildis": "E",
    "status": "Assigned to Contractor",
    "contractor": "Waste Pro",
    "rowid": "1058716",
    "final_x": "3702528.75652",
    "final_y": "559856.062493",
    "longitude": "-90.00062890180962",
    "latitude": "30.03275405840936",
    "geocoded_column": {
      "latitude": "30.03275405840936",
      "longitude": "-90.00062890180962"
    }
  },
  {
    "service_request": "2024-1058715",
    "request_type": "Traffic Signals/Signs/Striping/Streetlights",
    "request_reason": "Road Surface Marking Maintenance-Traffic Control",
    "date_created": "2024-01-02T17:25:17.000",
    "date_modified": "2024-01-02T17:25:17.000",
    "request_status": "Pending",
    "responsible_agency": "Department of Public Works",
    "final_address": "840 St Charles Ave",
    "address_councildis": "B",
    "status": "Pending",
    "rowid": "1058715",
    "final_x": "3680354.25896",
    "final_y": "527690.857407",
    "longitude": "-90.07182127428752",
    "latitude": "29.945001565484503",
    "geocoded_column": {
      "latitude": "29.945001565484503",
      "longitude": "-90.07182127428752"
    }
  },
  {
    "service_request": "2024-1058714",
    "request_type": "Property Maintenance",
    "request_reason": "Property Maintenance",
    "date_created": "2024-01-02T17:23:12.000",
    "date_modified": "2024-01-02T17:23:12.000",
    "request_status": "Pending",
    "responsible_agency": "Department of Code Enforcement",
    "final_address": "3327 Huntlee Dr",
    "address_councildis": "C",
    "status": "Pending",
    "rowid": "1058714",
    "final_x": "3701697.84157",
    "final_y": "519029.298679",
    "longitude": "-90.00475056345748",
    "latitude": "29.920521912731648",
    "geocoded_column": {
      "latitude": "29.920521912731648",
      "longitude": "-90.00475056345748"
    }
  },
  {
    "service_request": "2024-1058713",
    "request_type": "Trash/Recycling",
    "request_reason": "Missed Trash Pick-Up",
    "date_created": "2024-01-02T17:19:42.000",
    "date_modified": "2024-01-02T17:19:43.000",
    "request_status": "Pending",
    "responsible_agency": "Department of Sanitation",
    "final_address": "5349 Tchoupitoulas St",
    "address_councildis": "B",
    "status": "Assigned to Contractor",
    "contractor": "Richards Disposal",
    "rowid": "1058713",
    "final_x": "3666858.62413",
    "final_y": "517215.797941",
    "longitude": "-90.11478302461681",
    "latitude": "29.916600128737723",
    "geocoded_column": {
      "latitude": "29.916600128737723",
      "longitude": "-90.11478302461681"
    }
  },
  {
    "service_request": "2024-1058712",
    "request_type": "Abandoned Vehicles",
    "request_reason": "Abandoned/Junk Vehicles",
    "date_created": "2024-01-02T17:18:45.000",
    "date_modified": "2024-01-02T17:18:45.000",
    "request_status": "Pending",
    "responsible_agency": "Department of Public Works",
    "final_address": "1404 Bodenger Blvd",
    "address_councildis": "C",
    "status": "Pending",
    "rowid": "1058712",
    "final_x": "3688573.40585",
    "final_y": "526336.639678",
    "longitude": "-90.04591901059152",
    "latitude": "29.941026554966317",
    "geocoded_column": {
      "latitude": "29.941026554966317",
      "longitude": "-90.04591901059152"
    }
  },
  {
    "service_request": "2024-1058711",
    "request_type": "Traffic Signals/Signs/Striping/Streetlights",
    "request_reason": "Traffic Sign Missing/Damaged",
    "date_created": "2024-01-02T17:15:02.000",
    "date_modified": "2024-01-02T17:15:02.000",
    "request_status": "Pending",
    "responsible_agency": "Department of Public Works",
    "final_address": "931 S Peters St",
    "address_councildis": "B",
    "status": "Pending",
    "rowid": "1058711",
    "final_x": "3682243.76508",
    "final_y": "526603.263998",
    "longitude": "-90.06589350994798",
    "latitude": "29.9419537129305",
    "geocoded_column": {
      "latitude": "29.9419537129305",
      "longitude": "-90.06589350994798"
    }
  },
  {
    "service_request": "2024-1058710",
    "request_type": "Property Maintenance",
    "request_reason": "Property Maintenance",
    "date_created": "2024-01-02T16:58:15.000",
    "date_modified": "2024-01-02T16:58:15.000",
    "request_status": "Pending",
    "responsible_agency": "Department of Code Enforcement",
    "final_address": "3100 BLK Behrman Hwy",
    "address_councildis": "C",
    "status": "Pending",
    "rowid": "1058710",
    "final_x": "3694781.89879",
    "final_y": "518912.473118",
    "longitude": "-90.0265850705733",
    "latitude": "29.92041936421029",
    "geocoded_column": {
      "latitude": "29.92041936421029",
      "longitude": "-90.0265850705733"
    }
  },
  {
    "service_request": "2024-1058709",
    "request_type": "Trash/Recycling",
    "request_reason": "Request a Large Item Pick Up",
    "date_created": "2024-01-02T16:57:23.000",
    "date_modified": "2024-01-02T16:57:24.000",
    "request_status": "Pending",
    "responsible_agency": "Department of Sanitation",
    "final_address": "2620 Dumaine St",
    "address_councildis": "D",
    "status": "Assigned to Contractor",
    "contractor": "Richards Disposal",
    "rowid": "1058709",
    "final_x": "3677419.88469",
    "final_y": "537279.050696",
    "longitude": "-90.08075507328411",
    "latitude": "29.971454372411433",
    "geocoded_column": {
      "latitude": "29.971454372411433",
      "longitude": "-90.08075507328411"
    }
  },
  {
    "service_request": "2024-1058708",
    "request_type": "Trash/Recycling",
    "request_reason": "Illegal Dumping",
    "date_created": "2024-01-02T16:54:47.000",
    "date_modified": "2024-01-02T16:54:48.000",
    "request_status": "Pending",
    "responsible_agency": "Department of Sanitation",
    "final_address": "6128 Old Gentilly Rd",
    "address_councildis": "E",
    "status": "Pending",
    "rowid": "1058708",
    "final_x": "3697481.07427",
    "final_y": "550723.020117",
    "longitude": "-90.01691150091783",
    "latitude": "30.00780211741916",
    "geocoded_column": {
      "latitude": "30.00780211741916",
      "longitude": "-90.01691150091783"
    }
  },
  {
    "service_request": "2024-1058707",
    "request_type": "Property Maintenance",
    "request_reason": "Property Maintenance",
    "date_created": "2024-01-02T16:48:06.000",
    "date_modified": "2024-01-02T16:48:07.000",
    "request_status": "Pending",
    "responsible_agency": "Department of Code Enforcement",
    "final_address": "3409 Clematis St",
    "address_councildis": "D",
    "status": "Pending",
    "rowid": "1058707",
    "final_x": "3686696.18422",
    "final_y": "545566.31016",
    "longitude": "-90.05116638042806",
    "latitude": "29.993959313900007",
    "geocoded_column": {
      "latitude": "29.993959313900007",
      "longitude": "-90.05116638042806"
    }
  },
  {
    "service_request": "2024-1058706",
    "request_type": "Trash/Recycling",
    "request_reason": "Request a Large Item Pick Up",
    "date_created": "2024-01-02T16:45:10.000",
    "date_modified": "2024-01-02T16:45:11.000",
    "request_status": "Pending",
    "responsible_agency": "Department of Sanitation",
    "final_address": "2110 Hope St",
    "address_councildis": "D",
    "status": "Assigned to Contractor",
    "contractor": "IV Waste",
    "rowid": "1058706",
    "final_x": "3683534.32559",
    "final_y": "542064.65902",
    "longitude": "-90.06127702413762",
    "latitude": "29.984427918255683",
    "geocoded_column": {
      "latitude": "29.984427918255683",
      "longitude": "-90.06127702413762"
    }
  },
  {
    "service_request": "2024-1058705",
    "request_type": "Trash/Recycling",
    "request_reason": "Order Trash Cart",
    "date_created": "2024-01-02T16:43:18.000",
    "date_modified": "2024-01-02T16:43:19.000",
    "request_status": "Pending",
    "responsible_agency": "Department of Sanitation",
    "final_address": "2320 Mardi Gras Blvd",
    "address_councildis": "C",
    "status": "Assigned to Contractor",
    "contractor": "Richards Disposal",
    "rowid": "1058705",
    "final_x": "3692091.51446",
    "final_y": "523158.381819",
    "longitude": "-90.03492544859562",
    "latitude": "29.93217827221311",
    "geocoded_column": {
      "latitude": "29.93217827221311",
      "longitude": "-90.03492544859562"
    }
  },
  {
    "service_request": "2024-1058704",
    "request_type": "Abandoned Vehicles",
    "request_reason": "Abandoned/Junk Vehicles",
    "date_created": "2024-01-02T16:42:30.000",
    "date_modified": "2024-01-02T16:42:31.000",
    "request_status": "Pending",
    "responsible_agency": "Department of Public Works",
    "final_address": "2630 Donner Dr",
    "address_councildis": "C",
    "status": "Pending",
    "rowid": "1058704",
    "final_x": "3692207.28803",
    "final_y": "519847.30476",
    "longitude": "-90.03467843176443",
    "latitude": "29.923070321032377",
    "geocoded_column": {
      "latitude": "29.923070321032377",
      "longitude": "-90.03467843176443"
    }
  },
  {
    "service_request": "2024-1058703",
    "request_type": "Trash/Recycling",
    "request_reason": "Request a Large Item Pick Up",
    "date_created": "2024-01-02T16:39:36.000",
    "date_modified": "2024-01-02T16:39:37.000",
    "request_status": "Pending",
    "responsible_agency": "Department of Sanitation",
    "final_address": "5042 Toulon St",
    "address_councildis": "E",
    "status": "Assigned to Contractor",
    "contractor": "Waste Pro",
    "rowid": "1058703",
    "final_x": "3723591.50022",
    "final_y": "561562.215583",
    "longitude": "-89.93400391160907",
    "latitude": "30.036754867934103",
    "geocoded_column": {
      "latitude": "30.036754867934103",
      "longitude": "-89.93400391160907"
    }
  },
  {
    "service_request": "2024-1058702",
    "request_type": "Trash/Recycling",
    "request_reason": "Repair Trash Cart",
    "date_created": "2024-01-02T16:37:25.000",
    "date_modified": "2024-01-02T16:37:26.000",
    "request_status": "Pending",
    "responsible_agency": "Department of Sanitation",
    "final_address": "7500 Arbor Dr",
    "address_councildis": "E",
    "status": "Assigned to Contractor",
    "contractor": "Waste Pro",
    "rowid": "1058702",
    "final_x": "3701549.40234",
    "final_y": "558106.083611",
    "longitude": "-90.00378789077733",
    "latitude": "30.027973578072825",
    "geocoded_column": {
      "latitude": "30.027973578072825",
      "longitude": "-90.00378789077733"
    }
  },
  {
    "service_request": "2024-1058701",
    "request_type": "Trash/Recycling",
    "request_reason": "Request a Large Item Pick Up",
    "date_created": "2024-01-02T16:36:25.000",
    "date_modified": "2024-01-02T16:36:26.000",
    "request_status": "Pending",
    "responsible_agency": "Department of Sanitation",
    "final_address": "1228 Bourbon St",
    "address_councildis": "C",
    "status": "Assigned to Contractor",
    "contractor": "Empire Services",
    "rowid": "1058701",
    "final_x": "3683544.75778",
    "final_y": "534283.299077",
    "longitude": "-90.06151687338611",
    "latitude": "29.963031567418888",
    "geocoded_column": {
      "latitude": "29.963031567418888",
      "longitude": "-90.06151687338611"
    }
  },
  {
    "service_request": "2024-1058700",
    "request_type": "Trash/Recycling",
    "request_reason": "Repair Trash Cart",
    "date_created": "2024-01-02T16:28:56.000",
    "date_modified": "2024-01-02T16:28:57.000",
    "request_status": "Pending",
    "responsible_agency": "Department of Sanitation",
    "final_address": "1602 Behrman Ave",
    "address_councildis": "C",
    "status": "Assigned to Contractor",
    "contractor": "Richards Disposal",
    "rowid": "1058700",
    "final_x": "3691379.47804",
    "final_y": "525465.052285",
    "longitude": "-90.03709089214938",
    "latitude": "29.938542998250476",
    "geocoded_column": {
      "latitude": "29.938542998250476",
      "longitude": "-90.03709089214938"
    }
  },
  {
    "service_request": "2024-1058699",
    "request_type": "Trash/Recycling",
    "request_reason": "Missed Trash Pick-Up",
    "date_created": "2024-01-02T16:26:20.000",
    "date_modified": "2024-01-02T16:26:21.000",
    "request_status": "Pending",
    "responsible_agency": "Department of Sanitation",
    "final_address": "2725 Amelia St",
    "address_councildis": "B",
    "status": "Assigned to Contractor",
    "contractor": "Richards Disposal",
    "rowid": "1058699",
    "final_x": "3672171.06241",
    "final_y": "525182.279421",
    "longitude": "-90.09774360753875",
    "latitude": "29.938348982831958",
    "geocoded_column": {
      "latitude": "29.938348982831958",
      "longitude": "-90.09774360753875"
    }
  },
  {
    "service_request": "2024-1058698",
    "request_type": "Roads/Drainage",
    "request_reason": "Pothole",
    "date_created": "2024-01-02T16:23:28.000",
    "date_modified": "2024-01-02T16:23:28.000",
    "request_status": "Pending",
    "responsible_agency": "Department of Public Works",
    "final_address": "1301 Constantinople St",
    "address_councildis": "B",
    "status": "Pending",
    "rowid": "1058698",
    "final_x": "3672430.66305",
    "final_y": "520250.7726",
    "longitude": "-90.09709199725775",
    "latitude": "29.924781230435865",
    "geocoded_column": {
      "latitude": "29.924781230435865",
      "longitude": "-90.09709199725775"
    }
  },
  {
    "service_request": "2024-1058697",
    "request_type": "Trash/Recycling",
    "request_reason": "Request a Large Item Pick Up",
    "date_created": "2024-01-02T16:14:58.000",
    "date_modified": "2024-01-02T16:14:59.000",
    "request_status": "Pending",
    "responsible_agency": "Department of Sanitation",
    "final_address": "2432 Laurel St",
    "address_councildis": "B",
    "status": "Assigned to Contractor",
    "contractor": "Richards Disposal",
    "rowid": "1058697",
    "final_x": "3678274.08552",
    "final_y": "520709.375289",
    "longitude": "-90.07863039323598",
    "latitude": "29.925867593850132",
    "geocoded_column": {
      "latitude": "29.925867593850132",
      "longitude": "-90.07863039323598"
    }
  },
  {
    "service_request": "2024-1058696",
    "request_type": "Trash/Recycling",
    "request_reason": "Request a Large Item Pick Up",
    "date_created": "2024-01-02T16:13:01.000",
    "date_modified": "2024-01-02T16:13:02.000",
    "request_status": "Pending",
    "responsible_agency": "Department of Sanitation",
    "final_address": "1201 Mandolin St",
    "address_councildis": "D",
    "status": "Assigned to Contractor",
    "contractor": "IV Waste",
    "rowid": "1058696",
    "final_x": "3676997.4669",
    "final_y": "548117.001298",
    "longitude": "-90.08171525524257",
    "latitude": "30.001267659586585",
    "geocoded_column": {
      "latitude": "30.001267659586585",
      "longitude": "-90.08171525524257"
    }
  },
  {
    "service_request": "2024-1058695",
    "request_type": "Trash/Recycling",
    "request_reason": "Repair Trash Cart",
    "date_created": "2024-01-02T16:05:39.000",
    "date_modified": "2024-01-02T16:05:40.000",
    "request_status": "Pending",
    "responsible_agency": "Department of Sanitation",
    "final_address": "6212 Stratford Pl",
    "address_councildis": "C",
    "status": "Assigned to Contractor",
    "contractor": "Richards Disposal",
    "rowid": "1058695",
    "final_x": "3707008.63723",
    "final_y": "516230.037556",
    "longitude": "-89.98809073956907",
    "latitude": "29.912654528701857",
    "geocoded_column": {
      "latitude": "29.912654528701857",
      "longitude": "-89.98809073956907"
    }
  },
  {
    "service_request": "2024-1058694",
    "request_type": "Roads/Drainage",
    "request_reason": "Pothole",
    "date_created": "2024-01-02T16:00:37.000",
    "date_modified": "2024-01-02T16:00:37.000",
    "request_status": "Pending",
    "responsible_agency": "Department of Public Works",
    "final_address": "4216 Chestnut St",
    "address_councildis": "B",
    "status": "Pending",
    "rowid": "1058694",
    "final_x": "3671574.31393",
    "final_y": "519539.203703",
    "longitude": "-90.09981939416457",
    "latitude": "29.922850019854593",
    "geocoded_column": {
      "latitude": "29.922850019854593",
      "longitude": "-90.09981939416457"
    }
  },
  {
    "service_request": "2024-1058693",
    "request_type": "Abandoned Vehicles",
    "request_reason": "Abandoned/Junk Vehicles",
    "date_created": "2024-01-02T16:00:22.000",
    "date_modified": "2024-01-02T16:00:22.000",
    "request_status": "Pending",
    "responsible_agency": "Department of Public Works",
    "final_address": "820 Cadiz St",
    "address_councildis": "B",
    "status": "Pending",
    "rowid": "1058693",
    "final_x": "3670294.35726",
    "final_y": "518503.996983",
    "longitude": "-90.1038947870217",
    "latitude": "29.92004135536305",
    "geocoded_column": {
      "latitude": "29.92004135536305",
      "longitude": "-90.1038947870217"
    }
  },
  {
    "service_request": "2024-1058692",
    "request_type": "Trash/Recycling",
    "request_reason": "Repair Recycling Cart",
    "date_created": "2024-01-02T16:00:13.000",
    "date_modified": "2024-01-02T16:00:14.000",
    "request_status": "Pending",
    "responsible_agency": "Department of Sanitation",
    "final_address": "2465 Prancer St",
    "address_councildis": "C",
    "status": "Pending",
    "rowid": "1058692",
    "final_x": "3699734.54743",
    "final_y": "522116.379514",
    "longitude": "-90.01083526016376",
    "latitude": "29.929072772836637",
    "geocoded_column": {
      "latitude": "29.929072772836637",
      "longitude": "-90.01083526016376"
    }
  },
  {
    "service_request": "2024-1058691",
    "request_type": "Trash/Recycling",
    "request_reason": "Request a Large Item Pick Up",
    "date_created": "2024-01-02T15:57:19.000",
    "date_modified": "2024-01-02T15:57:20.000",
    "request_status": "Pending",
    "responsible_agency": "Department of Sanitation",
    "final_address": "7801 Shelly St",
    "address_councildis": "E",
    "status": "Assigned to Contractor",
    "contractor": "Waste Pro",
    "rowid": "1058691",
    "final_x": "3695912.78013",
    "final_y": "559416.285149",
    "longitude": "-90.0215517604976",
    "latitude": "30.03175476091037",
    "geocoded_column": {
      "latitude": "30.03175476091037",
      "longitude": "-90.0215517604976"
    }
  },
  {
    "service_request": "2024-1058690",
    "request_type": "Trash/Recycling",
    "request_reason": "Repair Trash Cart",
    "date_created": "2024-01-02T15:56:07.000",
    "date_modified": "2024-01-02T15:56:07.000",
    "request_status": "Pending",
    "responsible_agency": "Department of Sanitation",
    "final_address": "2555 N Tonti St",
    "address_councildis": "D",
    "status": "Assigned to Contractor",
    "contractor": "IV Waste",
    "rowid": "1058690",
    "final_x": "3686980.13686",
    "final_y": "540952.660491",
    "longitude": "-90.05043258773358",
    "latitude": "29.98126468216653",
    "geocoded_column": {
      "latitude": "29.98126468216653",
      "longitude": "-90.05043258773358"
    }
  },
  {
    "service_request": "2024-1058689",
    "request_type": "Trash/Recycling",
    "request_reason": "Replace Trash Cart",
    "date_created": "2024-01-02T15:53:32.000",
    "date_modified": "2024-01-02T15:53:33.000",
    "request_status": "Pending",
    "responsible_agency": "Department of Sanitation",
    "final_address": "1850 Industry St",
    "address_councildis": "D",
    "status": "Assigned to Contractor",
    "contractor": "IV Waste",
    "rowid": "1058689",
    "final_x": "3681989.72565",
    "final_y": "542699.435277",
    "longitude": "-90.06613355153333",
    "latitude": "29.986220388892217",
    "geocoded_column": {
      "latitude": "29.986220388892217",
      "longitude": "-90.06613355153333"
    }
  },
  {
    "service_request": "2024-1058688",
    "request_type": "Trash/Recycling",
    "request_reason": "Repair Recycling Cart",
    "date_created": "2024-01-02T15:53:20.000",
    "date_modified": "2024-01-02T15:53:21.000",
    "request_status": "Pending",
    "responsible_agency": "Department of Sanitation",
    "final_address": "550 Audubon St",
    "address_councildis": "A",
    "status": "Pending",
    "rowid": "1058688",
    "final_x": "3662865.30483",
    "final_y": "524139.743676",
    "longitude": "-90.12715758077313",
    "latitude": "29.935754979417755",
    "geocoded_column": {
      "latitude": "29.935754979417755",
      "longitude": "-90.12715758077313"
    }
  },
  {
    "service_request": "2024-1058687",
    "request_type": "Trash/Recycling",
    "request_reason": "Order Trash Cart",
    "date_created": "2024-01-02T15:52:36.000",
    "date_modified": "2024-01-02T15:52:37.000",
    "request_status": "Pending",
    "responsible_agency": "Department of Sanitation",
    "final_address": "14567 Duane Rd",
    "address_councildis": "E",
    "status": "Assigned to Contractor",
    "contractor": "Waste Pro",
    "rowid": "1058687",
    "final_x": "3720923.94732",
    "final_y": "573538.923114",
    "longitude": "-89.94197424856398",
    "latitude": "30.069775143556246",
    "geocoded_column": {
      "latitude": "30.069775143556246",
      "longitude": "-89.94197424856398"
    }
  },
  {
    "service_request": "2024-1058686",
    "request_type": "Trash/Recycling",
    "request_reason": "Missed Trash Pick-Up",
    "date_created": "2024-01-02T15:51:46.000",
    "date_modified": "2024-01-02T15:51:47.000",
    "request_status": "Pending",
    "responsible_agency": "Department of Sanitation",
    "final_address": "14567 Duane Rd",
    "address_councildis": "E",
    "status": "Assigned to Contractor",
    "contractor": "Waste Pro",
    "rowid": "1058686",
    "final_x": "3720923.94732",
    "final_y": "573538.923114",
    "longitude": "-89.94197424856398",
    "latitude": "30.069775143556246",
    "geocoded_column": {
      "latitude": "30.069775143556246",
      "longitude": "-89.94197424856398"
    }
  },
  {
    "service_request": "2024-1058685",
    "request_type": "Trash/Recycling",
    "request_reason": "Request a Large Item Pick Up",
    "date_created": "2024-01-02T15:51:12.000",
    "date_modified": "2024-01-02T15:51:12.000",
    "request_status": "Pending",
    "responsible_agency": "Department of Sanitation",
    "final_address": "622 Flood St",
    "address_councildis": "E",
    "status": "Assigned to Contractor",
    "contractor": "Waste Pro",
    "rowid": "1058685",
    "final_x": "3697228.50173",
    "final_y": "532204.144771",
    "longitude": "-90.01838086130502",
    "latitude": "29.956889912451327",
    "geocoded_column": {
      "latitude": "29.956889912451327",
      "longitude": "-90.01838086130502"
    }
  },
  {
    "service_request": "2024-1058684",
    "request_type": "Roads/Drainage",
    "request_reason": "Catch Basin - Broken/Damage",
    "date_created": "2024-01-02T15:49:43.000",
    "date_modified": "2024-01-02T15:49:43.000",
    "request_status": "Pending",
    "responsible_agency": "Department of Public Works",
    "final_address": "IRIS ST & JASMINE ST",
    "address_councildis": "D",
    "status": "Pending",
    "rowid": "1058684",
    "final_x": "3686258.8",
    "final_y": "548025.78",
    "longitude": "-90.05246116521498",
    "latitude": "30.000735420988534",
    "geocoded_column": {
      "latitude": "30.000735420988534",
      "longitude": "-90.05246116521498"
    }
  },
  {
    "service_request": "2024-1058683",
    "request_type": "Trash/Recycling",
    "request_reason": "Request a Large Item Pick Up",
    "date_created": "2024-01-02T15:49:26.000",
    "date_modified": "2024-01-02T15:49:27.000",
    "request_status": "Pending",
    "responsible_agency": "Department of Sanitation",
    "final_address": "2561 N Roman St",
    "address_councildis": "D",
    "status": "Assigned to Contractor",
    "contractor": "IV Waste",
    "rowid": "1058683",
    "final_x": "3687509.82166",
    "final_y": "539133.25441",
    "longitude": "-90.04882402558619",
    "latitude": "29.976245640970166",
    "geocoded_column": {
      "latitude": "29.976245640970166",
      "longitude": "-90.04882402558619"
    }
  },
  {
    "service_request": "2024-1058682",
    "request_type": "Trash/Recycling",
    "request_reason": "Missed Trash Pick-Up",
    "date_created": "2024-01-02T15:48:28.000",
    "date_modified": "2024-01-02T15:48:29.000",
    "request_status": "Pending",
    "responsible_agency": "Department of Sanitation",
    "final_address": "7818 Briarwood Dr",
    "address_councildis": "E",
    "status": "Assigned to Contractor",
    "contractor": "Waste Pro",
    "rowid": "1058682",
    "final_x": "3716778.98962",
    "final_y": "571789.899368",
    "longitude": "-89.95514388399341",
    "latitude": "30.065103798122706",
    "geocoded_column": {
      "latitude": "30.065103798122706",
      "longitude": "-89.95514388399341"
    }
  },
  {
    "service_request": "2024-1058681",
    "request_type": "Property Maintenance",
    "request_reason": "Property Maintenance",
    "date_created": "2024-01-02T15:47:42.000",
    "date_modified": "2024-01-02T15:47:42.000",
    "request_status": "Pending",
    "responsible_agency": "Department of Code Enforcement",
    "final_address": "2501 Somerset Dr",
    "address_councildis": "C",
    "status": "Pending",
    "rowid": "1058681",
    "final_x": "3702831.7505",
    "final_y": "521853.99161",
    "longitude": "-90.00106769948526",
    "latitude": "29.92825264137434",
    "geocoded_column": {
      "latitude": "29.92825264137434",
      "longitude": "-90.00106769948526"
    }
  },
  {
    "service_request": "2024-1058680",
    "request_type": "Trash/Recycling",
    "request_reason": "Missed Trash Pick-Up",
    "date_created": "2024-01-02T15:46:28.000",
    "date_modified": "2024-01-02T15:46:29.000",
    "request_status": "Pending",
    "responsible_agency": "Department of Sanitation",
    "final_address": "1807 Jena St",
    "address_councildis": "B",
    "status": "Assigned to Contractor",
    "contractor": "Richards Disposal",
    "rowid": "1058680",
    "final_x": "3670452.61985",
    "final_y": "521636.018745",
    "longitude": "-90.1032890989118",
    "latitude": "29.928648747688857",
    "geocoded_column": {
      "latitude": "29.928648747688857",
      "longitude": "-90.1032890989118"
    }
  },
  {
    "service_request": "2024-1058679",
    "request_type": "Trash/Recycling",
    "request_reason": "Repair Trash Cart",
    "date_created": "2024-01-02T15:40:29.000",
    "date_modified": "2024-01-02T15:41:29.000",
    "request_status": "Pending",
    "responsible_agency": "Department of Sanitation",
    "final_address": "2764 Ramsey Dr",
    "address_councildis": "C",
    "status": "Assigned to Contractor",
    "contractor": "Richards Disposal",
    "rowid": "1058679",
    "final_x": "3703125.16158",
    "final_y": "520463.96076",
    "longitude": "-90.00019252546494",
    "latitude": "29.924421154950398",
    "geocoded_column": {
      "latitude": "29.924421154950398",
      "longitude": "-90.00019252546494"
    }
  },
  {
    "service_request": "2024-1058678",
    "request_type": "Property Maintenance",
    "request_reason": "Property Maintenance",
    "date_created": "2024-01-02T15:40:07.000",
    "date_modified": "2024-01-02T15:40:07.000",
    "request_status": "Pending",
    "responsible_agency": "Department of Code Enforcement",
    "final_address": "2501 Somerset Dr",
    "address_councildis": "C",
    "status": "Pending",
    "rowid": "1058678",
    "final_x": "3702831.7505",
    "final_y": "521853.99161",
    "longitude": "-90.00106769948526",
    "latitude": "29.92825264137434",
    "geocoded_column": {
      "latitude": "29.92825264137434",
      "longitude": "-90.00106769948526"
    }
  },
  {
    "service_request": "2024-1058677",
    "request_type": "Parks & Parkways",
    "request_reason": "Request Tree Service (Right of Way/Public Property)",
    "date_created": "2024-01-02T15:32:04.000",
    "date_modified": "2024-01-02T15:32:05.000",
    "request_status": "Pending",
    "responsible_agency": "Department of Parks & Parkway",
    "final_address": "2441 Gentilly Blvd",
    "address_councildis": "D",
    "status": "Pending",
    "rowid": "1058677",
    "final_x": "3681585.18581",
    "final_y": "545181.221967",
    "longitude": "-90.06732472411352",
    "latitude": "29.99305672222588",
    "geocoded_column": {
      "latitude": "29.99305672222588",
      "longitude": "-90.06732472411352"
    }
  },
  {
    "service_request": "2024-1058676",
    "request_type": "Trash/Recycling",
    "request_reason": "Order Recycling Cart",
    "date_created": "2024-01-02T15:27:55.000",
    "date_modified": "2024-01-02T15:27:55.000",
    "request_status": "Pending",
    "responsible_agency": "Department of Sanitation",
    "final_address": "1032 Bourbon St",
    "address_councildis": "C",
    "status": "Pending",
    "rowid": "1058676",
    "final_x": "3683117.50517",
    "final_y": "533759.093893",
    "longitude": "-90.06288443750766",
    "latitude": "29.961603215673943",
    "geocoded_column": {
      "latitude": "29.961603215673943",
      "longitude": "-90.06288443750766"
    }
  },
  {
    "service_request": "2024-1058675",
    "request_type": "Trash/Recycling",
    "request_reason": "Request a Large Item Pick Up",
    "date_created": "2024-01-02T15:22:46.000",
    "date_modified": "2024-01-02T15:22:47.000",
    "request_status": "Pending",
    "responsible_agency": "Department of Sanitation",
    "final_address": "4717 Lynhuber Dr",
    "address_councildis": "D",
    "status": "Assigned to Contractor",
    "contractor": "Waste Pro",
    "rowid": "1058675",
    "final_x": "3698093.93021",
    "final_y": "554132.919",
    "longitude": "-90.01485135924095",
    "latitude": "30.017158681402925",
    "geocoded_column": {
      "latitude": "30.017158681402925",
      "longitude": "-90.01485135924095"
    }
  },
  {
    "service_request": "2024-1058674",
    "request_type": "Trash/Recycling",
    "request_reason": "Order Recycling Cart",
    "date_created": "2024-01-02T15:22:22.000",
    "date_modified": "2024-01-02T15:22:23.000",
    "request_status": "Pending",
    "responsible_agency": "Department of Sanitation",
    "final_address": "73 Audubon Blvd",
    "address_councildis": "A",
    "status": "Pending",
    "rowid": "1058674",
    "final_x": "3665816.02068",
    "final_y": "527532.612159",
    "longitude": "-90.1177284532475",
    "latitude": "29.944998543183946",
    "geocoded_column": {
      "latitude": "29.944998543183946",
      "longitude": "-90.1177284532475"
    }
  },
  {
    "service_request": "2024-1058673",
    "request_type": "Roads/Drainage",
    "request_reason": "Catch Basin - Clogged",
    "date_created": "2024-01-02T15:21:54.000",
    "date_modified": "2024-01-02T15:21:54.000",
    "request_status": "Pending",
    "responsible_agency": "Department of Public Works",
    "final_address": "1834 Congress St",
    "address_councildis": "D",
    "status": "Pending",
    "rowid": "1058673",
    "final_x": "3691406.583",
    "final_y": "538487.661961",
    "longitude": "-90.03654001946414",
    "latitude": "29.974349801363157",
    "geocoded_column": {
      "latitude": "29.974349801363157",
      "longitude": "-90.03654001946414"
    }
  },
  {
    "service_request": "2024-1058672",
    "request_type": "Trash/Recycling",
    "request_reason": "Order Trash Cart",
    "date_created": "2024-01-02T15:21:43.000",
    "date_modified": "2024-01-02T15:21:44.000",
    "request_status": "Pending",
    "responsible_agency": "Department of Sanitation",
    "final_address": "4701 Odin St",
    "address_councildis": "D",
    "status": "Assigned to Contractor",
    "contractor": "IV Waste",
    "rowid": "1058672",
    "final_x": "3690936.55689",
    "final_y": "553791.507287",
    "longitude": "-90.03747785826559",
    "latitude": "30.016444437450414",
    "geocoded_column": {
      "latitude": "30.016444437450414",
      "longitude": "-90.03747785826559"
    }
  },
  {
    "service_request": "2024-1058671",
    "request_type": "Trash/Recycling",
    "request_reason": "Order Recycling Cart",
    "date_created": "2024-01-02T15:20:45.000",
    "date_modified": "2024-01-02T15:20:45.000",
    "request_status": "Pending",
    "responsible_agency": "Department of Sanitation",
    "final_address": "4701 Odin St",
    "address_councildis": "D",
    "status": "Pending",
    "rowid": "1058671",
    "final_x": "3690936.55689",
    "final_y": "553791.507287",
    "longitude": "-90.03747785826559",
    "latitude": "30.016444437450414",
    "geocoded_column": {
      "latitude": "30.016444437450414",
      "longitude": "-90.03747785826559"
    }
  },
  {
    "service_request": "2024-1058670",
    "request_type": "Trash/Recycling",
    "request_reason": "Repair Trash Cart",
    "date_created": "2024-01-02T15:18:22.000",
    "date_modified": "2024-01-02T15:18:23.000",
    "request_status": "Pending",
    "responsible_agency": "Department of Sanitation",
    "final_address": "1017 Andry St",
    "address_councildis": "E",
    "status": "Assigned to Contractor",
    "contractor": "Waste Pro",
    "rowid": "1058670",
    "final_x": "3697135.74397",
    "final_y": "533712.603845",
    "longitude": "-90.01861910705473",
    "latitude": "29.961040567896724",
    "geocoded_column": {
      "latitude": "29.961040567896724",
      "longitude": "-90.01861910705473"
    }
  },
  {
    "service_request": "2024-1058669",
    "request_type": "Trash/Recycling",
    "request_reason": "Order Trash Cart",
    "date_created": "2024-01-02T15:16:40.000",
    "date_modified": "2024-01-02T15:16:41.000",
    "request_status": "Pending",
    "responsible_agency": "Department of Sanitation",
    "final_address": "5127 Laurel St",
    "address_councildis": "B",
    "status": "Assigned to Contractor",
    "contractor": "Richards Disposal",
    "rowid": "1058669",
    "final_x": "3668080.57652",
    "final_y": "517949.310646",
    "longitude": "-90.11090132918595",
    "latitude": "29.918581269842363",
    "geocoded_column": {
      "latitude": "29.918581269842363",
      "longitude": "-90.11090132918595"
    }
  },
  {
    "service_request": "2024-1058668",
    "request_type": "Property Maintenance",
    "request_reason": "Property Maintenance",
    "date_created": "2024-01-02T15:14:39.000",
    "date_modified": "2024-01-02T15:14:39.000",
    "request_status": "Pending",
    "responsible_agency": "Department of Code Enforcement",
    "final_address": "2509 Memorial Park Dr",
    "address_councildis": "C",
    "status": "Pending",
    "rowid": "1058668",
    "final_x": "3692667.34697",
    "final_y": "521156.961721",
    "longitude": "-90.03317930093436",
    "latitude": "29.92665709085535",
    "geocoded_column": {
      "latitude": "29.92665709085535",
      "longitude": "-90.03317930093436"
    }
  },
  {
    "service_request": "2024-1058667",
    "request_type": "Trash/Recycling",
    "request_reason": "Request a Large Item Pick Up",
    "date_created": "2024-01-02T15:14:03.000",
    "date_modified": "2024-01-02T15:14:04.000",
    "request_status": "Pending",
    "responsible_agency": "Department of Sanitation",
    "final_address": "7829 Briarwood Dr",
    "address_councildis": "E",
    "status": "Assigned to Contractor",
    "contractor": "Waste Pro",
    "rowid": "1058667",
    "final_x": "3716783.04396",
    "final_y": "571880.736232",
    "longitude": "-89.95512761417963",
    "latitude": "30.065353427526965",
    "geocoded_column": {
      "latitude": "30.065353427526965",
      "longitude": "-89.95512761417963"
    }
  },
  {
    "service_request": "2024-1058666",
    "request_type": "Roads/Drainage",
    "request_reason": "Debris in Roadway",
    "date_created": "2024-01-02T15:13:50.000",
    "date_modified": "2024-01-02T15:13:50.000",
    "request_status": "Pending",
    "responsible_agency": "Department of Public Works",
    "final_address": "1822 Congress St",
    "address_councildis": "D",
    "status": "Pending",
    "rowid": "1058666",
    "final_x": "3691382.03798",
    "final_y": "538398.332681",
    "longitude": "-90.03662073084985",
    "latitude": "29.974104941326974",
    "geocoded_column": {
      "latitude": "29.974104941326974",
      "longitude": "-90.03662073084985"
    }
  },
  {
    "service_request": "2024-1058665",
    "request_type": "Property Maintenance",
    "request_reason": "Property Maintenance",
    "date_created": "2024-01-02T15:11:13.000",
    "date_modified": "2024-01-02T15:11:13.000",
    "request_status": "Pending",
    "responsible_agency": "Department of Code Enforcement",
    "final_address": "2613 Memorial Park Dr",
    "address_councildis": "C",
    "status": "Pending",
    "rowid": "1058665",
    "final_x": "3692878.67491",
    "final_y": "520962.421049",
    "longitude": "-90.03251917067065",
    "latitude": "29.92611557467757",
    "geocoded_column": {
      "latitude": "29.92611557467757",
      "longitude": "-90.03251917067065"
    }
  },
  {
    "service_request": "2024-1058664",
    "request_type": "Abandoned Vehicles",
    "request_reason": "Abandoned/Junk Vehicles",
    "date_created": "2024-01-02T15:09:13.000",
    "date_modified": "2024-01-02T15:09:13.000",
    "request_status": "Pending",
    "responsible_agency": "Department of Public Works",
    "final_address": "6759 General Haig St",
    "address_councildis": "A",
    "status": "Pending",
    "rowid": "1058664",
    "final_x": "3671107.90683",
    "final_y": "552328.176854",
    "longitude": "-90.10017777137695",
    "latitude": "30.013022489215206",
    "geocoded_column": {
      "latitude": "30.013022489215206",
      "longitude": "-90.10017777137695"
    }
  },
  {
    "service_request": "2024-1058663",
    "request_type": "Trash/Recycling",
    "request_reason": "Missed Trash Pick-Up",
    "date_created": "2024-01-02T15:07:20.000",
    "date_modified": "2024-01-02T15:07:21.000",
    "request_status": "Pending",
    "responsible_agency": "Department of Sanitation",
    "final_address": "4538 S Johnson St",
    "address_councildis": "B",
    "status": "Assigned to Contractor",
    "contractor": "Richards Disposal",
    "rowid": "1058663",
    "final_x": "3669514.51406",
    "final_y": "527115.167615",
    "longitude": "-90.10606525405707",
    "latitude": "29.94374230001293",
    "geocoded_column": {
      "latitude": "29.94374230001293",
      "longitude": "-90.10606525405707"
    }
  },
  {
    "service_request": "2024-1058662",
    "request_type": "Abandoned Vehicles",
    "request_reason": "Abandoned/Junk Vehicles",
    "date_created": "2024-01-02T15:03:34.000",
    "date_modified": "2024-01-02T15:03:34.000",
    "request_status": "Pending",
    "responsible_agency": "Department of Public Works",
    "final_address": "1221 Burdette St",
    "address_councildis": "A",
    "status": "Pending",
    "rowid": "1058662",
    "final_x": "3662936.10317",
    "final_y": "527715.010495",
    "longitude": "-90.12681521924623",
    "latitude": "29.945583775651727",
    "geocoded_column": {
      "latitude": "29.945583775651727",
      "longitude": "-90.12681521924623"
    }
  },
  {
    "service_request": "2024-1058661",
    "request_type": "Trash/Recycling",
    "request_reason": "Request a Large Item Pick Up",
    "date_created": "2024-01-02T15:02:31.000",
    "date_modified": "2024-01-02T15:02:32.000",
    "request_status": "Pending",
    "responsible_agency": "Department of Sanitation",
    "final_address": "2920 Broadway St",
    "address_councildis": "B",
    "status": "Assigned to Contractor",
    "contractor": "Richards Disposal",
    "rowid": "1058661",
    "final_x": "3667605.94823",
    "final_y": "531784.633987",
    "longitude": "-90.11193397933228",
    "latitude": "29.956637882552354",
    "geocoded_column": {
      "latitude": "29.956637882552354",
      "longitude": "-90.11193397933228"
    }
  },
  {
    "service_request": "2024-1058660",
    "request_type": "Trash/Recycling",
    "request_reason": "Return Trash Cart",
    "date_created": "2024-01-02T14:59:12.000",
    "date_modified": "2024-01-02T14:59:13.000",
    "request_status": "Pending",
    "responsible_agency": "Department of Sanitation",
    "final_address": "2940 Joliet St",
    "address_councildis": "A",
    "status": "Assigned to Contractor",
    "contractor": "Richards Disposal",
    "rowid": "1058660",
    "final_x": "3665182.14605",
    "final_y": "534093.447109",
    "longitude": "-90.11951036288461",
    "latitude": "29.963057181417945",
    "geocoded_column": {
      "latitude": "29.963057181417945",
      "longitude": "-90.11951036288461"
    }
  },
  {
    "service_request": "2024-1058659",
    "request_type": "Abandoned Vehicles",
    "request_reason": "Abandoned/Junk Vehicles",
    "date_created": "2024-01-02T14:57:48.000",
    "date_modified": "2024-01-02T14:57:48.000",
    "request_status": "Pending",
    "responsible_agency": "Department of Public Works",
    "final_address": "6538 Orleans Ave",
    "address_councildis": "A",
    "status": "Pending",
    "rowid": "1058659",
    "final_x": "3671183.36596",
    "final_y": "550845.851029",
    "longitude": "-90.09998977064392",
    "latitude": "30.00894438344322",
    "geocoded_column": {
      "latitude": "30.00894438344322",
      "longitude": "-90.09998977064392"
    }
  },
  {
    "service_request": "2024-1058658",
    "request_type": "Trash/Recycling",
    "request_reason": "Replace Trash Cart",
    "date_created": "2024-01-02T14:57:41.000",
    "date_modified": "2024-01-02T14:57:42.000",
    "request_status": "Pending",
    "responsible_agency": "Department of Sanitation",
    "final_address": "1850 Industry St",
    "address_councildis": "D",
    "status": "Assigned to Contractor",
    "contractor": "IV Waste",
    "rowid": "1058658",
    "final_x": "3681989.72565",
    "final_y": "542699.435277",
    "longitude": "-90.06613355153333",
    "latitude": "29.986220388892217",
    "geocoded_column": {
      "latitude": "29.986220388892217",
      "longitude": "-90.06613355153333"
    }
  },
  {
    "service_request": "2024-1058657",
    "request_type": "Trash/Recycling",
    "request_reason": "Replace Trash Cart",
    "date_created": "2024-01-02T14:56:17.000",
    "date_modified": "2024-01-02T14:56:17.000",
    "request_status": "Pending",
    "responsible_agency": "Department of Sanitation",
    "final_address": "2103 Bienville Ave",
    "address_councildis": "B",
    "status": "Assigned to Contractor",
    "contractor": "Richards Disposal",
    "rowid": "1058657",
    "final_x": "3677732.65326",
    "final_y": "534364.065413",
    "longitude": "-90.07986801066528",
    "latitude": "29.963429750787455",
    "geocoded_column": {
      "latitude": "29.963429750787455",
      "longitude": "-90.07986801066528"
    }
  },
  {
    "service_request": "2024-1058656",
    "request_type": "Trash/Recycling",
    "request_reason": "Replace Trash Cart",
    "date_created": "2024-01-02T14:55:43.000",
    "date_modified": "2024-01-02T14:55:44.000",
    "request_status": "Pending",
    "responsible_agency": "Department of Sanitation",
    "final_address": "2101 Bienville Ave",
    "address_councildis": "B",
    "status": "Assigned to Contractor",
    "contractor": "Richards Disposal",
    "rowid": "1058656",
    "final_x": "3677745.98248",
    "final_y": "534355.179653",
    "longitude": "-90.07982622539227",
    "latitude": "29.963404917020025",
    "geocoded_column": {
      "latitude": "29.963404917020025",
      "longitude": "-90.07982622539227"
    }
  },
  {
    "service_request": "2024-1058655",
    "request_type": "Trash/Recycling",
    "request_reason": "Request a Large Item Pick Up",
    "date_created": "2024-01-02T14:51:29.000",
    "date_modified": "2024-01-02T14:51:30.000",
    "request_status": "Pending",
    "responsible_agency": "Department of Sanitation",
    "final_address": "2730 Dauphine St",
    "address_councildis": "C",
    "status": "Assigned to Contractor",
    "contractor": "IV Waste",
    "rowid": "1058655",
    "final_x": "3687368.2541",
    "final_y": "535162.575622",
    "longitude": "-90.04941165473089",
    "latitude": "29.96533202695357",
    "geocoded_column": {
      "latitude": "29.96533202695357",
      "longitude": "-90.04941165473089"
    }
  },
  {
    "service_request": "2024-1058654",
    "request_type": "Trash/Recycling",
    "request_reason": "MIssed Recycling Pick-Up",
    "date_created": "2024-01-02T14:50:21.000",
    "date_modified": "2024-01-02T16:03:05.000",
    "case_close_date": "2024-01-02T10:03:05.000",
    "request_status": "Closed",
    "responsible_agency": "Department of Sanitation",
    "final_address": "5060 St Ferdinand Dr",
    "address_councildis": "D",
    "status": "Invalid Request",
    "contractor": "IV Waste",
    "contractor_action": "Invalid Pick-Up",
    "rowid": "1058654",
    "final_x": "3689097.54031",
    "final_y": "551687.764373",
    "longitude": "-90.0433631715037",
    "latitude": "30.01071697937587",
    "geocoded_column": {
      "latitude": "30.01071697937587",
      "longitude": "-90.0433631715037"
    }
  },
  {
    "service_request": "2024-1058653",
    "request_type": "Trash/Recycling",
    "request_reason": "Request a Large Item Pick Up",
    "date_created": "2024-01-02T14:50:00.000",
    "date_modified": "2024-01-02T14:50:01.000",
    "request_status": "Pending",
    "responsible_agency": "Department of Sanitation",
    "final_address": "5011 Charmes Ct",
    "address_councildis": "E",
    "status": "Assigned to Contractor",
    "contractor": "Waste Pro",
    "rowid": "1058653",
    "final_x": "3726471.31155",
    "final_y": "561723.675231",
    "longitude": "-89.92489696030648",
    "latitude": "30.037101799657897",
    "geocoded_column": {
      "latitude": "30.037101799657897",
      "longitude": "-89.92489696030648"
    }
  },
  {
    "service_request": "2024-1058652",
    "request_type": "Trash/Recycling",
    "request_reason": "Repair Trash Cart",
    "date_created": "2024-01-02T14:46:24.000",
    "date_modified": "2024-01-02T14:46:25.000",
    "request_status": "Pending",
    "responsible_agency": "Department of Sanitation",
    "final_address": "4155 General Meyer Ave",
    "address_councildis": "C",
    "status": "Assigned to Contractor",
    "contractor": "Richards Disposal",
    "rowid": "1058652",
    "final_x": "3699486.14244",
    "final_y": "524400.125372",
    "longitude": "-90.01153625715942",
    "latitude": "29.935360165312797",
    "geocoded_column": {
      "latitude": "29.935360165312797",
      "longitude": "-90.01153625715942"
    }
  },
  {
    "service_request": "2024-1058651",
    "request_type": "Parks & Parkways",
    "request_reason": "Request Tree Service (Right of Way/Public Property)",
    "date_created": "2024-01-02T14:44:05.000",
    "date_modified": "2024-01-02T14:44:05.000",
    "request_status": "Pending",
    "responsible_agency": "Department of Parks & Parkway",
    "final_address": "1515 Dufossat St",
    "address_councildis": "B",
    "status": "Pending",
    "rowid": "1058651",
    "final_x": "3668192.20609",
    "final_y": "520568.892024",
    "longitude": "-90.11046072712098",
    "latitude": "29.925781016168",
    "geocoded_column": {
      "latitude": "29.925781016168",
      "longitude": "-90.11046072712098"
    }
  },
  {
    "service_request": "2024-1058650",
    "request_type": "Trash/Recycling",
    "request_reason": "Order Recycling Cart",
    "date_created": "2024-01-02T14:43:10.000",
    "date_modified": "2024-01-02T14:43:11.000",
    "request_status": "Pending",
    "responsible_agency": "Department of Sanitation",
    "final_address": "1912 Pauline St",
    "address_councildis": "D",
    "status": "Pending",
    "rowid": "1058650",
    "final_x": "3691941.65763",
    "final_y": "538603.532681",
    "longitude": "-90.03484598683966",
    "latitude": "29.974651742879548",
    "geocoded_column": {
      "latitude": "29.974651742879548",
      "longitude": "-90.03484598683966"
    }
  },
  {
    "service_request": "2024-1058649",
    "request_type": "Trash/Recycling",
    "request_reason": "Repair Recycling Cart",
    "date_created": "2024-01-02T14:42:50.000",
    "date_modified": "2024-01-02T14:42:51.000",
    "request_status": "Pending",
    "responsible_agency": "Department of Sanitation",
    "final_address": "7156 Grey Oaks Dr",
    "address_councildis": "E",
    "status": "Pending",
    "rowid": "1058649",
    "final_x": "3702186.84279",
    "final_y": "559820.490461",
    "longitude": "-90.00171067734112",
    "latitude": "30.03266717924165",
    "geocoded_column": {
      "latitude": "30.03266717924165",
      "longitude": "-90.00171067734112"
    }
  },
  {
    "service_request": "2024-1058648",
    "request_type": "Roads/Drainage",
    "request_reason": "Pothole",
    "date_created": "2024-01-02T14:40:55.000",
    "date_modified": "2024-01-02T14:40:55.000",
    "request_status": "Pending",
    "responsible_agency": "Department of Public Works",
    "final_address": "2245 Lafreniere St",
    "address_councildis": "D",
    "status": "Pending",
    "rowid": "1058648",
    "final_x": "3684717.84188",
    "final_y": "545622.388944",
    "longitude": "-90.05741369873013",
    "latitude": "29.994174231527673",
    "geocoded_column": {
      "latitude": "29.994174231527673",
      "longitude": "-90.05741369873013"
    }
  },
  {
    "service_request": "2024-1058647",
    "request_type": "Traffic Signals/Signs/Striping/Streetlights",
    "request_reason": "Request for Stop Sign",
    "date_created": "2024-01-02T14:40:51.000",
    "date_modified": "2024-01-02T14:40:51.000",
    "request_status": "Pending",
    "responsible_agency": "Department of Public Works",
    "final_address": "3200 BLK Louisiana Avenue Pkwy",
    "address_councildis": "B",
    "status": "Pending",
    "rowid": "1058647",
    "final_x": "3671806.12453",
    "final_y": "527345.426396",
    "longitude": "-90.09882217700938",
    "latitude": "29.94430774793278",
    "geocoded_column": {
      "latitude": "29.94430774793278",
      "longitude": "-90.09882217700938"
    }
  },
  {
    "service_request": "2024-1058646",
    "request_type": "Trash/Recycling",
    "request_reason": "Repair Trash Cart",
    "date_created": "2024-01-02T14:39:58.000",
    "date_modified": "2024-01-02T14:39:59.000",
    "request_status": "Pending",
    "responsible_agency": "Department of Sanitation",
    "final_address": "1622 St Anthony St",
    "address_councildis": "D",
    "status": "Assigned to Contractor",
    "contractor": "IV Waste",
    "rowid": "1058646",
    "final_x": "3683316.25071",
    "final_y": "538219.294793",
    "longitude": "-90.06210057429708",
    "latitude": "29.973861167153547",
    "geocoded_column": {
      "latitude": "29.973861167153547",
      "longitude": "-90.06210057429708"
    }
  },
  {
    "service_request": "2024-1058645",
    "request_type": "Traffic Signals/Signs/Striping/Streetlights",
    "request_reason": "Request for Stop Sign",
    "date_created": "2024-01-02T14:37:59.000",
    "date_modified": "2024-01-02T14:37:59.000",
    "request_status": "Pending",
    "responsible_agency": "Department of Public Works",
    "final_address": "DELACHAISE ST & S ROMAN ST",
    "address_councildis": "B",
    "status": "Pending",
    "rowid": "1058645",
    "final_x": "3671675.4",
    "final_y": "526765.28",
    "longitude": "-90.09925464009336",
    "latitude": "29.94271640672577",
    "geocoded_column": {
      "latitude": "29.94271640672577",
      "longitude": "-90.09925464009336"
    }
  },
  {
    "service_request": "2024-1058644",
    "request_type": "Traffic Signals/Signs/Striping/Streetlights",
    "request_reason": "Traffic Sign Missing/Damaged",
    "date_created": "2024-01-02T14:36:08.000",
    "date_modified": "2024-01-02T14:36:08.000",
    "request_status": "Pending",
    "responsible_agency": "Department of Public Works",
    "final_address": "3341 Magazine St",
    "address_councildis": "B",
    "status": "Pending",
    "rowid": "1058644",
    "final_x": "3675081.68334",
    "final_y": "519705.104824",
    "longitude": "-90.08874230437921",
    "latitude": "29.92320190816573",
    "geocoded_column": {
      "latitude": "29.92320190816573",
      "longitude": "-90.08874230437921"
    }
  },
  {
    "service_request": "2024-1058643",
    "request_type": "Trash/Recycling",
    "request_reason": "Missed Trash Pick-Up",
    "date_created": "2024-01-02T14:33:55.000",
    "date_modified": "2024-01-02T14:33:56.000",
    "request_status": "Pending",
    "responsible_agency": "Department of Sanitation",
    "final_address": "1116 N Derbigny St",
    "address_councildis": "D",
    "status": "Assigned to Contractor",
    "contractor": "Richards Disposal",
    "rowid": "1058643",
    "final_x": "3680508.01096",
    "final_y": "536128.917191",
    "longitude": "-90.07104234108606",
    "latitude": "29.968198716628148",
    "geocoded_column": {
      "latitude": "29.968198716628148",
      "longitude": "-90.07104234108606"
    }
  },
  {
    "service_request": "2024-1058642",
    "request_type": "Trash/Recycling",
    "request_reason": "Repair Trash Cart",
    "date_created": "2024-01-02T14:31:48.000",
    "date_modified": "2024-01-02T14:31:48.000",
    "request_status": "Pending",
    "responsible_agency": "Department of Sanitation",
    "final_address": "710 Jena St",
    "address_councildis": "B",
    "status": "Assigned to Contractor",
    "contractor": "Richards Disposal",
    "rowid": "1058642",
    "final_x": "3670679.96641",
    "final_y": "518106.139638",
    "longitude": "-90.10269108938643",
    "latitude": "29.918935991529953",
    "geocoded_column": {
      "latitude": "29.918935991529953",
      "longitude": "-90.10269108938643"
    }
  },
  {
    "service_request": "2024-1058641",
    "request_type": "Abandoned Vehicles",
    "request_reason": "Abandoned/Junk Vehicles",
    "date_created": "2024-01-02T14:31:43.000",
    "date_modified": "2024-01-02T14:31:44.000",
    "request_status": "Pending",
    "responsible_agency": "Department of Public Works",
    "final_address": "1935 S Dupre St",
    "address_councildis": "B",
    "status": "Pending",
    "rowid": "1058641",
    "final_x": "3670183.36801",
    "final_y": "529352.295553",
    "longitude": "-90.10387771074912",
    "latitude": "29.949873956364716",
    "geocoded_column": {
      "latitude": "29.949873956364716",
      "longitude": "-90.10387771074912"
    }
  },
  {
    "service_request": "2024-1058640",
    "request_type": "Roads/Drainage",
    "request_reason": "Street Subsidence (Sinking)",
    "date_created": "2024-01-02T14:25:49.000",
    "date_modified": "2024-01-02T14:25:49.000",
    "request_status": "Pending",
    "responsible_agency": "Department of Public Works",
    "final_address": "6000 BLK General Haig St",
    "address_councildis": "A",
    "status": "Pending",
    "rowid": "1058640",
    "final_x": "3670557.25432",
    "final_y": "547417.343601",
    "longitude": "-90.1020842621594",
    "latitude": "29.999535702744332",
    "geocoded_column": {
      "latitude": "29.999535702744332",
      "longitude": "-90.1020842621594"
    }
  },
  {
    "service_request": "2024-1058639",
    "request_type": "Traffic Signals/Signs/Striping/Streetlights",
    "request_reason": "Traffic Sign Missing/Damaged",
    "date_created": "2024-01-02T14:22:41.000",
    "date_modified": "2024-01-02T14:22:41.000",
    "request_status": "Pending",
    "responsible_agency": "Department of Public Works",
    "final_address": "2836 Magazine St",
    "address_councildis": "B",
    "status": "Pending",
    "rowid": "1058639",
    "final_x": "3676881.38856",
    "final_y": "520640.302649",
    "longitude": "-90.08302910579613",
    "latitude": "29.92571952589557",
    "geocoded_column": {
      "latitude": "29.92571952589557",
      "longitude": "-90.08302910579613"
    }
  },
  {
    "service_request": "2024-1058638",
    "request_type": "Trash/Recycling",
    "request_reason": "Missed Trash Pick-Up",
    "date_created": "2024-01-02T14:22:26.000",
    "date_modified": "2024-01-02T14:22:27.000",
    "request_status": "Pending",
    "responsible_agency": "Department of Sanitation",
    "final_address": "3016 Canal St",
    "address_councildis": "B",
    "status": "Assigned to Contractor",
    "contractor": "Richards Disposal",
    "rowid": "1058638",
    "final_x": "3674192.94152",
    "final_y": "535883.518663",
    "longitude": "-90.09099402755132",
    "latitude": "29.96771373244557",
    "geocoded_column": {
      "latitude": "29.96771373244557",
      "longitude": "-90.09099402755132"
    }
  },
  {
    "service_request": "2024-1058637",
    "request_type": "Traffic Signals/Signs/Striping/Streetlights",
    "request_reason": "Traffic Sign Missing/Damaged",
    "date_created": "2024-01-02T14:18:40.000",
    "date_modified": "2024-01-02T14:18:40.000",
    "request_status": "Pending",
    "responsible_agency": "Department of Public Works",
    "final_address": "2730 Magazine St",
    "address_councildis": "B",
    "status": "Pending",
    "rowid": "1058637",
    "final_x": "3677127.24974",
    "final_y": "520812.216313",
    "longitude": "-90.08224707055764",
    "latitude": "29.926184853687005",
    "geocoded_column": {
      "latitude": "29.926184853687005",
      "longitude": "-90.08224707055764"
    }
  },
  {
    "service_request": "2024-1058636",
    "request_type": "Trash/Recycling",
    "request_reason": "Order Recycling Cart",
    "date_created": "2024-01-02T14:11:36.000",
    "date_modified": "2024-01-02T14:11:36.000",
    "request_status": "Pending",
    "responsible_agency": "Department of Sanitation",
    "final_address": "436 S Gayoso St",
    "address_councildis": "B",
    "status": "Pending",
    "rowid": "1058636",
    "final_x": "3673433.09844",
    "final_y": "534604.912517",
    "longitude": "-90.09343732954409",
    "latitude": "29.964220626513818",
    "geocoded_column": {
      "latitude": "29.964220626513818",
      "longitude": "-90.09343732954409"
    }
  },
  {
    "service_request": "2024-1058635",
    "request_type": "Trash/Recycling",
    "request_reason": "Request a Large Item Pick Up",
    "date_created": "2024-01-02T14:11:04.000",
    "date_modified": "2024-01-02T14:11:05.000",
    "request_status": "Pending",
    "responsible_agency": "Department of Sanitation",
    "final_address": "9911 E Rockton Cir",
    "address_councildis": "E",
    "status": "Assigned to Contractor",
    "contractor": "Waste Pro",
    "rowid": "1058635",
    "final_x": "3708693.96523",
    "final_y": "562933.62768",
    "longitude": "-89.98103171374704",
    "latitude": "30.04101753561943",
    "geocoded_column": {
      "latitude": "30.04101753561943",
      "longitude": "-89.98103171374704"
    }
  },
  {
    "service_request": "2024-1058634",
    "request_type": "Abandoned Vehicles",
    "request_reason": "Abandoned/Junk Vehicles",
    "date_created": "2024-01-02T14:00:09.000",
    "date_modified": "2024-01-02T14:03:13.000",
    "request_status": "Pending",
    "responsible_agency": "Department of Public Works",
    "final_address": "905 Whitney Ave",
    "address_councildis": "C",
    "status": "Pending",
    "rowid": "1058634",
    "final_x": "3690103.2511",
    "final_y": "528178.938752",
    "longitude": "-90.04102342695558",
    "latitude": "29.946044895991427",
    "geocoded_column": {
      "latitude": "29.946044895991427",
      "longitude": "-90.04102342695558"
    }
  },
  {
    "service_request": "2024-1058633",
    "request_type": "Trash/Recycling",
    "request_reason": "Request a Large Item Pick Up",
    "date_created": "2024-01-02T13:59:37.000",
    "date_modified": "2024-01-02T13:59:38.000",
    "request_status": "Pending",
    "responsible_agency": "Department of Sanitation",
    "final_address": "3720 Palmyra St",
    "address_councildis": "A",
    "status": "Assigned to Contractor",
    "contractor": "Richards Disposal",
    "rowid": "1058633",
    "final_x": "3671683.82228",
    "final_y": "536826.124936",
    "longitude": "-90.09888584085651",
    "latitude": "29.97038014672976",
    "geocoded_column": {
      "latitude": "29.97038014672976",
      "longitude": "-90.09888584085651"
    }
  },
  {
    "service_request": "2024-1058632",
    "request_type": "Trash/Recycling",
    "request_reason": "Replace Trash Cart",
    "date_created": "2024-01-02T13:58:28.000",
    "date_modified": "2024-01-02T13:58:29.000",
    "request_status": "Pending",
    "responsible_agency": "Department of Sanitation",
    "final_address": "3634 Annunciation St",
    "address_councildis": "B",
    "status": "Assigned to Contractor",
    "contractor": "Richards Disposal",
    "rowid": "1058632",
    "final_x": "3674201.21678",
    "final_y": "518125.04479",
    "longitude": "-90.09157565713969",
    "latitude": "29.918883516294652",
    "geocoded_column": {
      "latitude": "29.918883516294652",
      "longitude": "-90.09157565713969"
    }
  },
  {
    "service_request": "2024-1058631",
    "request_type": "Trash/Recycling",
    "request_reason": "Request a Large Item Pick Up",
    "date_created": "2024-01-02T13:57:29.000",
    "date_modified": "2024-01-02T13:57:30.000",
    "request_status": "Pending",
    "responsible_agency": "Department of Sanitation",
    "final_address": "4911 Eunice Dr",
    "address_councildis": "E",
    "status": "Assigned to Contractor",
    "contractor": "Waste Pro",
    "rowid": "1058631",
    "final_x": "3710508.64376",
    "final_y": "556815.26313",
    "longitude": "-89.97552588456327",
    "latitude": "30.024135445724465",
    "geocoded_column": {
      "latitude": "30.024135445724465",
      "longitude": "-89.97552588456327"
    }
  },
  {
    "service_request": "2024-1058630",
    "request_type": "Traffic Signals/Signs/Striping/Streetlights",
    "request_reason": "Street Light Outage/Malfunction",
    "date_created": "2024-01-02T13:49:18.000",
    "date_modified": "2024-01-02T13:49:19.000",
    "request_status": "Pending",
    "responsible_agency": "Department of Public Works",
    "final_address": "2500 BLK Franklin Ave",
    "address_councildis": "D",
    "status": "Assigned to Contractor",
    "contractor": "Legacy Professional Services",
    "rowid": "1058630",
    "final_x": "3687439.06734",
    "final_y": "541960.453924",
    "longitude": "-90.04894740052177",
    "latitude": "29.984021620148216",
    "geocoded_column": {
      "latitude": "29.984021620148216",
      "longitude": "-90.04894740052177"
    }
  },
  {
    "service_request": "2024-1058629",
    "request_type": "Trash/Recycling",
    "request_reason": "Order Trash Cart",
    "date_created": "2024-01-02T13:45:34.000",
    "date_modified": "2024-01-02T13:45:35.000",
    "request_status": "Pending",
    "responsible_agency": "Department of Sanitation",
    "final_address": "4617 Cartier Ave",
    "address_councildis": "D",
    "status": "Assigned to Contractor",
    "contractor": "IV Waste",
    "rowid": "1058629",
    "final_x": "3677973.66248",
    "final_y": "549576.917203",
    "longitude": "-90.07858086178625",
    "latitude": "30.005252553540906",
    "geocoded_column": {
      "latitude": "30.005252553540906",
      "longitude": "-90.07858086178625"
    }
  },
  {
    "service_request": "2024-1058628",
    "request_type": "Trash/Recycling",
    "request_reason": "MIssed Recycling Pick-Up",
    "date_created": "2024-01-02T13:43:11.000",
    "date_modified": "2024-01-02T13:43:12.000",
    "request_status": "Pending",
    "responsible_agency": "Department of Sanitation",
    "final_address": "5459 Dauphine St",
    "address_councildis": "E",
    "status": "Assigned to Contractor",
    "contractor": "Waste Pro",
    "rowid": "1058628",
    "final_x": "3697299.68311",
    "final_y": "532771.419332",
    "longitude": "-90.01813553402272",
    "latitude": "29.958447470719396",
    "geocoded_column": {
      "latitude": "29.958447470719396",
      "longitude": "-90.01813553402272"
    }
  },
  {
    "service_request": "2024-1058627",
    "request_type": "Trash/Recycling",
    "request_reason": "Request a Large Item Pick Up",
    "date_created": "2024-01-02T13:42:25.000",
    "date_modified": "2024-01-02T13:42:26.000",
    "request_status": "Pending",
    "responsible_agency": "Department of Sanitation",
    "final_address": "13191 Linden St",
    "address_councildis": "E",
    "status": "Assigned to Contractor",
    "contractor": "Waste Pro",
    "rowid": "1058627",
    "final_x": "3716492.41541",
    "final_y": "570913.928743",
    "longitude": "-89.95608304894864",
    "latitude": "30.062704717835636",
    "geocoded_column": {
      "latitude": "30.062704717835636",
      "longitude": "-89.95608304894864"
    }
  },
  {
    "service_request": "2024-1058626",
    "request_type": "Trash/Recycling",
    "request_reason": "Order Recycling Cart",
    "date_created": "2024-01-02T13:41:21.000",
    "date_modified": "2024-01-02T13:41:21.000",
    "request_status": "Pending",
    "responsible_agency": "Department of Sanitation",
    "final_address": "7540 Crestmont Rd",
    "address_councildis": "E",
    "status": "Pending",
    "rowid": "1058626",
    "final_x": "3699632.64765",
    "final_y": "560122.269725",
    "longitude": "-90.00977108067818",
    "latitude": "30.033578325825655",
    "geocoded_column": {
      "latitude": "30.033578325825655",
      "longitude": "-90.00977108067818"
    }
  },
  {
    "service_request": "2024-1058625",
    "request_type": "Property Maintenance",
    "request_reason": "Property Maintenance",
    "date_created": "2024-01-02T13:36:19.000",
    "date_modified": "2024-01-02T13:36:19.000",
    "request_status": "Pending",
    "responsible_agency": "Department of Code Enforcement",
    "final_address": "2100 France St",
    "address_councildis": "D",
    "status": "Pending",
    "rowid": "1058625",
    "final_x": "3693303.22173",
    "final_y": "538971.332682",
    "longitude": "-90.03053264375475",
    "latitude": "29.975620565675747",
    "geocoded_column": {
      "latitude": "29.975620565675747",
      "longitude": "-90.03053264375475"
    }
  },
  {
    "service_request": "2024-1058624",
    "request_type": "Abandoned Vehicles",
    "request_reason": "Abandoned/Junk Vehicles",
    "date_created": "2024-01-02T13:36:07.000",
    "date_modified": "2024-01-02T13:36:07.000",
    "request_status": "Pending",
    "responsible_agency": "Department of Public Works",
    "final_address": "1823 Prytania St",
    "address_councildis": "B",
    "status": "Pending",
    "rowid": "1058624",
    "final_x": "3678753.23317",
    "final_y": "524036.89446",
    "longitude": "-90.0770026977678",
    "latitude": "29.9350027465606",
    "geocoded_column": {
      "latitude": "29.9350027465606",
      "longitude": "-90.0770026977678"
    }
  },
  {
    "service_request": "2024-1058623",
    "request_type": "Traffic Signals/Signs/Striping/Streetlights",
    "request_reason": "Traffic Signal Malfunctioning/Damaged",
    "date_created": "2024-01-02T13:30:18.000",
    "date_modified": "2024-01-02T13:30:19.000",
    "request_status": "Pending",
    "responsible_agency": "Department of Public Works",
    "final_address": "CROWDER BLVD & LAKE FOREST BLVD",
    "address_councildis": "E",
    "status": "Pending",
    "rowid": "1058623",
    "final_x": "3705338.3",
    "final_y": "557870.28",
    "longitude": "-89.99182404248317",
    "latitude": "30.027203782609472",
    "geocoded_column": {
      "latitude": "30.027203782609472",
      "longitude": "-89.99182404248317"
    }
  },
  {
    "service_request": "2024-1058622",
    "request_type": "Trash/Recycling",
    "request_reason": "Replace Trash Cart",
    "date_created": "2024-01-02T13:28:40.000",
    "date_modified": "2024-01-02T13:28:41.000",
    "request_status": "Pending",
    "responsible_agency": "Department of Sanitation",
    "final_address": "6101 Laurel St",
    "address_councildis": "A",
    "status": "Assigned to Contractor",
    "contractor": "Richards Disposal",
    "rowid": "1058622",
    "final_x": "3663742.36218",
    "final_y": "518483.726582",
    "longitude": "-90.12457705052233",
    "latitude": "29.920177295052472",
    "geocoded_column": {
      "latitude": "29.920177295052472",
      "longitude": "-90.12457705052233"
    }
  },
  {
    "service_request": "2024-1058621",
    "request_type": "Trash/Recycling",
    "request_reason": "Request a Large Item Pick Up",
    "date_created": "2024-01-02T13:18:38.000",
    "date_modified": "2024-01-02T13:18:39.000",
    "request_status": "Pending",
    "responsible_agency": "Department of Sanitation",
    "final_address": "828 Harmony St",
    "address_councildis": "B",
    "status": "Assigned to Contractor",
    "contractor": "Richards Disposal",
    "rowid": "1058621",
    "final_x": "3676165.42875",
    "final_y": "519224.123959",
    "longitude": "-90.08533786683334",
    "latitude": "29.92184695374649",
    "geocoded_column": {
      "latitude": "29.92184695374649",
      "longitude": "-90.08533786683334"
    }
  },
  {
    "service_request": "2024-1058620",
    "request_type": "Trash/Recycling",
    "request_reason": "Missed Trash Pick-Up",
    "date_created": "2024-01-02T13:15:25.000",
    "date_modified": "2024-01-02T13:17:23.000",
    "case_close_date": "2024-01-02T07:17:23.000",
    "request_status": "Closed",
    "responsible_agency": "Department of Sanitation",
    "final_address": "14912 Curran Rd",
    "address_councildis": "E",
    "status": "Invalid Request",
    "contractor": "Waste Pro",
    "contractor_action": "Invalid Request",
    "rowid": "1058620",
    "final_x": "3720665.19577",
    "final_y": "574116.672938",
    "longitude": "-89.94277005382037",
    "latitude": "30.071372347607458",
    "geocoded_column": {
      "latitude": "30.071372347607458",
      "longitude": "-89.94277005382037"
    }
  },
  {
    "service_request": "2024-1058619",
    "request_type": "Property Maintenance",
    "request_reason": "Property Maintenance",
    "date_created": "2024-01-02T13:12:52.000",
    "date_modified": "2024-01-02T13:14:43.000",
    "request_status": "Pending",
    "responsible_agency": "Department of Code Enforcement",
    "final_address": "900 Eleonore St",
    "address_councildis": "A",
    "status": "Pending",
    "rowid": "1058619",
    "final_x": "3665264.99066",
    "final_y": "519444.149431",
    "longitude": "-90.11973871053087",
    "latitude": "29.92277390299219",
    "geocoded_column": {
      "latitude": "29.92277390299219",
      "longitude": "-90.11973871053087"
    }
  },
  {
    "service_request": "2024-1058618",
    "request_type": "Property Maintenance",
    "request_reason": "Property Maintenance",
    "date_created": "2024-01-02T13:11:58.000",
    "date_modified": "2024-01-02T13:11:59.000",
    "request_status": "Pending",
    "responsible_agency": "Department of Code Enforcement",
    "final_address": "7900 Vincent Rd",
    "address_councildis": "E",
    "status": "Pending",
    "rowid": "1058618",
    "final_x": "3717760.96658",
    "final_y": "572280.490601",
    "longitude": "-89.95202108802158",
    "latitude": "30.066420206720093",
    "geocoded_column": {
      "latitude": "30.066420206720093",
      "longitude": "-89.95202108802158"
    }
  },
  {
    "service_request": "2024-1058617",
    "request_type": "Trash/Recycling",
    "request_reason": "Missed Trash Pick-Up",
    "date_created": "2024-01-02T13:11:36.000",
    "date_modified": "2024-01-02T13:11:37.000",
    "request_status": "Pending",
    "responsible_agency": "Department of Sanitation",
    "final_address": "1567 Tropic Dr",
    "address_councildis": "C",
    "status": "Assigned to Contractor",
    "contractor": "Richards Disposal",
    "rowid": "1058617",
    "final_x": "3699452.8961",
    "final_y": "525018.982397",
    "longitude": "-90.01161867923513",
    "latitude": "29.937062861764733",
    "geocoded_column": {
      "latitude": "29.937062861764733",
      "longitude": "-90.01161867923513"
    }
  },