[
  {
    "service_request": "2021-835580",
    "request_type": "Traffic Signals/Signs/Striping/Streetlights",
    "request_reason": "Street Light Outage/Malfunction",
    "date_created": "2021-10-21T01:16:39.000",
    "date_modified": "2021-10-21T01:16:40.000",
    "request_status": "Pending",
    "responsible_agency": "Department of Public Works",
    "final_address": "3661 Post Oak Ave",
    "address_councildis": "C",
    "status": "Pending",
    "contractor": "Royal Engineering",
    "rowid": "835580",
    "final_x": "3703965.12746",
    "final_y": "514350.789299",
    "longitude": "-89.99776598503422",
    "latitude": "29.907585137529832",
    "geocoded_column": {
      "latitude": "29.907585137529832",
      "longitude": "-89.99776598503422"
    }
  },
  {
    "service_request": "2021-835579",
    "request_type": "Traffic Signals/Signs/Striping/Streetlights",
    "request_reason": "Street Light Outage/Malfunction",
    "date_created": "2021-10-21T01:08:31.000",
    "date_modified": "2021-10-21T01:08:32.000",
    "request_status": "Pending",
    "responsible_agency": "Department of Public Works",
    "final_address": "3830 S Pin Oak Ave",
    "address_councildis": "C",
    "status": "Pending",
    "contractor": "Royal Engineering",
    "rowid": "835579",
    "final_x": "3704832.73361",
    "final_y": "514156.555762",
    "longitude": "-89.99503489362013",
    "latitude": "29.90702322672558",
    "geocoded_column": {
      "latitude": "29.90702322672558",
      "longitude": "-89.99503489362013"
    }
  },
  {
    "service_request": "2021-835578",
    "request_type": "Traffic Signals/Signs/Striping/Streetlights",
    "request_reason": "Street Light Outage/Malfunction",
    "date_created": "2021-10-21T01:01:19.000",
    "date_modified": "2021-10-21T01:01:20.000",
    "request_status": "Pending",
    "responsible_agency": "Department of Public Works",
    "final_address": "3824 S Post Oak Ave",
    "address_councildis": "C",
    "status": "Pending",
    "contractor": "Royal Engineering",
    "rowid": "835578",
    "final_x": "3704575.7779",
    "final_y": "514007.790514",
    "longitude": "-89.99585134734455",
    "latitude": "29.906622422732216",
    "geocoded_column": {
      "latitude": "29.906622422732216",
      "longitude": "-89.99585134734455"
    }
  },
  {
    "service_request": "2021-835577",
    "request_type": "Traffic Signals/Signs/Striping/Streetlights",
    "request_reason": "Street Light Outage/Malfunction",
    "date_created": "2021-10-21T00:54:54.000",
    "date_modified": "2021-10-21T00:54:55.000",
    "request_status": "Pending",
    "responsible_agency": "Department of Public Works",
    "final_address": "3562 Inwood Ave",
    "address_councildis": "C",
    "status": "Pending",
    "contractor": "Royal Engineering",
    "rowid": "835577",
    "final_x": "3703690.56887",
    "final_y": "515277.608372",
    "longitude": "-89.99859844590021",
    "latitude": "29.910142370397665",
    "geocoded_column": {
      "latitude": "29.910142370397665",
      "longitude": "-89.99859844590021"
    }
  },
  {
    "service_request": "2021-835574",
    "request_type": "Traffic Signals/Signs/Striping/Streetlights",
    "request_reason": "Street Light Outage/Malfunction",
    "date_created": "2021-10-21T00:48:49.000",
    "date_modified": "2021-10-21T00:48:49.000",
    "request_status": "Pending",
    "responsible_agency": "Department of Public Works",
    "final_address": "3956 S Inwood Ave",
    "address_councildis": "C",
    "status": "Pending",
    "contractor": "Royal Engineering",
    "rowid": "835574",
    "final_x": "3705376.97297",
    "final_y": "513445.992114",
    "longitude": "-89.99334345596363",
    "latitude": "29.905051929958017",
    "geocoded_column": {
      "latitude": "29.905051929958017",
      "longitude": "-89.99334345596363"
    }
  },
  {
    "service_request": "2021-835573",
    "request_type": "Traffic Signals/Signs/Striping/Streetlights",
    "request_reason": "Street Light Outage/Malfunction",
    "date_created": "2021-10-21T00:41:00.000",
    "date_modified": "2021-10-21T00:41:00.000",
    "request_status": "Pending",
    "responsible_agency": "Department of Public Works",
    "final_address": "3601 Mimosa Ct",
    "address_councildis": "C",
    "status": "Pending",
    "contractor": "Royal Engineering",
    "rowid": "835573",
    "final_x": "3703135.6225",
    "final_y": "513260.506482",
    "longitude": "-90.0004240150635",
    "latitude": "29.904613789465714",
    "geocoded_column": {
      "latitude": "29.904613789465714",
      "longitude": "-90.0004240150635"
    }
  },
  {
    "service_request": "2021-835572",
    "request_type": "Traffic Signals/Signs/Striping/Streetlights",
    "request_reason": "Street Light Outage/Malfunction",
    "date_created": "2021-10-21T00:34:35.000",
    "date_modified": "2021-10-21T00:34:36.000",
    "request_status": "Pending",
    "responsible_agency": "Department of Public Works",
    "final_address": "3934 Peach Tree Ct",
    "address_councildis": "C",
    "status": "Pending",
    "contractor": "Royal Engineering",
    "rowid": "835572",
    "final_x": "3704249.04874",
    "final_y": "512655.431857",
    "longitude": "-89.99693230714693",
    "latitude": "29.90291437911953",
    "geocoded_column": {
      "latitude": "29.90291437911953",
      "longitude": "-89.99693230714693"
    }
  },
  {
    "service_request": "2021-835571",
    "request_type": "Traffic Signals/Signs/Striping/Streetlights",
    "request_reason": "Street Light Outage/Malfunction",
    "date_created": "2021-10-21T00:29:09.000",
    "date_modified": "2021-10-21T00:29:10.000",
    "request_status": "Pending",
    "responsible_agency": "Department of Public Works",
    "final_address": "3867 Peach Tree Ct",
    "address_councildis": "C",
    "status": "Pending",
    "contractor": "Royal Engineering",
    "rowid": "835571",
    "final_x": "3704371.89585",
    "final_y": "512361.132849",
    "longitude": "-89.99655544321892",
    "latitude": "29.90210121656436",
    "geocoded_column": {
      "latitude": "29.90210121656436",
      "longitude": "-89.99655544321892"
    }
  },
  {
    "service_request": "2021-835570",
    "request_type": "Traffic Signals/Signs/Striping/Streetlights",
    "request_reason": "Street Light Outage/Malfunction",
    "date_created": "2021-10-21T00:21:43.000",
    "date_modified": "2021-10-21T00:21:44.000",
    "request_status": "Pending",
    "responsible_agency": "Department of Public Works",
    "final_address": "3708 Silver Maple Ct",
    "address_councildis": "C",
    "status": "Pending",
    "contractor": "Royal Engineering",
    "rowid": "835570",
    "final_x": "3703186.15716",
    "final_y": "512716.321649",
    "longitude": "-90.0002845079094",
    "latitude": "29.903115849182093",
    "geocoded_column": {
      "latitude": "29.903115849182093",
      "longitude": "-90.0002845079094"
    }
  },
  {
    "service_request": "2021-835566",
    "request_type": "Trash/Recycling",
    "request_reason": "Illegal Dumping",
    "date_created": "2021-10-20T22:28:39.000",
    "date_modified": "2021-10-20T22:28:39.000",
    "request_status": "Pending",
    "responsible_agency": "Department of Sanitation",
    "final_address": "2722 Banks St",
    "address_councildis": "B",
    "status": "Pending",
    "rowid": "835566",
    "final_x": "3674397.71912",
    "final_y": "534232.450245",
    "longitude": "-90.09040389273228",
    "latitude": "29.963167744302833",
    "geocoded_column": {
      "latitude": "29.963167744302833",
      "longitude": "-90.09040389273228"
    }
  },
  {
    "service_request": "2021-835564",
    "request_type": "Trash/Recycling",
    "request_reason": "Request a Large Item Pick Up",
    "date_created": "2021-10-20T22:12:22.000",
    "date_modified": "2021-10-20T22:12:22.000",
    "request_status": "Pending",
    "responsible_agency": "Department of Sanitation",
    "final_address": "8217 Spruce St",
    "address_councildis": "A",
    "status": "Assigned to Contractor",
    "contractor": "Richards Disposal",
    "rowid": "835564",
    "final_x": "3663506.96775",
    "final_y": "530821.432258",
    "longitude": "-90.1249093681595",
    "latitude": "29.954108894103822",
    "geocoded_column": {
      "latitude": "29.954108894103822",
      "longitude": "-90.1249093681595"
    }
  },
  {
    "service_request": "2021-835562",
    "request_type": "Traffic Signals/Signs/Striping/Streetlights",
    "request_reason": "Street Light Outage/Malfunction",
    "date_created": "2021-10-20T22:09:17.000",
    "date_modified": "2021-10-20T23:01:43.000",
    "request_status": "Pending",
    "responsible_agency": "Department of Public Works",
    "final_address": "2501 Elysian Fields Ave",
    "address_councildis": "D",
    "status": "Pending",
    "contractor": "Royal Engineering",
    "rowid": "835562",
    "final_x": "3684712.22882",
    "final_y": "541736.654412",
    "longitude": "-90.05756809244224",
    "latitude": "29.98349001297375",
    "geocoded_column": {
      "latitude": "29.98349001297375",
      "longitude": "-90.05756809244224"
    }
  },
  {
    "service_request": "2021-835561",
    "request_type": "Traffic Signals/Signs/Striping/Streetlights",
    "request_reason": "Street Light Outage/Malfunction",
    "date_created": "2021-10-20T22:02:40.000",
    "date_modified": "2021-10-20T23:01:44.000",
    "request_status": "Pending",
    "responsible_agency": "Department of Public Works",
    "final_address": "2411 Elysian Fields Ave",
    "address_councildis": "D",
    "status": "Pending",
    "contractor": "Royal Engineering",
    "rowid": "835561",
    "final_x": "3684742.60073",
    "final_y": "541439.410892",
    "longitude": "-90.05748261589386",
    "latitude": "29.98267176828205",
    "geocoded_column": {
      "latitude": "29.98267176828205",
      "longitude": "-90.05748261589386"
    }
  },
  {
    "service_request": "2021-835560",
    "request_type": "Property Maintenance",
    "request_reason": "Property Maintenance",
    "date_created": "2021-10-20T21:50:28.000",
    "date_modified": "2021-10-20T21:50:28.000",
    "request_status": "Pending",
    "responsible_agency": "Department of Code Enforcement",
    "final_address": "6872 Canal Blvd",
    "address_councildis": "A",
    "status": "Pending",
    "rowid": "835560",
    "final_x": "3668894.75143",
    "final_y": "553238.328407",
    "longitude": "-90.10713939900955",
    "latitude": "30.015590390324753",
    "geocoded_column": {
      "latitude": "30.015590390324753",
      "longitude": "-90.10713939900955"
    }
  },
  {
    "service_request": "2021-835558",
    "request_type": "Traffic Signals/Signs/Striping/Streetlights",
    "request_reason": "Street Light Outage/Malfunction",
    "date_created": "2021-10-20T21:36:18.000",
    "date_modified": "2021-10-20T21:36:19.000",
    "request_status": "Pending",
    "responsible_agency": "Department of Public Works",
    "final_address": "4725 Franklin Ave",
    "address_councildis": "D",
    "status": "Pending",
    "contractor": "Royal Engineering",
    "rowid": "835558",
    "final_x": "3686907.00303",
    "final_y": "550507.444628",
    "longitude": "-90.05032566763236",
    "latitude": "30.00753915761033",
    "geocoded_column": {
      "latitude": "30.00753915761033",
      "longitude": "-90.05032566763236"
    }
  },
  {
    "service_request": "2021-835556",
    "request_type": "Traffic Signals/Signs/Striping/Streetlights",
    "request_reason": "Street Light Outage/Malfunction",
    "date_created": "2021-10-20T21:00:13.000",
    "date_modified": "2021-10-20T21:00:14.000",
    "request_status": "Pending",
    "responsible_agency": "Department of Public Works",
    "final_address": "4900 Bullard Ave",
    "address_councildis": "E",
    "status": "Pending",
    "contractor": "Royal Engineering",
    "rowid": "835556",
    "final_x": "3719137.61721",
    "final_y": "557950.363355",
    "longitude": "-89.94821692957825",
    "latitude": "30.02697253786098",
    "geocoded_column": {
      "latitude": "30.02697253786098",
      "longitude": "-89.94821692957825"
    }
  },
  {
    "service_request": "2021-835555",
    "request_type": "Traffic Signals/Signs/Striping/Streetlights",
    "request_reason": "Street Light Outage/Malfunction",
    "date_created": "2021-10-20T20:58:43.000",
    "date_modified": "2021-10-20T21:00:47.000",
    "request_status": "Pending",
    "responsible_agency": "Department of Public Works",
    "final_address": "7825 Belfast St",
    "address_councildis": "A",
    "status": "Pending",
    "contractor": "Royal Engineering",
    "rowid": "835555",
    "final_x": "3666308.1666",
    "final_y": "531769.053763",
    "longitude": "-90.11603249168299",
    "latitude": "29.956633015990977",
    "geocoded_column": {
      "latitude": "29.956633015990977",
      "longitude": "-90.11603249168299"
    }
  },
  {
    "service_request": "2021-835554",
    "request_type": "Traffic Signals/Signs/Striping/Streetlights",
    "request_reason": "Street Light Outage/Malfunction",
    "date_created": "2021-10-20T20:53:10.000",
    "date_modified": "2021-10-20T20:53:11.000",
    "request_status": "Pending",
    "responsible_agency": "Department of Public Works",
    "final_address": "1512 Pauger St",
    "address_councildis": "C",
    "status": "Pending",
    "contractor": "Royal Engineering",
    "rowid": "835554",
    "final_x": "3683919.46876",
    "final_y": "535264.972806",
    "longitude": "-90.06029914219219",
    "latitude": "29.965719390585853",
    "geocoded_column": {
      "latitude": "29.965719390585853",
      "longitude": "-90.06029914219219"
    }
  },
  {
    "service_request": "2021-835551",
    "request_type": "Health Related Questions",
    "request_reason": "Noise Ordinance Complaint",
    "date_created": "2021-10-20T20:48:01.000",
    "date_modified": "2021-10-20T21:00:56.000",
    "request_status": "Pending",
    "responsible_agency": "Health Department",
    "final_address": "1500 N Claiborne Ave",
    "address_councildis": "C",
    "status": "Pending",
    "rowid": "835551",
    "final_x": "3681846.67516",
    "final_y": "537148.826504",
    "longitude": "-90.0667791844965",
    "latitude": "29.970962498120493",
    "geocoded_column": {
      "latitude": "29.970962498120493",
      "longitude": "-90.0667791844965"
    }
  },
  {
    "service_request": "2021-835547",
    "request_type": "Traffic Signals/Signs/Striping/Streetlights",
    "request_reason": "Street Light Outage/Malfunction",
    "date_created": "2021-10-20T19:55:31.000",
    "date_modified": "2021-10-20T19:55:32.000",
    "request_status": "Pending",
    "responsible_agency": "Department of Public Works",
    "final_address": "4618 Herschel St",
    "address_councildis": "C",
    "status": "Pending",
    "contractor": "Royal Engineering",
    "rowid": "835547",
    "final_x": "3702059.22167",
    "final_y": "520876.690809",
    "longitude": "-90.00354218819567",
    "latitude": "29.925590077799242",
    "geocoded_column": {
      "latitude": "29.925590077799242",
      "longitude": "-90.00354218819567"
    }
  },
  {
    "service_request": "2021-835546",
    "request_type": "Traffic Signals/Signs/Striping/Streetlights",
    "request_reason": "Street Light Outage/Malfunction",
    "date_created": "2021-10-20T19:46:20.000",
    "date_modified": "2021-10-20T19:46:21.000",
    "request_status": "Pending",
    "responsible_agency": "Department of Public Works",
    "final_address": "1616 Steeple Chase Ln",
    "address_councildis": "C",
    "status": "Pending",
    "contractor": "Royal Engineering",
    "rowid": "835546",
    "final_x": "3700003.55242",
    "final_y": "524788.093308",
    "longitude": "-90.00988865630575",
    "latitude": "29.936410520394976",
    "geocoded_column": {
      "latitude": "29.936410520394976",
      "longitude": "-90.00988865630575"
    }
  },
  {
    "service_request": "2021-835545",
    "request_type": "Trash/Recycling",
    "request_reason": "Request a Large Item Pick Up",
    "date_created": "2021-10-20T19:46:12.000",
    "date_modified": "2021-10-20T20:01:49.000",
    "request_status": "Pending",
    "responsible_agency": "Department of Sanitation",
    "final_address": "1005 Pelican Ave, New Orleans, Louisiana, 70114",
    "address_councildis": "C",
    "status": "Assigned to Contractor",
    "contractor": "Richards Disposal",
    "rowid": "835545",
    "final_x": "3688610.26851",
    "final_y": "530697.885506",
    "longitude": "-90.0456478913553",
    "latitude": "29.95301735112633",
    "geocoded_column": {
      "latitude": "29.95301735112633",
      "longitude": "-90.0456478913553"
    }
  },
  {
    "service_request": "2021-835542",
    "request_type": "Traffic Signals/Signs/Striping/Streetlights",
    "request_reason": "Street Light Outage/Malfunction",
    "date_created": "2021-10-20T19:35:23.000",
    "date_modified": "2021-10-20T20:02:16.000",
    "request_status": "Pending",
    "responsible_agency": "Department of Public Works",
    "final_address": "4900 BLK Lafaye St",
    "address_councildis": "D",
    "status": "Pending",
    "contractor": "Royal Engineering",
    "rowid": "835542",
    "final_x": "3687375.36964",
    "final_y": "551310.729515",
    "longitude": "-90.04881751713023",
    "latitude": "30.009733469010005",
    "geocoded_column": {
      "latitude": "30.009733469010005",
      "longitude": "-90.04881751713023"
    }
  },
  {
    "service_request": "2021-835540",
    "request_type": "Roads/Drainage",
    "request_reason": "Leaking Hydrant",
    "date_created": "2021-10-20T19:22:09.000",
    "date_modified": "2021-10-20T19:22:09.000",
    "request_status": "Pending",
    "responsible_agency": "Department of Public Works",
    "final_address": "WRIGHT RD & WHITESIDE RD",
    "address_councildis": "E",
    "status": "Pending",
    "rowid": "835540",
    "final_x": "3711643.1",
    "final_y": "564883.08",
    "longitude": "-89.97163830098212",
    "latitude": "30.046281714389007",
    "geocoded_column": {
      "latitude": "30.046281714389007",
      "longitude": "-89.97163830098212"
    }
  },
  {
    "service_request": "2021-835538",
    "request_type": "Traffic Signals/Signs/Striping/Streetlights",
    "request_reason": "Traffic Signal Malfunctioning/Damaged",
    "date_created": "2021-10-20T19:15:52.000",
    "date_modified": "2021-10-20T20:02:52.000",
    "request_status": "Pending",
    "responsible_agency": "Department of Public Works",
    "final_address": "3100 Canal St",
    "address_councildis": "B",
    "status": "Pending",
    "rowid": "835538",
    "final_x": "3673994.5202",
    "final_y": "536021.914375",
    "longitude": "-90.09161591204898",
    "latitude": "29.968100187817363",
    "geocoded_column": {
      "latitude": "29.968100187817363",
      "longitude": "-90.09161591204898"
    }
  },
  {
    "service_request": "2021-835537",
    "request_type": "Trash/Recycling",
    "request_reason": "Request a Large Item Pick Up",
    "date_created": "2021-10-20T19:12:35.000",
    "date_modified": "2021-10-20T19:12:36.000",
    "request_status": "Pending",
    "responsible_agency": "Department of Sanitation",
    "final_address": "253 Pine St",
    "address_councildis": "A",
    "status": "Assigned to Contractor",
    "contractor": "Richards Disposal",
    "rowid": "835537",
    "final_x": "3661493.77888",
    "final_y": "522988.368251",
    "longitude": "-90.13152565661873",
    "latitude": "29.932628686486552",
    "geocoded_column": {
      "latitude": "29.932628686486552",
      "longitude": "-90.13152565661873"
    }
  },
  {
    "service_request": "2021-835536",
    "request_type": "Traffic Signals/Signs/Striping/Streetlights",
    "request_reason": "Traffic Sign Missing/Damaged",
    "date_created": "2021-10-20T19:10:04.000",
    "date_modified": "2021-10-20T20:03:01.000",
    "request_status": "Pending",
    "responsible_agency": "Department of Public Works",
    "final_address": "1437 Mandeville St",
    "address_councildis": "C",
    "status": "Pending",
    "rowid": "835536",
    "final_x": "3685701.35407",
    "final_y": "537778.030472",
    "longitude": "-90.0545834580051",
    "latitude": "29.972574870024545",
    "geocoded_column": {
      "latitude": "29.972574870024545",
      "longitude": "-90.0545834580051"
    }
  },
  {
    "service_request": "2021-835533",
    "request_type": "COVID-19",
    "request_reason": "COVID-19 Business Non-Compliance",
    "date_created": "2021-10-20T18:46:44.000",
    "date_modified": "2021-10-20T19:01:57.000",
    "request_status": "Pending",
    "responsible_agency": "Safety and Permits",
    "final_address": "3138 Magazine St",
    "address_councildis": "B",
    "status": "Pending",
    "rowid": "835533",
    "final_x": "3675849.56033",
    "final_y": "519982.702264",
    "longitude": "-90.08630887079022",
    "latitude": "29.923942255466056",
    "geocoded_column": {
      "latitude": "29.923942255466056",
      "longitude": "-90.08630887079022"
    }
  },
  {
    "service_request": "2021-835529",
    "request_type": "Abandoned Vehicles",
    "request_reason": "Abandoned/Junk Vehicles",
    "date_created": "2021-10-20T18:43:42.000",
    "date_modified": "2021-10-20T19:01:58.000",
    "request_status": "Pending",
    "responsible_agency": "Department of Public Works",
    "final_address": "637 S Dupre St, New Orleans, Louisiana, 70119",
    "address_councildis": "B",
    "status": "Pending",
    "rowid": "835529",
    "final_x": "3673244.24808",
    "final_y": "533944.138629",
    "longitude": "-90.09405627243919",
    "latitude": "29.96240933749384",
    "geocoded_column": {
      "latitude": "29.96240933749384",
      "longitude": "-90.09405627243919"
    }
  },
  {
    "service_request": "2021-835528",
    "request_type": "COVID-19",
    "request_reason": "COVID-19 Business Non-Compliance",
    "date_created": "2021-10-20T18:39:19.000",
    "date_modified": "2021-10-20T18:39:20.000",
    "request_status": "Pending",
    "responsible_agency": "Safety and Permits",
    "final_address": "5014 Prytania St",
    "address_councildis": "B",
    "status": "Pending",
    "rowid": "835528",
    "final_x": "3668559.08692",
    "final_y": "520069.294136",
    "longitude": "-90.1093194374985",
    "latitude": "29.924396509102646",
    "geocoded_column": {
      "latitude": "29.924396509102646",
      "longitude": "-90.1093194374985"
    }
  },
  {
    "service_request": "2021-835526",
    "request_type": "Trash/Recycling",
    "request_reason": "Illegal Dumping",
    "date_created": "2021-10-20T18:31:09.000",
    "date_modified": "2021-10-20T18:31:09.000",
    "request_status": "Pending",
    "responsible_agency": "Department of Sanitation",
    "final_address": "1600 Sauvage St",
    "address_councildis": "A",
    "status": "Pending",
    "rowid": "835526",
    "final_x": "3677181.03797",
    "final_y": "540545.440523",
    "longitude": "-90.08139667735654",
    "latitude": "29.980442999497054",
    "geocoded_column": {
      "latitude": "29.980442999497054",
      "longitude": "-90.08139667735654"
    }
  },
  {
    "service_request": "2021-835523",
    "request_type": "Trash/Recycling",
    "request_reason": "Replace Trash Cart",
    "date_created": "2021-10-20T18:03:59.000",
    "date_modified": "2021-10-20T18:04:00.000",
    "request_status": "Pending",
    "responsible_agency": "Department of Sanitation",
    "final_address": "1522 Simon Bolivar Ave",
    "address_councildis": "B",
    "status": "Assigned to Contractor",
    "contractor": "Richards Disposal",
    "rowid": "835523",
    "final_x": "3677250.9261",
    "final_y": "526494.983358",
    "longitude": "-90.08166070222862",
    "latitude": "29.941806888272563",
    "geocoded_column": {
      "latitude": "29.941806888272563",
      "longitude": "-90.08166070222862"
    }
  },
  {
    "service_request": "2021-835520",
    "request_type": "Property Maintenance",
    "request_reason": "Property Maintenance",
    "date_created": "2021-10-20T17:48:26.000",
    "date_modified": "2021-10-20T17:48:26.000",
    "request_status": "Pending",
    "responsible_agency": "Department of Code Enforcement",
    "final_address": "3123 Urquhart St",
    "address_councildis": "C",
    "status": "Pending",
    "rowid": "835520",
    "final_x": "3689384.55574",
    "final_y": "536717.977351",
    "longitude": "-90.0429889792863",
    "latitude": "29.969546560285092",
    "geocoded_column": {
      "latitude": "29.969546560285092",
      "longitude": "-90.0429889792863"
    }
  },
  {
    "service_request": "2021-835519",
    "request_type": "Property Maintenance",
    "request_reason": "Property Maintenance",
    "date_created": "2021-10-20T17:47:44.000",
    "date_modified": "2021-10-20T17:47:44.000",
    "request_status": "Pending",
    "responsible_agency": "Department of Code Enforcement",
    "final_address": "3121 Urquhart St",
    "address_councildis": "C",
    "status": "Pending",
    "rowid": "835519",
    "final_x": "3689371.27823",
    "final_y": "536724.216071",
    "longitude": "-90.04303068879113",
    "latitude": "29.969564125694554",
    "geocoded_column": {
      "latitude": "29.969564125694554",
      "longitude": "-90.04303068879113"
    }
  },
  {
    "service_request": "2021-835517",
    "request_type": "Trash/Recycling",
    "request_reason": "Request a Large Item Pick Up",
    "date_created": "2021-10-20T17:40:18.000",
    "date_modified": "2021-10-20T17:40:18.000",
    "request_status": "Pending",
    "responsible_agency": "Department of Sanitation",
    "final_address": "1517 Dante St",
    "address_councildis": "A",
    "status": "Assigned to Contractor",
    "contractor": "Richards Disposal",
    "rowid": "835517",
    "final_x": "3662272.73504",
    "final_y": "529726.060033",
    "longitude": "-90.12884295386093",
    "latitude": "29.951132706682934",
    "geocoded_column": {
      "latitude": "29.951132706682934",
      "longitude": "-90.12884295386093"
    }
  },
  {
    "service_request": "2021-835516",
    "request_type": "Trash/Recycling",
    "request_reason": "Missed Trash Pick-Up",
    "date_created": "2021-10-20T17:39:24.000",
    "date_modified": "2021-10-20T17:39:25.000",
    "request_status": "Pending",
    "responsible_agency": "Department of Sanitation",
    "final_address": "2714 N Galvez St",
    "address_councildis": "D",
    "status": "Assigned to Contractor",
    "contractor": "Metro Disposal",
    "rowid": "835516",
    "final_x": "3688506.09398",
    "final_y": "540047.489355",
    "longitude": "-90.04564506241584",
    "latitude": "29.978728716930828",
    "geocoded_column": {
      "latitude": "29.978728716930828",
      "longitude": "-90.04564506241584"
    }
  },
  {
    "service_request": "2021-835515",
    "request_type": "Roads/Drainage",
    "request_reason": "Accessibility Ramps, Curbs and Sidewalk Repair",
    "date_created": "2021-10-20T17:34:11.000",
    "date_modified": "2021-10-20T17:34:11.000",
    "request_status": "Pending",
    "responsible_agency": "Department of Public Works",
    "final_address": "1017 Second St",
    "address_councildis": "B",
    "status": "Pending",
    "rowid": "835515",
    "final_x": "3677970.68021",
    "final_y": "521172.040313",
    "longitude": "-90.07957217343221",
    "latitude": "29.92714890389848",
    "geocoded_column": {
      "latitude": "29.92714890389848",
      "longitude": "-90.07957217343221"
    }
  },
  {
    "service_request": "2021-835514",
    "request_type": "Trash/Recycling",
    "request_reason": "Missed Trash Pick-Up",
    "date_created": "2021-10-20T17:30:35.000",
    "date_modified": "2021-10-20T17:30:36.000",
    "request_status": "Pending",
    "responsible_agency": "Department of Sanitation",
    "final_address": "213 River Oaks Dr",
    "address_councildis": "C",
    "status": "Assigned to Contractor",
    "contractor": "Richards Disposal",
    "rowid": "835514",
    "final_x": "3701536.04279",
    "final_y": "523051.275515",
    "longitude": "-90.00511412157888",
    "latitude": "29.931586117539354",
    "geocoded_column": {
      "latitude": "29.931586117539354",
      "longitude": "-90.00511412157888"
    }
  },
  {
    "service_request": "2021-835513",
    "request_type": "Roads/Drainage",
    "request_reason": "Damaged Sidewalk",
    "date_created": "2021-10-20T17:23:37.000",
    "date_modified": "2021-10-20T17:23:37.000",
    "request_status": "Pending",
    "responsible_agency": "Department of Public Works",
    "final_address": "1008 Toledano St",
    "address_councildis": "B",
    "status": "Pending",
    "rowid": "835513",
    "final_x": "3675488.39553",
    "final_y": "519500.694007",
    "longitude": "-90.08746548349757",
    "latitude": "29.922627690924173",
    "geocoded_column": {
      "latitude": "29.922627690924173",
      "longitude": "-90.08746548349757"
    }
  },
  {
    "service_request": "2021-835512",
    "request_type": "Trash/Recycling",
    "request_reason": "Repair Trash Cart",
    "date_created": "2021-10-20T17:22:41.000",
    "date_modified": "2021-10-20T17:22:41.000",
    "request_status": "Pending",
    "responsible_agency": "Department of Sanitation",
    "final_address": "3429 Constance St",
    "address_councildis": "B",
    "status": "Assigned to Contractor",
    "contractor": "Richards Disposal",
    "rowid": "835512",
    "final_x": "3674926.14702",
    "final_y": "519229.459767",
    "longitude": "-90.089249575443",
    "latitude": "29.921898681565995",
    "geocoded_column": {
      "latitude": "29.921898681565995",
      "longitude": "-90.089249575443"
    }
  },
  {
    "service_request": "2021-835511",
    "request_type": "Roads/Drainage",
    "request_reason": "Damaged Sidewalk",
    "date_created": "2021-10-20T17:21:33.000",
    "date_modified": "2021-10-20T17:21:33.000",
    "request_status": "Pending",
    "responsible_agency": "Department of Public Works",
    "final_address": "3249 Constance St",
    "address_councildis": "B",
    "status": "Pending",
    "rowid": "835511",
    "final_x": "3675559.06651",
    "final_y": "519489.831799",
    "longitude": "-90.0872427760935",
    "latitude": "29.92259571030201",
    "geocoded_column": {
      "latitude": "29.92259571030201",
      "longitude": "-90.0872427760935"
    }
  },
  {
    "service_request": "2021-835510",
    "request_type": "Mayor's Request",
    "request_reason": "Requests to the Mayor",
    "date_created": "2021-10-20T17:19:02.000",
    "date_modified": "2021-10-20T18:05:25.000",
    "request_status": "Pending",
    "responsible_agency": "Executive Office of the Mayor",
    "status": "Pending",
    "rowid": "835510",
    "longitude": "0.0",
    "latitude": "0.0",
    "geocoded_column": {
      "latitude": "0.0",
      "longitude": "0.0"
    }
  },
  {
    "service_request": "2021-835509",
    "request_type": "Traffic Signals/Signs/Striping/Streetlights",
    "request_reason": "Street Light Outage/Malfunction",
    "date_created": "2021-10-20T17:18:15.000",
    "date_modified": "2021-10-20T18:05:27.000",
    "request_status": "Pending",
    "responsible_agency": "Department of Public Works",
    "final_address": "4918 Good Dr",
    "address_councildis": "E",
    "status": "Pending",
    "contractor": "Royal Engineering",
    "rowid": "835509",
    "final_x": "3714646.06821",
    "final_y": "557517.767067",
    "longitude": "-89.96242598479554",
    "latitude": "30.025931595313065",
    "geocoded_column": {
      "latitude": "30.025931595313065",
      "longitude": "-89.96242598479554"
    }
  },
  {
    "service_request": "2021-835508",
    "request_type": "Roads/Drainage",
    "request_reason": "Street Subsidence (Sinking)",
    "date_created": "2021-10-20T17:04:09.000",
    "date_modified": "2021-10-20T18:05:44.000",
    "request_status": "Pending",
    "responsible_agency": "Department of Public Works",
    "final_address": "HURST ST & BROADWAY ST",
    "address_councildis": "A",
    "status": "Pending",
    "rowid": "835508",
    "final_x": "3662239.63",
    "final_y": "523598.16",
    "longitude": "-90.12915082424685",
    "latitude": "29.934283890369247",
    "geocoded_column": {
      "latitude": "29.934283890369247",
      "longitude": "-90.12915082424685"
    }
  },
  {
    "service_request": "2021-835506",
    "request_type": "EMS",
    "request_reason": "EMS Complaint",
    "date_created": "2021-10-20T16:53:41.000",
    "date_modified": "2021-10-20T17:01:33.000",
    "request_status": "Pending",
    "responsible_agency": "Emergency Medical Services",
    "final_address": "3701 Texas Dr Apt D",
    "address_councildis": "C",
    "status": "Pending",
    "rowid": "835506",
    "final_x": "3696649.69635",
    "final_y": "518150.876022",
    "longitude": "-90.02071688147815",
    "latitude": "29.9182665275843",
    "geocoded_column": {
      "latitude": "29.9182665275843",
      "longitude": "-90.02071688147815"
    }
  },
  {
    "service_request": "2021-835504",
    "request_type": "Trash/Recycling",
    "request_reason": "Request a Large Item Pick Up",
    "date_created": "2021-10-20T16:44:13.000",
    "date_modified": "2021-10-20T17:03:24.000",
    "request_status": "Pending",
    "responsible_agency": "Department of Sanitation",
    "final_address": "4627 Dhemecourt St, New Orleans, Louisiana, 70119",
    "address_councildis": "A",
    "status": "Assigned to Contractor",
    "contractor": "Richards Disposal",
    "rowid": "835504",
    "final_x": "3668060.56999",
    "final_y": "538223.606601",
    "longitude": "-90.11028140354505",
    "latitude": "29.974329587424975",
    "geocoded_column": {
      "latitude": "29.974329587424975",
      "longitude": "-90.11028140354505"
    }
  },
  {
    "service_request": "2021-835503",
    "request_type": "Abandoned Vehicles",
    "request_reason": "Abandoned/Junk Vehicles",
    "date_created": "2021-10-20T16:43:10.000",
    "date_modified": "2021-10-20T16:43:10.000",
    "request_status": "Pending",
    "responsible_agency": "Department of Public Works",
    "final_address": "1619 Broadway St",
    "address_councildis": "A",
    "status": "Pending",
    "rowid": "835503",
    "final_x": "3665096.99981",
    "final_y": "527775.946623",
    "longitude": "-90.11999049753082",
    "latitude": "29.945688589513512",
    "geocoded_column": {
      "latitude": "29.945688589513512",
      "longitude": "-90.11999049753082"
    }
  },
  {
    "service_request": "2021-835501",
    "request_type": "Traffic Signals/Signs/Striping/Streetlights",
    "request_reason": "Street Light Outage/Malfunction",
    "date_created": "2021-10-20T16:41:13.000",
    "date_modified": "2021-10-20T17:06:41.000",
    "request_status": "Pending",
    "responsible_agency": "Department of Public Works",
    "final_address": "New Orleans,LA",
    "address_councildis": "C",
    "status": "Pending",
    "contractor": "Royal Engineering",
    "rowid": "835501",
    "final_x": "3707442.32689",
    "final_y": "519797.564472",
    "longitude": "-89.98658955993007",
    "latitude": "29.922449980476866",
    "geocoded_column": {
      "latitude": "29.922449980476866",
      "longitude": "-89.98658955993007"
    }
  },
  {
    "service_request": "2021-835500",
    "request_type": "Property Maintenance",
    "request_reason": "Property Maintenance",
    "date_created": "2021-10-20T16:40:37.000",
    "date_modified": "2021-10-20T16:40:37.000",
    "request_status": "Pending",
    "responsible_agency": "Department of Code Enforcement",
    "final_address": "211 S Lopez St",
    "address_councildis": "B",
    "status": "Pending",
    "rowid": "835500",
    "final_x": "3673360.46548",
    "final_y": "535848.656455",
    "longitude": "-90.09362420474805",
    "latitude": "29.967642664863284",
    "geocoded_column": {
      "latitude": "29.967642664863284",
      "longitude": "-90.09362420474805"
    }
  },
  {
    "service_request": "2021-835499",
    "request_type": "Trash/Recycling",
    "request_reason": "Missed Trash Pick-Up",
    "date_created": "2021-10-20T16:34:33.000",
    "date_modified": "2021-10-20T16:34:34.000",
    "request_status": "Pending",
    "responsible_agency": "Department of Sanitation",
    "final_address": "1333 S Saratoga St",
    "address_councildis": "B",
    "status": "Assigned to Contractor",
    "contractor": "Richards Disposal",
    "rowid": "835499",
    "final_x": "3677700.94242",
    "final_y": "526883.74451",
    "longitude": "-90.0802264839753",
    "latitude": "29.94286232826987",
    "geocoded_column": {
      "latitude": "29.94286232826987",
      "longitude": "-90.0802264839753"
    }
  },
  {
    "service_request": "2021-835497",
    "request_type": "Parks & Parkways",
    "request_reason": "Request Tree Service (Right of Way/Public Property)",
    "date_created": "2021-10-20T16:33:03.000",
    "date_modified": "2021-10-20T18:06:46.000",
    "request_status": "Pending",
    "responsible_agency": "Department of Parks & Parkway",
    "final_address": "4708 Perlita St",
    "address_councildis": "D",
    "status": "Pending",
    "rowid": "835497",
    "final_x": "3678608.25928",
    "final_y": "549899.547412",
    "longitude": "-90.07656485434157",
    "latitude": "30.006120548498366",
    "geocoded_column": {
      "latitude": "30.006120548498366",
      "longitude": "-90.07656485434157"
    }
  },
  {
    "service_request": "2021-835496",
    "request_type": "Trash/Recycling",
    "request_reason": "Missed Trash Pick-Up",
    "date_created": "2021-10-20T16:32:19.000",
    "date_modified": "2021-10-20T17:07:09.000",
    "request_status": "Pending",
    "responsible_agency": "Department of Sanitation",
    "final_address": "3771 Metropolitan St",
    "address_councildis": "D",
    "status": "Assigned to Contractor",
    "contractor": "Metro Disposal",
    "rowid": "835496",
    "final_x": "3691627.07798",
    "final_y": "546843.022161",
    "longitude": "-90.03554477218914",
    "latitude": "29.997317173094785",
    "geocoded_column": {
      "latitude": "29.997317173094785",
      "longitude": "-90.03554477218914"
    }
  },
  {
    "service_request": "2021-835495",
    "request_type": "Abandoned Vehicles",
    "request_reason": "Abandoned/Junk Vehicles",
    "date_created": "2021-10-20T16:20:52.000",
    "date_modified": "2021-10-20T16:20:52.000",
    "request_status": "Pending",
    "responsible_agency": "Department of Public Works",
    "status": "Inspected",
    "rowid": "835495",
    "longitude": "0.0",
    "latitude": "0.0",
    "geocoded_column": {
      "latitude": "0.0",
      "longitude": "0.0"
    }
  },
  {
    "service_request": "2021-835491",
    "request_type": "Trash/Recycling",
    "request_reason": "Missed Trash Pick-Up",
    "date_created": "2021-10-20T16:10:12.000",
    "date_modified": "2021-10-20T16:10:13.000",
    "request_status": "Pending",
    "responsible_agency": "Department of Sanitation",
    "final_address": "2235 Dauphine St",
    "address_councildis": "C",
    "status": "Assigned to Contractor",
    "contractor": "Metro Disposal",
    "rowid": "835491",
    "final_x": "3685419.53692",
    "final_y": "535365.02631",
    "longitude": "-90.05555846732803",
    "latitude": "29.965948592486512",
    "geocoded_column": {
      "latitude": "29.965948592486512",
      "longitude": "-90.05555846732803"
    }
  },
  {
    "service_request": "2021-835489",
    "request_type": "Abandoned Vehicles",
    "request_reason": "Abandoned/Junk Vehicles",
    "date_created": "2021-10-20T16:07:22.000",
    "date_modified": "2021-10-20T16:09:23.000",
    "request_status": "Pending",
    "responsible_agency": "Department of Public Works",
    "final_address": "2317 S Prieur St",
    "address_councildis": "B",
    "status": "Pending",
    "rowid": "835489",
    "final_x": "3673788.061",
    "final_y": "528430.481472",
    "longitude": "-90.09252752910655",
    "latitude": "29.947232429703107",
    "geocoded_column": {
      "latitude": "29.947232429703107",
      "longitude": "-90.09252752910655"
    }
  },
  {
    "service_request": "2021-835488",
    "request_type": "Abandoned Vehicles",
    "request_reason": "Abandoned/Junk Vehicles",
    "date_created": "2021-10-20T16:07:12.000",
    "date_modified": "2021-10-20T16:07:12.000",
    "request_status": "Pending",
    "responsible_agency": "Department of Public Works",
    "final_address": "4316 Eastview Dr",
    "address_councildis": "E",
    "status": "Pending",
    "rowid": "835488",
    "final_x": "3705246.37617",
    "final_y": "553113.866711",
    "longitude": "-89.99229041357995",
    "latitude": "30.014128442503043",
    "geocoded_column": {
      "latitude": "30.014128442503043",
      "longitude": "-89.99229041357995"
    }
  },
  {
    "service_request": "2021-835487",
    "request_type": "Abandoned Vehicles",
    "request_reason": "Abandoned/Junk Vehicles",
    "date_created": "2021-10-20T16:04:19.000",
    "date_modified": "2021-10-20T16:04:19.000",
    "request_status": "Pending",
    "responsible_agency": "Department of Public Works",
    "final_address": "3800 Danneel St",
    "address_councildis": "B",
    "status": "Pending",
    "rowid": "835487",
    "final_x": "3672437.67041",
    "final_y": "522440.834298",
    "longitude": "-90.09699528419952",
    "latitude": "29.93080298856638",
    "geocoded_column": {
      "latitude": "29.93080298856638",
      "longitude": "-90.09699528419952"
    }
  },
  {
    "service_request": "2021-835486",
    "request_type": "Traffic Signals/Signs/Striping/Streetlights",
    "request_reason": "Traffic Sign Missing/Damaged",
    "date_created": "2021-10-20T15:56:54.000",
    "date_modified": "2021-10-20T16:01:15.000",
    "request_status": "Pending",
    "responsible_agency": "Department of Public Works",
    "final_address": "VERMILLION BLVD & MEXICO ST",
    "address_councildis": "D",
    "status": "Pending",
    "rowid": "835486",
    "final_x": "3682995.7",
    "final_y": "556108.88",
    "longitude": "-90.0624863122675",
    "latitude": "30.0230609026601",
    "geocoded_column": {
      "latitude": "30.0230609026601",
      "longitude": "-90.0624863122675"
    }
  },
  {
    "service_request": "2021-835484",
    "request_type": "Trash/Recycling",
    "request_reason": "Request a Large Item Pick Up",
    "date_created": "2021-10-20T15:54:32.000",
    "date_modified": "2021-10-20T16:01:35.000",
    "request_status": "Pending",
    "responsible_agency": "Department of Sanitation",
    "final_address": "2682 Law St, New Orleans, Louisiana, 70117",
    "address_councildis": "D",
    "status": "Assigned to Contractor",
    "contractor": "Metro Disposal",
    "rowid": "835484",
    "final_x": "3687084.85532",
    "final_y": "541951.94478",
    "longitude": "-90.05006649263453",
    "latitude": "29.98400913548694",
    "geocoded_column": {
      "latitude": "29.98400913548694",
      "longitude": "-90.05006649263453"
    }
  },
  {
    "service_request": "2021-835481",
    "request_type": "Mayor's Request",
    "request_reason": "Entergy Bill Payment Assistance",
    "date_created": "2021-10-20T15:50:35.000",
    "date_modified": "2021-10-20T15:50:35.000",
    "request_status": "Pending",
    "responsible_agency": "Executive Office of the Mayor",
    "status": "Pending",
    "rowid": "835481",
    "longitude": "0.0",
    "latitude": "0.0",
    "geocoded_column": {
      "latitude": "0.0",
      "longitude": "0.0"
    }
  },
  {
    "service_request": "2021-835477",
    "request_type": "Trash/Recycling",
    "request_reason": "Order Trash Cart",
    "date_created": "2021-10-20T15:42:23.000",
    "date_modified": "2021-10-20T16:02:22.000",
    "request_status": "Pending",
    "responsible_agency": "Department of Sanitation",
    "final_address": "2326 Valmont St",
    "address_councildis": "B",
    "status": "Assigned to Contractor",
    "contractor": "Richards Disposal",
    "rowid": "835477",
    "final_x": "3668160.11949",
    "final_y": "524161.183932",
    "longitude": "-90.11044099179227",
    "latitude": "29.935659614968053",
    "geocoded_column": {
      "latitude": "29.935659614968053",
      "longitude": "-90.11044099179227"
    }
  },
  {
    "service_request": "2021-835473",
    "request_type": "Trash/Recycling",
    "request_reason": "Repair Trash Cart",
    "date_created": "2021-10-20T15:38:42.000",
    "date_modified": "2021-10-20T17:10:32.000",
    "request_status": "Pending",
    "responsible_agency": "Department of Sanitation",
    "final_address": "4523 Perrier St",
    "address_councildis": "B",
    "status": "Assigned to Contractor",
    "contractor": "Richards Disposal",
    "rowid": "835473",
    "final_x": "3670324.89633",
    "final_y": "520049.824888",
    "longitude": "-90.10374602897294",
    "latitude": "29.9242909901804",
    "geocoded_column": {
      "latitude": "29.9242909901804",
      "longitude": "-90.10374602897294"
    }
  },
  {
    "service_request": "2021-835470",
    "request_type": "Trash/Recycling",
    "request_reason": "Illegal Dumping",
    "date_created": "2021-10-20T15:36:22.000",
    "date_modified": "2021-10-20T15:36:22.000",
    "request_status": "Pending",
    "responsible_agency": "Department of Sanitation",
    "final_address": "9319 Stroelitz St",
    "address_councildis": "A",
    "status": "Pending",
    "rowid": "835470",
    "final_x": "3664741.75604",
    "final_y": "537938.486537",
    "longitude": "-90.12077257522867",
    "latitude": "29.973642589970037",
    "geocoded_column": {
      "latitude": "29.973642589970037",
      "longitude": "-90.12077257522867"
    }
  },
  {
    "service_request": "2021-835469",
    "request_type": "Traffic Signals/Signs/Striping/Streetlights",
    "request_reason": "Request for Stop Sign",
    "date_created": "2021-10-20T15:36:19.000",
    "date_modified": "2021-10-20T17:10:34.000",
    "request_status": "Pending",
    "responsible_agency": "Department of Public Works",
    "final_address": "2100 BLK Senate St",
    "address_councildis": "D",
    "status": "Pending",
    "rowid": "835469",
    "final_x": "3683492.60804",
    "final_y": "547673.652144",
    "longitude": "-90.06121210328578",
    "latitude": "29.999851929445377",
    "geocoded_column": {
      "latitude": "29.999851929445377",
      "longitude": "-90.06121210328578"
    }
  },
  {
    "service_request": "2021-835468",
    "request_type": "Trash/Recycling",
    "request_reason": "Dead Animal Pick Up",
    "date_created": "2021-10-20T15:36:16.000",
    "date_modified": "2021-10-20T16:03:20.000",
    "request_status": "Pending",
    "responsible_agency": "Department of Sanitation",
    "final_address": "8426 Spruce St",
    "address_councildis": "A",
    "status": "Assigned to Contractor",
    "contractor": "Richards Disposal",
    "rowid": "835468",
    "final_x": "3662881.26688",
    "final_y": "531281.317314",
    "longitude": "-90.12686979867642",
    "latitude": "29.95539155874519",
    "geocoded_column": {
      "latitude": "29.95539155874519",
      "longitude": "-90.12686979867642"
    }
  },
  {
    "service_request": "2021-835465",
    "request_type": "Safety & Permits",
    "request_reason": "Safety & Permits Request (Cyber Incident Back Up)",
    "date_created": "2021-10-20T15:33:57.000",
    "date_modified": "2021-10-20T17:10:44.000",
    "request_status": "Pending",
    "responsible_agency": "Safety and Permits",
    "status": "Pending",
    "rowid": "835465",
    "longitude": "0.0",
    "latitude": "0.0",
    "geocoded_column": {
      "latitude": "0.0",
      "longitude": "0.0"
    }
  },
  {
    "service_request": "2021-835464",
    "request_type": "Trash/Recycling",
    "request_reason": "Request a Large Item Pick Up",
    "date_created": "2021-10-20T15:32:58.000",
    "date_modified": "2021-10-20T16:03:43.000",
    "request_status": "Pending",
    "responsible_agency": "Department of Sanitation",
    "final_address": "524 Bouny St, New Orleans, Louisiana, 70114",
    "address_councildis": "C",
    "status": "Assigned to Contractor",
    "contractor": "Richards Disposal",
    "rowid": "835464",
    "final_x": "3686268.4847",
    "final_y": "529590.171969",
    "longitude": "-90.0530812814291",
    "latitude": "29.95004367170826",
    "geocoded_column": {
      "latitude": "29.95004367170826",
      "longitude": "-90.0530812814291"
    }
  },
  {
    "service_request": "2021-835463",
    "request_type": "Traffic Signals/Signs/Striping/Streetlights",
    "request_reason": "Street Light Outage/Malfunction",
    "date_created": "2021-10-20T15:32:17.000",
    "date_modified": "2021-10-20T15:32:20.000",
    "request_status": "Pending",
    "responsible_agency": "Department of Public Works",
    "final_address": "5924 Louis Xiv St",
    "address_councildis": "A",
    "status": "Pending",
    "contractor": "Royal Engineering",
    "rowid": "835463",
    "final_x": "3667941.12884",
    "final_y": "546870.176401",
    "longitude": "-90.1103671679768",
    "latitude": "29.9981082185529",
    "geocoded_column": {
      "latitude": "29.9981082185529",
      "longitude": "-90.1103671679768"
    }
  },
  {
    "service_request": "2021-835460",
    "request_type": "Roads/Drainage",
    "request_reason": "Pothole",
    "date_created": "2021-10-20T15:27:27.000",
    "date_modified": "2021-10-20T15:27:27.000",
    "request_status": "Pending",
    "responsible_agency": "Department of Public Works",
    "final_address": "601 Esplanade Ave",
    "address_councildis": "C",
    "status": "Pending",
    "rowid": "835460",
    "final_x": "3684337.03145",
    "final_y": "534273.397893",
    "longitude": "-90.05901532114105",
    "latitude": "29.96298013890127",
    "geocoded_column": {
      "latitude": "29.96298013890127",
      "longitude": "-90.05901532114105"
    }
  },
  {
    "service_request": "2021-835458",
    "request_type": "Abandoned Vehicles",
    "request_reason": "Abandoned/Junk Vehicles",
    "date_created": "2021-10-20T15:25:05.000",
    "date_modified": "2021-10-20T16:07:15.000",
    "request_status": "Pending",
    "responsible_agency": "Department of Public Works",
    "final_address": "1846 Pauline St",
    "address_councildis": "D",
    "status": "Pending",
    "rowid": "835458",
    "final_x": "3691907.71484",
    "final_y": "538426.148937",
    "longitude": "-90.0349595340757",
    "latitude": "29.97416505820761",
    "geocoded_column": {
      "latitude": "29.97416505820761",
      "longitude": "-90.0349595340757"
    }
  },
  {
    "service_request": "2021-835456",
    "request_type": "Trash/Recycling",
    "request_reason": "Replace Trash Cart",
    "date_created": "2021-10-20T15:22:36.000",
    "date_modified": "2021-10-20T16:08:50.000",
    "request_status": "Pending",
    "responsible_agency": "Department of Sanitation",
    "final_address": "3122 Upperline St, New Orleans, Louisiana, 70125",
    "address_councildis": "B",
    "status": "Assigned to Contractor",
    "contractor": "Richards Disposal",
    "rowid": "835456",
    "final_x": "3669214.0146",
    "final_y": "526524.364094",
    "longitude": "-90.10703397730478",
    "latitude": "29.94212662838082",
    "geocoded_column": {
      "latitude": "29.94212662838082",
      "longitude": "-90.10703397730478"
    }
  },
  {
    "service_request": "2021-835455",
    "request_type": "Abandoned Vehicles",
    "request_reason": "Abandoned/Junk Vehicles",
    "date_created": "2021-10-20T15:21:39.000",
    "date_modified": "2021-10-20T16:08:52.000",
    "request_status": "Pending",
    "responsible_agency": "Department of Public Works",
    "final_address": "2368 Rousseau St",
    "address_councildis": "B",
    "status": "Pending",
    "rowid": "835455",
    "final_x": "3679388.90786",
    "final_y": "519621.931512",
    "longitude": "-90.07514892370276",
    "latitude": "29.92284386435687",
    "geocoded_column": {
      "latitude": "29.92284386435687",
      "longitude": "-90.07514892370276"
    }
  },
  {
    "service_request": "2021-835454",
    "request_type": "Property Maintenance",
    "request_reason": "Property Maintenance",
    "date_created": "2021-10-20T15:20:30.000",
    "date_modified": "2021-10-20T15:20:30.000",
    "request_status": "Pending",
    "responsible_agency": "Department of Code Enforcement",
    "final_address": "8337 Cohn St",
    "address_councildis": "A",
    "status": "Pending",
    "rowid": "835454",
    "final_x": "3662905.50074",
    "final_y": "530902.01197",
    "longitude": "-90.12680588802839",
    "latitude": "29.9543478901814",
    "geocoded_column": {
      "latitude": "29.9543478901814",
      "longitude": "-90.12680588802839"
    }
  },
  {
    "service_request": "2021-835452",
    "request_type": "Abandoned Vehicles",
    "request_reason": "Abandoned/Junk Vehicles",
    "date_created": "2021-10-20T15:16:45.000",
    "date_modified": "2021-10-20T16:26:13.000",
    "request_status": "Pending",
    "responsible_agency": "Department of Public Works",
    "final_address": "3340 Bienville Ave",
    "address_councildis": "B",
    "status": "Pending",
    "rowid": "835452",
    "final_x": "3673768.51758",
    "final_y": "537220.091592",
    "longitude": "-90.09228865541266",
    "latitude": "29.971401502255205",
    "geocoded_column": {
      "latitude": "29.971401502255205",
      "longitude": "-90.09228865541266"
    }
  },
  {
    "service_request": "2021-835451",
    "request_type": "Roads/Drainage",
    "request_reason": "Pothole",
    "date_created": "2021-10-20T15:14:50.000",
    "date_modified": "2021-10-20T15:14:50.000",
    "request_status": "Pending",
    "responsible_agency": "Department of Public Works",
    "final_address": "200 BLK Seguin St",
    "address_councildis": "C",
    "status": "Pending",
    "rowid": "835451",
    "final_x": "3685861.83329",
    "final_y": "530706.935421",
    "longitude": "-90.0543259079691",
    "latitude": "29.95312687701046",
    "geocoded_column": {
      "latitude": "29.95312687701046",
      "longitude": "-90.0543259079691"
    }
  },
  {
    "service_request": "2021-835450",
    "request_type": "Traffic Signals/Signs/Striping/Streetlights",
    "request_reason": "Street Light Outage/Malfunction",
    "date_created": "2021-10-20T15:14:24.000",
    "date_modified": "2021-10-20T16:10:33.000",
    "request_status": "Pending",
    "responsible_agency": "Department of Public Works",
    "final_address": "818 S Carrollton Ave",
    "address_councildis": "A",
    "status": "Pending",
    "contractor": "Royal Engineering",
    "rowid": "835450",
    "final_x": "3661108.21677",
    "final_y": "527470.631039",
    "longitude": "-90.13259456949578",
    "latitude": "29.944964605846028",
    "geocoded_column": {
      "latitude": "29.944964605846028",
      "longitude": "-90.13259456949578"
    }
  },
  {
    "service_request": "2021-835447",
    "request_type": "Trash/Recycling",
    "request_reason": "Order Trash Cart",
    "date_created": "2021-10-20T15:13:28.000",
    "date_modified": "2021-10-20T16:10:51.000",
    "request_status": "Pending",
    "responsible_agency": "Department of Sanitation",
    "final_address": "6744 Foch Rd",
    "address_councildis": "D",
    "status": "Assigned to Contractor",
    "contractor": "Metro Disposal",
    "rowid": "835447",
    "final_x": "3696611.27901",
    "final_y": "556192.58025",
    "longitude": "-90.01946128717911",
    "latitude": "30.022868796797415",
    "geocoded_column": {
      "latitude": "30.022868796797415",
      "longitude": "-90.01946128717911"
    }
  },
  {
    "service_request": "2021-835446",
    "request_type": "Traffic Signals/Signs/Striping/Streetlights",
    "request_reason": "Street Light Outage/Malfunction",
    "date_created": "2021-10-20T15:06:39.000",
    "date_modified": "2021-10-20T15:06:40.000",
    "request_status": "Pending",
    "responsible_agency": "Department of Public Works",
    "final_address": "2503 Acacia St",
    "address_councildis": "D",
    "status": "Pending",
    "contractor": "Royal Engineering",
    "rowid": "835446",
    "final_x": "3686275.86166",
    "final_y": "546370.99144",
    "longitude": "-90.05246570250048",
    "latitude": "29.99618482431744",
    "geocoded_column": {
      "latitude": "29.99618482431744",
      "longitude": "-90.05246570250048"
    }
  },
  {
    "service_request": "2021-835445",
    "request_type": "Trash/Recycling",
    "request_reason": "Replace Trash Cart",
    "date_created": "2021-10-20T15:03:15.000",
    "date_modified": "2021-10-20T15:03:15.000",
    "request_status": "Pending",
    "responsible_agency": "Department of Sanitation",
    "final_address": "1830 Urquhart St",
    "address_councildis": "C",
    "status": "Assigned to Contractor",
    "contractor": "Metro Disposal",
    "rowid": "835445",
    "final_x": "3683718.88476",
    "final_y": "536871.181448",
    "longitude": "-90.06087624979841",
    "latitude": "29.970142035043907",
    "geocoded_column": {
      "latitude": "29.970142035043907",
      "longitude": "-90.06087624979841"
    }
  },
  {
    "service_request": "2021-835444",
    "request_type": "Trash/Recycling",
    "request_reason": "Request a Large Item Pick Up",
    "date_created": "2021-10-20T15:03:05.000",
    "date_modified": "2021-10-20T16:10:53.000",
    "request_status": "Pending",
    "responsible_agency": "Department of Sanitation",
    "final_address": "5817 Clara St",
    "address_councildis": "A",
    "status": "Assigned to Contractor",
    "contractor": "Richards Disposal",
    "rowid": "835444",
    "final_x": "3667045.24385",
    "final_y": "525276.136957",
    "longitude": "-90.11392322149422",
    "latitude": "29.938758048391602",
    "geocoded_column": {
      "latitude": "29.938758048391602",
      "longitude": "-90.11392322149422"
    }
  },
  {
    "service_request": "2021-835443",
    "request_type": "Trash/Recycling",
    "request_reason": "Illegal Dumping",
    "date_created": "2021-10-20T15:00:51.000",
    "date_modified": "2021-10-20T15:00:51.000",
    "request_status": "Pending",
    "responsible_agency": "Department of Sanitation",
    "final_address": "4372 Majestic Oaks Dr",
    "address_councildis": "D",
    "status": "Pending",
    "rowid": "835443",
    "final_x": "3697826.62723",
    "final_y": "552320.87951",
    "longitude": "-90.01576175643254",
    "latitude": "30.012184710821835",
    "geocoded_column": {
      "latitude": "30.012184710821835",
      "longitude": "-90.01576175643254"
    }
  },
  {
    "service_request": "2021-835442",
    "request_type": "Trash/Recycling",
    "request_reason": "Request a Large Item Pick Up",
    "date_created": "2021-10-20T14:55:37.000",
    "date_modified": "2021-10-20T14:55:38.000",
    "request_status": "Pending",
    "responsible_agency": "Department of Sanitation",
    "final_address": "245 Lowerline St",
    "address_councildis": "A",
    "status": "Assigned to Contractor",
    "contractor": "Richards Disposal",
    "rowid": "835442",
    "final_x": "3661228.63437",
    "final_y": "523088.451899",
    "longitude": "-90.13235938856441",
    "latitude": "29.932911529139652",
    "geocoded_column": {
      "latitude": "29.932911529139652",
      "longitude": "-90.13235938856441"
    }
  },
  {
    "service_request": "2021-835441",
    "request_type": "Traffic Signals/Signs/Striping/Streetlights",
    "request_reason": "Street Light Outage/Malfunction",
    "date_created": "2021-10-20T14:53:30.000",
    "date_modified": "2021-10-20T15:02:29.000",
    "request_status": "Pending",
    "responsible_agency": "Department of Public Works",
    "final_address": "MILAN ST & DANNEEL ST",
    "address_councildis": "B",
    "status": "Pending",
    "contractor": "Royal Engineering",
    "rowid": "835441",
    "final_x": "3671457.3",
    "final_y": "522367.58",
    "longitude": "-90.10009267125722",
    "latitude": "29.930630612428747",
    "geocoded_column": {
      "latitude": "29.930630612428747",
      "longitude": "-90.10009267125722"
    }
  },
  {
    "service_request": "2021-835438",
    "request_type": "Traffic Signals/Signs/Striping/Streetlights",
    "request_reason": "Additional signage",
    "date_created": "2021-10-20T14:47:01.000",
    "date_modified": "2021-10-20T14:47:01.000",
    "request_status": "Pending",
    "responsible_agency": "Department of Public Works",
    "final_address": "4523 Walmsley Ave",
    "address_councildis": "B",
    "status": "Pending",
    "rowid": "835438",
    "final_x": "3669178.66126",
    "final_y": "530374.656834",
    "longitude": "-90.1070154957437",
    "latitude": "29.952714719040184",
    "geocoded_column": {
      "latitude": "29.952714719040184",
      "longitude": "-90.1070154957437"
    }
  },
  {
    "service_request": "2021-835432",
    "request_type": "Trash/Recycling",
    "request_reason": "Missed Trash Pick-Up",
    "date_created": "2021-10-20T14:40:46.000",
    "date_modified": "2021-10-20T14:40:47.000",
    "request_status": "Pending",
    "responsible_agency": "Department of Sanitation",
    "final_address": "930 N Gayoso St",
    "address_councildis": "A",
    "status": "Assigned to Contractor",
    "contractor": "Richards Disposal",
    "rowid": "835432",
    "final_x": "3676348.25429",
    "final_y": "538434.681481",
    "longitude": "-90.08409965059194",
    "latitude": "29.974664129723745",
    "geocoded_column": {
      "latitude": "29.974664129723745",
      "longitude": "-90.08409965059194"
    }
  },
  {
    "service_request": "2021-835431",
    "request_type": "Trash/Recycling",
    "request_reason": "Request a Large Item Pick Up",
    "date_created": "2021-10-20T14:40:43.000",
    "date_modified": "2021-10-20T15:04:29.000",
    "request_status": "Pending",
    "responsible_agency": "Department of Sanitation",
    "final_address": "5103 Perrier St",
    "address_councildis": "B",
    "status": "Assigned to Contractor",
    "contractor": "Richards Disposal",
    "rowid": "835431",
    "final_x": "3668290.51508",
    "final_y": "519933.71724",
    "longitude": "-90.1101717977161",
    "latitude": "29.92403160151671",
    "geocoded_column": {
      "latitude": "29.92403160151671",
      "longitude": "-90.1101717977161"
    }
  },
  {
    "service_request": "2021-835430",
    "request_type": "Parks & Parkways",
    "request_reason": "Request Tree Service (Right of Way/Public Property)",
    "date_created": "2021-10-20T14:40:41.000",
    "date_modified": "2021-10-20T15:04:46.000",
    "request_status": "Pending",
    "responsible_agency": "Department of Parks & Parkway",
    "final_address": "4621 Prytania St",
    "address_councildis": "B",
    "status": "Pending",
    "rowid": "835430",
    "final_x": "3669961.3803",
    "final_y": "520310.421432",
    "longitude": "-90.10488470686809",
    "latitude": "29.925018268826822",
    "geocoded_column": {
      "latitude": "29.925018268826822",
      "longitude": "-90.10488470686809"
    }
  },
  {
    "service_request": "2021-835429",
    "request_type": "Property Maintenance",
    "request_reason": "Property Maintenance",
    "date_created": "2021-10-20T14:38:28.000",
    "date_modified": "2021-10-20T16:17:46.000",
    "request_status": "Pending",
    "responsible_agency": "Department of Code Enforcement",
    "final_address": "New Orleans,LA",
    "address_councildis": "B",
    "rowid": "835429",
    "final_x": "3675469.10715",
    "final_y": "524287.418876",
    "longitude": "-90.08736206756441",
    "latitude": "29.935790208640803",
    "geocoded_column": {
      "latitude": "29.935790208640803",
      "longitude": "-90.08736206756441"
    }
  },
  {
    "service_request": "2021-835427",
    "request_type": "Roads/Drainage",
    "request_reason": "Damaged Sidewalk",
    "date_created": "2021-10-20T14:36:49.000",
    "date_modified": "2021-10-20T15:05:04.000",
    "request_status": "Pending",
    "responsible_agency": "Department of Public Works",
    "final_address": "6415 Curran Rd",
    "address_councildis": "E",
    "status": "Pending",
    "rowid": "835427",
    "final_x": "3696614.6456",
    "final_y": "559427.959773",
    "longitude": "-90.01933341612386",
    "latitude": "30.031764749447984",
    "geocoded_column": {
      "latitude": "30.031764749447984",
      "longitude": "-90.01933341612386"
    }
  },
  {
    "service_request": "2021-835426",
    "request_type": "Property Maintenance",
    "request_reason": "Property Maintenance",
    "date_created": "2021-10-20T14:35:30.000",
    "date_modified": "2021-10-20T14:35:30.000",
    "request_status": "Pending",
    "responsible_agency": "Department of Code Enforcement",
    "final_address": "2634 Dante St",
    "address_councildis": "A",
    "status": "Pending",
    "rowid": "835426",
    "final_x": "3664996.23399",
    "final_y": "532840.533764",
    "longitude": "-90.12013934443215",
    "latitude": "29.95961749437362",
    "geocoded_column": {
      "latitude": "29.95961749437362",
      "longitude": "-90.12013934443215"
    }
  },
  {
    "service_request": "2021-835425",
    "request_type": "Property Maintenance",
    "request_reason": "Property Maintenance",
    "date_created": "2021-10-20T14:34:23.000",
    "date_modified": "2021-10-20T14:34:23.000",
    "request_status": "Pending",
    "responsible_agency": "Department of Code Enforcement",
    "final_address": "148 W Harrison Ave",
    "address_councildis": "A",
    "status": "Pending",
    "rowid": "835425",
    "final_x": "3665773.6137",
    "final_y": "549550.856019",
    "longitude": "-90.11712446832554",
    "latitude": "30.005542595650663",
    "geocoded_column": {
      "latitude": "30.005542595650663",
      "longitude": "-90.11712446832554"
    }
  },
  {
    "service_request": "2021-835423",
    "request_type": "Property Maintenance",
    "request_reason": "Property Maintenance",
    "date_created": "2021-10-20T14:31:13.000",
    "date_modified": "2021-10-20T14:31:13.000",
    "request_status": "Pending",
    "responsible_agency": "Department of Code Enforcement",
    "final_address": "8301 Belfast St",
    "address_councildis": "A",
    "status": "Pending",
    "rowid": "835423",
    "final_x": "3665057.96858",
    "final_y": "532907.42586",
    "longitude": "-90.11994216312792",
    "latitude": "29.959799628329698",
    "geocoded_column": {
      "latitude": "29.959799628329698",
      "longitude": "-90.11994216312792"
    }
  },
  {
    "service_request": "2021-835422",
    "request_type": "Roads/Drainage",
    "request_reason": "Debris in Roadway",
    "date_created": "2021-10-20T14:30:11.000",
    "date_modified": "2021-10-20T14:30:11.000",
    "request_status": "Pending",
    "responsible_agency": "Department of Public Works",
    "final_address": "134 N Alexander St",
    "address_councildis": "A",
    "status": "Pending",
    "rowid": "835422",
    "final_x": "3670253.93831",
    "final_y": "539432.27457",
    "longitude": "-90.10331323336244",
    "latitude": "29.97758845966334",
    "geocoded_column": {
      "latitude": "29.97758845966334",
      "longitude": "-90.10331323336244"
    }
  },
  {
    "service_request": "2021-835421",
    "request_type": "Roads/Drainage",
    "request_reason": "Catch Basin - Clogged",
    "date_created": "2021-10-20T14:29:42.000",
    "date_modified": "2021-10-20T14:29:42.000",
    "request_status": "Pending",
    "responsible_agency": "Department of Public Works",
    "final_address": "416 16Th St",
    "address_councildis": "A",
    "status": "Pending",
    "rowid": "835421",
    "final_x": "3664667.79872",
    "final_y": "548367.42197",
    "longitude": "-90.12065756907766",
    "latitude": "30.00232078705233",
    "geocoded_column": {
      "latitude": "30.00232078705233",
      "longitude": "-90.12065756907766"
    }
  },
  {
    "service_request": "2021-835420",
    "request_type": "Abandoned Vehicles",
    "request_reason": "Abandoned/Junk Vehicles",
    "date_created": "2021-10-20T14:27:01.000",
    "date_modified": "2021-10-20T14:27:01.000",
    "request_status": "Pending",
    "responsible_agency": "Department of Public Works",
    "final_address": "841 Barracks St",
    "address_councildis": "C",
    "status": "Pending",
    "rowid": "835420",
    "final_x": "3683359.00565",
    "final_y": "534637.147206",
    "longitude": "-90.06209105828535",
    "latitude": "29.964010195916835",
    "geocoded_column": {
      "latitude": "29.964010195916835",
      "longitude": "-90.06209105828535"
    }
  },
  {
    "service_request": "2021-835417",
    "request_type": "Trash/Recycling",
    "request_reason": "Replace Trash Cart",
    "date_created": "2021-10-20T14:22:40.000",
    "date_modified": "2021-10-20T15:06:35.000",
    "request_status": "Pending",
    "responsible_agency": "Department of Sanitation",
    "final_address": "139 Broadway St",
    "address_councildis": "A",
    "status": "Assigned to Contractor",
    "contractor": "Richards Disposal",
    "rowid": "835417",
    "final_x": "3660934.05171",
    "final_y": "521533.663353",
    "longitude": "-90.13334077237427",
    "latitude": "29.92864483398233",
    "geocoded_column": {
      "latitude": "29.92864483398233",
      "longitude": "-90.13334077237427"
    }
  },
  {
    "service_request": "2021-835415",
    "request_type": "Trash/Recycling",
    "request_reason": "Missed Trash Pick-Up",
    "date_created": "2021-10-20T14:20:01.000",
    "date_modified": "2021-10-20T14:20:02.000",
    "request_status": "Pending",
    "responsible_agency": "Department of Sanitation",
    "final_address": "4506 St Claude Ave",
    "address_councildis": "C",
    "status": "Assigned to Contractor",
    "contractor": "Metro Disposal",
    "rowid": "835415",
    "final_x": "3693370.41769",
    "final_y": "534863.163846",
    "longitude": "-90.03046794882333",
    "latitude": "29.964322458050418",
    "geocoded_column": {
      "latitude": "29.964322458050418",
      "longitude": "-90.03046794882333"
    }
  },
  {
    "service_request": "2021-835414",
    "request_type": "Trash/Recycling",
    "request_reason": "Replace Trash Cart",
    "date_created": "2021-10-20T14:16:58.000",
    "date_modified": "2021-10-20T15:06:36.000",
    "request_status": "Pending",
    "responsible_agency": "Department of Sanitation",
    "final_address": "New Orleans,LA",
    "address_councildis": "A",
    "status": "Assigned to Contractor",
    "contractor": "Richards Disposal",
    "rowid": "835414",
    "final_x": "3660934.05171",
    "final_y": "521533.663353",
    "longitude": "-90.13334077237427",
    "latitude": "29.92864483398233",
    "geocoded_column": {
      "latitude": "29.92864483398233",
      "longitude": "-90.13334077237427"
    }
  },
  {
    "service_request": "2021-835413",
    "request_type": "Trash/Recycling",
    "request_reason": "Order Recycling Cart",
    "date_created": "2021-10-20T14:16:28.000",
    "date_modified": "2021-10-20T14:16:28.000",
    "request_status": "Pending",
    "responsible_agency": "Department of Sanitation",
    "final_address": "1017 Austerlitz St",
    "address_councildis": "B",
    "status": "Pending",
    "rowid": "835413",
    "final_x": "3672877.64987",
    "final_y": "519536.102519",
    "longitude": "-90.09570537235076",
    "latitude": "29.922802848636028",
    "geocoded_column": {
      "latitude": "29.922802848636028",
      "longitude": "-90.09570537235076"
    }
  },
  {
    "service_request": "2021-835412",
    "request_type": "Trash/Recycling",
    "request_reason": "Illegal Dumping",
    "date_created": "2021-10-20T14:08:59.000",
    "date_modified": "2021-10-20T15:06:46.000",
    "request_status": "Pending",
    "responsible_agency": "Department of Sanitation",
    "final_address": "3716 Robert St",
    "address_councildis": "A",
    "status": "Pending",
    "rowid": "835412",
    "final_x": "3668898.24385",
    "final_y": "528423.561408",
    "longitude": "-90.10796681369114",
    "latitude": "29.947358093007846",
    "geocoded_column": {
      "latitude": "29.947358093007846",
      "longitude": "-90.10796681369114"
    }
  },
  {
    "service_request": "2021-835410",
    "request_type": "Roads/Drainage",
    "request_reason": "Pothole",
    "date_created": "2021-10-20T13:59:30.000",
    "date_modified": "2021-10-20T14:01:56.000",
    "request_status": "Pending",
    "responsible_agency": "Department of Public Works",
    "final_address": "8142 Freret St",
    "address_councildis": "A",
    "status": "Pending",
    "rowid": "835410",
    "final_x": "3661232.56077",
    "final_y": "528041.615359",
    "longitude": "-90.13218307730409",
    "latitude": "29.946531047215746",
    "geocoded_column": {
      "latitude": "29.946531047215746",
      "longitude": "-90.13218307730409"
    }
  },
  {
    "service_request": "2021-835408",
    "request_type": "Traffic Signals/Signs/Striping/Streetlights",
    "request_reason": "Street Light Outage/Malfunction",
    "date_created": "2021-10-20T13:56:32.000",
    "date_modified": "2021-10-20T14:01:59.000",
    "request_status": "Pending",
    "responsible_agency": "Department of Public Works",
    "final_address": "2542 Elder St",
    "address_councildis": "D",
    "status": "Pending",
    "contractor": "Royal Engineering",
    "rowid": "835408",
    "final_x": "3686968.01167",
    "final_y": "545722.828496",
    "longitude": "-90.0503021821616",
    "latitude": "29.99438131676578",
    "geocoded_column": {
      "latitude": "29.99438131676578",
      "longitude": "-90.0503021821616"
    }
  },
  {
    "service_request": "2021-835407",
    "request_type": "Trash/Recycling",
    "request_reason": "Order Recycling Cart",
    "date_created": "2021-10-20T13:56:09.000",
    "date_modified": "2021-10-20T13:56:09.000",
    "request_status": "Pending",
    "responsible_agency": "Department of Sanitation",
    "final_address": "921 Broadway St",
    "address_councildis": "A",
    "status": "Pending",
    "rowid": "835407",
    "final_x": "3663696.87168",
    "final_y": "525708.713789",
    "longitude": "-90.12448004271445",
    "latitude": "29.94004505287439",
    "geocoded_column": {
      "latitude": "29.94004505287439",
      "longitude": "-90.12448004271445"
    }
  },
  {
    "service_request": "2021-835406",
    "request_type": "Trash/Recycling",
    "request_reason": "Request a Large Item Pick Up",
    "date_created": "2021-10-20T13:52:09.000",
    "date_modified": "2021-10-20T13:52:10.000",
    "request_status": "Pending",
    "responsible_agency": "Department of Sanitation",
    "final_address": "6305 General Meyer Ave",
    "address_councildis": "C",
    "status": "Assigned to Contractor",
    "contractor": "Richards Disposal",
    "rowid": "835406",
    "final_x": "3707592.77361",
    "final_y": "520385.846968",
    "longitude": "-89.98609283128872",
    "latitude": "29.924062688668485",
    "geocoded_column": {
      "latitude": "29.924062688668485",
      "longitude": "-89.98609283128872"
    }
  },
  {
    "service_request": "2021-835405",
    "request_type": "Trash/Recycling",
    "request_reason": "Replace Trash Cart",
    "date_created": "2021-10-20T13:51:51.000",
    "date_modified": "2021-10-20T13:51:52.000",
    "request_status": "Pending",
    "responsible_agency": "Department of Sanitation",
    "final_address": "219 Nashville Ave",
    "address_councildis": "A",
    "status": "Assigned to Contractor",
    "contractor": "Richards Disposal",
    "rowid": "835405",
    "final_x": "3665175.78247",
    "final_y": "517092.525941",
    "longitude": "-90.12009890429549",
    "latitude": "29.91631027090209",
    "geocoded_column": {
      "latitude": "29.91631027090209",
      "longitude": "-90.12009890429549"
    }
  },
  {
    "service_request": "2021-835403",
    "request_type": "Abandoned Vehicles",
    "request_reason": "Abandoned/Junk Vehicles",
    "date_created": "2021-10-20T13:47:11.000",
    "date_modified": "2021-10-20T13:47:11.000",
    "request_status": "Pending",
    "responsible_agency": "Department of Public Works",
    "final_address": "991 Harrison Ave",
    "address_councildis": "A",
    "status": "Pending",
    "rowid": "835403",
    "final_x": "3670938.75163",
    "final_y": "549183.030995",
    "longitude": "-90.1008190982774",
    "latitude": "30.00437944949911",
    "geocoded_column": {
      "latitude": "30.00437944949911",
      "longitude": "-90.1008190982774"
    }
  },
  {
    "service_request": "2021-835402",
    "request_type": "Trash/Recycling",
    "request_reason": "Request a Large Item Pick Up",
    "date_created": "2021-10-20T13:44:54.000",
    "date_modified": "2021-10-20T14:03:33.000",
    "request_status": "Pending",
    "responsible_agency": "Department of Sanitation",
    "final_address": "8142 Freret St",
    "address_councildis": "A",
    "status": "Assigned to Contractor",
    "contractor": "Richards Disposal",
    "rowid": "835402",
    "final_x": "3661232.56077",
    "final_y": "528041.615359",
    "longitude": "-90.13218307730409",
    "latitude": "29.946531047215746",
    "geocoded_column": {
      "latitude": "29.946531047215746",
      "longitude": "-90.13218307730409"
    }
  },
  {
    "service_request": "2021-835400",
    "request_type": "Trash/Recycling",
    "request_reason": "Repair Trash Cart",
    "date_created": "2021-10-20T13:39:16.000",
    "date_modified": "2021-10-20T14:04:01.000",
    "request_status": "Pending",
    "responsible_agency": "Department of Sanitation",
    "final_address": "3409 Monroe St",
    "address_councildis": "A",
    "status": "Assigned to Contractor",
    "contractor": "Richards Disposal",
    "rowid": "835400",
    "final_x": "3665780.30228",
    "final_y": "535651.029318",
    "longitude": "-90.11756926205994",
    "latitude": "29.96732258193631",
    "geocoded_column": {
      "latitude": "29.96732258193631",
      "longitude": "-90.11756926205994"
    }
  },
  {
    "service_request": "2021-835399",
    "request_type": "Abandoned Vehicles",
    "request_reason": "Abandoned/Junk Vehicles",
    "date_created": "2021-10-20T13:33:02.000",
    "date_modified": "2021-10-20T13:33:02.000",
    "request_status": "Pending",
    "responsible_agency": "Department of Public Works",
    "final_address": "2513 Annette St",
    "address_councildis": "D",
    "status": "Pending",
    "rowid": "835399",
    "final_x": "3682753.28917",
    "final_y": "541449.375628",
    "longitude": "-90.06376550099573",
    "latitude": "29.98275992327543",
    "geocoded_column": {
      "latitude": "29.98275992327543",
      "longitude": "-90.06376550099573"
    }
  },
  {
    "service_request": "2021-835398",
    "request_type": "Traffic Signals/Signs/Striping/Streetlights",
    "request_reason": "Street Light Outage/Malfunction",
    "date_created": "2021-10-20T13:32:41.000",
    "date_modified": "2021-10-20T13:32:41.000",
    "request_status": "Pending",
    "responsible_agency": "Department of Public Works",
    "final_address": "1800 BLK Jackson Ave",
    "address_councildis": "B",
    "status": "Pending",
    "contractor": "Royal Engineering",
    "rowid": "835398",
    "final_x": "3676914.87514",
    "final_y": "524615.409218",
    "longitude": "-90.0827864500631",
    "latitude": "29.936648767505908",
    "geocoded_column": {
      "latitude": "29.936648767505908",
      "longitude": "-90.0827864500631"
    }
  },
  {
    "service_request": "2021-835397",
    "request_type": "Traffic Signals/Signs/Striping/Streetlights",
    "request_reason": "Street Light Outage/Malfunction",
    "date_created": "2021-10-20T13:32:16.000",
    "date_modified": "2021-10-20T13:32:17.000",
    "request_status": "Pending",
    "responsible_agency": "Department of Public Works",
    "final_address": "1800 BLK Jackson Ave",
    "address_councildis": "B",
    "status": "Pending",
    "contractor": "Royal Engineering",
    "rowid": "835397",
    "final_x": "3676914.87514",
    "final_y": "524615.409218",
    "longitude": "-90.0827864500631",
    "latitude": "29.936648767505908",
    "geocoded_column": {
      "latitude": "29.936648767505908",
      "longitude": "-90.0827864500631"
    }
  },
  {
    "service_request": "2021-835396",
    "request_type": "Traffic Signals/Signs/Striping/Streetlights",
    "request_reason": "Street Light Outage/Malfunction",
    "date_created": "2021-10-20T13:31:50.000",
    "date_modified": "2021-10-20T13:31:50.000",
    "request_status": "Pending",
    "responsible_agency": "Department of Public Works",
    "final_address": "1800 BLK Jackson Ave",
    "address_councildis": "B",
    "status": "Pending",
    "contractor": "Royal Engineering",
    "rowid": "835396",
    "final_x": "3676914.87514",
    "final_y": "524615.409218",
    "longitude": "-90.0827864500631",
    "latitude": "29.936648767505908",
    "geocoded_column": {
      "latitude": "29.936648767505908",
      "longitude": "-90.0827864500631"
    }
  },
  {
    "service_request": "2021-835395",
    "request_type": "Traffic Signals/Signs/Striping/Streetlights",
    "request_reason": "Street Light Outage/Malfunction",
    "date_created": "2021-10-20T13:31:30.000",
    "date_modified": "2021-10-20T13:31:33.000",
    "request_status": "Pending",
    "responsible_agency": "Department of Public Works",
    "final_address": "1800 BLK Jackson Ave",
    "address_councildis": "B",
    "status": "Pending",
    "contractor": "Royal Engineering",
    "rowid": "835395",
    "final_x": "3676914.87514",
    "final_y": "524615.409218",
    "longitude": "-90.0827864500631",
    "latitude": "29.936648767505908",
    "geocoded_column": {
      "latitude": "29.936648767505908",
      "longitude": "-90.0827864500631"
    }
  },
  {
    "service_request": "2021-835394",
    "request_type": "Traffic Signals/Signs/Striping/Streetlights",
    "request_reason": "Street Light Outage/Malfunction",
    "date_created": "2021-10-20T13:31:06.000",
    "date_modified": "2021-10-20T13:31:07.000",
    "request_status": "Pending",
    "responsible_agency": "Department of Public Works",
    "final_address": "1800 BLK Jackson Ave",
    "address_councildis": "B",
    "status": "Pending",
    "contractor": "Royal Engineering",
    "rowid": "835394",
    "final_x": "3676914.87514",
    "final_y": "524615.409218",
    "longitude": "-90.0827864500631",
    "latitude": "29.936648767505908",
    "geocoded_column": {
      "latitude": "29.936648767505908",
      "longitude": "-90.0827864500631"
    }
  },
  {
    "service_request": "2021-835393",
    "request_type": "Roads/Drainage",
    "request_reason": "Street Subsidence (Sinking)",
    "date_created": "2021-10-20T13:30:08.000",
    "date_modified": "2021-10-20T13:30:08.000",
    "request_status": "Pending",
    "responsible_agency": "Department of Public Works",
    "final_address": "5416 Freret St",
    "address_councildis": "A",
    "status": "Pending",
    "rowid": "835393",
    "final_x": "3667726.93799",
    "final_y": "523951.049404",
    "longitude": "-90.11181562795875",
    "latitude": "29.935094517232233",
    "geocoded_column": {
      "latitude": "29.935094517232233",
      "longitude": "-90.11181562795875"
    }
  },
  {
    "service_request": "2021-835392",
    "request_type": "Traffic Signals/Signs/Striping/Streetlights",
    "request_reason": "Street Light Outage/Malfunction",
    "date_created": "2021-10-20T13:29:23.000",
    "date_modified": "2021-10-20T13:29:24.000",
    "request_status": "Pending",
    "responsible_agency": "Department of Public Works",
    "final_address": "1800 BLK Jackson Ave",
    "address_councildis": "B",
    "status": "Pending",
    "contractor": "Royal Engineering",
    "rowid": "835392",
    "final_x": "3676914.87514",
    "final_y": "524615.409218",
    "longitude": "-90.0827864500631",
    "latitude": "29.936648767505908",
    "geocoded_column": {
      "latitude": "29.936648767505908",
      "longitude": "-90.0827864500631"
    }
  },
  {
    "service_request": "2021-835391",
    "request_type": "Safety & Permits",
    "request_reason": "School Bus Complaints",
    "date_created": "2021-10-20T13:25:38.000",
    "date_modified": "2021-10-20T14:04:11.000",
    "request_status": "Pending",
    "responsible_agency": "Safety and Permits",
    "final_address": "2100 BLK Octavia St",
    "address_councildis": "A",
    "status": "Pending",
    "rowid": "835391",
    "final_x": "3667471.17716",
    "final_y": "523549.819814",
    "longitude": "-90.11263656063885",
    "latitude": "29.933998758715635",
    "geocoded_column": {
      "latitude": "29.933998758715635",
      "longitude": "-90.11263656063885"
    }
  },
  {
    "service_request": "2021-835390",
    "request_type": "Trash/Recycling",
    "request_reason": "Missed Trash Pick-Up",
    "date_created": "2021-10-20T13:18:20.000",
    "date_modified": "2021-10-20T13:18:21.000",
    "request_status": "Pending",
    "responsible_agency": "Department of Sanitation",
    "final_address": "5416 Freret St",
    "address_councildis": "A",
    "status": "Assigned to Contractor",
    "contractor": "Richards Disposal",
    "rowid": "835390",
    "final_x": "3667726.93799",
    "final_y": "523951.049404",
    "longitude": "-90.11181562795875",
    "latitude": "29.935094517232233",
    "geocoded_column": {
      "latitude": "29.935094517232233",
      "longitude": "-90.11181562795875"
    }
  },
  {
    "service_request": "2021-835387",
    "request_type": "Trash/Recycling",
    "request_reason": "Replace Trash Cart",
    "date_created": "2021-10-20T13:14:33.000",
    "date_modified": "2021-10-20T14:04:29.000",
    "request_status": "Pending",
    "responsible_agency": "Department of Sanitation",
    "final_address": "2723 Robert St",
    "address_councildis": "B",
    "status": "Assigned to Contractor",
    "contractor": "Richards Disposal",
    "rowid": "835387",
    "final_x": "3668950.64903",
    "final_y": "525509.930813",
    "longitude": "-90.10789973472869",
    "latitude": "29.939345012263786",
    "geocoded_column": {
      "latitude": "29.939345012263786",
      "longitude": "-90.10789973472869"
    }
  },
  {
    "service_request": "2021-835386",
    "request_type": "Roads/Drainage",
    "request_reason": "Man hole cover issue",
    "date_created": "2021-10-20T13:12:56.000",
    "date_modified": "2021-10-20T14:05:40.000",
    "request_status": "Pending",
    "responsible_agency": "Department of Public Works",
    "final_address": "1416 Saint Andrew St, New Orleans, Louisiana, 70130",
    "status": "Pending",
    "rowid": "835386",
    "longitude": "0.0",
    "latitude": "0.0",
    "geocoded_column": {
      "latitude": "0.0",
      "longitude": "0.0"
    }
  },
  {
    "service_request": "2021-835385",
    "request_type": "Traffic Signals/Signs/Striping/Streetlights",
    "request_reason": "Street Light Outage/Malfunction",
    "date_created": "2021-10-20T13:12:55.000",
    "date_modified": "2021-10-20T13:12:55.000",
    "request_status": "Pending",
    "responsible_agency": "Department of Public Works",
    "final_address": "3701 Napoleon Ave",
    "address_councildis": "B",
    "status": "Pending",
    "contractor": "Royal Engineering",
    "rowid": "835385",
    "final_x": "3670212.17415",
    "final_y": "528205.00416",
    "longitude": "-90.10382562664194",
    "latitude": "29.94671843033207",
    "geocoded_column": {
      "latitude": "29.94671843033207",
      "longitude": "-90.10382562664194"
    }
  },
  {
    "service_request": "2021-835384",
    "request_type": "Trash/Recycling",
    "request_reason": "Replace Trash Cart",
    "date_created": "2021-10-20T13:12:42.000",
    "date_modified": "2021-10-20T13:12:43.000",
    "request_status": "Pending",
    "responsible_agency": "Department of Sanitation",
    "final_address": "6771 Louis Xiv St",
    "address_councildis": "A",
    "status": "Assigned to Contractor",
    "contractor": "Metro Disposal",
    "rowid": "835384",
    "final_x": "3668657.06855",
    "final_y": "552649.071894",
    "longitude": "-90.10791028144747",
    "latitude": "30.01397713433269",
    "geocoded_column": {
      "latitude": "30.01397713433269",
      "longitude": "-90.10791028144747"
    }
  },
  {
    "service_request": "2021-835382",
    "request_type": "Trash/Recycling",
    "request_reason": "Replace Recycling Cart",
    "date_created": "2021-10-20T13:06:07.000",
    "date_modified": "2021-10-20T13:06:07.000",
    "request_status": "Pending",
    "responsible_agency": "Department of Sanitation",
    "final_address": "3634 Magazine St",
    "address_councildis": "B",
    "status": "Pending",
    "rowid": "835382",
    "final_x": "3673846.21134",
    "final_y": "519142.901623",
    "longitude": "-90.09266143969514",
    "latitude": "29.92169287096048",
    "geocoded_column": {
      "latitude": "29.92169287096048",
      "longitude": "-90.09266143969514"
    }
  },
  {
    "service_request": "2021-835381",
    "request_type": "Roads/Drainage",
    "request_reason": "Pothole",
    "date_created": "2021-10-20T13:05:47.000",
    "date_modified": "2021-10-20T13:05:47.000",
    "request_status": "Pending",
    "responsible_agency": "Department of Public Works",
    "final_address": "1765 Coliseum St",
    "address_councildis": "B",
    "status": "Pending",
    "rowid": "835381",
    "final_x": "3679389.36751",
    "final_y": "524030.820028",
    "longitude": "-90.07499463769864",
    "latitude": "29.93496685028271",
    "geocoded_column": {
      "latitude": "29.93496685028271",
      "longitude": "-90.07499463769864"
    }
  },
  {
    "service_request": "2021-835380",
    "request_type": "Traffic Signals/Signs/Striping/Streetlights",
    "request_reason": "Street Light Knocked Down/Leaning",
    "date_created": "2021-10-20T13:05:33.000",
    "date_modified": "2021-10-20T13:05:34.000",
    "request_status": "Pending",
    "responsible_agency": "Department of Public Works",
    "final_address": "4819 Virgilian St",
    "address_councildis": "D",
    "status": "Pending",
    "contractor": "Royal Engineering",
    "rowid": "835380",
    "final_x": "3697519.5416",
    "final_y": "554177.991512",
    "longitude": "-90.01666454629466",
    "latitude": "30.017300774426822",
    "geocoded_column": {
      "latitude": "30.017300774426822",
      "longitude": "-90.01666454629466"
    }
  },
  {
    "service_request": "2021-835379",
    "request_type": "Property Maintenance",
    "request_reason": "Property Maintenance",
    "date_created": "2021-10-20T13:04:19.000",
    "date_modified": "2021-10-20T14:05:49.000",
    "request_status": "Pending",
    "responsible_agency": "Department of Code Enforcement",
    "final_address": "5800 BLK Winchester Park Dr",
    "address_councildis": "E",
    "status": "Pending",
    "rowid": "835379",
    "final_x": "3714696.06401",
    "final_y": "562824.841986",
    "longitude": "-89.96206731879833",
    "latitude": "30.04052228160661",
    "geocoded_column": {
      "latitude": "30.04052228160661",
      "longitude": "-89.96206731879833"
    }
  },
  {
    "service_request": "2021-835378",
    "request_type": "Tax and Revenue",
    "request_reason": "Sales Tax Question",
    "date_created": "2021-10-20T13:02:34.000",
    "date_modified": "2021-10-20T14:07:09.000",
    "case_close_date": "2021-10-20T08:28:16.000",
    "request_status": "Closed",
    "responsible_agency": "Bureau of Revenue",
    "final_address": "New Orleans,LA",
    "status": "Question Answered.",
    "rowid": "835378",
    "longitude": "0.0",
    "latitude": "0.0",
    "geocoded_column": {
      "latitude": "0.0",
      "longitude": "0.0"
    }
  },
  {
    "service_request": "2021-835377",
    "request_type": "Tax and Revenue",
    "request_reason": "Sales Tax Question",
    "date_created": "2021-10-20T13:01:08.000",
    "date_modified": "2021-10-20T14:07:19.000",
    "case_close_date": "2021-10-20T08:24:36.000",
    "request_status": "Closed",
    "responsible_agency": "Bureau of Revenue",
    "final_address": "New Orleans,LA",
    "status": "Question Answered.",
    "rowid": "835377",
    "longitude": "0.0",
    "latitude": "0.0",
    "geocoded_column": {
      "latitude": "0.0",
      "longitude": "0.0"
    }
  },
  {
    "service_request": "2021-835376",
    "request_type": "Trash/Recycling",
    "request_reason": "Order Trash Cart",
    "date_created": "2021-10-20T13:01:08.000",
    "date_modified": "2021-10-20T14:07:30.000",
    "request_status": "Pending",
    "responsible_agency": "Department of Sanitation",
    "final_address": "2616 N Galvez St",
    "address_councildis": "D",
    "status": "Assigned to Contractor",
    "contractor": "Metro Disposal",
    "rowid": "835376",
    "final_x": "3687833.19913",
    "final_y": "540200.428363",
    "longitude": "-90.04776489178731",
    "latitude": "29.97917002068197",
    "geocoded_column": {
      "latitude": "29.97917002068197",
      "longitude": "-90.04776489178731"
    }
  },
  {
    "service_request": "2021-835375",
    "request_type": "Roads/Drainage",
    "request_reason": "Street Subsidence (Sinking)",
    "date_created": "2021-10-20T12:56:41.000",
    "date_modified": "2021-10-20T12:56:41.000",
    "request_status": "Pending",
    "responsible_agency": "Department of Public Works",
    "final_address": "714 Race St",
    "address_councildis": "B",
    "status": "Pending",
    "rowid": "835375",
    "final_x": "3681521.94312",
    "final_y": "523394.663803",
    "longitude": "-90.06828429429117",
    "latitude": "29.933153063072723",
    "geocoded_column": {
      "latitude": "29.933153063072723",
      "longitude": "-90.06828429429117"
    }
  },
  {
    "service_request": "2021-835374",
    "request_type": "Roads/Drainage",
    "request_reason": "Catch Basin - Clogged",
    "date_created": "2021-10-20T12:56:08.000",
    "date_modified": "2021-10-20T12:56:08.000",
    "request_status": "Pending",
    "responsible_agency": "Department of Public Works",
    "final_address": "4806 Virgilian St",
    "address_councildis": "D",
    "status": "Pending",
    "rowid": "835374",
    "final_x": "3697370.26122",
    "final_y": "554063.422744",
    "longitude": "-90.01714036751348",
    "latitude": "30.016990469369716",
    "geocoded_column": {
      "latitude": "30.016990469369716",
      "longitude": "-90.01714036751348"
    }
  },
  {
    "service_request": "2021-835372",
    "request_type": "Roads/Drainage",
    "request_reason": "Pothole",
    "date_created": "2021-10-20T12:55:01.000",
    "date_modified": "2021-10-20T12:55:01.000",
    "request_status": "Pending",
    "responsible_agency": "Department of Public Works",
    "final_address": "1023 Race St",
    "address_councildis": "B",
    "status": "Pending",
    "rowid": "835372",
    "final_x": "3680382.87682",
    "final_y": "523841.891579",
    "longitude": "-90.07186470571342",
    "latitude": "29.934417321747016",
    "geocoded_column": {
      "latitude": "29.934417321747016",
      "longitude": "-90.07186470571342"
    }
  },
  {
    "service_request": "2021-835371",
    "request_type": "Roads/Drainage",
    "request_reason": "Pothole",
    "date_created": "2021-10-20T12:54:26.000",
    "date_modified": "2021-10-20T12:54:26.000",
    "request_status": "Pending",
    "responsible_agency": "Department of Public Works",
    "final_address": "1125 Race St",
    "address_councildis": "B",
    "status": "Pending",
    "rowid": "835371",
    "final_x": "3680013.18882",
    "final_y": "523935.104956",
    "longitude": "-90.07302856381352",
    "latitude": "29.93468481358087",
    "geocoded_column": {
      "latitude": "29.93468481358087",
      "longitude": "-90.07302856381352"
    }
  },
  {
    "service_request": "2021-835370",
    "request_type": "Traffic Signals/Signs/Striping/Streetlights",
    "request_reason": "Street Light Outage/Malfunction",
    "date_created": "2021-10-20T12:53:20.000",
    "date_modified": "2021-10-20T12:53:21.000",
    "request_status": "Pending",
    "responsible_agency": "Department of Public Works",
    "final_address": "2326 Painters St",
    "address_councildis": "D",
    "status": "Pending",
    "contractor": "Royal Engineering",
    "rowid": "835370",
    "final_x": "3687106.33903",
    "final_y": "541156.053964",
    "longitude": "-90.05002678997948",
    "latitude": "29.981820056398615",
    "geocoded_column": {
      "latitude": "29.981820056398615",
      "longitude": "-90.05002678997948"
    }
  },
  {
    "service_request": "2021-835368",
    "request_type": "Traffic Signals/Signs/Striping/Streetlights",
    "request_reason": "Street Light Outage/Malfunction",
    "date_created": "2021-10-20T12:52:28.000",
    "date_modified": "2021-10-20T13:01:20.000",
    "request_status": "Pending",
    "responsible_agency": "Department of Public Works",
    "final_address": "2701 Magazine St",
    "address_councildis": "B",
    "status": "Pending",
    "contractor": "Royal Engineering",
    "rowid": "835368",
    "final_x": "3677260.51387",
    "final_y": "521024.913913",
    "longitude": "-90.0818190602655",
    "latitude": "29.926765701433922",
    "geocoded_column": {
      "latitude": "29.926765701433922",
      "longitude": "-90.0818190602655"
    }
  },
  {
    "service_request": "2021-835367",
    "request_type": "Traffic Signals/Signs/Striping/Streetlights",
    "request_reason": "Traffic Sign Missing/Damaged",
    "date_created": "2021-10-20T12:50:47.000",
    "date_modified": "2021-10-20T12:50:47.000",
    "request_status": "Pending",
    "responsible_agency": "Department of Public Works",
    "final_address": "APRICOT ST & CAMBRONNE ST",
    "address_councildis": "A",
    "status": "Pending",
    "rowid": "835367",
    "final_x": "3665035.6",
    "final_y": "533352.28",
    "longitude": "-90.11999792341567",
    "latitude": "29.961023482835433",
    "geocoded_column": {
      "latitude": "29.961023482835433",
      "longitude": "-90.11999792341567"
    }
  },
  {
    "service_request": "2021-835366",
    "request_type": "Abandoned Vehicles",
    "request_reason": "Abandoned/Junk Vehicles",
    "date_created": "2021-10-20T12:43:32.000",
    "date_modified": "2021-10-20T13:01:31.000",
    "request_status": "Pending",
    "responsible_agency": "Department of Public Works",
    "final_address": "2919 Hollygrove St",
    "address_councildis": "A",
    "status": "Pending",
    "rowid": "835366",
    "final_x": "3663871.72301",
    "final_y": "535145.194886",
    "longitude": "-90.12361347476882",
    "latitude": "29.965987247619914",
    "geocoded_column": {
      "latitude": "29.965987247619914",
      "longitude": "-90.12361347476882"
    }
  },
  {
    "service_request": "2021-835363",
    "request_type": "Property Maintenance",
    "request_reason": "Property Maintenance",
    "date_created": "2021-10-20T12:36:51.000",
    "date_modified": "2021-10-20T13:03:08.000",
    "request_status": "Pending",
    "responsible_agency": "Department of Code Enforcement",
    "final_address": "5600 Clements Dr",
    "address_councildis": "E",
    "status": "Pending",
    "rowid": "835363",
    "final_x": "3702351.98148",
    "final_y": "556252.058842",
    "longitude": "-90.00131991596076",
    "latitude": "30.02285009499042",
    "geocoded_column": {
      "latitude": "30.02285009499042",
      "longitude": "-90.00131991596076"
    }
  },
  {
    "service_request": "2021-835361",
    "request_type": "Roads/Drainage",
    "request_reason": "Pothole",
    "date_created": "2021-10-20T12:35:28.000",
    "date_modified": "2021-10-20T13:03:28.000",
    "request_status": "Pending",
    "responsible_agency": "Department of Public Works",
    "final_address": "CANAL ST & CITY PARK AVE",
    "address_councildis": "A",
    "status": "Pending",
    "rowid": "835361",
    "final_x": "3667729.2",
    "final_y": "540955.48",
    "longitude": "-90.11123593065541",
    "latitude": "29.981851040999903",
    "geocoded_column": {
      "latitude": "29.981851040999903",
      "longitude": "-90.11123593065541"
    }
  },