[
  {
    "service_request": "2021-834517",
    "request_type": "Traffic Signals/Signs/Striping/Streetlights",
    "request_reason": "Traffic Sign Missing/Damaged",
    "date_created": "2021-10-19T01:28:26.000",
    "date_modified": "2021-10-19T01:28:26.000",
    "request_status": "Pending",
    "responsible_agency": "Department of Public Works",
    "final_address": "400 N Broad St",
    "address_councildis": "B",
    "status": "Pending",
    "rowid": "834517",
    "final_x": "3676173.60417",
    "final_y": "536041.323783",
    "longitude": "-90.08473360616166",
    "latitude": "29.968088446272155",
    "geocoded_column": {
      "latitude": "29.968088446272155",
      "longitude": "-90.08473360616166"
    }
  },
  {
    "service_request": "2021-834515",
    "request_type": "Trash/Recycling",
    "request_reason": "Order Recycling Cart",
    "date_created": "2021-10-18T23:59:49.000",
    "date_modified": "2021-10-18T23:59:49.000",
    "request_status": "Pending",
    "responsible_agency": "Department of Sanitation",
    "final_address": "526 Spain St",
    "address_councildis": "C",
    "status": "Pending",
    "rowid": "834515",
    "final_x": "3686262.39023",
    "final_y": "534458.815877",
    "longitude": "-90.05292874564975",
    "latitude": "29.96343095695427",
    "geocoded_column": {
      "latitude": "29.96343095695427",
      "longitude": "-90.05292874564975"
    }
  },
  {
    "service_request": "2021-834512",
    "request_type": "Trash/Recycling",
    "request_reason": "Replace Trash Cart",
    "date_created": "2021-10-18T23:20:32.000",
    "date_modified": "2021-10-18T23:20:33.000",
    "request_status": "Pending",
    "responsible_agency": "Department of Sanitation",
    "final_address": "161 Broadway St",
    "address_councildis": "A",
    "status": "Assigned to Contractor",
    "contractor": "Richards Disposal",
    "rowid": "834512",
    "final_x": "3661041.01747",
    "final_y": "521723.467002",
    "longitude": "-90.13299682538313",
    "latitude": "29.929163654052935",
    "geocoded_column": {
      "latitude": "29.929163654052935",
      "longitude": "-90.13299682538313"
    }
  },
  {
    "service_request": "2021-834509",
    "request_type": "Roads/Drainage",
    "request_reason": "Street Flooding / Drainage",
    "date_created": "2021-10-18T22:19:12.000",
    "date_modified": "2021-10-18T22:19:12.000",
    "request_status": "Pending",
    "responsible_agency": "Department of Public Works",
    "final_address": "1800 Monroe St",
    "address_councildis": "A",
    "status": "Pending",
    "rowid": "834509",
    "final_x": "3661793.51027",
    "final_y": "531612.523587",
    "longitude": "-90.13029357608676",
    "latitude": "29.956333716263774",
    "geocoded_column": {
      "latitude": "29.956333716263774",
      "longitude": "-90.13029357608676"
    }
  },
  {
    "service_request": "2021-834507",
    "request_type": "Trash/Recycling",
    "request_reason": "Request a Large Item Pick Up",
    "date_created": "2021-10-18T21:27:48.000",
    "date_modified": "2021-10-18T21:27:48.000",
    "request_status": "Pending",
    "responsible_agency": "Department of Sanitation",
    "final_address": "6477 Louis Xiv St",
    "address_councildis": "A",
    "status": "Assigned to Contractor",
    "contractor": "Metro Disposal",
    "rowid": "834507",
    "final_x": "3668476.87495",
    "final_y": "550679.822612",
    "longitude": "-90.10854610849285",
    "latitude": "30.00856768765306",
    "geocoded_column": {
      "latitude": "30.00856768765306",
      "longitude": "-90.10854610849285"
    }
  },
  {
    "service_request": "2021-834506",
    "request_type": "Trash/Recycling",
    "request_reason": "Missed Trash Pick-Up",
    "date_created": "2021-10-18T21:16:32.000",
    "date_modified": "2021-10-18T21:16:32.000",
    "request_status": "Pending",
    "responsible_agency": "Department of Sanitation",
    "final_address": "115 Ringold St",
    "address_councildis": "A",
    "status": "Assigned to Contractor",
    "contractor": "Metro Disposal",
    "rowid": "834506",
    "final_x": "3666752.58791",
    "final_y": "548585.125395",
    "longitude": "-90.11406412255671",
    "latitude": "30.00285856340555",
    "geocoded_column": {
      "latitude": "30.00285856340555",
      "longitude": "-90.11406412255671"
    }
  },
  {
    "service_request": "2021-834504",
    "request_type": "Traffic Signals/Signs/Striping/Streetlights",
    "request_reason": "Street Light Outage/Malfunction",
    "date_created": "2021-10-18T20:33:31.000",
    "date_modified": "2021-10-18T20:33:32.000",
    "request_status": "Pending",
    "responsible_agency": "Department of Public Works",
    "final_address": "2460 Bedford Dr",
    "address_councildis": "C",
    "status": "Pending",
    "contractor": "Royal Engineering",
    "rowid": "834504",
    "final_x": "3705323.76446",
    "final_y": "521876.66297",
    "longitude": "-89.99320019142745",
    "latitude": "29.928235074065615",
    "geocoded_column": {
      "latitude": "29.928235074065615",
      "longitude": "-89.99320019142745"
    }
  },
  {
    "service_request": "2021-834503",
    "request_type": "Trash/Recycling",
    "request_reason": "Order Recycling Cart",
    "date_created": "2021-10-18T20:23:52.000",
    "date_modified": "2021-10-18T20:23:52.000",
    "request_status": "Pending",
    "responsible_agency": "Department of Sanitation",
    "final_address": "731 Louque Pl",
    "address_councildis": "A",
    "status": "Pending",
    "rowid": "834503",
    "final_x": "3668509.66292",
    "final_y": "543574.13659",
    "longitude": "-90.10868245251811",
    "latitude": "29.98902854435826",
    "geocoded_column": {
      "latitude": "29.98902854435826",
      "longitude": "-90.10868245251811"
    }
  },
  {
    "service_request": "2021-834502",
    "request_type": "Trash/Recycling",
    "request_reason": "Replace Trash Cart",
    "date_created": "2021-10-18T20:01:24.000",
    "date_modified": "2021-10-18T20:01:25.000",
    "request_status": "Pending",
    "responsible_agency": "Department of Sanitation",
    "final_address": "2211 Killdeer St",
    "address_councildis": "D",
    "status": "Assigned to Contractor",
    "contractor": "Metro Disposal",
    "rowid": "834502",
    "final_x": "3683796.1894",
    "final_y": "557590.003227",
    "longitude": "-90.05990493471391",
    "latitude": "30.02710900786136",
    "geocoded_column": {
      "latitude": "30.02710900786136",
      "longitude": "-90.05990493471391"
    }
  },
  {
    "service_request": "2021-834501",
    "request_type": "Roads/Drainage",
    "request_reason": "Debris in Roadway",
    "date_created": "2021-10-18T19:51:54.000",
    "date_modified": "2021-10-18T19:51:54.000",
    "request_status": "Pending",
    "responsible_agency": "Department of Public Works",
    "final_address": "3725 Dauphine St",
    "address_councildis": "C",
    "status": "Pending",
    "rowid": "834501",
    "final_x": "3690893.71536",
    "final_y": "534377.775173",
    "longitude": "-90.03830647051204",
    "latitude": "29.963065010031535",
    "geocoded_column": {
      "latitude": "29.963065010031535",
      "longitude": "-90.03830647051204"
    }
  },
  {
    "service_request": "2021-834500",
    "request_type": "COVID-19",
    "request_reason": "COVID-19 Business Non-Compliance",
    "date_created": "2021-10-18T19:47:41.000",
    "date_modified": "2021-10-18T19:47:42.000",
    "request_status": "Pending",
    "responsible_agency": "Safety and Permits",
    "final_address": "540 S Broad St",
    "address_councildis": "B",
    "status": "Pending",
    "rowid": "834500",
    "final_x": "3674171.78241",
    "final_y": "533407.733636",
    "longitude": "-90.09114560889088",
    "latitude": "29.96090678730102",
    "geocoded_column": {
      "latitude": "29.96090678730102",
      "longitude": "-90.09114560889088"
    }
  },
  {
    "service_request": "2021-834498",
    "request_type": "Property Maintenance",
    "request_reason": "Property Maintenance",
    "date_created": "2021-10-18T19:40:43.000",
    "date_modified": "2021-10-18T19:40:43.000",
    "request_status": "Pending",
    "responsible_agency": "Department of Code Enforcement",
    "final_address": "3413 Vincennes Pl",
    "address_councildis": "A",
    "status": "Pending",
    "rowid": "834498",
    "final_x": "3668059.80353",
    "final_y": "528688.560832",
    "longitude": "-90.11060517073669",
    "latitude": "29.948111383043695",
    "geocoded_column": {
      "latitude": "29.948111383043695",
      "longitude": "-90.11060517073669"
    }
  },
  {
    "service_request": "2021-834497",
    "request_type": "Mayor's Request",
    "request_reason": "Requests to the Mayor",
    "date_created": "2021-10-18T19:38:21.000",
    "date_modified": "2021-10-18T19:38:21.000",
    "request_status": "Pending",
    "responsible_agency": "Executive Office of the Mayor",
    "final_address": "HAYNE BLVD & BURKE RD",
    "address_councildis": "E",
    "status": "Pending",
    "rowid": "834497",
    "final_x": "3704699.0",
    "final_y": "564276.08",
    "longitude": "-89.99360748949708",
    "latitude": "30.04483778171941",
    "geocoded_column": {
      "latitude": "30.04483778171941",
      "longitude": "-89.99360748949708"
    }
  },
  {
    "service_request": "2021-834496",
    "request_type": "Roads/Drainage",
    "request_reason": "Pothole",
    "date_created": "2021-10-18T19:35:56.000",
    "date_modified": "2021-10-18T19:35:56.000",
    "request_status": "Pending",
    "responsible_agency": "Department of Public Works",
    "final_address": "HAYNE BLVD & BURKE RD",
    "address_councildis": "E",
    "status": "Pending",
    "rowid": "834496",
    "final_x": "3704699.0",
    "final_y": "564276.08",
    "longitude": "-89.99360748949708",
    "latitude": "30.04483778171941",
    "geocoded_column": {
      "latitude": "30.04483778171941",
      "longitude": "-89.99360748949708"
    }
  },
  {
    "service_request": "2021-834494",
    "request_type": "Trash/Recycling",
    "request_reason": "Request a Large Item Pick Up",
    "date_created": "2021-10-18T19:34:42.000",
    "date_modified": "2021-10-18T19:34:43.000",
    "request_status": "Pending",
    "responsible_agency": "Department of Sanitation",
    "final_address": "1638 Peniston St",
    "address_councildis": "B",
    "status": "Assigned to Contractor",
    "contractor": "Richards Disposal",
    "rowid": "834494",
    "final_x": "3672737.58369",
    "final_y": "521406.215673",
    "longitude": "-90.0960837655138",
    "latitude": "29.927949219250483",
    "geocoded_column": {
      "latitude": "29.927949219250483",
      "longitude": "-90.0960837655138"
    }
  },
  {
    "service_request": "2021-834491",
    "request_type": "Roads/Drainage",
    "request_reason": "Damaged Sidewalk",
    "date_created": "2021-10-18T19:15:32.000",
    "date_modified": "2021-10-18T19:15:32.000",
    "request_status": "Pending",
    "responsible_agency": "Department of Public Works",
    "final_address": "2242 Dante St",
    "address_councildis": "A",
    "status": "Pending",
    "rowid": "834491",
    "final_x": "3664011.71616",
    "final_y": "531762.832899",
    "longitude": "-90.12328417801407",
    "latitude": "29.956682793575826",
    "geocoded_column": {
      "latitude": "29.956682793575826",
      "longitude": "-90.12328417801407"
    }
  },
  {
    "service_request": "2021-834490",
    "request_type": "Trash/Recycling",
    "request_reason": "Illegal Dumping",
    "date_created": "2021-10-18T19:10:27.000",
    "date_modified": "2021-10-18T19:10:27.000",
    "request_status": "Pending",
    "responsible_agency": "Department of Sanitation",
    "final_address": "4105 Elba St",
    "address_councildis": "B",
    "status": "Pending",
    "rowid": "834490",
    "final_x": "3670597.78823",
    "final_y": "529964.734081",
    "longitude": "-90.10254842019313",
    "latitude": "29.951545728057816",
    "geocoded_column": {
      "latitude": "29.951545728057816",
      "longitude": "-90.10254842019313"
    }
  },
  {
    "service_request": "2021-834489",
    "request_type": "Abandoned Vehicles",
    "request_reason": "Abandoned/Junk Vehicles",
    "date_created": "2021-10-18T19:09:45.000",
    "date_modified": "2021-10-18T19:09:45.000",
    "request_status": "Pending",
    "responsible_agency": "Department of Public Works",
    "final_address": "622 Bartholomew St",
    "address_councildis": "C",
    "status": "Pending",
    "rowid": "834489",
    "final_x": "3691304.22889",
    "final_y": "533670.606021",
    "longitude": "-90.03703538691713",
    "latitude": "29.961107778584616",
    "geocoded_column": {
      "latitude": "29.961107778584616",
      "longitude": "-90.03703538691713"
    }
  },
  {
    "service_request": "2021-834488",
    "request_type": "Abandoned Vehicles",
    "request_reason": "Abandoned/Junk Vehicles",
    "date_created": "2021-10-18T19:04:58.000",
    "date_modified": "2021-10-18T19:04:58.000",
    "request_status": "Pending",
    "responsible_agency": "Department of Public Works",
    "final_address": "622 Bartholomew St",
    "address_councildis": "C",
    "status": "Pending",
    "rowid": "834488",
    "final_x": "3691304.22889",
    "final_y": "533670.606021",
    "longitude": "-90.03703538691713",
    "latitude": "29.961107778584616",
    "geocoded_column": {
      "latitude": "29.961107778584616",
      "longitude": "-90.03703538691713"
    }
  },
  {
    "service_request": "2021-834487",
    "request_type": "Trash/Recycling",
    "request_reason": "Request a Large Item Pick Up",
    "date_created": "2021-10-18T18:58:48.000",
    "date_modified": "2021-10-18T18:58:49.000",
    "request_status": "Pending",
    "responsible_agency": "Department of Sanitation",
    "final_address": "7031 Wayside Dr",
    "address_councildis": "E",
    "status": "Assigned to Contractor",
    "contractor": "Metro Disposal",
    "rowid": "834487",
    "final_x": "3717724.07308",
    "final_y": "567823.357924",
    "longitude": "-89.9523075280143",
    "latitude": "30.05416616717181",
    "geocoded_column": {
      "latitude": "30.05416616717181",
      "longitude": "-89.9523075280143"
    }
  },
  {
    "service_request": "2021-834486",
    "request_type": "Property Maintenance",
    "request_reason": "Property Maintenance",
    "date_created": "2021-10-18T18:46:22.000",
    "date_modified": "2021-10-18T18:46:22.000",
    "request_status": "Pending",
    "responsible_agency": "Department of Code Enforcement",
    "final_address": "4023 Monroe St",
    "address_councildis": "A",
    "status": "Pending",
    "rowid": "834486",
    "final_x": "3667204.6322",
    "final_y": "537225.819464",
    "longitude": "-90.11301822740214",
    "latitude": "29.97161109973366",
    "geocoded_column": {
      "latitude": "29.97161109973366",
      "longitude": "-90.11301822740214"
    }
  },
  {
    "service_request": "2021-834485",
    "request_type": "Trash/Recycling",
    "request_reason": "Request a Large Item Pick Up",
    "date_created": "2021-10-18T18:45:11.000",
    "date_modified": "2021-10-18T18:45:11.000",
    "request_status": "Pending",
    "responsible_agency": "Department of Sanitation",
    "final_address": "3915 Constance St",
    "address_councildis": "B",
    "status": "Assigned to Contractor",
    "contractor": "Richards Disposal",
    "rowid": "834485",
    "final_x": "3673055.47611",
    "final_y": "518644.835447",
    "longitude": "-90.09517444446952",
    "latitude": "29.92034686648825",
    "geocoded_column": {
      "latitude": "29.92034686648825",
      "longitude": "-90.09517444446952"
    }
  },
  {
    "service_request": "2021-834484",
    "request_type": "Traffic Signals/Signs/Striping/Streetlights",
    "request_reason": "Traffic Signal Malfunctioning/Damaged",
    "date_created": "2021-10-18T18:40:41.000",
    "date_modified": "2021-10-18T18:40:41.000",
    "request_status": "Pending",
    "responsible_agency": "Department of Public Works",
    "final_address": "CARONDELET ST & CALLIOPE ST",
    "address_councildis": "B",
    "status": "Pending",
    "rowid": "834484",
    "final_x": "3679545.5",
    "final_y": "526957.58",
    "longitude": "-90.07440021195022",
    "latitude": "29.943009755195227",
    "geocoded_column": {
      "latitude": "29.943009755195227",
      "longitude": "-90.07440021195022"
    }
  },
  {
    "service_request": "2021-834483",
    "request_type": "Trash/Recycling",
    "request_reason": "Replace Trash Cart",
    "date_created": "2021-10-18T18:39:34.000",
    "date_modified": "2021-10-18T18:39:35.000",
    "request_status": "Pending",
    "responsible_agency": "Department of Sanitation",
    "final_address": "2626 LaSalle St",
    "address_councildis": "B",
    "status": "Assigned to Contractor",
    "contractor": "Richards Disposal",
    "rowid": "834483",
    "final_x": "3674705.04219",
    "final_y": "525093.848445",
    "longitude": "-90.08974660560153",
    "latitude": "29.938030449762827",
    "geocoded_column": {
      "latitude": "29.938030449762827",
      "longitude": "-90.08974660560153"
    }
  },
  {
    "service_request": "2021-834482",
    "request_type": "Traffic Signals/Signs/Striping/Streetlights",
    "request_reason": "Request for Stop Sign",
    "date_created": "2021-10-18T18:34:52.000",
    "date_modified": "2021-10-18T18:34:52.000",
    "request_status": "Pending",
    "responsible_agency": "Department of Public Works",
    "final_address": "4000 Monroe St",
    "address_councildis": "A",
    "status": "Pending",
    "rowid": "834482",
    "final_x": "3667082.91988",
    "final_y": "537223.299976",
    "longitude": "-90.1134026992558",
    "latitude": "29.97160773561474",
    "geocoded_column": {
      "latitude": "29.97160773561474",
      "longitude": "-90.1134026992558"
    }
  },
  {
    "service_request": "2021-834481",
    "request_type": "Property Maintenance",
    "request_reason": "Property Maintenance",
    "date_created": "2021-10-18T18:26:38.000",
    "date_modified": "2021-10-18T18:26:38.000",
    "request_status": "Pending",
    "responsible_agency": "Department of Code Enforcement",
    "final_address": "4213 DHemecourt St",
    "address_councildis": "A",
    "status": "Pending",
    "rowid": "834481",
    "final_x": "3669330.00481",
    "final_y": "537241.526408",
    "longitude": "-90.10630543110467",
    "latitude": "29.97159187850204",
    "geocoded_column": {
      "latitude": "29.97159187850204",
      "longitude": "-90.10630543110467"
    }
  },
  {
    "service_request": "2021-834480",
    "request_type": "Trash/Recycling",
    "request_reason": "Start Trash Service",
    "date_created": "2021-10-18T18:12:29.000",
    "date_modified": "2021-10-18T18:12:29.000",
    "request_status": "Pending",
    "responsible_agency": "Department of Sanitation",
    "final_address": "1919 Burdette St",
    "address_councildis": "A",
    "status": "Assigned to Contractor",
    "contractor": "Richards Disposal",
    "rowid": "834480",
    "final_x": "3664591.18471",
    "final_y": "529529.999873",
    "longitude": "-90.12152895993086",
    "latitude": "29.950526388296595",
    "geocoded_column": {
      "latitude": "29.950526388296595",
      "longitude": "-90.12152895993086"
    }
  },
  {
    "service_request": "2021-834478",
    "request_type": "Traffic Signals/Signs/Striping/Streetlights",
    "request_reason": "Street Light Outage/Malfunction",
    "date_created": "2021-10-18T18:06:06.000",
    "date_modified": "2021-10-18T18:06:07.000",
    "request_status": "Pending",
    "responsible_agency": "Department of Public Works",
    "final_address": "1739 N Dupre St",
    "address_councildis": "D",
    "status": "Pending",
    "contractor": "Royal Engineering",
    "rowid": "834478",
    "final_x": "3679130.09083",
    "final_y": "541480.648076",
    "longitude": "-90.07520829887619",
    "latitude": "29.982955796964408",
    "geocoded_column": {
      "latitude": "29.982955796964408",
      "longitude": "-90.07520829887619"
    }
  },
  {
    "service_request": "2021-834477",
    "request_type": "Trash/Recycling",
    "request_reason": "Missed Trash Pick-Up",
    "date_created": "2021-10-18T18:03:28.000",
    "date_modified": "2021-10-18T18:03:29.000",
    "request_status": "Pending",
    "responsible_agency": "Department of Sanitation",
    "final_address": "3101 Thalia St",
    "address_councildis": "B",
    "status": "Assigned to Contractor",
    "contractor": "Richards Disposal",
    "rowid": "834477",
    "final_x": "3674905.73557",
    "final_y": "528640.44704",
    "longitude": "-90.0889914036217",
    "latitude": "29.94777643890678",
    "geocoded_column": {
      "latitude": "29.94777643890678",
      "longitude": "-90.0889914036217"
    }
  },
  {
    "service_request": "2021-834476",
    "request_type": "Trash/Recycling",
    "request_reason": "Replace Trash Cart",
    "date_created": "2021-10-18T18:01:50.000",
    "date_modified": "2021-10-18T18:01:50.000",
    "request_status": "Pending",
    "responsible_agency": "Department of Sanitation",
    "final_address": "2681 Gladiolus St Apt A",
    "address_councildis": "D",
    "status": "Assigned to Contractor",
    "contractor": "Metro Disposal",
    "rowid": "834476",
    "final_x": "3687725.05609",
    "final_y": "547645.28341",
    "longitude": "-90.04784265385803",
    "latitude": "29.999644043789427",
    "geocoded_column": {
      "latitude": "29.999644043789427",
      "longitude": "-90.04784265385803"
    }
  },
  {
    "service_request": "2021-834475",
    "request_type": "Traffic Signals/Signs/Striping/Streetlights",
    "request_reason": "Street Light Outage/Malfunction",
    "date_created": "2021-10-18T17:57:03.000",
    "date_modified": "2021-10-18T17:57:04.000",
    "request_status": "Pending",
    "responsible_agency": "Department of Public Works",
    "final_address": "210 Bragg St",
    "address_councildis": "A",
    "status": "Pending",
    "contractor": "Royal Engineering",
    "rowid": "834475",
    "final_x": "3667057.63322",
    "final_y": "550293.921172",
    "longitude": "-90.1130429476442",
    "latitude": "30.00754822963988",
    "geocoded_column": {
      "latitude": "30.00754822963988",
      "longitude": "-90.1130429476442"
    }
  },
  {
    "service_request": "2021-834474",
    "request_type": "Parks & Parkways",
    "request_reason": "Request Grass Cutting Service (City Owned Property)",
    "date_created": "2021-10-18T17:44:58.000",
    "date_modified": "2021-10-18T17:44:58.000",
    "request_status": "Pending",
    "responsible_agency": "Department of Parks & Parkway",
    "final_address": "3442 S Liberty St, New Orleans, Louisiana, 70115",
    "address_councildis": "B",
    "status": "Pending",
    "rowid": "834474",
    "final_x": "3672926.46088",
    "final_y": "523592.880507",
    "longitude": "-90.095412947734",
    "latitude": "29.933956232441236",
    "geocoded_column": {
      "latitude": "29.933956232441236",
      "longitude": "-90.095412947734"
    }
  },
  {
    "service_request": "2021-834473",
    "request_type": "Traffic Signals/Signs/Striping/Streetlights",
    "request_reason": "Street Light Outage/Malfunction",
    "date_created": "2021-10-18T17:37:38.000",
    "date_modified": "2021-10-18T17:37:38.000",
    "request_status": "Pending",
    "responsible_agency": "Department of Public Works",
    "final_address": "6041 Campus Blvd",
    "address_councildis": "D",
    "status": "Pending",
    "contractor": "Royal Engineering",
    "rowid": "834473",
    "final_x": "3688661.26575",
    "final_y": "555629.248857",
    "longitude": "-90.04460147245287",
    "latitude": "30.021568101295916",
    "geocoded_column": {
      "latitude": "30.021568101295916",
      "longitude": "-90.04460147245287"
    }
  },
  {
    "service_request": "2021-834472",
    "request_type": "Roads/Drainage",
    "request_reason": "Accessibility Ramps, Curbs and Sidewalk Repair",
    "date_created": "2021-10-18T17:37:21.000",
    "date_modified": "2021-10-18T17:37:21.000",
    "request_status": "Pending",
    "responsible_agency": "Department of Public Works",
    "final_address": "621 Pelican Ave",
    "address_councildis": "C",
    "status": "Pending",
    "rowid": "834472",
    "final_x": "3687394.2806",
    "final_y": "530739.84237",
    "longitude": "-90.0494859539611",
    "latitude": "29.953170236662285",
    "geocoded_column": {
      "latitude": "29.953170236662285",
      "longitude": "-90.0494859539611"
    }
  },
  {
    "service_request": "2021-834471",
    "request_type": "Traffic Signals/Signs/Striping/Streetlights",
    "request_reason": "Additional signage",
    "date_created": "2021-10-18T17:35:04.000",
    "date_modified": "2021-10-18T17:35:04.000",
    "request_status": "Pending",
    "responsible_agency": "Department of Public Works",
    "final_address": "1503 Mandeville St",
    "address_councildis": "C",
    "status": "Pending",
    "rowid": "834471",
    "final_x": "3685689.10748",
    "final_y": "537892.205897",
    "longitude": "-90.05461811085982",
    "latitude": "29.972889188350138",
    "geocoded_column": {
      "latitude": "29.972889188350138",
      "longitude": "-90.05461811085982"
    }
  },
  {
    "service_request": "2021-834469",
    "request_type": "Traffic Signals/Signs/Striping/Streetlights",
    "request_reason": "Street Light Outage/Malfunction",
    "date_created": "2021-10-18T17:34:25.000",
    "date_modified": "2021-10-18T17:34:26.000",
    "request_status": "Pending",
    "responsible_agency": "Department of Public Works",
    "final_address": "6049 Campus Blvd",
    "address_councildis": "D",
    "status": "Pending",
    "contractor": "Royal Engineering",
    "rowid": "834469",
    "final_x": "3688657.63433",
    "final_y": "555685.477017",
    "longitude": "-90.04461094853337",
    "latitude": "30.021722820102813",
    "geocoded_column": {
      "latitude": "30.021722820102813",
      "longitude": "-90.04461094853337"
    }
  },
  {
    "service_request": "2021-834468",
    "request_type": "Trash/Recycling",
    "request_reason": "Missed Trash Pick-Up",
    "date_created": "2021-10-18T17:33:31.000",
    "date_modified": "2021-10-18T17:33:31.000",
    "request_status": "Pending",
    "responsible_agency": "Department of Sanitation",
    "final_address": "2828 General Taylor St",
    "address_councildis": "B",
    "status": "Assigned to Contractor",
    "contractor": "Richards Disposal",
    "rowid": "834468",
    "final_x": "3671558.63079",
    "final_y": "525440.709565",
    "longitude": "-90.09966833402714",
    "latitude": "29.939077726501342",
    "geocoded_column": {
      "latitude": "29.939077726501342",
      "longitude": "-90.09966833402714"
    }
  },
  {
    "service_request": "2021-834466",
    "request_type": "Trash/Recycling",
    "request_reason": "Replace Trash Cart",
    "date_created": "2021-10-18T17:29:48.000",
    "date_modified": "2021-10-18T17:29:49.000",
    "request_status": "Pending",
    "responsible_agency": "Department of Sanitation",
    "final_address": "4312 S Dorgenois St, New Orleans, Louisiana, 70125",
    "address_councildis": "B",
    "status": "Assigned to Contractor",
    "contractor": "Richards Disposal",
    "rowid": "834466",
    "final_x": "3670336.3225",
    "final_y": "528792.06336",
    "longitude": "-90.10341374859375",
    "latitude": "29.948328987744194",
    "geocoded_column": {
      "latitude": "29.948328987744194",
      "longitude": "-90.10341374859375"
    }
  },
  {
    "service_request": "2021-834464",
    "request_type": "Roads/Drainage",
    "request_reason": "Pothole",
    "date_created": "2021-10-18T17:23:03.000",
    "date_modified": "2021-10-18T17:23:03.000",
    "request_status": "Pending",
    "responsible_agency": "Department of Public Works",
    "final_address": "1400 Robert St",
    "address_councildis": "B",
    "status": "Pending",
    "rowid": "834464",
    "final_x": "3668630.33716",
    "final_y": "520215.566776",
    "longitude": "-90.10908959101093",
    "latitude": "29.924796619482365",
    "geocoded_column": {
      "latitude": "29.924796619482365",
      "longitude": "-90.10908959101093"
    }
  },
  {
    "service_request": "2021-834463",
    "request_type": "Abandoned Vehicles",
    "request_reason": "Abandoned/Junk Vehicles",
    "date_created": "2021-10-18T17:20:31.000",
    "date_modified": "2021-10-18T17:20:31.000",
    "request_status": "Pending",
    "responsible_agency": "Department of Public Works",
    "final_address": "1629 Bordeaux St",
    "address_councildis": "B",
    "status": "Pending",
    "rowid": "834463",
    "final_x": "3669439.61338",
    "final_y": "520990.551289",
    "longitude": "-90.10650877380147",
    "latitude": "29.92690378043419",
    "geocoded_column": {
      "latitude": "29.92690378043419",
      "longitude": "-90.10650877380147"
    }
  },
  {
    "service_request": "2021-834461",
    "request_type": "Traffic Signals/Signs/Striping/Streetlights",
    "request_reason": "Street Light Outage/Malfunction",
    "date_created": "2021-10-18T17:16:22.000",
    "date_modified": "2021-10-18T17:16:23.000",
    "request_status": "Pending",
    "responsible_agency": "Department of Public Works",
    "final_address": "400 Esplanade Ave",
    "address_councildis": "C",
    "status": "Pending",
    "contractor": "Royal Engineering",
    "rowid": "834461",
    "final_x": "3684745.33698",
    "final_y": "533733.942021",
    "longitude": "-90.05774490910086",
    "latitude": "29.96148432889126",
    "geocoded_column": {
      "latitude": "29.96148432889126",
      "longitude": "-90.05774490910086"
    }
  },
  {
    "service_request": "2021-834459",
    "request_type": "Mosquito, Termite & Rodent Control",
    "request_reason": "Mosquito Complaint",
    "date_created": "2021-10-18T17:13:58.000",
    "date_modified": "2021-10-18T17:14:50.000",
    "request_status": "Pending",
    "responsible_agency": "Mosquito, Termite & Rodent Control Board",
    "final_address": "1540 Poland Ave",
    "address_councildis": "D",
    "status": "Pending",
    "rowid": "834459",
    "final_x": "3693415.93206",
    "final_y": "536812.02068",
    "longitude": "-90.03025423020836",
    "latitude": "29.969679702024685",
    "geocoded_column": {
      "latitude": "29.969679702024685",
      "longitude": "-90.03025423020836"
    }
  },
  {
    "service_request": "2021-834457",
    "request_type": "Trash/Recycling",
    "request_reason": "Order Recycling Cart",
    "date_created": "2021-10-18T17:12:11.000",
    "date_modified": "2021-10-18T17:12:11.000",
    "request_status": "Pending",
    "responsible_agency": "Department of Sanitation",
    "final_address": "1122 Burgundy St",
    "address_councildis": "C",
    "status": "Pending",
    "rowid": "834457",
    "final_x": "3682717.30325",
    "final_y": "534419.646853",
    "longitude": "-90.06412510208118",
    "latitude": "29.96343170467653",
    "geocoded_column": {
      "latitude": "29.96343170467653",
      "longitude": "-90.06412510208118"
    }
  },
  {
    "service_request": "2021-834456",
    "request_type": "Trash/Recycling",
    "request_reason": "Missed Trash Pick-Up",
    "date_created": "2021-10-18T17:10:27.000",
    "date_modified": "2021-10-18T17:10:29.000",
    "request_status": "Pending",
    "responsible_agency": "Department of Sanitation",
    "final_address": "1521 N Derbigny St",
    "address_councildis": "D",
    "status": "Assigned to Contractor",
    "contractor": "Metro Disposal",
    "rowid": "834456",
    "final_x": "3681523.1366",
    "final_y": "537582.19092",
    "longitude": "-90.06778584438665",
    "latitude": "29.972163930034935",
    "geocoded_column": {
      "latitude": "29.972163930034935",
      "longitude": "-90.06778584438665"
    }
  },
  {
    "service_request": "2021-834455",
    "request_type": "Roads/Drainage",
    "request_reason": "Street Flooding / Drainage",
    "date_created": "2021-10-18T17:09:51.000",
    "date_modified": "2021-10-18T17:09:51.000",
    "request_status": "Pending",
    "responsible_agency": "Department of Public Works",
    "final_address": "1800 Monroe St",
    "address_councildis": "A",
    "status": "Pending",
    "rowid": "834455",
    "final_x": "3661793.51027",
    "final_y": "531612.523587",
    "longitude": "-90.13029357608676",
    "latitude": "29.956333716263774",
    "geocoded_column": {
      "latitude": "29.956333716263774",
      "longitude": "-90.13029357608676"
    }
  },
  {
    "service_request": "2021-834454",
    "request_type": "Roads/Drainage",
    "request_reason": "Street Flooding / Drainage",
    "date_created": "2021-10-18T17:06:53.000",
    "date_modified": "2021-10-18T17:06:53.000",
    "request_status": "Pending",
    "responsible_agency": "Department of Public Works",
    "final_address": "1800 Monroe St",
    "address_councildis": "A",
    "status": "Pending",
    "rowid": "834454",
    "final_x": "3661793.51027",
    "final_y": "531612.523587",
    "longitude": "-90.13029357608676",
    "latitude": "29.956333716263774",
    "geocoded_column": {
      "latitude": "29.956333716263774",
      "longitude": "-90.13029357608676"
    }
  },
  {
    "service_request": "2021-834452",
    "request_type": "Property Maintenance",
    "request_reason": "Property Maintenance",
    "date_created": "2021-10-18T17:03:06.000",
    "date_modified": "2021-10-18T17:03:06.000",
    "request_status": "Pending",
    "responsible_agency": "Department of Code Enforcement",
    "final_address": "1441 France St",
    "address_councildis": "D",
    "status": "Pending",
    "rowid": "834452",
    "final_x": "3692782.12387",
    "final_y": "536606.685895",
    "longitude": "-90.03226320750355",
    "latitude": "29.969134907879464",
    "geocoded_column": {
      "latitude": "29.969134907879464",
      "longitude": "-90.03226320750355"
    }
  },
  {
    "service_request": "2021-834450",
    "request_type": "Roads/Drainage",
    "request_reason": "Street Flooding / Drainage",
    "date_created": "2021-10-18T16:59:32.000",
    "date_modified": "2021-10-18T16:59:32.000",
    "request_status": "Pending",
    "responsible_agency": "Department of Public Works",
    "final_address": "2017 Touro St",
    "address_councildis": "D",
    "status": "Pending",
    "rowid": "834450",
    "final_x": "3683993.34793",
    "final_y": "539720.599114",
    "longitude": "-90.0599094608444",
    "latitude": "29.977968557217924",
    "geocoded_column": {
      "latitude": "29.977968557217924",
      "longitude": "-90.0599094608444"
    }
  },
  {
    "service_request": "2021-834448",
    "request_type": "Trash/Recycling",
    "request_reason": "Repair Trash Cart",
    "date_created": "2021-10-18T16:55:05.000",
    "date_modified": "2021-10-18T16:56:09.000",
    "request_status": "Pending",
    "responsible_agency": "Department of Sanitation",
    "final_address": "New Orleans,LA",
    "address_councildis": "B",
    "status": "Assigned to Contractor",
    "contractor": "Richards Disposal",
    "rowid": "834448",
    "final_x": "3669930.61793",
    "final_y": "517972.332278",
    "longitude": "-90.105060929543",
    "latitude": "29.918590171905134",
    "geocoded_column": {
      "latitude": "29.918590171905134",
      "longitude": "-90.105060929543"
    }
  },
  {
    "service_request": "2021-834447",
    "request_type": "Trash/Recycling",
    "request_reason": "Request a Large Item Pick Up",
    "date_created": "2021-10-18T16:53:45.000",
    "date_modified": "2021-10-18T16:56:24.000",
    "request_status": "Pending",
    "responsible_agency": "Department of Sanitation",
    "final_address": "3030 General Taylor St",
    "address_councildis": "B",
    "status": "Assigned to Contractor",
    "contractor": "Richards Disposal",
    "rowid": "834447",
    "final_x": "3671353.75323",
    "final_y": "526297.651518",
    "longitude": "-90.10028604492024",
    "latitude": "29.941440102052756",
    "geocoded_column": {
      "latitude": "29.941440102052756",
      "longitude": "-90.10028604492024"
    }
  },
  {
    "service_request": "2021-834444",
    "request_type": "Trash/Recycling",
    "request_reason": "Request a Large Item Pick Up",
    "date_created": "2021-10-18T16:41:46.000",
    "date_modified": "2021-10-18T16:41:46.000",
    "request_status": "Pending",
    "responsible_agency": "Department of Sanitation",
    "final_address": "2225 Urquhart St",
    "address_councildis": "C",
    "status": "Assigned to Contractor",
    "contractor": "Metro Disposal",
    "rowid": "834444",
    "final_x": "3685247.01653",
    "final_y": "537103.670728",
    "longitude": "-90.05604207600916",
    "latitude": "29.970734549725336",
    "geocoded_column": {
      "latitude": "29.970734549725336",
      "longitude": "-90.05604207600916"
    }
  },
  {
    "service_request": "2021-834443",
    "request_type": "Traffic Signals/Signs/Striping/Streetlights",
    "request_reason": "Street Light Outage/Malfunction",
    "date_created": "2021-10-18T16:39:51.000",
    "date_modified": "2021-10-18T16:39:52.000",
    "request_status": "Pending",
    "responsible_agency": "Department of Public Works",
    "final_address": "5531 Bentley Dr",
    "address_councildis": "E",
    "status": "Pending",
    "contractor": "Royal Engineering",
    "rowid": "834443",
    "final_x": "3704059.34071",
    "final_y": "556570.936218",
    "longitude": "-89.99591333068196",
    "latitude": "30.02367220034817",
    "geocoded_column": {
      "latitude": "30.02367220034817",
      "longitude": "-89.99591333068196"
    }
  },
  {
    "service_request": "2021-834442",
    "request_type": "Trash/Recycling",
    "request_reason": "Request a Large Item Pick Up",
    "date_created": "2021-10-18T16:39:21.000",
    "date_modified": "2021-10-18T16:39:21.000",
    "request_status": "Pending",
    "responsible_agency": "Department of Sanitation",
    "final_address": "2632 Republic St",
    "address_councildis": "D",
    "status": "Assigned to Contractor",
    "contractor": "Metro Disposal",
    "rowid": "834442",
    "final_x": "3680726.95144",
    "final_y": "541790.815564",
    "longitude": "-90.07015380269374",
    "latitude": "29.983760341735525",
    "geocoded_column": {
      "latitude": "29.983760341735525",
      "longitude": "-90.07015380269374"
    }
  },
  {
    "service_request": "2021-834441",
    "request_type": "Abandoned Vehicles",
    "request_reason": "Abandoned/Junk Vehicles",
    "date_created": "2021-10-18T16:37:13.000",
    "date_modified": "2021-10-18T16:37:13.000",
    "request_status": "Pending",
    "responsible_agency": "Department of Public Works",
    "final_address": "4140 Orleans Ave",
    "address_councildis": "A",
    "status": "Pending",
    "rowid": "834441",
    "final_x": "3672279.40916",
    "final_y": "540248.664843",
    "longitude": "-90.09688827307387",
    "latitude": "29.97977331439209",
    "geocoded_column": {
      "latitude": "29.97977331439209",
      "longitude": "-90.09688827307387"
    }
  },
  {
    "service_request": "2021-834440",
    "request_type": "Trash/Recycling",
    "request_reason": "Missed Trash Pick-Up",
    "date_created": "2021-10-18T16:33:22.000",
    "date_modified": "2021-10-18T16:33:22.000",
    "request_status": "Pending",
    "responsible_agency": "Department of Sanitation",
    "final_address": "2400 Chelsea Dr, New Orleans, Louisiana, 70131",
    "address_councildis": "C",
    "status": "Assigned to Contractor",
    "contractor": "Richards Disposal",
    "rowid": "834440",
    "final_x": "3704907.95575",
    "final_y": "522633.253498",
    "longitude": "-89.99448488964615",
    "latitude": "29.930328799085594",
    "geocoded_column": {
      "latitude": "29.930328799085594",
      "longitude": "-89.99448488964615"
    }
  },
  {
    "service_request": "2021-834439",
    "request_type": "Traffic Signals/Signs/Striping/Streetlights",
    "request_reason": "Street Light Outage/Malfunction",
    "date_created": "2021-10-18T16:25:47.000",
    "date_modified": "2021-10-18T16:25:48.000",
    "request_status": "Pending",
    "responsible_agency": "Department of Public Works",
    "final_address": "RESTGATE RD & PLAINFIELD DR",
    "address_councildis": "E",
    "status": "Pending",
    "contractor": "Royal Engineering",
    "rowid": "834439",
    "final_x": "3710855.9",
    "final_y": "563112.68",
    "longitude": "-89.97419260311005",
    "latitude": "30.041439524621012",
    "geocoded_column": {
      "latitude": "30.041439524621012",
      "longitude": "-89.97419260311005"
    }
  },
  {
    "service_request": "2021-834438",
    "request_type": "Trash/Recycling",
    "request_reason": "Request a Large Item Pick Up",
    "date_created": "2021-10-18T16:25:02.000",
    "date_modified": "2021-10-18T16:25:03.000",
    "request_status": "Pending",
    "responsible_agency": "Department of Sanitation",
    "final_address": "2700 Peniston St",
    "address_councildis": "B",
    "status": "Assigned to Contractor",
    "contractor": "Richards Disposal",
    "rowid": "834438",
    "final_x": "3671921.58267",
    "final_y": "524935.459772",
    "longitude": "-90.09853963838384",
    "latitude": "29.937677703735822",
    "geocoded_column": {
      "latitude": "29.937677703735822",
      "longitude": "-90.09853963838384"
    }
  },
  {
    "service_request": "2021-834437",
    "request_type": "Trash/Recycling",
    "request_reason": "Request a Large Item Pick Up",
    "date_created": "2021-10-18T16:24:30.000",
    "date_modified": "2021-10-18T16:24:31.000",
    "request_status": "Pending",
    "responsible_agency": "Department of Sanitation",
    "final_address": "2372 Comet St",
    "address_councildis": "C",
    "status": "Assigned to Contractor",
    "contractor": "Richards Disposal",
    "rowid": "834437",
    "final_x": "3700150.77367",
    "final_y": "522063.220602",
    "longitude": "-90.0095232627762",
    "latitude": "29.928913388297865",
    "geocoded_column": {
      "latitude": "29.928913388297865",
      "longitude": "-90.0095232627762"
    }
  },
  {
    "service_request": "2021-834435",
    "request_type": "Traffic Signals/Signs/Striping/Streetlights",
    "request_reason": "Street Light Outage/Malfunction",
    "date_created": "2021-10-18T16:21:01.000",
    "date_modified": "2021-10-18T16:21:02.000",
    "request_status": "Pending",
    "responsible_agency": "Department of Public Works",
    "final_address": "4739 General Early Dr",
    "address_councildis": "D",
    "status": "Pending",
    "contractor": "Royal Engineering",
    "rowid": "834435",
    "final_x": "3691200.34902",
    "final_y": "551227.522069",
    "longitude": "-90.0367360610359",
    "latitude": "30.009386222995296",
    "geocoded_column": {
      "latitude": "30.009386222995296",
      "longitude": "-90.0367360610359"
    }
  },
  {
    "service_request": "2021-834434",
    "request_type": "Trash/Recycling",
    "request_reason": "Illegal Dumping",
    "date_created": "2021-10-18T16:20:44.000",
    "date_modified": "2021-10-18T16:20:44.000",
    "request_status": "Pending",
    "responsible_agency": "Department of Sanitation",
    "final_address": "230 Roselyn Park Pl",
    "address_councildis": "C",
    "status": "Pending",
    "rowid": "834434",
    "final_x": "3702692.90071",
    "final_y": "523321.065403",
    "longitude": "-90.00145218278598",
    "latitude": "29.93229102228202",
    "geocoded_column": {
      "latitude": "29.93229102228202",
      "longitude": "-90.00145218278598"
    }
  },
  {
    "service_request": "2021-834433",
    "request_type": "Abandoned Vehicles",
    "request_reason": "Abandoned/Junk Vehicles",
    "date_created": "2021-10-18T16:15:17.000",
    "date_modified": "2021-10-18T16:15:17.000",
    "request_status": "Pending",
    "responsible_agency": "Department of Public Works",
    "final_address": "3517 Danneel St",
    "address_councildis": "B",
    "status": "Pending",
    "rowid": "834433",
    "final_x": "3673107.54932",
    "final_y": "522693.757818",
    "longitude": "-90.09487193736092",
    "latitude": "29.931478555301858",
    "geocoded_column": {
      "latitude": "29.931478555301858",
      "longitude": "-90.09487193736092"
    }
  },
  {
    "service_request": "2021-834432",
    "request_type": "Abandoned Vehicles",
    "request_reason": "Abandoned/Junk Vehicles",
    "date_created": "2021-10-18T16:14:49.000",
    "date_modified": "2021-10-18T16:14:49.000",
    "request_status": "Pending",
    "responsible_agency": "Department of Public Works",
    "final_address": "920 Amelia St",
    "address_councildis": "B",
    "status": "Pending",
    "rowid": "834432",
    "final_x": "3673747.4898",
    "final_y": "518566.644599",
    "longitude": "-90.09299275186649",
    "latitude": "29.920111287305563",
    "geocoded_column": {
      "latitude": "29.920111287305563",
      "longitude": "-90.09299275186649"
    }
  },
  {
    "service_request": "2021-834431",
    "request_type": "Trash/Recycling",
    "request_reason": "Start Trash Service",
    "date_created": "2021-10-18T16:13:03.000",
    "date_modified": "2021-10-18T16:13:03.000",
    "request_status": "Pending",
    "responsible_agency": "Department of Sanitation",
    "final_address": "26080 Chef Menteur Hwy",
    "address_councildis": "E",
    "status": "Assigned to Contractor",
    "contractor": "Metro Disposal",
    "rowid": "834431",
    "final_x": "3783683.23576",
    "final_y": "602622.991813",
    "longitude": "-89.74230623361652",
    "latitude": "30.147496912561117",
    "geocoded_column": {
      "latitude": "30.147496912561117",
      "longitude": "-89.74230623361652"
    }
  },
  {
    "service_request": "2021-834430",
    "request_type": "Trash/Recycling",
    "request_reason": "Order Trash Cart",
    "date_created": "2021-10-18T16:09:00.000",
    "date_modified": "2021-10-18T16:09:00.000",
    "request_status": "Pending",
    "responsible_agency": "Department of Sanitation",
    "final_address": "1221 Lamanche St",
    "address_councildis": "E",
    "status": "Assigned to Contractor",
    "contractor": "Metro Disposal",
    "rowid": "834430",
    "final_x": "3698603.01879",
    "final_y": "534257.784069",
    "longitude": "-90.01396592904581",
    "latitude": "29.96249324675746",
    "geocoded_column": {
      "latitude": "29.96249324675746",
      "longitude": "-90.01396592904581"
    }
  },
  {
    "service_request": "2021-834429",
    "request_type": "Trash/Recycling",
    "request_reason": "Missed Trash Pick-Up",
    "date_created": "2021-10-18T16:08:27.000",
    "date_modified": "2021-10-18T16:08:27.000",
    "request_status": "Pending",
    "responsible_agency": "Department of Sanitation",
    "final_address": "2329 Frenchmen St",
    "address_councildis": "D",
    "status": "Assigned to Contractor",
    "contractor": "Metro Disposal",
    "rowid": "834429",
    "final_x": "3684247.52009",
    "final_y": "540950.919435",
    "longitude": "-90.05906348403029",
    "latitude": "29.98134373691752",
    "geocoded_column": {
      "latitude": "29.98134373691752",
      "longitude": "-90.05906348403029"
    }
  },
  {
    "service_request": "2021-834428",
    "request_type": "Traffic Signals/Signs/Striping/Streetlights",
    "request_reason": "Additional signage",
    "date_created": "2021-10-18T16:04:59.000",
    "date_modified": "2021-10-18T16:04:59.000",
    "request_status": "Pending",
    "responsible_agency": "Department of Public Works",
    "final_address": "JACKSON AVE & CONSTANCE ST",
    "address_councildis": "B",
    "status": "Pending",
    "rowid": "834428",
    "final_x": "3679072.2",
    "final_y": "521775.28",
    "longitude": "-90.07607406375716",
    "latitude": "29.928774429047508",
    "geocoded_column": {
      "latitude": "29.928774429047508",
      "longitude": "-90.07607406375716"
    }
  },
  {
    "service_request": "2021-834426",
    "request_type": "Abandoned Vehicles",
    "request_reason": "Abandoned/Junk Vehicles",
    "date_created": "2021-10-18T16:01:16.000",
    "date_modified": "2021-10-18T16:01:16.000",
    "request_status": "Pending",
    "responsible_agency": "Department of Public Works",
    "final_address": "1629 Bordeaux St",
    "address_councildis": "B",
    "status": "Pending",
    "rowid": "834426",
    "final_x": "3669439.61338",
    "final_y": "520990.551289",
    "longitude": "-90.10650877380147",
    "latitude": "29.92690378043419",
    "geocoded_column": {
      "latitude": "29.92690378043419",
      "longitude": "-90.10650877380147"
    }
  },
  {
    "service_request": "2021-834425",
    "request_type": "Abandoned Vehicles",
    "request_reason": "Abandoned/Junk Vehicles",
    "date_created": "2021-10-18T15:58:18.000",
    "date_modified": "2021-10-18T16:00:24.000",
    "request_status": "Pending",
    "responsible_agency": "Department of Public Works",
    "final_address": "3010 Peoples Ave",
    "address_councildis": "D",
    "status": "Pending",
    "rowid": "834425",
    "final_x": "3688633.97827",
    "final_y": "544111.809998",
    "longitude": "-90.04509683828451",
    "latitude": "29.989900197452005",
    "geocoded_column": {
      "latitude": "29.989900197452005",
      "longitude": "-90.04509683828451"
    }
  },
  {
    "service_request": "2021-834424",
    "request_type": "Trash/Recycling",
    "request_reason": "Repair Trash Cart",
    "date_created": "2021-10-18T15:57:20.000",
    "date_modified": "2021-10-18T15:57:21.000",
    "request_status": "Pending",
    "responsible_agency": "Department of Sanitation",
    "final_address": "2900 Franklin Ave",
    "address_councildis": "D",
    "status": "Assigned to Contractor",
    "contractor": "Metro Disposal",
    "rowid": "834424",
    "final_x": "3687271.18434",
    "final_y": "543575.562062",
    "longitude": "-90.04942050389911",
    "latitude": "29.98846776561302",
    "geocoded_column": {
      "latitude": "29.98846776561302",
      "longitude": "-90.04942050389911"
    }
  },
  {
    "service_request": "2021-834422",
    "request_type": "Trash/Recycling",
    "request_reason": "Replace Recycling Cart",
    "date_created": "2021-10-18T15:56:19.000",
    "date_modified": "2021-10-18T16:15:39.000",
    "request_status": "Pending",
    "responsible_agency": "Department of Sanitation",
    "final_address": "New Orleans,LA",
    "address_councildis": "C",
    "rowid": "834422",
    "final_x": "3686330.3951",
    "final_y": "534327.650629",
    "longitude": "-90.05271862339232",
    "latitude": "29.96306820825234",
    "geocoded_column": {
      "latitude": "29.96306820825234",
      "longitude": "-90.05271862339232"
    }
  },
  {
    "service_request": "2021-834421",
    "request_type": "Trash/Recycling",
    "request_reason": "Request a Large Item Pick Up",
    "date_created": "2021-10-18T15:53:06.000",
    "date_modified": "2021-10-18T15:53:07.000",
    "request_status": "Pending",
    "responsible_agency": "Department of Sanitation",
    "final_address": "8920 Oleander St",
    "address_councildis": "A",
    "status": "Assigned to Contractor",
    "contractor": "Richards Disposal",
    "rowid": "834421",
    "final_x": "3664543.66432",
    "final_y": "535642.998214",
    "longitude": "-90.12147486749842",
    "latitude": "29.967336519484036",
    "geocoded_column": {
      "latitude": "29.967336519484036",
      "longitude": "-90.12147486749842"
    }
  },
  {
    "service_request": "2021-834420",
    "request_type": "Abandoned Vehicles",
    "request_reason": "Vehicle Blocking Your Driveway",
    "date_created": "2021-10-18T15:52:44.000",
    "date_modified": "2021-10-18T15:52:44.000",
    "request_status": "Pending",
    "responsible_agency": "Department of Public Works",
    "final_address": "2368 Rousseau St",
    "address_councildis": "B",
    "status": "Pending",
    "rowid": "834420",
    "final_x": "3679388.90786",
    "final_y": "519621.931512",
    "longitude": "-90.07514892370276",
    "latitude": "29.92284386435687",
    "geocoded_column": {
      "latitude": "29.92284386435687",
      "longitude": "-90.07514892370276"
    }
  },
  {
    "service_request": "2021-834419",
    "request_type": "Trash/Recycling",
    "request_reason": "Missed Trash Pick-Up",
    "date_created": "2021-10-18T15:52:38.000",
    "date_modified": "2021-10-18T15:52:39.000",
    "request_status": "Pending",
    "responsible_agency": "Department of Sanitation",
    "final_address": "2900 Franklin Ave",
    "address_councildis": "D",
    "status": "Assigned to Contractor",
    "contractor": "Metro Disposal",
    "rowid": "834419",
    "final_x": "3687271.18434",
    "final_y": "543575.562062",
    "longitude": "-90.04942050389911",
    "latitude": "29.98846776561302",
    "geocoded_column": {
      "latitude": "29.98846776561302",
      "longitude": "-90.04942050389911"
    }
  },
  {
    "service_request": "2021-834418",
    "request_type": "Trash/Recycling",
    "request_reason": "Missed Trash Pick-Up",
    "date_created": "2021-10-18T15:49:32.000",
    "date_modified": "2021-10-18T15:49:33.000",
    "request_status": "Pending",
    "responsible_agency": "Department of Sanitation",
    "final_address": "3934 Hamilton St, New Orleans, Louisiana, 70118",
    "address_councildis": "A",
    "status": "Assigned to Contractor",
    "contractor": "Richards Disposal",
    "rowid": "834418",
    "final_x": "3665973.28231",
    "final_y": "538068.729161",
    "longitude": "-90.11687876932568",
    "latitude": "29.973964821729677",
    "geocoded_column": {
      "latitude": "29.973964821729677",
      "longitude": "-90.11687876932568"
    }
  },
  {
    "service_request": "2021-834416",
    "request_type": "Trash/Recycling",
    "request_reason": "Replace Trash Cart",
    "date_created": "2021-10-18T15:47:33.000",
    "date_modified": "2021-10-18T15:47:35.000",
    "request_status": "Pending",
    "responsible_agency": "Department of Sanitation",
    "final_address": "New Orleans,LA",
    "status": "Assigned to Contractor",
    "rowid": "834416",
    "longitude": "0.0",
    "latitude": "0.0",
    "geocoded_column": {
      "latitude": "0.0",
      "longitude": "0.0"
    }
  },
  {
    "service_request": "2021-834413",
    "request_type": "Trash/Recycling",
    "request_reason": "Missed Trash Pick-Up",
    "date_created": "2021-10-18T15:43:36.000",
    "date_modified": "2021-10-18T15:43:36.000",
    "request_status": "Pending",
    "responsible_agency": "Department of Sanitation",
    "final_address": "5844 Marshal Foch St, New Orleans, Louisiana, 70124",
    "address_councildis": "A",
    "status": "Assigned to Contractor",
    "contractor": "Metro Disposal",
    "rowid": "834413",
    "final_x": "3669640.84698",
    "final_y": "546207.832336",
    "longitude": "-90.1050201914198",
    "latitude": "29.996237009972422",
    "geocoded_column": {
      "latitude": "29.996237009972422",
      "longitude": "-90.1050201914198"
    }
  },
  {
    "service_request": "2021-834412",
    "request_type": "Trash/Recycling",
    "request_reason": "Replace Trash Cart",
    "date_created": "2021-10-18T15:43:16.000",
    "date_modified": "2021-10-18T15:43:23.000",
    "request_status": "Pending",
    "responsible_agency": "Department of Sanitation",
    "final_address": "3313 Kabel Dr",
    "address_councildis": "C",
    "status": "Assigned to Contractor",
    "contractor": "Richards Disposal",
    "rowid": "834412",
    "final_x": "3700468.31812",
    "final_y": "519017.988407",
    "longitude": "-90.00863198276326",
    "latitude": "29.920529955713416",
    "geocoded_column": {
      "latitude": "29.920529955713416",
      "longitude": "-90.00863198276326"
    }
  },
  {
    "service_request": "2021-834411",
    "request_type": "Abandoned Vehicles",
    "request_reason": "Abandoned/Junk Vehicles",
    "date_created": "2021-10-18T15:42:24.000",
    "date_modified": "2021-10-18T15:42:24.000",
    "request_status": "Pending",
    "responsible_agency": "Department of Public Works",
    "final_address": "2100 BLK Joliet St",
    "address_councildis": "A",
    "status": "Pending",
    "rowid": "834411",
    "final_x": "3663153.34065",
    "final_y": "531802.059871",
    "longitude": "-90.12599335877177",
    "latitude": "29.956815552161437",
    "geocoded_column": {
      "latitude": "29.956815552161437",
      "longitude": "-90.12599335877177"
    }
  },
  {
    "service_request": "2021-834409",
    "request_type": "Trash/Recycling",
    "request_reason": "Replace Trash Cart",
    "date_created": "2021-10-18T15:40:42.000",
    "date_modified": "2021-10-18T15:40:50.000",
    "request_status": "Pending",
    "responsible_agency": "Department of Sanitation",
    "final_address": "3315 Kabel Dr",
    "address_councildis": "C",
    "status": "Assigned to Contractor",
    "contractor": "Richards Disposal",
    "rowid": "834409",
    "final_x": "3700491.41437",
    "final_y": "519015.752119",
    "longitude": "-90.00855916076026",
    "latitude": "29.92052307246463",
    "geocoded_column": {
      "latitude": "29.92052307246463",
      "longitude": "-90.00855916076026"
    }
  },
  {
    "service_request": "2021-834408",
    "request_type": "Trash/Recycling",
    "request_reason": "Missed Trash Pick-Up",
    "date_created": "2021-10-18T15:36:44.000",
    "date_modified": "2021-10-18T15:36:45.000",
    "request_status": "Pending",
    "responsible_agency": "Department of Sanitation",
    "final_address": "2615 Magazine St",
    "address_councildis": "B",
    "status": "Assigned to Contractor",
    "contractor": "Richards Disposal",
    "rowid": "834408",
    "final_x": "3677405.89666",
    "final_y": "521117.626169",
    "longitude": "-90.08135692787272",
    "latitude": "29.927016262978352",
    "geocoded_column": {
      "latitude": "29.927016262978352",
      "longitude": "-90.08135692787272"
    }
  },
  {
    "service_request": "2021-834407",
    "request_type": "Roads/Drainage",
    "request_reason": "Street Subsidence (Sinking)",
    "date_created": "2021-10-18T15:33:54.000",
    "date_modified": "2021-10-18T15:33:54.000",
    "request_status": "Pending",
    "responsible_agency": "Department of Public Works",
    "final_address": "6028 Canal Blvd",
    "address_councildis": "A",
    "status": "Pending",
    "rowid": "834407",
    "final_x": "3668357.27758",
    "final_y": "547503.923538",
    "longitude": "-90.1090311636159",
    "latitude": "29.99983858469854",
    "geocoded_column": {
      "latitude": "29.99983858469854",
      "longitude": "-90.1090311636159"
    }
  },
  {
    "service_request": "2021-834404",
    "request_type": "Trash/Recycling",
    "request_reason": "Replace Trash Cart",
    "date_created": "2021-10-18T15:31:34.000",
    "date_modified": "2021-10-18T15:31:35.000",
    "request_status": "Pending",
    "responsible_agency": "Department of Sanitation",
    "final_address": "6065 Tchoupitoulas St",
    "address_councildis": "A",
    "status": "Assigned to Contractor",
    "contractor": "Richards Disposal",
    "rowid": "834404",
    "final_x": "3663678.66151",
    "final_y": "517736.940278",
    "longitude": "-90.1248029862518",
    "latitude": "29.91812571265639",
    "geocoded_column": {
      "latitude": "29.91812571265639",
      "longitude": "-90.1248029862518"
    }
  },
  {
    "service_request": "2021-834403",
    "request_type": "Roads/Drainage",
    "request_reason": "Street Flooding / Drainage",
    "date_created": "2021-10-18T15:31:27.000",
    "date_modified": "2021-10-18T15:31:27.000",
    "request_status": "Pending",
    "responsible_agency": "Department of Public Works",
    "final_address": "1800 Monroe St",
    "address_councildis": "A",
    "status": "Pending",
    "rowid": "834403",
    "final_x": "3661793.51027",
    "final_y": "531612.523587",
    "longitude": "-90.13029357608676",
    "latitude": "29.956333716263774",
    "geocoded_column": {
      "latitude": "29.956333716263774",
      "longitude": "-90.13029357608676"
    }
  },
  {
    "service_request": "2021-834402",
    "request_type": "Trash/Recycling",
    "request_reason": "Request a Large Item Pick Up",
    "date_created": "2021-10-18T15:28:07.000",
    "date_modified": "2021-10-18T15:28:07.000",
    "request_status": "Pending",
    "responsible_agency": "Department of Sanitation",
    "final_address": "2844 Dryades St, New Orleans, Louisiana, 70115",
    "address_councildis": "B",
    "status": "Assigned to Contractor",
    "contractor": "Richards Disposal",
    "rowid": "834402",
    "final_x": "3675009.7716",
    "final_y": "523192.725371",
    "longitude": "-90.08884973416258",
    "latitude": "29.9327938840461",
    "geocoded_column": {
      "latitude": "29.9327938840461",
      "longitude": "-90.08884973416258"
    }
  },
  {
    "service_request": "2021-834401",
    "request_type": "Trash/Recycling",
    "request_reason": "Replace Trash Cart",
    "date_created": "2021-10-18T15:27:39.000",
    "date_modified": "2021-10-18T15:27:40.000",
    "request_status": "Pending",
    "responsible_agency": "Department of Sanitation",
    "final_address": "445 Walnut St, New Orleans, Louisiana, 70118",
    "address_councildis": "A",
    "status": "Assigned to Contractor",
    "contractor": "Richards Disposal",
    "rowid": "834401",
    "final_x": "3662656.75411",
    "final_y": "523091.099899",
    "longitude": "-90.12785081093028",
    "latitude": "29.93287757492766",
    "geocoded_column": {
      "latitude": "29.93287757492766",
      "longitude": "-90.12785081093028"
    }
  },
  {
    "service_request": "2021-834400",
    "request_type": "Trash/Recycling",
    "request_reason": "Request a Large Item Pick Up",
    "date_created": "2021-10-18T15:27:12.000",
    "date_modified": "2021-10-18T15:27:12.000",
    "request_status": "Pending",
    "responsible_agency": "Department of Sanitation",
    "final_address": "2848 Dryades St, New Orleans, Louisiana, 70115",
    "address_councildis": "B",
    "status": "Assigned to Contractor",
    "contractor": "Richards Disposal",
    "rowid": "834400",
    "final_x": "3674993.36539",
    "final_y": "523177.881275",
    "longitude": "-90.08890203628705",
    "latitude": "29.9327535575519",
    "geocoded_column": {
      "latitude": "29.9327535575519",
      "longitude": "-90.08890203628705"
    }
  },
  {
    "service_request": "2021-834399",
    "request_type": "Trash/Recycling",
    "request_reason": "Replace Recycling Cart",
    "date_created": "2021-10-18T15:26:40.000",
    "date_modified": "2021-10-18T15:26:40.000",
    "request_status": "Pending",
    "responsible_agency": "Department of Sanitation",
    "final_address": "6871 Louis Xiv St",
    "address_councildis": "A",
    "status": "Pending",
    "rowid": "834399",
    "final_x": "3668714.03124",
    "final_y": "553259.175255",
    "longitude": "-90.10770968939701",
    "latitude": "30.01565302818262",
    "geocoded_column": {
      "latitude": "30.01565302818262",
      "longitude": "-90.10770968939701"
    }
  },
  {
    "service_request": "2021-834398",
    "request_type": "Roads/Drainage",
    "request_reason": "Road Shoulder Repair",
    "date_created": "2021-10-18T15:24:45.000",
    "date_modified": "2021-10-18T15:24:45.000",
    "request_status": "Pending",
    "responsible_agency": "Department of Public Works",
    "final_address": "2137 First St",
    "address_councildis": "B",
    "status": "Pending",
    "rowid": "834398",
    "final_x": "3675819.77819",
    "final_y": "524979.329405",
    "longitude": "-90.0862312180323",
    "latitude": "29.937682246555227",
    "geocoded_column": {
      "latitude": "29.937682246555227",
      "longitude": "-90.0862312180323"
    }
  },
  {
    "service_request": "2021-834396",
    "request_type": "Trash/Recycling",
    "request_reason": "Replace Trash Cart",
    "date_created": "2021-10-18T15:23:58.000",
    "date_modified": "2021-10-18T15:24:05.000",
    "request_status": "Pending",
    "responsible_agency": "Department of Sanitation",
    "final_address": "4927 S Johnson St",
    "address_councildis": "B",
    "status": "Assigned to Contractor",
    "contractor": "Richards Disposal",
    "rowid": "834396",
    "final_x": "3669027.26759",
    "final_y": "527098.138367",
    "longitude": "-90.10760420159336",
    "latitude": "29.943709815868093",
    "geocoded_column": {
      "latitude": "29.943709815868093",
      "longitude": "-90.10760420159336"
    }
  },
  {
    "service_request": "2021-834394",
    "request_type": "Trash/Recycling",
    "request_reason": "Repair Trash Cart",
    "date_created": "2021-10-18T15:22:32.000",
    "date_modified": "2021-10-18T15:22:32.000",
    "request_status": "Pending",
    "responsible_agency": "Department of Sanitation",
    "final_address": "1809 Eighth St",
    "address_councildis": "B",
    "status": "Assigned to Contractor",
    "contractor": "Richards Disposal",
    "rowid": "834394",
    "final_x": "3674570.0587",
    "final_y": "522616.247674",
    "longitude": "-90.09025761862918",
    "latitude": "29.931221881688003",
    "geocoded_column": {
      "latitude": "29.931221881688003",
      "longitude": "-90.09025761862918"
    }
  },
  {
    "service_request": "2021-834390",
    "request_type": "Roads/Drainage",
    "request_reason": "Street Subsidence (Sinking)",
    "date_created": "2021-10-18T15:15:56.000",
    "date_modified": "2021-10-18T15:15:56.000",
    "request_status": "Pending",
    "responsible_agency": "Department of Public Works",
    "final_address": "1139 Arabella St",
    "address_councildis": "A",
    "status": "Pending",
    "rowid": "834390",
    "final_x": "3666152.53025",
    "final_y": "520220.218232",
    "longitude": "-90.11691108139415",
    "latitude": "29.924881970538088",
    "geocoded_column": {
      "latitude": "29.924881970538088",
      "longitude": "-90.11691108139415"
    }
  },
  {
    "service_request": "2021-834388",
    "request_type": "Trash/Recycling",
    "request_reason": "Replace Trash Cart",
    "date_created": "2021-10-18T15:09:28.000",
    "date_modified": "2021-10-18T15:09:29.000",
    "request_status": "Pending",
    "responsible_agency": "Department of Sanitation",
    "final_address": "1637 Palmer Ave, New Orleans, Louisiana, 70118",
    "address_councildis": "A",
    "status": "Assigned to Contractor",
    "contractor": "Richards Disposal",
    "rowid": "834388",
    "final_x": "3665473.20276",
    "final_y": "523122.228091",
    "longitude": "-90.1189584176889",
    "latitude": "29.93288139292167",
    "geocoded_column": {
      "latitude": "29.93288139292167",
      "longitude": "-90.1189584176889"
    }
  },
  {
    "service_request": "2021-834387",
    "request_type": "Trash/Recycling",
    "request_reason": "Illegal Dumping",
    "date_created": "2021-10-18T15:08:19.000",
    "date_modified": "2021-10-18T15:08:19.000",
    "request_status": "Pending",
    "responsible_agency": "Department of Sanitation",
    "final_address": "122 Carondelet St",
    "address_councildis": "B",
    "status": "Pending",
    "rowid": "834387",
    "final_x": "3680769.89499",
    "final_y": "530634.064258",
    "longitude": "-90.07040656238124",
    "latitude": "29.953081806506788",
    "geocoded_column": {
      "latitude": "29.953081806506788",
      "longitude": "-90.07040656238124"
    }
  },
  {
    "service_request": "2021-834386",
    "request_type": "Trash/Recycling",
    "request_reason": "MIssed Recycling Pick-Up",
    "date_created": "2021-10-18T15:06:53.000",
    "date_modified": "2021-10-18T15:06:54.000",
    "request_status": "Pending",
    "responsible_agency": "Department of Sanitation",
    "final_address": "4617 Crowder Blvd",
    "address_councildis": "E",
    "status": "Assigned to Contractor",
    "contractor": "Metro Disposal",
    "rowid": "834386",
    "final_x": "3706643.6675",
    "final_y": "554779.944856",
    "longitude": "-89.98781390219847",
    "latitude": "30.018664475228775",
    "geocoded_column": {
      "latitude": "30.018664475228775",
      "longitude": "-89.98781390219847"
    }
  },
  {
    "service_request": "2021-834385",
    "request_type": "Trash/Recycling",
    "request_reason": "Replace Trash Cart",
    "date_created": "2021-10-18T15:05:56.000",
    "date_modified": "2021-10-18T15:05:57.000",
    "request_status": "Pending",
    "responsible_agency": "Department of Sanitation",
    "final_address": "1206 Jefferson Ave, New Orleans, Louisiana, 70115",
    "address_councildis": "A",
    "status": "Assigned to Contractor",
    "contractor": "Richards Disposal",
    "rowid": "834385",
    "final_x": "3666900.94433",
    "final_y": "519906.93676",
    "longitude": "-90.1145590940449",
    "latitude": "29.92399867754222",
    "geocoded_column": {
      "latitude": "29.92399867754222",
      "longitude": "-90.1145590940449"
    }
  },
  {
    "service_request": "2021-834384",
    "request_type": "Trash/Recycling",
    "request_reason": "Replace Trash Cart",
    "date_created": "2021-10-18T15:05:40.000",
    "date_modified": "2021-10-18T15:05:41.000",
    "request_status": "Pending",
    "responsible_agency": "Department of Sanitation",
    "final_address": "1206 Jefferson Ave",
    "address_councildis": "A",
    "status": "Assigned to Contractor",
    "contractor": "Richards Disposal",
    "rowid": "834384",
    "final_x": "3666900.94433",
    "final_y": "519906.93676",
    "longitude": "-90.1145590940449",
    "latitude": "29.92399867754222",
    "geocoded_column": {
      "latitude": "29.92399867754222",
      "longitude": "-90.1145590940449"
    }
  },
  {
    "service_request": "2021-834382",
    "request_type": "Trash/Recycling",
    "request_reason": "Missed Trash Pick-Up",
    "date_created": "2021-10-18T15:04:21.000",
    "date_modified": "2021-10-18T15:04:30.000",
    "request_status": "Pending",
    "responsible_agency": "Department of Sanitation",
    "final_address": "2515 N Rampart St",
    "address_councildis": "C",
    "status": "Assigned to Contractor",
    "contractor": "Metro Disposal",
    "rowid": "834382",
    "final_x": "3686650.49602",
    "final_y": "536102.920263",
    "longitude": "-90.05164507830017",
    "latitude": "29.967939742381322",
    "geocoded_column": {
      "latitude": "29.967939742381322",
      "longitude": "-90.05164507830017"
    }
  },
  {
    "service_request": "2021-834381",
    "request_type": "Trash/Recycling",
    "request_reason": "Missed Trash Pick-Up",
    "date_created": "2021-10-18T15:04:20.000",
    "date_modified": "2021-10-18T15:04:21.000",
    "request_status": "Pending",
    "responsible_agency": "Department of Sanitation",
    "final_address": "2517 N Rampart St",
    "address_councildis": "C",
    "status": "Assigned to Contractor",
    "contractor": "Metro Disposal",
    "rowid": "834381",
    "final_x": "3686664.951",
    "final_y": "536103.264455",
    "longitude": "-90.05159941693151",
    "latitude": "29.967940244197255",
    "geocoded_column": {
      "latitude": "29.967940244197255",
      "longitude": "-90.05159941693151"
    }
  },
  {
    "service_request": "2021-834379",
    "request_type": "Tax and Revenue",
    "request_reason": "Sales Tax Question",
    "date_created": "2021-10-18T15:03:37.000",
    "date_modified": "2021-10-18T16:09:30.000",
    "request_status": "Pending",
    "responsible_agency": "Bureau of Revenue",
    "final_address": "New Orleans,LA",
    "rowid": "834379",
    "longitude": "0.0",
    "latitude": "0.0",
    "geocoded_column": {
      "latitude": "0.0",
      "longitude": "0.0"
    }
  },
  {
    "service_request": "2021-834378",
    "request_type": "COVID-19",
    "request_reason": "COVID-19 Business Non-Compliance",
    "date_created": "2021-10-18T15:00:32.000",
    "date_modified": "2021-10-18T15:00:45.000",
    "request_status": "Pending",
    "responsible_agency": "Safety and Permits",
    "final_address": "7900 Lakeshore Dr, New Orleans, Louisiana, 70124",
    "address_councildis": "D",
    "status": "Pending",
    "rowid": "834378",
    "final_x": "3666876.25191",
    "final_y": "556934.571034",
    "longitude": "-90.11339262061627",
    "latitude": "30.02581298879661",
    "geocoded_column": {
      "latitude": "30.02581298879661",
      "longitude": "-90.11339262061627"
    }
  },
  {
    "service_request": "2021-834376",
    "request_type": "Traffic Signals/Signs/Striping/Streetlights",
    "request_reason": "Street Light Outage/Malfunction",
    "date_created": "2021-10-18T14:56:42.000",
    "date_modified": "2021-10-18T14:56:42.000",
    "request_status": "Pending",
    "responsible_agency": "Department of Public Works",
    "final_address": "4600 BLK Tchoupitoulas St",
    "address_councildis": "B",
    "status": "Pending",
    "contractor": "Royal Engineering",
    "rowid": "834376",
    "final_x": "3670261.08234",
    "final_y": "517361.744592",
    "longitude": "-90.10403850164786",
    "latitude": "29.916901504136447",
    "geocoded_column": {
      "latitude": "29.916901504136447",
      "longitude": "-90.10403850164786"
    }
  },
  {
    "service_request": "2021-834375",
    "request_type": "Property Maintenance",
    "request_reason": "Property Maintenance",
    "date_created": "2021-10-18T14:56:29.000",
    "date_modified": "2021-10-18T14:56:29.000",
    "request_status": "Pending",
    "responsible_agency": "Department of Code Enforcement",
    "final_address": "4900 Perrier St",
    "address_councildis": "B",
    "status": "Pending",
    "rowid": "834375",
    "final_x": "3668997.74094",
    "final_y": "519850.573112",
    "longitude": "-90.10794213695917",
    "latitude": "29.923782203916023",
    "geocoded_column": {
      "latitude": "29.923782203916023",
      "longitude": "-90.10794213695917"
    }
  },
  {
    "service_request": "2021-834374",
    "request_type": "Traffic Signals/Signs/Striping/Streetlights",
    "request_reason": "Street Light Outage/Malfunction",
    "date_created": "2021-10-18T14:56:11.000",
    "date_modified": "2021-10-18T14:56:12.000",
    "request_status": "Pending",
    "responsible_agency": "Department of Public Works",
    "final_address": "4600 BLK Tchoupitoulas St",
    "address_councildis": "B",
    "status": "Pending",
    "contractor": "Royal Engineering",
    "rowid": "834374",
    "final_x": "3670261.08234",
    "final_y": "517361.744592",
    "longitude": "-90.10403850164786",
    "latitude": "29.916901504136447",
    "geocoded_column": {
      "latitude": "29.916901504136447",
      "longitude": "-90.10403850164786"
    }
  },
  {
    "service_request": "2021-834373",
    "request_type": "Trash/Recycling",
    "request_reason": "Request a Large Item Pick Up",
    "date_created": "2021-10-18T14:55:33.000",
    "date_modified": "2021-10-18T14:55:34.000",
    "request_status": "Pending",
    "responsible_agency": "Department of Sanitation",
    "final_address": "1717 Frenchmen St, New Orleans, Louisiana, 70116",
    "address_councildis": "D",
    "status": "Assigned to Contractor",
    "contractor": "Metro Disposal",
    "rowid": "834373",
    "final_x": "3684434.24213",
    "final_y": "538618.513929",
    "longitude": "-90.05855568884678",
    "latitude": "29.97492472815723",
    "geocoded_column": {
      "latitude": "29.97492472815723",
      "longitude": "-90.05855568884678"
    }
  },
  {
    "service_request": "2021-834372",
    "request_type": "Trash/Recycling",
    "request_reason": "Illegal Dumping",
    "date_created": "2021-10-18T14:53:18.000",
    "date_modified": "2021-10-18T14:53:18.000",
    "request_status": "Pending",
    "responsible_agency": "Department of Sanitation",
    "final_address": "3611 Forest Park Ln",
    "address_councildis": "C",
    "status": "Pending",
    "rowid": "834372",
    "final_x": "3702935.26366",
    "final_y": "511322.57112",
    "longitude": "-90.00112745839577",
    "latitude": "29.89929152968961",
    "geocoded_column": {
      "latitude": "29.89929152968961",
      "longitude": "-90.00112745839577"
    }
  },
  {
    "service_request": "2021-834371",
    "request_type": "Abandoned Vehicles",
    "request_reason": "Abandoned/Junk Vehicles",
    "date_created": "2021-10-18T14:53:01.000",
    "date_modified": "2021-10-18T14:53:01.000",
    "request_status": "Pending",
    "responsible_agency": "Department of Public Works",
    "final_address": "7401 Strathmore Dr",
    "address_councildis": "E",
    "status": "Pending",
    "rowid": "834371",
    "final_x": "3714783.85336",
    "final_y": "566395.413731",
    "longitude": "-89.96165479649679",
    "latitude": "30.050337015147708",
    "geocoded_column": {
      "latitude": "30.050337015147708",
      "longitude": "-89.96165479649679"
    }
  },
  {
    "service_request": "2021-834370",
    "request_type": "Abandoned Vehicles",
    "request_reason": "Abandoned/Junk Vehicles",
    "date_created": "2021-10-18T14:51:49.000",
    "date_modified": "2021-10-18T14:51:49.000",
    "request_status": "Pending",
    "responsible_agency": "Department of Public Works",
    "final_address": "ROBERT ST & CARONDELET ST",
    "address_councildis": "B",
    "status": "Pending",
    "rowid": "834370",
    "final_x": "3668723.1",
    "final_y": "521080.48",
    "longitude": "-90.1087675902306",
    "latitude": "29.927172130599576",
    "geocoded_column": {
      "latitude": "29.927172130599576",
      "longitude": "-90.1087675902306"
    }
  },
  {
    "service_request": "2021-834369",
    "request_type": "Mosquito, Termite & Rodent Control",
    "request_reason": "Non-Rodent Complaint (Mice, Possums, Snakes)",
    "date_created": "2021-10-18T14:51:19.000",
    "date_modified": "2021-10-18T14:51:19.000",
    "request_status": "Pending",
    "responsible_agency": "Mosquito, Termite & Rodent Control Board",
    "final_address": "2253 Lafreniere St",
    "address_councildis": "D",
    "status": "Pending",
    "rowid": "834369",
    "final_x": "3684773.72924",
    "final_y": "545627.570576",
    "longitude": "-90.05723697616114",
    "latitude": "29.994186767890252",
    "geocoded_column": {
      "latitude": "29.994186767890252",
      "longitude": "-90.05723697616114"
    }
  },
  {
    "service_request": "2021-834368",
    "request_type": "Traffic Signals/Signs/Striping/Streetlights",
    "request_reason": "Street Light Outage/Malfunction",
    "date_created": "2021-10-18T14:49:59.000",
    "date_modified": "2021-10-18T14:50:00.000",
    "request_status": "Pending",
    "responsible_agency": "Department of Public Works",
    "final_address": "5000 Woodland Dr",
    "address_councildis": "C",
    "status": "Pending",
    "contractor": "Royal Engineering",
    "rowid": "834368",
    "final_x": "3706126.56151",
    "final_y": "512999.697457",
    "longitude": "-89.99099424165844",
    "latitude": "29.903800647355098",
    "geocoded_column": {
      "latitude": "29.903800647355098",
      "longitude": "-89.99099424165844"
    }
  },
  {
    "service_request": "2021-834365",
    "request_type": "Trash/Recycling",
    "request_reason": "Order Recycling Cart",
    "date_created": "2021-10-18T14:48:32.000",
    "date_modified": "2021-10-18T14:48:32.000",
    "request_status": "Pending",
    "responsible_agency": "Department of Sanitation",
    "final_address": "1122 Burgundy St",
    "address_councildis": "C",
    "status": "Pending",
    "rowid": "834365",
    "final_x": "3682717.30325",
    "final_y": "534419.646853",
    "longitude": "-90.06412510208118",
    "latitude": "29.96343170467653",
    "geocoded_column": {
      "latitude": "29.96343170467653",
      "longitude": "-90.06412510208118"
    }
  },
  {
    "service_request": "2021-834364",
    "request_type": "Trash/Recycling",
    "request_reason": "Missed Trash Pick-Up",
    "date_created": "2021-10-18T14:48:14.000",
    "date_modified": "2021-10-18T14:48:15.000",
    "request_status": "Pending",
    "responsible_agency": "Department of Sanitation",
    "final_address": "6203 S Miro St",
    "address_councildis": "A",
    "status": "Assigned to Contractor",
    "contractor": "Richards Disposal",
    "rowid": "834364",
    "final_x": "3667429.57101",
    "final_y": "528137.280383",
    "longitude": "-90.11261362149146",
    "latitude": "29.946614017744164",
    "geocoded_column": {
      "latitude": "29.946614017744164",
      "longitude": "-90.11261362149146"
    }
  },
  {
    "service_request": "2021-834363",
    "request_type": "Traffic Signals/Signs/Striping/Streetlights",
    "request_reason": "Traffic Signal Malfunctioning/Damaged",
    "date_created": "2021-10-18T14:46:52.000",
    "date_modified": "2021-10-18T14:46:52.000",
    "request_status": "Pending",
    "responsible_agency": "Department of Public Works",
    "final_address": "1700 Tchoupitoulas St",
    "address_councildis": "B",
    "status": "Pending",
    "rowid": "834363",
    "final_x": "3682060.24508",
    "final_y": "521805.387706",
    "longitude": "-90.06664037654919",
    "latitude": "29.928766726503245",
    "geocoded_column": {
      "latitude": "29.928766726503245",
      "longitude": "-90.06664037654919"
    }
  },
  {
    "service_request": "2021-834362",
    "request_type": "Abandoned Vehicles",
    "request_reason": "Abandoned/Junk Vehicles",
    "date_created": "2021-10-18T14:46:01.000",
    "date_modified": "2021-10-18T14:46:01.000",
    "request_status": "Pending",
    "responsible_agency": "Department of Public Works",
    "final_address": "ST ANTHONY ST & N JOHNSON ST",
    "address_councildis": "D",
    "status": "Pending",
    "rowid": "834362",
    "final_x": "3683252.4",
    "final_y": "539504.38",
    "longitude": "-90.06225720702918",
    "latitude": "29.977396651346737",
    "geocoded_column": {
      "latitude": "29.977396651346737",
      "longitude": "-90.06225720702918"
    }
  },
  {
    "service_request": "2021-834360",
    "request_type": "Traffic Signals/Signs/Striping/Streetlights",
    "request_reason": "Street Light Outage/Malfunction",
    "date_created": "2021-10-18T14:45:09.000",
    "date_modified": "2021-10-18T14:45:10.000",
    "request_status": "Pending",
    "responsible_agency": "Department of Public Works",
    "final_address": "5000 Woodland Dr",
    "address_councildis": "C",
    "status": "Pending",
    "contractor": "Royal Engineering",
    "rowid": "834360",
    "final_x": "3706126.56151",
    "final_y": "512999.697457",
    "longitude": "-89.99099424165844",
    "latitude": "29.903800647355098",
    "geocoded_column": {
      "latitude": "29.903800647355098",
      "longitude": "-89.99099424165844"
    }
  },
  {
    "service_request": "2021-834358",
    "request_type": "Trash/Recycling",
    "request_reason": "Request a Large Item Pick Up",
    "date_created": "2021-10-18T14:44:28.000",
    "date_modified": "2021-10-18T14:44:28.000",
    "request_status": "Pending",
    "responsible_agency": "Department of Sanitation",
    "final_address": "8247 Spruce St",
    "address_councildis": "A",
    "status": "Assigned to Contractor",
    "contractor": "Richards Disposal",
    "rowid": "834358",
    "final_x": "3663367.80666",
    "final_y": "530953.021122",
    "longitude": "-90.12534440431313",
    "latitude": "29.95447475560005",
    "geocoded_column": {
      "latitude": "29.95447475560005",
      "longitude": "-90.12534440431313"
    }
  },
  {
    "service_request": "2021-834357",
    "request_type": "Property Maintenance",
    "request_reason": "Property Maintenance",
    "date_created": "2021-10-18T14:43:22.000",
    "date_modified": "2021-10-18T14:43:22.000",
    "request_status": "Pending",
    "responsible_agency": "Department of Code Enforcement",
    "final_address": "1919 Monroe St",
    "address_councildis": "A",
    "status": "Pending",
    "rowid": "834357",
    "final_x": "3662160.16679",
    "final_y": "531697.075587",
    "longitude": "-90.12913298540694",
    "latitude": "29.956555616695237",
    "geocoded_column": {
      "latitude": "29.956555616695237",
      "longitude": "-90.12913298540694"
    }
  },
  {
    "service_request": "2021-834356",
    "request_type": "Trash/Recycling",
    "request_reason": "Replace Trash Cart",
    "date_created": "2021-10-18T14:42:02.000",
    "date_modified": "2021-10-18T14:42:03.000",
    "request_status": "Pending",
    "responsible_agency": "Department of Sanitation",
    "final_address": "6965 Colbert St, New Orleans, Louisiana, 70124",
    "address_councildis": "A",
    "status": "Assigned to Contractor",
    "contractor": "Metro Disposal",
    "rowid": "834356",
    "final_x": "3668104.22477",
    "final_y": "553925.910743",
    "longitude": "-90.10961390885961",
    "latitude": "30.017504236286328",
    "geocoded_column": {
      "latitude": "30.017504236286328",
      "longitude": "-90.10961390885961"
    }
  },
  {
    "service_request": "2021-834355",
    "request_type": "Safety & Permits",
    "request_reason": "Licenses & Permits",
    "date_created": "2021-10-18T14:41:43.000",
    "date_modified": "2021-10-18T14:41:43.000",
    "request_status": "Pending",
    "responsible_agency": "Safety and Permits",
    "final_address": "2117 N Rocheblave St",
    "address_councildis": "D",
    "status": "Pending",
    "rowid": "834355",
    "final_x": "3683677.73327",
    "final_y": "541048.506891",
    "longitude": "-90.06085970641084",
    "latitude": "29.981629479023884",
    "geocoded_column": {
      "latitude": "29.981629479023884",
      "longitude": "-90.06085970641084"
    }
  },
  {
    "service_request": "2021-834354",
    "request_type": "Property Maintenance",
    "request_reason": "Property Maintenance",
    "date_created": "2021-10-18T14:41:27.000",
    "date_modified": "2021-10-18T14:41:27.000",
    "request_status": "Pending",
    "responsible_agency": "Department of Code Enforcement",
    "final_address": "2118 St Ferdinand St",
    "address_councildis": "D",
    "status": "Pending",
    "rowid": "834354",
    "final_x": "3688673.74563",
    "final_y": "540288.416587",
    "longitude": "-90.04510700219481",
    "latitude": "29.979385999864387",
    "geocoded_column": {
      "latitude": "29.979385999864387",
      "longitude": "-90.04510700219481"
    }
  },
  {
    "service_request": "2021-834353",
    "request_type": "Roads/Drainage",
    "request_reason": "Pothole",
    "date_created": "2021-10-18T14:41:22.000",
    "date_modified": "2021-10-18T14:41:22.000",
    "request_status": "Pending",
    "responsible_agency": "Department of Public Works",
    "final_address": "2909 Burgundy St",
    "address_councildis": "C",
    "status": "Pending",
    "rowid": "834353",
    "final_x": "3688095.91171",
    "final_y": "535420.07719",
    "longitude": "-90.04710462571778",
    "latitude": "29.96601762725132",
    "geocoded_column": {
      "latitude": "29.96601762725132",
      "longitude": "-90.04710462571778"
    }
  },
  {
    "service_request": "2021-834352",
    "request_type": "Traffic Signals/Signs/Striping/Streetlights",
    "request_reason": "Street Light Outage/Malfunction",
    "date_created": "2021-10-18T14:40:48.000",
    "date_modified": "2021-10-18T14:40:49.000",
    "request_status": "Pending",
    "responsible_agency": "Department of Public Works",
    "final_address": "7700 BLK Alabama St",
    "address_councildis": "D",
    "status": "Pending",
    "contractor": "Royal Engineering",
    "rowid": "834352",
    "final_x": "3694761.23741",
    "final_y": "559002.88211",
    "longitude": "-90.02520559495956",
    "latitude": "30.0306542587129",
    "geocoded_column": {
      "latitude": "30.0306542587129",
      "longitude": "-90.02520559495956"
    }
  },
  {
    "service_request": "2021-834351",
    "request_type": "Safety & Permits",
    "request_reason": "Licenses & Permits",
    "date_created": "2021-10-18T14:40:21.000",
    "date_modified": "2021-10-18T14:40:21.000",
    "request_status": "Pending",
    "responsible_agency": "Safety and Permits",
    "final_address": "3100 Pauger St",
    "address_councildis": "D",
    "status": "Pending",
    "rowid": "834351",
    "final_x": "3683455.047",
    "final_y": "541031.158219",
    "longitude": "-90.06156366091358",
    "latitude": "29.981588574179582",
    "geocoded_column": {
      "latitude": "29.981588574179582",
      "longitude": "-90.06156366091358"
    }
  },
  {
    "service_request": "2021-834350",
    "request_type": "Property Maintenance",
    "request_reason": "Property Maintenance",
    "date_created": "2021-10-18T14:38:43.000",
    "date_modified": "2021-10-18T14:38:43.000",
    "request_status": "Pending",
    "responsible_agency": "Department of Code Enforcement",
    "final_address": "1118 Cadiz St",
    "address_councildis": "B",
    "status": "Pending",
    "rowid": "834350",
    "final_x": "3670121.16097",
    "final_y": "519605.515128",
    "longitude": "-90.10440419487917",
    "latitude": "29.9230752895361",
    "geocoded_column": {
      "latitude": "29.9230752895361",
      "longitude": "-90.10440419487917"
    }
  },
  {
    "service_request": "2021-834349",
    "request_type": "Traffic Signals/Signs/Striping/Streetlights",
    "request_reason": "Street Light Outage/Malfunction",
    "date_created": "2021-10-18T14:37:38.000",
    "date_modified": "2021-10-18T14:37:39.000",
    "request_status": "Pending",
    "responsible_agency": "Department of Public Works",
    "final_address": "5000 Woodland Dr",
    "address_councildis": "C",
    "status": "Pending",
    "contractor": "Royal Engineering",
    "rowid": "834349",
    "final_x": "3706126.56151",
    "final_y": "512999.697457",
    "longitude": "-89.99099424165844",
    "latitude": "29.903800647355098",
    "geocoded_column": {
      "latitude": "29.903800647355098",
      "longitude": "-89.99099424165844"
    }
  },
  {
    "service_request": "2021-834348",
    "request_type": "Mosquito, Termite & Rodent Control",
    "request_reason": "Rodent Complaint (Rats)",
    "date_created": "2021-10-18T14:35:44.000",
    "date_modified": "2021-10-18T14:35:44.000",
    "request_status": "Pending",
    "responsible_agency": "Mosquito, Termite & Rodent Control Board",
    "final_address": "2625 Ursulines Ave",
    "address_councildis": "D",
    "status": "Pending",
    "rowid": "834348",
    "final_x": "3677934.43125",
    "final_y": "538019.394057",
    "longitude": "-90.07910446724452",
    "latitude": "29.97347458667208",
    "geocoded_column": {
      "latitude": "29.97347458667208",
      "longitude": "-90.07910446724452"
    }
  },
  {
    "service_request": "2021-834347",
    "request_type": "Traffic Signals/Signs/Striping/Streetlights",
    "request_reason": "Street Light Outage/Malfunction",
    "date_created": "2021-10-18T14:35:43.000",
    "date_modified": "2021-10-18T14:35:43.000",
    "request_status": "Pending",
    "responsible_agency": "Department of Public Works",
    "final_address": "700 BLK Chapelle St",
    "address_councildis": "A",
    "status": "Pending",
    "contractor": "Royal Engineering",
    "rowid": "834347",
    "final_x": "3669116.99113",
    "final_y": "552660.795057",
    "longitude": "-90.10645675903336",
    "latitude": "30.013995836328988",
    "geocoded_column": {
      "latitude": "30.013995836328988",
      "longitude": "-90.10645675903336"
    }
  },
  {
    "service_request": "2021-834346",
    "request_type": "Traffic Signals/Signs/Striping/Streetlights",
    "request_reason": "Street Light Outage/Malfunction",
    "date_created": "2021-10-18T14:35:02.000",
    "date_modified": "2021-10-18T14:35:02.000",
    "request_status": "Pending",
    "responsible_agency": "Department of Public Works",
    "final_address": "4600 BLK Tchoupitoulas St",
    "address_councildis": "B",
    "status": "Pending",
    "contractor": "Royal Engineering",
    "rowid": "834346",
    "final_x": "3670261.08234",
    "final_y": "517361.744592",
    "longitude": "-90.10403850164786",
    "latitude": "29.916901504136447",
    "geocoded_column": {
      "latitude": "29.916901504136447",
      "longitude": "-90.10403850164786"
    }
  },
  {
    "service_request": "2021-834345",
    "request_type": "Mosquito, Termite & Rodent Control",
    "request_reason": "Rodent Complaint (Rats)",
    "date_created": "2021-10-18T14:34:34.000",
    "date_modified": "2021-10-18T14:34:34.000",
    "request_status": "Pending",
    "responsible_agency": "Mosquito, Termite & Rodent Control Board",
    "final_address": "2629 Ursulines Ave",
    "address_councildis": "D",
    "status": "Pending",
    "rowid": "834345",
    "final_x": "3677893.39733",
    "final_y": "538034.592457",
    "longitude": "-90.07923353563872",
    "latitude": "29.973517612013662",
    "geocoded_column": {
      "latitude": "29.973517612013662",
      "longitude": "-90.07923353563872"
    }
  },
  {
    "service_request": "2021-834344",
    "request_type": "Trash/Recycling",
    "request_reason": "Order Trash Cart",
    "date_created": "2021-10-18T14:33:01.000",
    "date_modified": "2021-10-18T14:33:02.000",
    "request_status": "Pending",
    "responsible_agency": "Department of Sanitation",
    "final_address": "1825 Third St",
    "address_councildis": "B",
    "status": "Assigned to Contractor",
    "contractor": "Richards Disposal",
    "rowid": "834344",
    "final_x": "3675930.25857",
    "final_y": "523702.505787",
    "longitude": "-90.0859263060793",
    "latitude": "29.93416809250166",
    "geocoded_column": {
      "latitude": "29.93416809250166",
      "longitude": "-90.0859263060793"
    }
  },
  {
    "service_request": "2021-834343",
    "request_type": "Mosquito, Termite & Rodent Control",
    "request_reason": "Rodent Complaint (Rats)",
    "date_created": "2021-10-18T14:32:56.000",
    "date_modified": "2021-10-18T14:32:56.000",
    "request_status": "Pending",
    "responsible_agency": "Mosquito, Termite & Rodent Control Board",
    "final_address": "2633 Ursulines Ave",
    "address_councildis": "D",
    "status": "Pending",
    "rowid": "834343",
    "final_x": "3677874.03669",
    "final_y": "538039.676361",
    "longitude": "-90.07929450491315",
    "latitude": "29.973532173638862",
    "geocoded_column": {
      "latitude": "29.973532173638862",
      "longitude": "-90.07929450491315"
    }
  },
  {
    "service_request": "2021-834342",
    "request_type": "Roads/Drainage",
    "request_reason": "Debris in Roadway",
    "date_created": "2021-10-18T14:30:24.000",
    "date_modified": "2021-10-18T14:30:24.000",
    "request_status": "Pending",
    "responsible_agency": "Department of Public Works",
    "final_address": "2829 Banks St",
    "address_councildis": "B",
    "status": "Pending",
    "rowid": "834342",
    "final_x": "3673998.818",
    "final_y": "534690.525446",
    "longitude": "-90.0916479021723",
    "latitude": "29.964439188930573",
    "geocoded_column": {
      "latitude": "29.964439188930573",
      "longitude": "-90.0916479021723"
    }
  },
  {
    "service_request": "2021-834339",
    "request_type": "Roads/Drainage",
    "request_reason": "Pothole",
    "date_created": "2021-10-18T14:22:53.000",
    "date_modified": "2021-10-18T14:22:53.000",
    "request_status": "Pending",
    "responsible_agency": "Department of Public Works",
    "final_address": "6214 Catina St",
    "address_councildis": "A",
    "status": "Pending",
    "rowid": "834339",
    "final_x": "3666810.44743",
    "final_y": "549116.197971",
    "longitude": "-90.11386348018051",
    "latitude": "30.004317136011117",
    "geocoded_column": {
      "latitude": "30.004317136011117",
      "longitude": "-90.11386348018051"
    }
  },
  {
    "service_request": "2021-834338",
    "request_type": "Trash/Recycling",
    "request_reason": "Request a Large Item Pick Up",
    "date_created": "2021-10-18T14:22:41.000",
    "date_modified": "2021-10-18T14:22:42.000",
    "request_status": "Pending",
    "responsible_agency": "Department of Sanitation",
    "final_address": "5324 Painters St",
    "address_councildis": "D",
    "status": "Assigned to Contractor",
    "contractor": "Metro Disposal",
    "rowid": "834338",
    "final_x": "3686008.97212",
    "final_y": "552478.390742",
    "longitude": "-90.05309322810479",
    "latitude": "30.01298615772609",
    "geocoded_column": {
      "latitude": "30.01298615772609",
      "longitude": "-90.05309322810479"
    }
  },
  {
    "service_request": "2021-834337",
    "request_type": "Trash/Recycling",
    "request_reason": "Illegal Dumping",
    "date_created": "2021-10-18T14:19:24.000",
    "date_modified": "2021-10-18T14:19:24.000",
    "request_status": "Pending",
    "responsible_agency": "Department of Sanitation",
    "final_address": "2801 Mansfield Ave",
    "address_councildis": "C",
    "status": "Pending",
    "rowid": "834337",
    "final_x": "3709157.69214",
    "final_y": "519650.444088",
    "longitude": "-89.98118037818743",
    "latitude": "29.921989902861856",
    "geocoded_column": {
      "latitude": "29.921989902861856",
      "longitude": "-89.98118037818743"
    }
  },
  {
    "service_request": "2021-834335",
    "request_type": "Trash/Recycling",
    "request_reason": "Replace Trash Cart",
    "date_created": "2021-10-18T14:17:34.000",
    "date_modified": "2021-10-18T14:17:35.000",
    "request_status": "Pending",
    "responsible_agency": "Department of Sanitation",
    "final_address": "2640 New York St",
    "address_councildis": "D",
    "status": "Assigned to Contractor",
    "contractor": "Metro Disposal",
    "rowid": "834335",
    "final_x": "3686703.53058",
    "final_y": "556737.653402",
    "longitude": "-90.05074817433199",
    "latitude": "30.024676200359977",
    "geocoded_column": {
      "latitude": "30.024676200359977",
      "longitude": "-90.05074817433199"
    }
  },
  {
    "service_request": "2021-834334",
    "request_type": "Trash/Recycling",
    "request_reason": "Missed Trash Pick-Up",
    "date_created": "2021-10-18T14:16:48.000",
    "date_modified": "2021-10-18T14:16:49.000",
    "request_status": "Pending",
    "responsible_agency": "Department of Sanitation",
    "final_address": "528 Wilkinson St",
    "address_councildis": "C",
    "status": "Assigned to Contractor",
    "contractor": "Empire Services",
    "rowid": "834334",
    "final_x": "3682801.43663",
    "final_y": "531954.523011",
    "longitude": "-90.06394565774768",
    "latitude": "29.956650894275267",
    "geocoded_column": {
      "latitude": "29.956650894275267",
      "longitude": "-90.06394565774768"
    }
  },
  {
    "service_request": "2021-834333",
    "request_type": "Traffic Signals/Signs/Striping/Streetlights",
    "request_reason": "Street Light Outage/Malfunction",
    "date_created": "2021-10-18T14:15:31.000",
    "date_modified": "2021-10-18T14:15:32.000",
    "request_status": "Pending",
    "responsible_agency": "Department of Public Works",
    "final_address": "1410 Socrates St",
    "address_councildis": "C",
    "status": "Pending",
    "contractor": "Royal Engineering",
    "rowid": "834333",
    "final_x": "3689821.40451",
    "final_y": "526404.359806",
    "longitude": "-90.04197645475476",
    "latitude": "29.941174147586242",
    "geocoded_column": {
      "latitude": "29.941174147586242",
      "longitude": "-90.04197645475476"
    }
  },
  {
    "service_request": "2021-834332",
    "request_type": "Parks & Parkways",
    "request_reason": "Request Grass Cutting Service (City Owned Property)",
    "date_created": "2021-10-18T14:06:46.000",
    "date_modified": "2021-10-18T14:06:46.000",
    "request_status": "Pending",
    "responsible_agency": "Department of Parks & Parkway",
    "final_address": "1341 Nunez St",
    "address_councildis": "C",
    "status": "Pending",
    "rowid": "834332",
    "final_x": "3686999.53807",
    "final_y": "526444.419966",
    "longitude": "-90.0508841775146",
    "latitude": "29.941371443525192",
    "geocoded_column": {
      "latitude": "29.941371443525192",
      "longitude": "-90.0508841775146"
    }
  },