[
  {
    "service_request": "2024-1115623",
    "request_type": "Roads/Drainage",
    "request_reason": "Road Shoulder Repair",
    "date_created": "2024-07-24T23:54:03.000",
    "date_modified": "2024-07-24T23:54:03.000",
    "request_status": "Pending",
    "responsible_agency": "Department of Public Works",
    "final_address": "1300 BLK General Taylor St",
    "address_councildis": "B",
    "status": "Pending",
    "rowid": "1115623",
    "final_x": "3672786.50282",
    "final_y": "520381.696557",
    "longitude": "-90.09596426398673",
    "latitude": "29.925130668170585",
    "geocoded_column": {
      "latitude": "29.925130668170585",
      "longitude": "-90.09596426398673"
    }
  },
  {
    "service_request": "2024-1115622",
    "request_type": "Trash/Recycling",
    "request_reason": "Order Recycling Cart",
    "date_created": "2024-07-24T23:21:20.000",
    "date_modified": "2024-07-24T23:21:20.000",
    "request_status": "Pending",
    "responsible_agency": "Department of Sanitation",
    "final_address": "3703 Clermont Dr",
    "address_councildis": "D",
    "status": "Pending",
    "rowid": "1115622",
    "final_x": "3685657.65961",
    "final_y": "546279.702288",
    "longitude": "-90.05442177300468",
    "latitude": "29.99595279888782",
    "geocoded_column": {
      "latitude": "29.99595279888782",
      "longitude": "-90.05442177300468"
    }
  },
  {
    "service_request": "2024-1115621",
    "request_type": "Trash/Recycling",
    "request_reason": "MIssed Recycling Pick-Up",
    "date_created": "2024-07-24T23:18:09.000",
    "date_modified": "2024-07-24T23:18:10.000",
    "request_status": "Pending",
    "responsible_agency": "Department of Sanitation",
    "final_address": "3703 Clermont Dr",
    "address_councildis": "D",
    "status": "Assigned to Contractor",
    "contractor": "IV Waste",
    "rowid": "1115621",
    "final_x": "3685657.65961",
    "final_y": "546279.702288",
    "longitude": "-90.05442177300468",
    "latitude": "29.99595279888782",
    "geocoded_column": {
      "latitude": "29.99595279888782",
      "longitude": "-90.05442177300468"
    }
  },
  {
    "service_request": "2024-1115620",
    "request_type": "Roads/Drainage",
    "request_reason": "Catch Basin - Clogged",
    "date_created": "2024-07-24T23:05:45.000",
    "date_modified": "2024-07-24T23:05:45.000",
    "request_status": "Pending",
    "responsible_agency": "Department of Public Works",
    "final_address": "3124 Pittari Pl",
    "address_councildis": "C",
    "status": "Pending",
    "rowid": "1115620",
    "final_x": "3709795.08216",
    "final_y": "519183.537207",
    "longitude": "-89.97918584242291",
    "latitude": "29.92068537569112",
    "geocoded_column": {
      "latitude": "29.92068537569112",
      "longitude": "-89.97918584242291"
    }
  },
  {
    "service_request": "2024-1115619",
    "request_type": "Healthy Homes",
    "request_reason": "Healthy Homes",
    "date_created": "2024-07-24T22:56:46.000",
    "date_modified": "2024-07-24T22:56:46.000",
    "request_status": "Pending",
    "responsible_agency": "Department of Code Enforcement",
    "final_address": "2011 Iberville St",
    "address_councildis": "B",
    "status": "Pending",
    "rowid": "1115619",
    "final_x": "3677744.83253",
    "final_y": "533939.329925",
    "longitude": "-90.0798442226131",
    "latitude": "29.96226150574373",
    "geocoded_column": {
      "latitude": "29.96226150574373",
      "longitude": "-90.0798442226131"
    }
  },
  {
    "service_request": "2024-1115618",
    "request_type": "Traffic Signals/Signs/Striping/Streetlights",
    "request_reason": "Street Light Outage/Malfunction",
    "date_created": "2024-07-24T22:46:56.000",
    "date_modified": "2024-07-24T22:46:57.000",
    "request_status": "Pending",
    "responsible_agency": "Department of Public Works",
    "final_address": "DAUPHINE ST & GALLIER ST",
    "address_councildis": "C",
    "status": "Assigned to Contractor",
    "contractor": "Legacy Professional Services",
    "rowid": "1115618",
    "final_x": "3690181.4",
    "final_y": "534494.78",
    "longitude": "-90.0405517002611",
    "latitude": "29.9634088495161",
    "geocoded_column": {
      "latitude": "29.9634088495161",
      "longitude": "-90.0405517002611"
    }
  },
  {
    "service_request": "2024-1115616",
    "request_type": "Trash/Recycling",
    "request_reason": "Illegal Dumping",
    "date_created": "2024-07-24T22:36:12.000",
    "date_modified": "2024-07-24T22:36:12.000",
    "request_status": "Pending",
    "responsible_agency": "Department of Sanitation",
    "final_address": "1800 France St",
    "address_councildis": "D",
    "status": "Pending",
    "rowid": "1115616",
    "final_x": "3693015.39952",
    "final_y": "537825.571081",
    "longitude": "-90.03148277525877",
    "latitude": "29.972479124360298",
    "geocoded_column": {
      "latitude": "29.972479124360298",
      "longitude": "-90.03148277525877"
    }
  },
  {
    "service_request": "2024-1115615",
    "request_type": "Trash/Recycling",
    "request_reason": "Request a Large Item Pick Up",
    "date_created": "2024-07-24T22:22:22.000",
    "date_modified": "2024-07-24T22:22:23.000",
    "request_status": "Pending",
    "responsible_agency": "Department of Sanitation",
    "final_address": "814 Deslonde St",
    "address_councildis": "E",
    "status": "Assigned to Contractor",
    "contractor": "Waste Pro",
    "rowid": "1115615",
    "final_x": "3695073.63894",
    "final_y": "533426.15962",
    "longitude": "-90.02514114908858",
    "latitude": "29.960317843522873",
    "geocoded_column": {
      "latitude": "29.960317843522873",
      "longitude": "-90.02514114908858"
    }
  },
  {
    "service_request": "2024-1115614",
    "request_type": "Roads/Drainage",
    "request_reason": "Street Subsidence (Sinking)",
    "date_created": "2024-07-24T22:12:04.000",
    "date_modified": "2024-07-24T22:12:04.000",
    "request_status": "Pending",
    "responsible_agency": "Department of Public Works",
    "final_address": "2557 Wisteria St",
    "address_councildis": "D",
    "status": "Pending",
    "rowid": "1115614",
    "final_x": "3686703.43881",
    "final_y": "548402.85845",
    "longitude": "-90.05104319172234",
    "latitude": "30.00175857602501",
    "geocoded_column": {
      "latitude": "30.00175857602501",
      "longitude": "-90.05104319172234"
    }
  },
  {
    "service_request": "2024-1115613",
    "request_type": "Traffic Signals/Signs/Striping/Streetlights",
    "request_reason": "Traffic Signal Malfunctioning/Damaged",
    "date_created": "2024-07-24T22:06:25.000",
    "date_modified": "2024-07-24T22:06:25.000",
    "request_status": "Pending",
    "responsible_agency": "Department of Public Works",
    "final_address": "100 BLK S Rampart St",
    "address_councildis": "B",
    "status": "Pending",
    "rowid": "1115613",
    "final_x": "3679703.98931",
    "final_y": "531110.15115",
    "longitude": "-90.07375570185557",
    "latitude": "29.95442314571635",
    "geocoded_column": {
      "latitude": "29.95442314571635",
      "longitude": "-90.07375570185557"
    }
  },
  {
    "service_request": "2024-1115612",
    "request_type": "Traffic Signals/Signs/Striping/Streetlights",
    "request_reason": "Traffic Signal Malfunctioning/Damaged",
    "date_created": "2024-07-24T22:03:44.000",
    "date_modified": "2024-07-24T22:03:44.000",
    "request_status": "Pending",
    "responsible_agency": "Department of Public Works",
    "final_address": "1400 BLK Saint Charles Ave",
    "address_councildis": "B",
    "status": "Pending",
    "rowid": "1115612",
    "final_x": "3679272.51707",
    "final_y": "525683.575717",
    "longitude": "-90.07530624751374",
    "latitude": "29.93951491034469",
    "geocoded_column": {
      "latitude": "29.93951491034469",
      "longitude": "-90.07530624751374"
    }
  },
  {
    "service_request": "2024-1115611",
    "request_type": "Traffic Signals/Signs/Striping/Streetlights",
    "request_reason": "Street Light Outage/Malfunction",
    "date_created": "2024-07-24T22:00:48.000",
    "date_modified": "2024-07-24T22:00:48.000",
    "request_status": "Pending",
    "responsible_agency": "Department of Public Works",
    "final_address": "800 BLK Saint Charles Ave",
    "address_councildis": "B",
    "status": "Assigned to Contractor",
    "contractor": "Legacy Professional Services",
    "rowid": "1115611",
    "final_x": "3680326.29843",
    "final_y": "527746.784517",
    "longitude": "-90.07190761034668",
    "latitude": "29.945156192752265",
    "geocoded_column": {
      "latitude": "29.945156192752265",
      "longitude": "-90.07190761034668"
    }
  },
  {
    "service_request": "2024-1115610",
    "request_type": "Traffic Signals/Signs/Striping/Streetlights",
    "request_reason": "Street Light Outage/Malfunction",
    "date_created": "2024-07-24T21:54:53.000",
    "date_modified": "2024-07-24T21:54:53.000",
    "request_status": "Pending",
    "responsible_agency": "Department of Public Works",
    "final_address": "901 Canal St",
    "address_councildis": "C",
    "status": "Assigned to Contractor",
    "contractor": "Legacy Professional Services",
    "rowid": "1115610",
    "final_x": "3680631.88226",
    "final_y": "531206.714434",
    "longitude": "-90.07082242326072",
    "latitude": "29.954660583026204",
    "geocoded_column": {
      "latitude": "29.954660583026204",
      "longitude": "-90.07082242326072"
    }
  },
  {
    "service_request": "2024-1115609",
    "request_type": "Property Maintenance",
    "request_reason": "Property Maintenance",
    "date_created": "2024-07-24T21:33:55.000",
    "date_modified": "2024-07-24T21:33:55.000",
    "request_status": "Pending",
    "responsible_agency": "Department of Code Enforcement",
    "final_address": "4901 St Claude Ave",
    "address_councildis": "E",
    "status": "Pending",
    "rowid": "1115609",
    "final_x": "3695450.80278",
    "final_y": "534510.073349",
    "longitude": "-90.02391103584407",
    "latitude": "29.963286377728334",
    "geocoded_column": {
      "latitude": "29.963286377728334",
      "longitude": "-90.02391103584407"
    }
  },
  {
    "service_request": "2024-1115608",
    "request_type": "Trash/Recycling",
    "request_reason": "Missed Trash Pick-Up",
    "date_created": "2024-07-24T21:32:53.000",
    "date_modified": "2024-07-24T21:32:54.000",
    "request_status": "Pending",
    "responsible_agency": "Department of Sanitation",
    "final_address": "7900 BLK Lucerne St",
    "address_councildis": "E",
    "status": "Assigned to Contractor",
    "contractor": "Waste Pro",
    "rowid": "1115608",
    "final_x": "3710130.7316",
    "final_y": "566915.546075",
    "longitude": "-89.97634204419633",
    "latitude": "30.05191950724442",
    "geocoded_column": {
      "latitude": "30.05191950724442",
      "longitude": "-89.97634204419633"
    }
  },
  {
    "service_request": "2024-1115607",
    "request_type": "Property Maintenance",
    "request_reason": "Property Maintenance",
    "date_created": "2024-07-24T21:30:02.000",
    "date_modified": "2024-07-24T21:30:02.000",
    "request_status": "Pending",
    "responsible_agency": "Department of Code Enforcement",
    "final_address": "1115 Tennessee St",
    "address_councildis": "E",
    "status": "Pending",
    "rowid": "1115607",
    "final_x": "3695794.04534",
    "final_y": "534547.032837",
    "longitude": "-90.02282578551339",
    "latitude": "29.96337721339479",
    "geocoded_column": {
      "latitude": "29.96337721339479",
      "longitude": "-90.02282578551339"
    }
  },
  {
    "service_request": "2024-1115606",
    "request_type": "Roads/Drainage",
    "request_reason": "Pothole",
    "date_created": "2024-07-24T21:21:38.000",
    "date_modified": "2024-07-24T21:21:38.000",
    "request_status": "Pending",
    "responsible_agency": "Department of Public Works",
    "final_address": "5600 Catina St",
    "address_councildis": "A",
    "status": "Pending",
    "rowid": "1115606",
    "final_x": "3666566.80673",
    "final_y": "544765.645583",
    "longitude": "-90.11477935333389",
    "latitude": "29.992361741051177",
    "geocoded_column": {
      "latitude": "29.992361741051177",
      "longitude": "-90.11477935333389"
    }
  },
  {
    "service_request": "2024-1115605",
    "request_type": "Traffic Signals/Signs/Striping/Streetlights",
    "request_reason": "Street Light Outage/Malfunction",
    "date_created": "2024-07-24T21:17:42.000",
    "date_modified": "2024-07-24T21:17:43.000",
    "request_status": "Pending",
    "responsible_agency": "Department of Public Works",
    "final_address": "1104 Tennessee St",
    "address_councildis": "E",
    "status": "Assigned to Contractor",
    "contractor": "Legacy Professional Services",
    "rowid": "1115605",
    "final_x": "3695666.2671",
    "final_y": "534464.975621",
    "longitude": "-90.02323225573932",
    "latitude": "29.96315560286811",
    "geocoded_column": {
      "latitude": "29.96315560286811",
      "longitude": "-90.02323225573932"
    }
  },
  {
    "service_request": "2024-1115604",
    "request_type": "Trash/Recycling",
    "request_reason": "Illegal Dumping",
    "date_created": "2024-07-24T21:12:45.000",
    "date_modified": "2024-07-24T21:12:45.000",
    "request_status": "Pending",
    "responsible_agency": "Department of Sanitation",
    "final_address": "9100 BLK Grant St",
    "address_councildis": "E",
    "status": "Pending",
    "rowid": "1115604",
    "final_x": "3709094.18512",
    "final_y": "554749.66391",
    "longitude": "-89.98007235162724",
    "latitude": "30.0185018646656",
    "geocoded_column": {
      "latitude": "30.0185018646656",
      "longitude": "-89.98007235162724"
    }
  },
  {
    "service_request": "2024-1115603",
    "request_type": "Trash/Recycling",
    "request_reason": "Order Recycling Cart",
    "date_created": "2024-07-24T21:11:50.000",
    "date_modified": "2024-07-24T21:11:50.000",
    "request_status": "Pending",
    "responsible_agency": "Department of Sanitation",
    "final_address": "302 Audubon Blvd",
    "address_councildis": "A",
    "status": "Pending",
    "rowid": "1115603",
    "final_x": "3666961.39367",
    "final_y": "529750.902913",
    "longitude": "-90.11403761678373",
    "latitude": "29.951064662186845",
    "geocoded_column": {
      "latitude": "29.951064662186845",
      "longitude": "-90.11403761678373"
    }
  },
  {
    "service_request": "2024-1115602",
    "request_type": "Traffic Signals/Signs/Striping/Streetlights",
    "request_reason": "Street Light Outage/Malfunction",
    "date_created": "2024-07-24T20:54:41.000",
    "date_modified": "2024-07-24T20:54:42.000",
    "request_status": "Pending",
    "responsible_agency": "Department of Public Works",
    "final_address": "2501 Bristol Pl",
    "address_councildis": "C",
    "status": "Assigned to Contractor",
    "contractor": "Legacy Professional Services",
    "rowid": "1115602",
    "final_x": "3702580.02077",
    "final_y": "521882.934714",
    "longitude": "-90.00186128692565",
    "latitude": "29.92834027033881",
    "geocoded_column": {
      "latitude": "29.92834027033881",
      "longitude": "-90.00186128692565"
    }
  },
  {
    "service_request": "2024-1115601",
    "request_type": "Abandoned Vehicles",
    "request_reason": "Abandoned/Junk Vehicles",
    "date_created": "2024-07-24T20:38:38.000",
    "date_modified": "2024-07-24T20:38:38.000",
    "request_status": "Pending",
    "responsible_agency": "Department of Public Works",
    "final_address": "2318 General Pershing St",
    "address_councildis": "B",
    "status": "Pending",
    "rowid": "1115601",
    "final_x": "3670944.97697",
    "final_y": "523512.345403",
    "longitude": "-90.10167115859869",
    "latitude": "29.933793500831392",
    "geocoded_column": {
      "latitude": "29.933793500831392",
      "longitude": "-90.10167115859869"
    }
  },
  {
    "service_request": "2024-1115600",
    "request_type": "Trash/Recycling",
    "request_reason": "Replace Trash Cart",
    "date_created": "2024-07-24T20:27:03.000",
    "date_modified": "2024-07-24T20:27:04.000",
    "request_status": "Pending",
    "responsible_agency": "Department of Sanitation",
    "final_address": "316 State St",
    "address_councildis": "A",
    "status": "Assigned to Contractor",
    "contractor": "IV Waste",
    "rowid": "1115600",
    "final_x": "3664152.66765",
    "final_y": "517674.32607",
    "longitude": "-90.12330888623764",
    "latitude": "29.917939787818536",
    "geocoded_column": {
      "latitude": "29.917939787818536",
      "longitude": "-90.12330888623764"
    }
  },
  {
    "service_request": "2024-1115598",
    "request_type": "Trash/Recycling",
    "request_reason": "Replace Trash Cart",
    "date_created": "2024-07-24T20:09:27.000",
    "date_modified": "2024-07-24T20:09:28.000",
    "request_status": "Pending",
    "responsible_agency": "Department of Sanitation",
    "final_address": "512 Dauphine St",
    "address_councildis": "C",
    "status": "Assigned to Contractor",
    "contractor": "Empire Services",
    "rowid": "1115598",
    "final_x": "3681621.75612",
    "final_y": "532383.684483",
    "longitude": "-90.06765573557347",
    "latitude": "29.957866824418414",
    "geocoded_column": {
      "latitude": "29.957866824418414",
      "longitude": "-90.06765573557347"
    }
  },
  {
    "service_request": "2024-1115597",
    "request_type": "Trash/Recycling",
    "request_reason": "Missed Trash Pick-Up",
    "date_created": "2024-07-24T19:54:12.000",
    "date_modified": "2024-07-24T19:54:13.000",
    "request_status": "Pending",
    "responsible_agency": "Department of Sanitation",
    "final_address": "1900 BLK Dublin St",
    "address_councildis": "A",
    "status": "Assigned to Contractor",
    "contractor": "IV Waste",
    "rowid": "1115597",
    "final_x": "3663474.81015",
    "final_y": "530558.450482",
    "longitude": "-90.12501966600193",
    "latitude": "29.95338671182171",
    "geocoded_column": {
      "latitude": "29.95338671182171",
      "longitude": "-90.12501966600193"
    }
  },
  {
    "service_request": "2024-1115596",
    "request_type": "Roads/Drainage",
    "request_reason": "Catch Basin - Clogged",
    "date_created": "2024-07-24T19:50:11.000",
    "date_modified": "2024-07-24T19:50:11.000",
    "request_status": "Pending",
    "responsible_agency": "Department of Public Works",
    "final_address": "2116 Bienville Ave",
    "address_councildis": "B",
    "status": "Pending",
    "rowid": "1115596",
    "final_x": "3677570.17691",
    "final_y": "534325.076933",
    "longitude": "-90.0803824398211",
    "latitude": "29.963327431847656",
    "geocoded_column": {
      "latitude": "29.963327431847656",
      "longitude": "-90.0803824398211"
    }
  },
  {
    "service_request": "2024-1115595",
    "request_type": "Trash/Recycling",
    "request_reason": "Order Trash Cart",
    "date_created": "2024-07-24T19:23:31.000",
    "date_modified": "2024-07-24T19:23:32.000",
    "request_status": "Pending",
    "responsible_agency": "Department of Sanitation",
    "final_address": "4854 Annunciation St",
    "address_councildis": "B",
    "status": "Assigned to Contractor",
    "contractor": "IV Waste",
    "rowid": "1115595",
    "final_x": "3669216.85498",
    "final_y": "517515.575926",
    "longitude": "-90.10732933551382",
    "latitude": "29.91735525470524",
    "geocoded_column": {
      "latitude": "29.91735525470524",
      "longitude": "-90.10732933551382"
    }
  },
  {
    "service_request": "2024-1115594",
    "request_type": "Trash/Recycling",
    "request_reason": "Replace Trash Cart",
    "date_created": "2024-07-24T19:19:48.000",
    "date_modified": "2024-07-24T19:19:49.000",
    "request_status": "Pending",
    "responsible_agency": "Department of Sanitation",
    "final_address": "342 Pacific Ave",
    "address_councildis": "C",
    "status": "Assigned to Contractor",
    "contractor": "Richards Disposal",
    "rowid": "1115594",
    "final_x": "3688570.04675",
    "final_y": "530377.650306",
    "longitude": "-90.0457862557931",
    "latitude": "29.95213805727556",
    "geocoded_column": {
      "latitude": "29.95213805727556",
      "longitude": "-90.0457862557931"
    }
  },
  {
    "service_request": "2024-1115593",
    "request_type": "Trash/Recycling",
    "request_reason": "Replace Trash Cart",
    "date_created": "2024-07-24T19:18:14.000",
    "date_modified": "2024-07-24T19:18:15.000",
    "request_status": "Pending",
    "responsible_agency": "Department of Sanitation",
    "final_address": "344 Pacific Ave",
    "address_councildis": "C",
    "status": "Assigned to Contractor",
    "contractor": "Richards Disposal",
    "rowid": "1115593",
    "final_x": "3688568.42435",
    "final_y": "530354.728386",
    "longitude": "-90.04579219183249",
    "latitude": "29.95207508000246",
    "geocoded_column": {
      "latitude": "29.95207508000246",
      "longitude": "-90.04579219183249"
    }
  },
  {
    "service_request": "2024-1115592",
    "request_type": "Roads/Drainage",
    "request_reason": "Pothole",
    "date_created": "2024-07-24T19:16:11.000",
    "date_modified": "2024-07-24T19:16:11.000",
    "request_status": "Pending",
    "responsible_agency": "Department of Public Works",
    "final_address": "1312 Milan St",
    "address_councildis": "B",
    "status": "Pending",
    "rowid": "1115592",
    "final_x": "3671625.82823",
    "final_y": "520286.919608",
    "longitude": "-90.09963137110304",
    "latitude": "29.92490447494246",
    "geocoded_column": {
      "latitude": "29.92490447494246",
      "longitude": "-90.09963137110304"
    }
  },
  {
    "service_request": "2024-1115591",
    "request_type": "Roads/Drainage",
    "request_reason": "Pothole",
    "date_created": "2024-07-24T19:15:38.000",
    "date_modified": "2024-07-24T19:15:38.000",
    "request_status": "Pending",
    "responsible_agency": "Department of Public Works",
    "final_address": "1112 Constantinople St",
    "address_councildis": "B",
    "status": "Pending",
    "rowid": "1115591",
    "final_x": "3672348.95259",
    "final_y": "519796.384952",
    "longitude": "-90.09736540233975",
    "latitude": "29.923534233550217",
    "geocoded_column": {
      "latitude": "29.923534233550217",
      "longitude": "-90.09736540233975"
    }
  },
  {
    "service_request": "2024-1115590",
    "request_type": "Roads/Drainage",
    "request_reason": "Catch Basin - Clogged",
    "date_created": "2024-07-24T19:15:04.000",
    "date_modified": "2024-07-24T19:15:04.000",
    "request_status": "Pending",
    "responsible_agency": "Department of Public Works",
    "final_address": "6060 Cartier Ave",
    "address_councildis": "D",
    "status": "Pending",
    "rowid": "1115590",
    "final_x": "3677461.75611",
    "final_y": "554713.32508",
    "longitude": "-90.08002059484349",
    "latitude": "30.019391235486463",
    "geocoded_column": {
      "latitude": "30.019391235486463",
      "longitude": "-90.08002059484349"
    }
  },
  {
    "service_request": "2024-1115589",
    "request_type": "Trash/Recycling",
    "request_reason": "Request a Large Item Pick Up",
    "date_created": "2024-07-24T19:13:09.000",
    "date_modified": "2024-07-24T19:13:10.000",
    "request_status": "Pending",
    "responsible_agency": "Department of Sanitation",
    "final_address": "1921 General Taylor St Apt 2",
    "address_councildis": "B",
    "status": "Assigned to Contractor",
    "contractor": "IV Waste",
    "rowid": "1115589",
    "final_x": "3672409.43873",
    "final_y": "522287.54009",
    "longitude": "-90.0970896288977",
    "latitude": "29.930382316457155",
    "geocoded_column": {
      "latitude": "29.930382316457155",
      "longitude": "-90.0970896288977"
    }
  },
  {
    "service_request": "2024-1115588",
    "request_type": "Roads/Drainage",
    "request_reason": "Pothole",
    "date_created": "2024-07-24T18:46:54.000",
    "date_modified": "2024-07-24T18:46:54.000",
    "request_status": "Pending",
    "responsible_agency": "Department of Public Works",
    "final_address": "1567 Mandolin St",
    "address_councildis": "D",
    "status": "Pending",
    "rowid": "1115588",
    "final_x": "3679264.93941",
    "final_y": "548157.444178",
    "longitude": "-90.0745507046921",
    "latitude": "30.00131056523442",
    "geocoded_column": {
      "latitude": "30.00131056523442",
      "longitude": "-90.0745507046921"
    }
  },
  {
    "service_request": "2024-1115587",
    "request_type": "Trash/Recycling",
    "request_reason": "Missed Trash Pick-Up",
    "date_created": "2024-07-24T18:46:34.000",
    "date_modified": "2024-07-24T18:46:35.000",
    "request_status": "Pending",
    "responsible_agency": "Department of Sanitation",
    "final_address": "8123 Burthe St",
    "address_councildis": "A",
    "status": "Assigned to Contractor",
    "contractor": "IV Waste",
    "rowid": "1115587",
    "final_x": "3661151.85965",
    "final_y": "527752.619071",
    "longitude": "-90.13244744385328",
    "latitude": "29.94573872547685",
    "geocoded_column": {
      "latitude": "29.94573872547685",
      "longitude": "-90.13244744385328"
    }
  },
  {
    "service_request": "2024-1115586",
    "request_type": "Trash/Recycling",
    "request_reason": "Request a Large Item Pick Up",
    "date_created": "2024-07-24T18:27:28.000",
    "date_modified": "2024-07-24T18:27:29.000",
    "request_status": "Pending",
    "responsible_agency": "Department of Sanitation",
    "final_address": "4911 Magnolia St, New Orleans, Louisiana, 70115",
    "address_councildis": "B",
    "status": "Assigned to Contractor",
    "contractor": "IV Waste",
    "rowid": "1115586",
    "final_x": "3669089.46644",
    "final_y": "524648.525436",
    "longitude": "-90.10749056344149",
    "latitude": "29.936972342251075",
    "geocoded_column": {
      "latitude": "29.936972342251075",
      "longitude": "-90.10749056344149"
    }
  },
  {
    "service_request": "2024-1115585",
    "request_type": "Parks & Parkways",
    "request_reason": "Request Tree Service (Right of Way/Public Property)",
    "date_created": "2024-07-24T18:23:29.000",
    "date_modified": "2024-07-24T18:23:29.000",
    "request_status": "Pending",
    "responsible_agency": "Department of Parks & Parkway",
    "final_address": "6800 BLK Franklin Ave",
    "address_councildis": "D",
    "status": "Pending",
    "rowid": "1115585",
    "final_x": "3686147.96198",
    "final_y": "558198.480503",
    "longitude": "-90.05245207345709",
    "latitude": "30.028710018286006",
    "geocoded_column": {
      "latitude": "30.028710018286006",
      "longitude": "-90.05245207345709"
    }
  },
  {
    "service_request": "2024-1115584",
    "request_type": "Trash/Recycling",
    "request_reason": "Illegal Dumping",
    "date_created": "2024-07-24T18:13:15.000",
    "date_modified": "2024-07-24T18:13:15.000",
    "request_status": "Pending",
    "responsible_agency": "Department of Sanitation",
    "final_address": "603 Washington Ave",
    "address_councildis": "B",
    "status": "Pending",
    "rowid": "1115584",
    "final_x": "3678078.81934",
    "final_y": "519358.178039",
    "longitude": "-90.07929347167631",
    "latitude": "29.922158117839224",
    "geocoded_column": {
      "latitude": "29.922158117839224",
      "longitude": "-90.07929347167631"
    }
  },
  {
    "service_request": "2024-1115583",
    "request_type": "Abandoned Vehicles",
    "request_reason": "Abandoned/Junk Vehicles",
    "date_created": "2024-07-24T18:03:25.000",
    "date_modified": "2024-07-24T18:03:25.000",
    "request_status": "Pending",
    "responsible_agency": "Department of Public Works",
    "final_address": "2221 Urquhart St",
    "address_councildis": "C",
    "status": "Pending",
    "rowid": "1115583",
    "final_x": "3685212.07445",
    "final_y": "537096.582408",
    "longitude": "-90.05615267668087",
    "latitude": "29.970716130274933",
    "geocoded_column": {
      "latitude": "29.970716130274933",
      "longitude": "-90.05615267668087"
    }
  },
  {
    "service_request": "2024-1115582",
    "request_type": "Abandoned Vehicles",
    "request_reason": "Abandoned/Junk Vehicles",
    "date_created": "2024-07-24T17:56:33.000",
    "date_modified": "2024-07-24T17:56:33.000",
    "request_status": "Pending",
    "responsible_agency": "Department of Public Works",
    "final_address": "6911 Virgilian St",
    "address_councildis": "D",
    "status": "Pending",
    "rowid": "1115582",
    "final_x": "3697028.49232",
    "final_y": "556529.64937",
    "longitude": "-90.01813077023697",
    "latitude": "30.023782447992826",
    "geocoded_column": {
      "latitude": "30.023782447992826",
      "longitude": "-90.01813077023697"
    }
  },
  {
    "service_request": "2024-1115581",
    "request_type": "Traffic Signals/Signs/Striping/Streetlights",
    "request_reason": "Request for Stop Sign",
    "date_created": "2024-07-24T17:47:44.000",
    "date_modified": "2024-07-24T17:47:44.000",
    "request_status": "Pending",
    "responsible_agency": "Department of Public Works",
    "final_address": "6900 BLK Virgilian St",
    "address_councildis": "D",
    "status": "Pending",
    "rowid": "1115581",
    "final_x": "3696833.25393",
    "final_y": "556838.56426",
    "longitude": "-90.01873648286707",
    "latitude": "30.024638006758483",
    "geocoded_column": {
      "latitude": "30.024638006758483",
      "longitude": "-90.01873648286707"
    }
  },
  {
    "service_request": "2024-1115580",
    "request_type": "Abandoned Vehicles",
    "request_reason": "Abandoned/Junk Vehicles",
    "date_created": "2024-07-24T17:39:27.000",
    "date_modified": "2024-07-24T17:39:27.000",
    "request_status": "Pending",
    "responsible_agency": "Department of Public Works",
    "final_address": "2006 Mandeville St",
    "address_councildis": "D",
    "status": "Pending",
    "rowid": "1115580",
    "final_x": "3685452.66242",
    "final_y": "539764.267466",
    "longitude": "-90.05529890374555",
    "latitude": "29.978043955237847",
    "geocoded_column": {
      "latitude": "29.978043955237847",
      "longitude": "-90.05529890374555"
    }
  },
  {
    "service_request": "2024-1115579",
    "request_type": "Utility Poles",
    "request_reason": "Utility Pole Leaning",
    "date_created": "2024-07-24T17:31:07.000",
    "date_modified": "2024-07-24T17:31:12.000",
    "request_status": "Pending",
    "responsible_agency": "Utility Company Collective",
    "final_address": "2429 Napoleon Ave",
    "address_councildis": "B",
    "status": "Pending",
    "rowid": "1115579",
    "final_x": "3670642.07444",
    "final_y": "523952.882172",
    "longitude": "-90.10261247242894",
    "latitude": "29.935013784163818",
    "geocoded_column": {
      "latitude": "29.935013784163818",
      "longitude": "-90.10261247242894"
    }
  },
  {
    "service_request": "2024-1115578",
    "request_type": "Roads/Drainage",
    "request_reason": "Damaged Sidewalk",
    "date_created": "2024-07-24T17:26:07.000",
    "date_modified": "2024-07-24T17:26:07.000",
    "request_status": "Pending",
    "responsible_agency": "Department of Public Works",
    "final_address": "5200 BLK Danneel St",
    "address_councildis": "B",
    "status": "Pending",
    "rowid": "1115578",
    "final_x": "3668060.05328",
    "final_y": "522163.577836",
    "longitude": "-90.11082418753892",
    "latitude": "29.93016977275902",
    "geocoded_column": {
      "latitude": "29.93016977275902",
      "longitude": "-90.11082418753892"
    }
  },
  {
    "service_request": "2024-1115577",
    "request_type": "Trash/Recycling",
    "request_reason": "MIssed Recycling Pick-Up",
    "date_created": "2024-07-24T17:00:40.000",
    "date_modified": "2024-07-24T17:00:41.000",
    "request_status": "Pending",
    "responsible_agency": "Department of Sanitation",
    "final_address": "5600 Holley Ln",
    "address_councildis": "E",
    "status": "Assigned to Contractor",
    "contractor": "Waste Pro",
    "rowid": "1115577",
    "final_x": "3703347.83114",
    "final_y": "556520.58025",
    "longitude": "-89.99816339470951",
    "latitude": "30.02355655653691",
    "geocoded_column": {
      "latitude": "30.02355655653691",
      "longitude": "-89.99816339470951"
    }
  },
  {
    "service_request": "2024-1115576",
    "request_type": "Roads/Drainage",
    "request_reason": "Catch Basin - Clogged",
    "date_created": "2024-07-24T16:59:12.000",
    "date_modified": "2024-07-24T16:59:12.000",
    "request_status": "Pending",
    "responsible_agency": "Department of Public Works",
    "final_address": "2601 Dumaine St",
    "address_councildis": "D",
    "status": "Pending",
    "rowid": "1115576",
    "final_x": "3677583.62939",
    "final_y": "537249.257672",
    "longitude": "-90.08023897251466",
    "latitude": "29.97136752894056",
    "geocoded_column": {
      "latitude": "29.97136752894056",
      "longitude": "-90.08023897251466"
    }
  },
  {
    "service_request": "2024-1115575",
    "request_type": "Parks & Parkways",
    "request_reason": "Request Tree Service (Right of Way/Public Property)",
    "date_created": "2024-07-24T16:55:04.000",
    "date_modified": "2024-07-24T16:55:04.000",
    "request_status": "Pending",
    "responsible_agency": "Department of Parks & Parkway",
    "final_address": "2300 BLK Lakeshore Dr",
    "address_councildis": "D",
    "status": "Pending",
    "rowid": "1115575",
    "final_x": "3687592.67399",
    "final_y": "560508.177",
    "longitude": "-90.0478049727211",
    "latitude": "30.035016330347627",
    "geocoded_column": {
      "latitude": "30.035016330347627",
      "longitude": "-90.0478049727211"
    }
  },
  {
    "service_request": "2024-1115574",
    "request_type": "Trash/Recycling",
    "request_reason": "Request a Large Item Pick Up",
    "date_created": "2024-07-24T16:52:52.000",
    "date_modified": "2024-07-24T16:52:53.000",
    "request_status": "Pending",
    "responsible_agency": "Department of Sanitation",
    "final_address": "4443 Wilson Ave",
    "address_councildis": "E",
    "status": "Assigned to Contractor",
    "contractor": "Waste Pro",
    "rowid": "1115574",
    "final_x": "3703234.64132",
    "final_y": "553145.246167",
    "longitude": "-89.99864527971475",
    "latitude": "30.01427930928578",
    "geocoded_column": {
      "latitude": "30.01427930928578",
      "longitude": "-89.99864527971475"
    }
  },
  {
    "service_request": "2024-1115573",
    "request_type": "Trash/Recycling",
    "request_reason": "Request a Large Item Pick Up",
    "date_created": "2024-07-24T16:51:07.000",
    "date_modified": "2024-07-24T16:51:08.000",
    "request_status": "Pending",
    "responsible_agency": "Department of Sanitation",
    "final_address": "4513 Wilson Ave",
    "address_councildis": "E",
    "status": "Assigned to Contractor",
    "contractor": "Waste Pro",
    "rowid": "1115573",
    "final_x": "3703226.81361",
    "final_y": "553690.523223",
    "longitude": "-89.99864994389557",
    "latitude": "30.01577886355179",
    "geocoded_column": {
      "latitude": "30.01577886355179",
      "longitude": "-89.99864994389557"
    }
  },
  {
    "service_request": "2024-1115572",
    "request_type": "Trash/Recycling",
    "request_reason": "Request a Large Item Pick Up",
    "date_created": "2024-07-24T16:50:33.000",
    "date_modified": "2024-07-24T16:50:34.000",
    "request_status": "Pending",
    "responsible_agency": "Department of Sanitation",
    "final_address": "2009 Broadway St",
    "address_councildis": "A",
    "status": "Assigned to Contractor",
    "contractor": "IV Waste",
    "rowid": "1115572",
    "final_x": "3665854.81408",
    "final_y": "528874.231424",
    "longitude": "-90.11756102573183",
    "latitude": "29.948686431176096",
    "geocoded_column": {
      "latitude": "29.948686431176096",
      "longitude": "-90.11756102573183"
    }
  },
  {
    "service_request": "2024-1115571",
    "request_type": "Traffic Signals/Signs/Striping/Streetlights",
    "request_reason": "Traffic Signal Malfunctioning/Damaged",
    "date_created": "2024-07-24T16:47:52.000",
    "date_modified": "2024-07-24T16:47:52.000",
    "request_status": "Pending",
    "responsible_agency": "Department of Public Works",
    "final_address": "600 BLK Saint Joseph St",
    "address_councildis": "B",
    "status": "Pending",
    "rowid": "1115571",
    "final_x": "3680453.41793",
    "final_y": "527417.291082",
    "longitude": "-90.07151771055634",
    "latitude": "29.944246347331102",
    "geocoded_column": {
      "latitude": "29.944246347331102",
      "longitude": "-90.07151771055634"
    }
  },
  {
    "service_request": "2024-1115570",
    "request_type": "Trash/Recycling",
    "request_reason": "Repair Trash Cart",
    "date_created": "2024-07-24T16:45:05.000",
    "date_modified": "2024-07-24T16:45:45.000",
    "request_status": "Pending",
    "responsible_agency": "Department of Sanitation",
    "final_address": "6030 Airway St",
    "address_councildis": "D",
    "status": "Assigned to Contractor",
    "contractor": "Waste Pro",
    "rowid": "1115570",
    "final_x": "3696669.66595",
    "final_y": "552819.29423",
    "longitude": "-90.01939902306046",
    "latitude": "30.013591693461684",
    "geocoded_column": {
      "latitude": "30.013591693461684",
      "longitude": "-90.01939902306046"
    }
  },
  {
    "service_request": "2024-1115569",
    "request_type": "Trash/Recycling",
    "request_reason": "Request a Large Item Pick Up",
    "date_created": "2024-07-24T16:43:38.000",
    "date_modified": "2024-07-24T16:43:38.000",
    "request_status": "Pending",
    "responsible_agency": "Department of Sanitation",
    "final_address": "1015 Deslonde St",
    "address_councildis": "E",
    "status": "Assigned to Contractor",
    "contractor": "Waste Pro",
    "rowid": "1115569",
    "final_x": "3695355.75824",
    "final_y": "534121.023749",
    "longitude": "-90.0242252104938",
    "latitude": "29.96221961507531",
    "geocoded_column": {
      "latitude": "29.96221961507531",
      "longitude": "-90.0242252104938"
    }
  },
  {
    "service_request": "2024-1115568",
    "request_type": "Trash/Recycling",
    "request_reason": "Illegal Dumping",
    "date_created": "2024-07-24T16:41:57.000",
    "date_modified": "2024-07-24T16:41:57.000",
    "request_status": "Pending",
    "responsible_agency": "Department of Sanitation",
    "final_address": "IBERVILLE ST & N TONTI ST",
    "address_councildis": "B",
    "status": "Pending",
    "rowid": "1115568",
    "final_x": "3676681.9",
    "final_y": "534643.28",
    "longitude": "-90.08317655740049",
    "latitude": "29.96422906049463",
    "geocoded_column": {
      "latitude": "29.96422906049463",
      "longitude": "-90.08317655740049"
    }
  },
  {
    "service_request": "2024-1115567",
    "request_type": "Trash/Recycling",
    "request_reason": "Repair Trash Cart",
    "date_created": "2024-07-24T16:38:15.000",
    "date_modified": "2024-07-24T16:38:16.000",
    "request_status": "Pending",
    "responsible_agency": "Department of Sanitation",
    "final_address": "7203 Hickory St",
    "address_councildis": "A",
    "status": "Assigned to Contractor",
    "contractor": "IV Waste",
    "rowid": "1115567",
    "final_x": "3665293.50247",
    "final_y": "528342.361152",
    "longitude": "-90.11935112418266",
    "latitude": "29.94724032393028",
    "geocoded_column": {
      "latitude": "29.94724032393028",
      "longitude": "-90.11935112418266"
    }
  },
  {
    "service_request": "2024-1115566",
    "request_type": "Trash/Recycling",
    "request_reason": "Missed Trash Pick-Up",
    "date_created": "2024-07-24T16:36:27.000",
    "date_modified": "2024-07-24T16:37:19.000",
    "request_status": "Pending",
    "responsible_agency": "Department of Sanitation",
    "final_address": "2025 S Gayoso St",
    "address_councildis": "B",
    "status": "Assigned to Contractor",
    "contractor": "IV Waste",
    "rowid": "1115566",
    "final_x": "3669816.03943",
    "final_y": "529314.476225",
    "longitude": "-90.1050388201114",
    "latitude": "29.949780797841292",
    "geocoded_column": {
      "latitude": "29.949780797841292",
      "longitude": "-90.1050388201114"
    }
  },
  {
    "service_request": "2024-1115565",
    "request_type": "Trash/Recycling",
    "request_reason": "Request a Large Item Pick Up",
    "date_created": "2024-07-24T16:31:59.000",
    "date_modified": "2024-07-24T16:38:06.000",
    "request_status": "Pending",
    "responsible_agency": "Department of Sanitation",
    "final_address": "2403 Iberville St, New Orleans, Louisiana, 70119 and Iberville, New Orleans, Louisiana",
    "address_councildis": "B",
    "status": "Assigned to Contractor",
    "contractor": "IV Waste",
    "rowid": "1115565",
    "final_x": "3676666.02856",
    "final_y": "534692.957062",
    "longitude": "-90.08322496660458",
    "latitude": "29.96436613173269",
    "geocoded_column": {
      "latitude": "29.96436613173269",
      "longitude": "-90.08322496660458"
    }
  },
  {
    "service_request": "2024-1115564",
    "request_type": "Trash/Recycling",
    "request_reason": "Illegal Dumping",
    "date_created": "2024-07-24T16:31:11.000",
    "date_modified": "2024-07-24T16:31:56.000",
    "request_status": "Pending",
    "responsible_agency": "Department of Sanitation",
    "final_address": "1246 General Collins Ave",
    "address_councildis": "C",
    "status": "Pending",
    "rowid": "1115564",
    "final_x": "3698668.40208",
    "final_y": "526526.88787",
    "longitude": "-90.014040544823",
    "latitude": "29.941233936209436",
    "geocoded_column": {
      "latitude": "29.941233936209436",
      "longitude": "-90.014040544823"
    }
  },
  {
    "service_request": "2024-1115563",
    "request_type": "Trash/Recycling",
    "request_reason": "Repair Recycling Cart",
    "date_created": "2024-07-24T16:31:08.000",
    "date_modified": "2024-07-24T16:31:09.000",
    "request_status": "Pending",
    "responsible_agency": "Department of Sanitation",
    "final_address": "5920 Magazine St",
    "address_councildis": "A",
    "status": "Pending",
    "rowid": "1115563",
    "final_x": "3665042.18861",
    "final_y": "519077.387511",
    "longitude": "-90.12045426610963",
    "latitude": "29.921771909345534",
    "geocoded_column": {
      "latitude": "29.921771909345534",
      "longitude": "-90.12045426610963"
    }
  },
  {
    "service_request": "2024-1115561",
    "request_type": "Traffic Signals/Signs/Striping/Streetlights",
    "request_reason": "Crosswalks and Signage",
    "date_created": "2024-07-24T16:24:47.000",
    "date_modified": "2024-07-24T16:24:48.000",
    "request_status": "Pending",
    "responsible_agency": "Department of Public Works",
    "final_address": "N GALVEZ ST & POLAND AVE",
    "address_councildis": "D",
    "status": "Pending",
    "rowid": "1115561",
    "final_x": "3693709.9",
    "final_y": "538826.48",
    "longitude": "-90.0292534535719",
    "latitude": "29.975209552278198",
    "geocoded_column": {
      "latitude": "29.975209552278198",
      "longitude": "-90.0292534535719"
    }
  },
  {
    "service_request": "2024-1115560",
    "request_type": "Roads/Drainage",
    "request_reason": "Pothole",
    "date_created": "2024-07-24T16:23:02.000",
    "date_modified": "2024-07-24T16:23:02.000",
    "request_status": "Pending",
    "responsible_agency": "Department of Public Works",
    "final_address": "1400 BLK Valence St",
    "address_councildis": "B",
    "status": "Pending",
    "rowid": "1115560",
    "final_x": "3669784.65285",
    "final_y": "520336.257015",
    "longitude": "-90.1054417057675",
    "latitude": "29.925094517046503",
    "geocoded_column": {
      "latitude": "29.925094517046503",
      "longitude": "-90.1054417057675"
    }
  },
  {
    "service_request": "2024-1115559",
    "request_type": "Traffic Signals/Signs/Striping/Streetlights",
    "request_reason": "Additional signage",
    "date_created": "2024-07-24T16:21:02.000",
    "date_modified": "2024-07-24T16:21:02.000",
    "request_status": "Pending",
    "responsible_agency": "Department of Public Works",
    "final_address": "0 BLK Harrison Ave",
    "address_councildis": "A",
    "status": "Pending",
    "rowid": "1115559",
    "final_x": "3673630.10087",
    "final_y": "548283.480977",
    "longitude": "-90.09234738560748",
    "latitude": "30.001826128532535",
    "geocoded_column": {
      "latitude": "30.001826128532535",
      "longitude": "-90.09234738560748"
    }
  },
  {
    "service_request": "2024-1115558",
    "request_type": "Trash/Recycling",
    "request_reason": "Return Trash Cart",
    "date_created": "2024-07-24T16:19:36.000",
    "date_modified": "2024-07-24T16:19:37.000",
    "request_status": "Pending",
    "responsible_agency": "Department of Sanitation",
    "final_address": "230 30Th St",
    "address_councildis": "A",
    "status": "Assigned to Contractor",
    "contractor": "IV Waste",
    "rowid": "1115558",
    "final_x": "3665556.26055",
    "final_y": "550460.978452",
    "longitude": "-90.11778063629998",
    "latitude": "30.00805145842339",
    "geocoded_column": {
      "latitude": "30.00805145842339",
      "longitude": "-90.11778063629998"
    }
  },
  {
    "service_request": "2024-1115557",
    "request_type": "Trash/Recycling",
    "request_reason": "Replace Trash Cart",
    "date_created": "2024-07-24T16:17:29.000",
    "date_modified": "2024-07-24T16:17:29.000",
    "request_status": "Pending",
    "responsible_agency": "Department of Sanitation",
    "final_address": "910 N Miro St",
    "address_councildis": "D",
    "status": "Assigned to Contractor",
    "contractor": "IV Waste",
    "rowid": "1115557",
    "final_x": "3678606.11733",
    "final_y": "536539.527751",
    "longitude": "-90.0770343846326",
    "latitude": "29.96938522854838",
    "geocoded_column": {
      "latitude": "29.96938522854838",
      "longitude": "-90.0770343846326"
    }
  },
  {
    "service_request": "2024-1115556",
    "request_type": "EMS",
    "request_reason": "EMS Complaint",
    "date_created": "2024-07-24T16:15:31.000",
    "date_modified": "2024-07-24T16:17:37.000",
    "request_status": "Pending",
    "responsible_agency": "Emergency Medical Services",
    "final_address": "2122 Tulane Ave",
    "address_councildis": "B",
    "status": "Pending",
    "rowid": "1115556",
    "final_x": "3676233.24763",
    "final_y": "532642.750788",
    "longitude": "-90.08466220984116",
    "latitude": "29.95874173125919",
    "geocoded_column": {
      "latitude": "29.95874173125919",
      "longitude": "-90.08466220984116"
    }
  },
  {
    "service_request": "2024-1115555",
    "request_type": "Trash/Recycling",
    "request_reason": "Request a Large Item Pick Up",
    "date_created": "2024-07-24T16:11:31.000",
    "date_modified": "2024-07-24T17:29:21.000",
    "case_close_date": "2024-07-24T12:29:21.000",
    "request_status": "Closed",
    "responsible_agency": "Department of Sanitation",
    "final_address": "4900 BLK Pentland Dr",
    "address_councildis": "E",
    "status": "Assigned to Contractor",
    "contractor": "Waste Pro",
    "contractor_action": "Completed",
    "rowid": "1115555",
    "final_x": "3718675.90087",
    "final_y": "558134.573151",
    "longitude": "-89.94966886121222",
    "latitude": "30.02749437932162",
    "geocoded_column": {
      "latitude": "30.02749437932162",
      "longitude": "-89.94966886121222"
    }
  },
  {
    "service_request": "2024-1115554",
    "request_type": "Traffic Signals/Signs/Striping/Streetlights",
    "request_reason": "Request for Traffic Calming due to Speeding",
    "date_created": "2024-07-24T16:11:14.000",
    "date_modified": "2024-07-24T16:11:14.000",
    "request_status": "Pending",
    "responsible_agency": "Department of Public Works",
    "final_address": "1239 Constance St",
    "address_councildis": "B",
    "status": "Pending",
    "rowid": "1115554",
    "final_x": "3680891.55976",
    "final_y": "525230.147517",
    "longitude": "-90.07021049543229",
    "latitude": "29.938219157181614",
    "geocoded_column": {
      "latitude": "29.938219157181614",
      "longitude": "-90.07021049543229"
    }
  },
  {
    "service_request": "2024-1115553",
    "request_type": "Trash/Recycling",
    "request_reason": "Order Recycling Cart",
    "date_created": "2024-07-24T16:06:01.000",
    "date_modified": "2024-07-24T16:06:02.000",
    "request_status": "Pending",
    "responsible_agency": "Department of Sanitation",
    "final_address": "2021 N Dorgenois St",
    "address_councildis": "D",
    "status": "Pending",
    "rowid": "1115553",
    "final_x": "3682551.64028",
    "final_y": "541343.9707",
    "longitude": "-90.06440609577632",
    "latitude": "29.98247623849365",
    "geocoded_column": {
      "latitude": "29.98247623849365",
      "longitude": "-90.06440609577632"
    }
  },
  {
    "service_request": "2024-1115552",
    "request_type": "Trash/Recycling",
    "request_reason": "Request a Large Item Pick Up",
    "date_created": "2024-07-24T16:02:54.000",
    "date_modified": "2024-07-24T16:02:55.000",
    "request_status": "Pending",
    "responsible_agency": "Department of Sanitation",
    "final_address": "3516 Napoleon Ave",
    "address_councildis": "B",
    "status": "Assigned to Contractor",
    "contractor": "IV Waste",
    "rowid": "1115552",
    "final_x": "3670017.62484",
    "final_y": "527699.786175",
    "longitude": "-90.10445699851118",
    "latitude": "29.945334984221443",
    "geocoded_column": {
      "latitude": "29.945334984221443",
      "longitude": "-90.10445699851118"
    }
  },
  {
    "service_request": "2024-1115551",
    "request_type": "Property Maintenance",
    "request_reason": "Property Maintenance",
    "date_created": "2024-07-24T16:01:15.000",
    "date_modified": "2024-07-24T16:01:16.000",
    "request_status": "Pending",
    "responsible_agency": "Department of Code Enforcement",
    "final_address": "4511 Lancelot Dr",
    "address_councildis": "E",
    "status": "Pending",
    "rowid": "1115551",
    "final_x": "3707668.62276",
    "final_y": "554013.021784",
    "longitude": "-89.98460396414802",
    "latitude": "30.01652260019599",
    "geocoded_column": {
      "latitude": "30.01652260019599",
      "longitude": "-89.98460396414802"
    }
  },
  {
    "service_request": "2024-1115550",
    "request_type": "Trash/Recycling",
    "request_reason": "Request a Large Item Pick Up",
    "date_created": "2024-07-24T15:54:37.000",
    "date_modified": "2024-07-24T15:54:38.000",
    "request_status": "Pending",
    "responsible_agency": "Department of Sanitation",
    "final_address": "1354 St Bernard Ave",
    "address_councildis": "C",
    "status": "Assigned to Contractor",
    "contractor": "IV Waste",
    "rowid": "1115550",
    "final_x": "3682621.32469",
    "final_y": "536899.730824",
    "longitude": "-90.06434145586275",
    "latitude": "29.970254004263538",
    "geocoded_column": {
      "latitude": "29.970254004263538",
      "longitude": "-90.06434145586275"
    }
  },
  {
    "service_request": "2024-1115549",
    "request_type": "Trash/Recycling",
    "request_reason": "Replace Trash Cart",
    "date_created": "2024-07-24T15:53:36.000",
    "date_modified": "2024-07-24T15:53:36.000",
    "request_status": "Pending",
    "responsible_agency": "Department of Sanitation",
    "final_address": "7810 St Charles Ave",
    "address_councildis": "A",
    "status": "Assigned to Contractor",
    "contractor": "IV Waste",
    "rowid": "1115549",
    "final_x": "3661285.4425",
    "final_y": "526091.573758",
    "longitude": "-90.13208065731001",
    "latitude": "29.941167528931338",
    "geocoded_column": {
      "latitude": "29.941167528931338",
      "longitude": "-90.13208065731001"
    }
  },
  {
    "service_request": "2024-1115548",
    "request_type": "Traffic Signals/Signs/Striping/Streetlights",
    "request_reason": "Street Light Outage/Malfunction",
    "date_created": "2024-07-24T15:53:30.000",
    "date_modified": "2024-07-24T15:53:31.000",
    "request_status": "Pending",
    "responsible_agency": "Department of Public Works",
    "final_address": "332 Harney St",
    "address_councildis": "A",
    "status": "Assigned to Contractor",
    "contractor": "Legacy Professional Services",
    "rowid": "1115548",
    "final_x": "3667223.6841",
    "final_y": "547100.982161",
    "longitude": "-90.11262580843967",
    "latitude": "29.99876389038997",
    "geocoded_column": {
      "latitude": "29.99876389038997",
      "longitude": "-90.11262580843967"
    }
  },
  {
    "service_request": "2024-1115547",
    "request_type": "Trash/Recycling",
    "request_reason": "Request a Large Item Pick Up",
    "date_created": "2024-07-24T15:53:04.000",
    "date_modified": "2024-07-24T15:53:05.000",
    "request_status": "Pending",
    "responsible_agency": "Department of Sanitation",
    "final_address": "1354 St Bernard Ave",
    "address_councildis": "C",
    "status": "Assigned to Contractor",
    "contractor": "IV Waste",
    "rowid": "1115547",
    "final_x": "3682621.32469",
    "final_y": "536899.730824",
    "longitude": "-90.06434145586275",
    "latitude": "29.970254004263538",
    "geocoded_column": {
      "latitude": "29.970254004263538",
      "longitude": "-90.06434145586275"
    }
  },
  {
    "service_request": "2024-1115546",
    "request_type": "Trash/Recycling",
    "request_reason": "Request a Large Item Pick Up",
    "date_created": "2024-07-24T15:53:03.000",
    "date_modified": "2024-07-24T15:53:04.000",
    "request_status": "Pending",
    "responsible_agency": "Department of Sanitation",
    "final_address": "1300 Pauline St",
    "address_councildis": "D",
    "status": "Assigned to Contractor",
    "contractor": "IV Waste",
    "rowid": "1115546",
    "final_x": "3691359.28886",
    "final_y": "536228.537415",
    "longitude": "-90.03677011850134",
    "latitude": "29.968139479293676",
    "geocoded_column": {
      "latitude": "29.968139479293676",
      "longitude": "-90.03677011850134"
    }
  },
  {
    "service_request": "2024-1115545",
    "request_type": "Roads/Drainage",
    "request_reason": "Catch Basin - Clogged",
    "date_created": "2024-07-24T15:52:24.000",
    "date_modified": "2024-07-24T15:52:25.000",
    "request_status": "Pending",
    "responsible_agency": "Department of Public Works",
    "final_address": "1615 Pine St",
    "address_councildis": "A",
    "status": "Pending",
    "rowid": "1115545",
    "final_x": "3664842.22592",
    "final_y": "527957.345407",
    "longitude": "-90.12078884533422",
    "latitude": "29.946194793472362",
    "geocoded_column": {
      "latitude": "29.946194793472362",
      "longitude": "-90.12078884533422"
    }
  },
  {
    "service_request": "2024-1115544",
    "request_type": "Trash/Recycling",
    "request_reason": "Request a Large Item Pick Up",
    "date_created": "2024-07-24T15:50:16.000",
    "date_modified": "2024-07-24T15:50:17.000",
    "request_status": "Pending",
    "responsible_agency": "Department of Sanitation",
    "final_address": "117 N Roadway St",
    "address_councildis": "A",
    "status": "Assigned to Contractor",
    "contractor": "IV Waste",
    "rowid": "1115544",
    "final_x": "3666364.93908",
    "final_y": "556887.017946",
    "longitude": "-90.11500990470013",
    "latitude": "30.025697193249506",
    "geocoded_column": {
      "latitude": "30.025697193249506",
      "longitude": "-90.11500990470013"
    }
  },
  {
    "service_request": "2024-1115543",
    "request_type": "Trash/Recycling",
    "request_reason": "Replace Recycling Cart",
    "date_created": "2024-07-24T15:49:38.000",
    "date_modified": "2024-07-24T15:49:38.000",
    "request_status": "Pending",
    "responsible_agency": "Department of Sanitation",
    "final_address": "3970 Annunciation St",
    "address_councildis": "B",
    "status": "Pending",
    "rowid": "1115543",
    "final_x": "3672764.64705",
    "final_y": "517880.360886",
    "longitude": "-90.0961185115302",
    "latitude": "29.91825344291077",
    "geocoded_column": {
      "latitude": "29.91825344291077",
      "longitude": "-90.0961185115302"
    }
  },
  {
    "service_request": "2024-1115542",
    "request_type": "Roads/Drainage",
    "request_reason": "Catch Basin - Broken/Damage",
    "date_created": "2024-07-24T15:49:14.000",
    "date_modified": "2024-07-24T15:49:14.000",
    "request_status": "Pending",
    "responsible_agency": "Department of Public Works",
    "final_address": "3723 Canal St",
    "address_councildis": "B",
    "status": "Pending",
    "rowid": "1115542",
    "final_x": "3672259.07489",
    "final_y": "537601.554952",
    "longitude": "-90.09704270345537",
    "latitude": "29.97249526427118",
    "geocoded_column": {
      "latitude": "29.97249526427118",
      "longitude": "-90.09704270345537"
    }
  },
  {
    "service_request": "2024-1115541",
    "request_type": "Trash/Recycling",
    "request_reason": "Request a Large Item Pick Up",
    "date_created": "2024-07-24T15:47:56.000",
    "date_modified": "2024-07-24T15:47:57.000",
    "request_status": "Pending",
    "responsible_agency": "Department of Sanitation",
    "final_address": "1625 Annette St",
    "address_councildis": "D",
    "status": "Assigned to Contractor",
    "contractor": "IV Waste",
    "rowid": "1115541",
    "final_x": "3683069.80015",
    "final_y": "538238.144777",
    "longitude": "-90.06287825867639",
    "latitude": "29.973920513869214",
    "geocoded_column": {
      "latitude": "29.973920513869214",
      "longitude": "-90.06287825867639"
    }
  },
  {
    "service_request": "2024-1115540",
    "request_type": "Roads/Drainage",
    "request_reason": "Pothole",
    "date_created": "2024-07-24T15:47:35.000",
    "date_modified": "2024-07-24T15:47:35.000",
    "request_status": "Pending",
    "responsible_agency": "Department of Public Works",
    "final_address": "1539 Music St",
    "address_councildis": "C",
    "status": "Pending",
    "rowid": "1115540",
    "final_x": "3686739.80303",
    "final_y": "538226.480905",
    "longitude": "-90.05128801002124",
    "latitude": "29.97377604492662",
    "geocoded_column": {
      "latitude": "29.97377604492662",
      "longitude": "-90.05128801002124"
    }
  },
  {
    "service_request": "2024-1115539",
    "request_type": "Trash/Recycling",
    "request_reason": "Repair Trash Cart",
    "date_created": "2024-07-24T15:47:26.000",
    "date_modified": "2024-07-24T15:47:27.000",
    "request_status": "Pending",
    "responsible_agency": "Department of Sanitation",
    "final_address": "1306 Pauline St",
    "address_councildis": "D",
    "status": "Assigned to Contractor",
    "contractor": "IV Waste",
    "rowid": "1115539",
    "final_x": "3691366.23331",
    "final_y": "536257.009607",
    "longitude": "-90.03674717027728",
    "latitude": "29.968217551721576",
    "geocoded_column": {
      "latitude": "29.968217551721576",
      "longitude": "-90.03674717027728"
    }
  },
  {
    "service_request": "2024-1115538",
    "request_type": "Roads/Drainage",
    "request_reason": "Man hole cover issue",
    "date_created": "2024-07-24T15:45:38.000",
    "date_modified": "2024-07-24T15:45:38.000",
    "request_status": "Pending",
    "responsible_agency": "Department of Public Works",
    "final_address": "1000 BLK Howard Ave",
    "address_councildis": "B",
    "status": "Pending",
    "rowid": "1115538",
    "final_x": "3678952.66798",
    "final_y": "527979.317845",
    "longitude": "-90.07623653699031",
    "latitude": "29.945837090736312",
    "geocoded_column": {
      "latitude": "29.945837090736312",
      "longitude": "-90.07623653699031"
    }
  },
  {
    "service_request": "2024-1115537",
    "request_type": "Roads/Drainage",
    "request_reason": "Catch Basin - Clogged",
    "date_created": "2024-07-24T15:44:49.000",
    "date_modified": "2024-07-24T15:44:49.000",
    "request_status": "Pending",
    "responsible_agency": "Department of Public Works",
    "final_address": "1800 Dante St",
    "address_councildis": "A",
    "status": "Pending",
    "rowid": "1115537",
    "final_x": "3662836.29856",
    "final_y": "530478.777474",
    "longitude": "-90.12703847131706",
    "latitude": "29.953186135520873",
    "geocoded_column": {
      "latitude": "29.953186135520873",
      "longitude": "-90.12703847131706"
    }
  },
  {
    "service_request": "2024-1115536",
    "request_type": "Roads/Drainage",
    "request_reason": "Catch Basin - Clogged",
    "date_created": "2024-07-24T15:44:42.000",
    "date_modified": "2024-07-24T15:44:42.000",
    "request_status": "Pending",
    "responsible_agency": "Department of Public Works",
    "final_address": "3027 Chestnut St",
    "address_councildis": "B",
    "status": "Pending",
    "rowid": "1115536",
    "final_x": "3675752.55265",
    "final_y": "520882.480633",
    "longitude": "-90.08658418552147",
    "latitude": "29.926419257867053",
    "geocoded_column": {
      "latitude": "29.926419257867053",
      "longitude": "-90.08658418552147"
    }
  },
  {
    "service_request": "2024-1115535",
    "request_type": "Abandoned Vehicles",
    "request_reason": "Abandoned/Junk Vehicles",
    "date_created": "2024-07-24T15:44:23.000",
    "date_modified": "2024-07-24T15:44:24.000",
    "request_status": "Pending",
    "responsible_agency": "Department of Public Works",
    "final_address": "2309 Ap Tureaud Ave",
    "address_councildis": "D",
    "status": "Pending",
    "rowid": "1115535",
    "final_x": "3681713.06466",
    "final_y": "540582.088267",
    "longitude": "-90.06708132247539",
    "latitude": "29.980406836223736",
    "geocoded_column": {
      "latitude": "29.980406836223736",
      "longitude": "-90.06708132247539"
    }
  },
  {
    "service_request": "2024-1115534",
    "request_type": "Roads/Drainage",
    "request_reason": "Catch Basin - Clogged",
    "date_created": "2024-07-24T15:43:35.000",
    "date_modified": "2024-07-24T15:43:36.000",
    "request_status": "Pending",
    "responsible_agency": "Department of Public Works",
    "final_address": "1938 Octavia St",
    "address_councildis": "A",
    "status": "Pending",
    "rowid": "1115534",
    "final_x": "3667293.7081",
    "final_y": "522999.339387",
    "longitude": "-90.11321533032879",
    "latitude": "29.932490310615204",
    "geocoded_column": {
      "latitude": "29.932490310615204",
      "longitude": "-90.11321533032879"
    }
  },
  {
    "service_request": "2024-1115533",
    "request_type": "Roads/Drainage",
    "request_reason": "Catch Basin - Clogged",
    "date_created": "2024-07-24T15:41:32.000",
    "date_modified": "2024-07-24T15:41:32.000",
    "request_status": "Pending",
    "responsible_agency": "Department of Public Works",
    "final_address": "1138 Josephine St",
    "address_councildis": "B",
    "status": "Pending",
    "rowid": "1115533",
    "final_x": "3678939.07432",
    "final_y": "522549.966266",
    "longitude": "-90.0764674893942",
    "latitude": "29.930908578442235",
    "geocoded_column": {
      "latitude": "29.930908578442235",
      "longitude": "-90.0764674893942"
    }
  },
  {
    "service_request": "2024-1115532",
    "request_type": "Roads/Drainage",
    "request_reason": "Street Flooding / Drainage",
    "date_created": "2024-07-24T15:39:57.000",
    "date_modified": "2024-07-24T15:40:23.000",
    "request_status": "Pending",
    "responsible_agency": "Department of Public Works",
    "final_address": "4720 Pauline Dr",
    "address_councildis": "D",
    "status": "Pending",
    "rowid": "1115532",
    "final_x": "3692561.26902",
    "final_y": "551540.778901",
    "longitude": "-90.032425225382",
    "latitude": "30.010205149291306",
    "geocoded_column": {
      "latitude": "30.010205149291306",
      "longitude": "-90.032425225382"
    }
  },
  {
    "service_request": "2024-1115531",
    "request_type": "Trash/Recycling",
    "request_reason": "Repair Trash Cart",
    "date_created": "2024-07-24T15:38:48.000",
    "date_modified": "2024-07-24T15:38:49.000",
    "request_status": "Pending",
    "responsible_agency": "Department of Sanitation",
    "final_address": "4859 Desire Dr",
    "address_councildis": "D",
    "status": "Assigned to Contractor",
    "contractor": "IV Waste",
    "rowid": "1115531",
    "final_x": "3691813.33827",
    "final_y": "551861.764182",
    "longitude": "-90.03477671492652",
    "latitude": "30.01111106727431",
    "geocoded_column": {
      "latitude": "30.01111106727431",
      "longitude": "-90.03477671492652"
    }
  },
  {
    "service_request": "2024-1115530",
    "request_type": "Roads/Drainage",
    "request_reason": "Catch Basin - Clogged",
    "date_created": "2024-07-24T15:38:36.000",
    "date_modified": "2024-07-24T15:38:36.000",
    "request_status": "Pending",
    "responsible_agency": "Department of Public Works",
    "final_address": "PHILIP ST & CHESTNUT ST",
    "address_councildis": "B",
    "status": "Pending",
    "rowid": "1115530",
    "final_x": "3678096.7",
    "final_y": "522426.68",
    "longitude": "-90.07913100991765",
    "latitude": "29.93059496149933",
    "geocoded_column": {
      "latitude": "29.93059496149933",
      "longitude": "-90.07913100991765"
    }
  },
  {
    "service_request": "2024-1115529",
    "request_type": "Trash/Recycling",
    "request_reason": "Request a Large Item Pick Up",
    "date_created": "2024-07-24T15:38:22.000",
    "date_modified": "2024-07-24T15:38:23.000",
    "request_status": "Pending",
    "responsible_agency": "Department of Sanitation",
    "final_address": "1423 Music St",
    "address_councildis": "C",
    "status": "Assigned to Contractor",
    "contractor": "IV Waste",
    "rowid": "1115529",
    "final_x": "3686780.69654",
    "final_y": "537755.769544",
    "longitude": "-90.05117549434043",
    "latitude": "29.972480495477",
    "geocoded_column": {
      "latitude": "29.972480495477",
      "longitude": "-90.05117549434043"
    }
  },
  {
    "service_request": "2024-1115528",
    "request_type": "Roads/Drainage",
    "request_reason": "Catch Basin - Broken/Damage",
    "date_created": "2024-07-24T15:34:45.000",
    "date_modified": "2024-07-24T15:34:45.000",
    "request_status": "Pending",
    "responsible_agency": "Department of Public Works",
    "final_address": "S CLAIBORNE EXIT & SUPERDOME EXIT",
    "address_councildis": "B",
    "status": "Pending",
    "rowid": "1115528",
    "final_x": "3675964.5",
    "final_y": "529705.48",
    "longitude": "-90.08561184488933",
    "latitude": "29.950673268261934",
    "geocoded_column": {
      "latitude": "29.950673268261934",
      "longitude": "-90.08561184488933"
    }
  },
  {
    "service_request": "2024-1115527",
    "request_type": "Roads/Drainage",
    "request_reason": "Catch Basin - Clogged",
    "date_created": "2024-07-24T15:34:13.000",
    "date_modified": "2024-07-24T15:34:13.000",
    "request_status": "Pending",
    "responsible_agency": "Department of Public Works",
    "final_address": "2800 BLK Prytania St",
    "address_councildis": "B",
    "status": "Pending",
    "rowid": "1115527",
    "final_x": "3676102.89349",
    "final_y": "522021.877004",
    "longitude": "-90.08543908549876",
    "latitude": "29.929541742067183",
    "geocoded_column": {
      "latitude": "29.929541742067183",
      "longitude": "-90.08543908549876"
    }
  },
  {
    "service_request": "2024-1115526",
    "request_type": "Mosquito, Termite & Rodent Control",
    "request_reason": "Non-Rodent Complaint (Mice, Possums, Snakes)",
    "date_created": "2024-07-24T15:33:30.000",
    "date_modified": "2024-07-24T15:33:30.000",
    "request_status": "Pending",
    "responsible_agency": "Mosquito, Termite & Rodent Control Board",
    "final_address": "614 N Salcedo St",
    "address_councildis": "A",
    "status": "Pending",
    "rowid": "1115526",
    "final_x": "3675292.37461",
    "final_y": "537600.147272",
    "longitude": "-90.0874630404143",
    "latitude": "29.972401055779482",
    "geocoded_column": {
      "latitude": "29.972401055779482",
      "longitude": "-90.0874630404143"
    }
  },
  {
    "service_request": "2024-1115525",
    "request_type": "Roads/Drainage",
    "request_reason": "Catch Basin - Clogged",
    "date_created": "2024-07-24T15:31:51.000",
    "date_modified": "2024-07-24T15:31:51.000",
    "request_status": "Pending",
    "responsible_agency": "Department of Public Works",
    "final_address": "1400 BLK Washington Ave",
    "address_councildis": "B",
    "status": "Pending",
    "rowid": "1115525",
    "final_x": "3676345.07608",
    "final_y": "521892.5541",
    "longitude": "-90.08467900706535",
    "latitude": "29.929178891566984",
    "geocoded_column": {
      "latitude": "29.929178891566984",
      "longitude": "-90.08467900706535"
    }
  },
  {
    "service_request": "2024-1115524",
    "request_type": "Roads/Drainage",
    "request_reason": "Catch Basin - Clogged",
    "date_created": "2024-07-24T15:29:58.000",
    "date_modified": "2024-07-24T15:29:58.000",
    "request_status": "Pending",
    "responsible_agency": "Department of Public Works",
    "final_address": "1400 BLK Washington Ave",
    "address_councildis": "B",
    "status": "Pending",
    "rowid": "1115524",
    "final_x": "3676345.07608",
    "final_y": "521892.5541",
    "longitude": "-90.08467900706535",
    "latitude": "29.929178891566984",
    "geocoded_column": {
      "latitude": "29.929178891566984",
      "longitude": "-90.08467900706535"
    }
  },
  {
    "service_request": "2024-1115523",
    "request_type": "Trash/Recycling",
    "request_reason": "Request a Large Item Pick Up",
    "date_created": "2024-07-24T15:28:41.000",
    "date_modified": "2024-07-24T15:28:42.000",
    "request_status": "Pending",
    "responsible_agency": "Department of Sanitation",
    "final_address": "2536 Pauger St",
    "address_councildis": "D",
    "status": "Assigned to Contractor",
    "contractor": "IV Waste",
    "rowid": "1115523",
    "final_x": "3683606.03701",
    "final_y": "539089.017674",
    "longitude": "-90.06115487001662",
    "latitude": "29.97624375869862",
    "geocoded_column": {
      "latitude": "29.97624375869862",
      "longitude": "-90.06115487001662"
    }
  },
  {
    "service_request": "2024-1115522",
    "request_type": "Trash/Recycling",
    "request_reason": "Illegal Dumping",
    "date_created": "2024-07-24T15:27:14.000",
    "date_modified": "2024-07-24T15:27:15.000",
    "request_status": "Pending",
    "responsible_agency": "Department of Sanitation",
    "final_address": "6219 St Anthony Ave",
    "address_councildis": "D",
    "status": "Pending",
    "rowid": "1115522",
    "final_x": "3682029.25064",
    "final_y": "555914.771993",
    "longitude": "-90.06554686236015",
    "latitude": "30.022556614432307",
    "geocoded_column": {
      "latitude": "30.022556614432307",
      "longitude": "-90.06554686236015"
    }
  },
  {
    "service_request": "2024-1115521",
    "request_type": "Trash/Recycling",
    "request_reason": "Order Recycling Cart",
    "date_created": "2024-07-24T15:24:36.000",
    "date_modified": "2024-07-24T15:24:36.000",
    "request_status": "Pending",
    "responsible_agency": "Department of Sanitation",
    "final_address": "8009 Green St",
    "address_councildis": "A",
    "status": "Pending",
    "rowid": "1115521",
    "final_x": "3663431.91008",
    "final_y": "529461.186049",
    "longitude": "-90.12519165754014",
    "latitude": "29.95037083281834",
    "geocoded_column": {
      "latitude": "29.95037083281834",
      "longitude": "-90.12519165754014"
    }
  },
  {
    "service_request": "2024-1115520",
    "request_type": "Traffic Signals/Signs/Striping/Streetlights",
    "request_reason": "Street Light Outage/Malfunction",
    "date_created": "2024-07-24T15:23:07.000",
    "date_modified": "2024-07-24T15:23:44.000",
    "request_status": "Pending",
    "responsible_agency": "Department of Public Works",
    "final_address": "7700 BLK Lafourche St",
    "address_councildis": "E",
    "status": "Assigned to Contractor",
    "contractor": "Legacy Professional Services",
    "rowid": "1115520",
    "final_x": "3709864.65996",
    "final_y": "566097.649744",
    "longitude": "-89.97721360226612",
    "latitude": "30.04967928421553",
    "geocoded_column": {
      "latitude": "30.04967928421553",
      "longitude": "-89.97721360226612"
    }
  },
  {
    "service_request": "2024-1115519",
    "request_type": "Abandoned Vehicles",
    "request_reason": "Abandoned/Junk Vehicles",
    "date_created": "2024-07-24T15:21:12.000",
    "date_modified": "2024-07-24T15:21:12.000",
    "request_status": "Pending",
    "responsible_agency": "Department of Public Works",
    "final_address": "4600 BLK Woodruff St",
    "address_councildis": "B",
    "status": "Pending",
    "rowid": "1115519",
    "final_x": "3669093.80056",
    "final_y": "530666.132353",
    "longitude": "-90.1072736007894",
    "latitude": "29.95351867812475",
    "geocoded_column": {
      "latitude": "29.95351867812475",
      "longitude": "-90.1072736007894"
    }
  },
  {
    "service_request": "2024-1115518",
    "request_type": "Trash/Recycling",
    "request_reason": "Illegal Dumping",
    "date_created": "2024-07-24T15:20:48.000",
    "date_modified": "2024-07-24T15:20:48.000",
    "request_status": "Pending",
    "responsible_agency": "Department of Sanitation",
    "final_address": "3001 Bienville Ave",
    "address_councildis": "B",
    "status": "Pending",
    "rowid": "1115518",
    "final_x": "3674822.66619",
    "final_y": "536566.609991",
    "longitude": "-90.08898191087472",
    "latitude": "29.969573213726136",
    "geocoded_column": {
      "latitude": "29.969573213726136",
      "longitude": "-90.08898191087472"
    }
  },
  {
    "service_request": "2024-1115517",
    "request_type": "Trash/Recycling",
    "request_reason": "Illegal Dumping",
    "date_created": "2024-07-24T15:19:08.000",
    "date_modified": "2024-07-24T15:19:08.000",
    "request_status": "Pending",
    "responsible_agency": "Department of Sanitation",
    "final_address": "750 S Norman C Francis Prkwy",
    "address_councildis": "B",
    "status": "Pending",
    "rowid": "1115517",
    "final_x": "3671561.74759",
    "final_y": "534316.472453",
    "longitude": "-90.09935672119532",
    "latitude": "29.963483059544206",
    "geocoded_column": {
      "latitude": "29.963483059544206",
      "longitude": "-90.09935672119532"
    }
  },
  {
    "service_request": "2024-1115516",
    "request_type": "Abandoned Vehicles",
    "request_reason": "Abandoned/Junk Vehicles",
    "date_created": "2024-07-24T15:17:02.000",
    "date_modified": "2024-07-24T15:17:03.000",
    "request_status": "Pending",
    "responsible_agency": "Department of Public Works",
    "final_address": "1625 St Charles Ave",
    "address_councildis": "B",
    "status": "Pending",
    "rowid": "1115516",
    "final_x": "3678881.04091",
    "final_y": "525139.051901",
    "longitude": "-90.07656104615072",
    "latitude": "29.938029462275303",
    "geocoded_column": {
      "latitude": "29.938029462275303",
      "longitude": "-90.07656104615072"
    }
  },
  {
    "service_request": "2024-1115515",
    "request_type": "Trash/Recycling",
    "request_reason": "Request a Large Item Pick Up",
    "date_created": "2024-07-24T15:16:11.000",
    "date_modified": "2024-07-24T15:16:12.000",
    "request_status": "Pending",
    "responsible_agency": "Department of Sanitation",
    "final_address": "8600 Lake Forest Blvd",
    "address_councildis": "E",
    "status": "Assigned to Contractor",
    "contractor": "Waste Pro",
    "rowid": "1115515",
    "final_x": "3706233.01867",
    "final_y": "557882.382491",
    "longitude": "-89.98899638685525",
    "latitude": "30.027208226926486",
    "geocoded_column": {
      "latitude": "30.027208226926486",
      "longitude": "-89.98899638685525"
    }
  },
  {
    "service_request": "2024-1115514",
    "request_type": "Property Maintenance",
    "request_reason": "Property Maintenance",
    "date_created": "2024-07-24T15:14:34.000",
    "date_modified": "2024-07-24T15:14:35.000",
    "request_status": "Pending",
    "responsible_agency": "Department of Code Enforcement",
    "final_address": "4428 Werner Dr",
    "address_councildis": "E",
    "status": "Pending",
    "rowid": "1115514",
    "final_x": "3704864.47115",
    "final_y": "553499.336343",
    "longitude": "-89.99348279040518",
    "latitude": "30.015200620583016",
    "geocoded_column": {
      "latitude": "30.015200620583016",
      "longitude": "-89.99348279040518"
    }
  },
  {
    "service_request": "2024-1115513",
    "request_type": "Roads/Drainage",
    "request_reason": "Street Flooding / Drainage",
    "date_created": "2024-07-24T15:14:30.000",
    "date_modified": "2024-07-24T15:14:30.000",
    "request_status": "Pending",
    "responsible_agency": "Department of Public Works",
    "final_address": "3001 Bienville Ave",
    "address_councildis": "B",
    "status": "Pending",
    "rowid": "1115513",
    "final_x": "3674822.66619",
    "final_y": "536566.609991",
    "longitude": "-90.08898191087472",
    "latitude": "29.969573213726136",
    "geocoded_column": {
      "latitude": "29.969573213726136",
      "longitude": "-90.08898191087472"
    }
  },
  {
    "service_request": "2024-1115512",
    "request_type": "Trash/Recycling",
    "request_reason": "Request a Large Item Pick Up",
    "date_created": "2024-07-24T15:11:11.000",
    "date_modified": "2024-07-24T15:11:12.000",
    "request_status": "Pending",
    "responsible_agency": "Department of Sanitation",
    "final_address": "2529 Fats Domino Ave, New Orleans, Louisiana, 70117",
    "address_councildis": "E",
    "status": "Assigned to Contractor",
    "contractor": "Waste Pro",
    "rowid": "1115512",
    "final_x": "3699552.85706",
    "final_y": "539249.842698",
    "longitude": "-90.01078453744061",
    "latitude": "29.976189504573945",
    "geocoded_column": {
      "latitude": "29.976189504573945",
      "longitude": "-90.01078453744061"
    }
  },
  {
    "service_request": "2024-1115511",
    "request_type": "Trash/Recycling",
    "request_reason": "Request a Large Item Pick Up",
    "date_created": "2024-07-24T15:08:53.000",
    "date_modified": "2024-07-24T15:08:54.000",
    "request_status": "Pending",
    "responsible_agency": "Department of Sanitation",
    "final_address": "13616 N Cavelier Dr",
    "address_councildis": "E",
    "status": "Assigned to Contractor",
    "contractor": "Waste Pro",
    "rowid": "1115511",
    "final_x": "3724101.32409",
    "final_y": "569699.523366",
    "longitude": "-89.93207830630612",
    "latitude": "30.059111952183287",
    "geocoded_column": {
      "latitude": "30.059111952183287",
      "longitude": "-89.93207830630612"
    }
  },
  {
    "service_request": "2024-1115510",
    "request_type": "Trash/Recycling",
    "request_reason": "Request a Large Item Pick Up",
    "date_created": "2024-07-24T15:07:10.000",
    "date_modified": "2024-07-24T15:08:04.000",
    "request_status": "Pending",
    "responsible_agency": "Department of Sanitation",
    "final_address": "7817 Fig St",
    "address_councildis": "B",
    "status": "Assigned to Contractor",
    "contractor": "IV Waste",
    "rowid": "1115510",
    "final_x": "3667057.83853",
    "final_y": "532515.345412",
    "longitude": "-90.11364017777902",
    "latitude": "29.958663152889162",
    "geocoded_column": {
      "latitude": "29.958663152889162",
      "longitude": "-90.11364017777902"
    }
  },
  {
    "service_request": "2024-1115509",
    "request_type": "Trash/Recycling",
    "request_reason": "Request a Large Item Pick Up",
    "date_created": "2024-07-24T15:05:31.000",
    "date_modified": "2024-07-24T15:05:31.000",
    "request_status": "Pending",
    "responsible_agency": "Department of Sanitation",
    "final_address": "4553 Stemway Dr",
    "address_councildis": "D",
    "status": "Assigned to Contractor",
    "contractor": "Waste Pro",
    "rowid": "1115509",
    "final_x": "3697067.83523",
    "final_y": "553326.377367",
    "longitude": "-90.01812263316906",
    "latitude": "30.014973420943075",
    "geocoded_column": {
      "latitude": "30.014973420943075",
      "longitude": "-90.01812263316906"
    }
  },
  {
    "service_request": "2024-1115508",
    "request_type": "Trash/Recycling",
    "request_reason": "MIssed Recycling Pick-Up",
    "date_created": "2024-07-24T15:02:08.000",
    "date_modified": "2024-07-24T15:02:09.000",
    "request_status": "Pending",
    "responsible_agency": "Department of Sanitation",
    "final_address": "4826 Gabriel Dr",
    "address_councildis": "E",
    "status": "Assigned to Contractor",
    "contractor": "Waste Pro",
    "rowid": "1115508",
    "final_x": "3708773.30968",
    "final_y": "556264.952154",
    "longitude": "-89.98102968717605",
    "latitude": "30.022678733318873",
    "geocoded_column": {
      "latitude": "30.022678733318873",
      "longitude": "-89.98102968717605"
    }
  },
  {
    "service_request": "2024-1115507",
    "request_type": "Traffic Signals/Signs/Striping/Streetlights",
    "request_reason": "Street Light Outage/Malfunction",
    "date_created": "2024-07-24T15:00:27.000",
    "date_modified": "2024-07-24T15:00:28.000",
    "request_status": "Pending",
    "responsible_agency": "Department of Public Works",
    "final_address": "1404 Strand Ct",
    "address_councildis": "E",
    "status": "Assigned to Contractor",
    "contractor": "Legacy Professional Services",
    "rowid": "1115507",
    "final_x": "3699753.10589",
    "final_y": "534500.147781",
    "longitude": "-90.0103252997759",
    "latitude": "29.963123197703002",
    "geocoded_column": {
      "latitude": "29.963123197703002",
      "longitude": "-90.0103252997759"
    }
  },
  {
    "service_request": "2024-1115506",
    "request_type": "Roads/Drainage",
    "request_reason": "Street Subsidence (Sinking)",
    "date_created": "2024-07-24T14:58:13.000",
    "date_modified": "2024-07-24T14:58:13.000",
    "request_status": "Pending",
    "responsible_agency": "Department of Public Works",
    "final_address": "2946 Hudson St",
    "address_councildis": "C",
    "status": "Pending",
    "rowid": "1115506",
    "final_x": "3694163.44682",
    "final_y": "520342.0302",
    "longitude": "-90.02848583784917",
    "latitude": "29.92436954248273",
    "geocoded_column": {
      "latitude": "29.92436954248273",
      "longitude": "-90.02848583784917"
    }
  },
  {
    "service_request": "2024-1115505",
    "request_type": "Trash/Recycling",
    "request_reason": "Request a Large Item Pick Up",
    "date_created": "2024-07-24T14:55:53.000",
    "date_modified": "2024-07-24T14:55:53.000",
    "request_status": "Pending",
    "responsible_agency": "Department of Sanitation",
    "final_address": "7609 Lady Gray St",
    "address_councildis": "E",
    "status": "Assigned to Contractor",
    "contractor": "Waste Pro",
    "rowid": "1115505",
    "final_x": "3710059.76805",
    "final_y": "565225.590242",
    "longitude": "-89.9766295797748",
    "latitude": "30.04727512148317",
    "geocoded_column": {
      "latitude": "30.04727512148317",
      "longitude": "-89.9766295797748"
    }
  },
  {
    "service_request": "2024-1115504",
    "request_type": "Roads/Drainage",
    "request_reason": "Damaged Sidewalk",
    "date_created": "2024-07-24T14:53:24.000",
    "date_modified": "2024-07-24T15:03:01.000",
    "case_close_date": "2024-07-24T10:03:01.000",
    "request_status": "Closed",
    "responsible_agency": "Department of Public Works",
    "final_address": "2911 Laurel St",
    "address_councildis": "B",
    "status": "Invalid Case",
    "rowid": "1115504",
    "final_x": "3676923.75541",
    "final_y": "519902.771576",
    "longitude": "-90.08292077272192",
    "latitude": "29.92369028308809",
    "geocoded_column": {
      "latitude": "29.92369028308809",
      "longitude": "-90.08292077272192"
    }
  },
  {
    "service_request": "2024-1115503",
    "request_type": "Roads/Drainage",
    "request_reason": "Debris in Roadway",
    "date_created": "2024-07-24T14:52:07.000",
    "date_modified": "2024-07-24T14:52:08.000",
    "request_status": "Pending",
    "responsible_agency": "Department of Public Works",
    "final_address": "4300 BLK Freret St",
    "address_councildis": "B",
    "status": "Pending",
    "rowid": "1115503",
    "final_x": "3670751.87565",
    "final_y": "524063.933287",
    "longitude": "-90.10226206335987",
    "latitude": "29.935315895623773",
    "geocoded_column": {
      "latitude": "29.935315895623773",
      "longitude": "-90.10226206335987"
    }
  },
  {
    "service_request": "2024-1115502",
    "request_type": "Trash/Recycling",
    "request_reason": "Request a Large Item Pick Up",
    "date_created": "2024-07-24T14:51:06.000",
    "date_modified": "2024-07-24T14:51:08.000",
    "request_status": "Pending",
    "responsible_agency": "Department of Sanitation",
    "final_address": "919 Crystal St",
    "address_councildis": "D",
    "status": "Assigned to Contractor",
    "contractor": "IV Waste",
    "rowid": "1115502",
    "final_x": "3671105.75259",
    "final_y": "556728.765978",
    "longitude": "-90.10003493055869",
    "latitude": "30.025122603992372",
    "geocoded_column": {
      "latitude": "30.025122603992372",
      "longitude": "-90.10003493055869"
    }
  },
  {
    "service_request": "2024-1115501",
    "request_type": "Abandoned Vehicles",
    "request_reason": "Abandoned/Junk Vehicles",
    "date_created": "2024-07-24T14:46:51.000",
    "date_modified": "2024-07-24T14:46:52.000",
    "request_status": "Pending",
    "responsible_agency": "Department of Public Works",
    "final_address": "2008 Tennessee St",
    "address_councildis": "E",
    "status": "Pending",
    "rowid": "1115501",
    "final_x": "3696600.00157",
    "final_y": "537785.712648",
    "longitude": "-90.02016346969644",
    "latitude": "29.972257057148013",
    "geocoded_column": {
      "latitude": "29.972257057148013",
      "longitude": "-90.02016346969644"
    }
  },
  {
    "service_request": "2024-1115500",
    "request_type": "Property Maintenance",
    "request_reason": "Property Maintenance",
    "date_created": "2024-07-24T14:46:18.000",
    "date_modified": "2024-07-24T14:46:19.000",
    "request_status": "Pending",
    "responsible_agency": "Department of Code Enforcement",
    "final_address": "2008 Tennessee St",
    "address_councildis": "E",
    "status": "Pending",
    "rowid": "1115500",
    "final_x": "3696600.00157",
    "final_y": "537785.712648",
    "longitude": "-90.02016346969644",
    "latitude": "29.972257057148013",
    "geocoded_column": {
      "latitude": "29.972257057148013",
      "longitude": "-90.02016346969644"
    }
  },
  {
    "service_request": "2024-1115499",
    "request_type": "Mosquito, Termite & Rodent Control",
    "request_reason": "Mosquito Complaint",
    "date_created": "2024-07-24T14:41:48.000",
    "date_modified": "2024-07-24T14:41:49.000",
    "request_status": "Pending",
    "responsible_agency": "Mosquito, Termite & Rodent Control Board",
    "final_address": "2728 Valentine Ct",
    "address_councildis": "C",
    "status": "Pending",
    "rowid": "1115499",
    "final_x": "3699123.41104",
    "final_y": "520900.195961",
    "longitude": "-90.01280873151312",
    "latitude": "29.925748066911787",
    "geocoded_column": {
      "latitude": "29.925748066911787",
      "longitude": "-90.01280873151312"
    }
  },
  {
    "service_request": "2024-1115498",
    "request_type": "Trash/Recycling",
    "request_reason": "Request a Large Item Pick Up",
    "date_created": "2024-07-24T14:40:16.000",
    "date_modified": "2024-07-24T14:40:18.000",
    "request_status": "Pending",
    "responsible_agency": "Department of Sanitation",
    "final_address": "5617 St Claude Ave",
    "address_councildis": "E",
    "status": "Assigned to Contractor",
    "contractor": "Waste Pro",
    "rowid": "1115498",
    "final_x": "3698309.74371",
    "final_y": "533815.879173",
    "longitude": "-90.01490810215277",
    "latitude": "29.96128744759274",
    "geocoded_column": {
      "latitude": "29.96128744759274",
      "longitude": "-90.01490810215277"
    }
  },
  {
    "service_request": "2024-1115497",
    "request_type": "Roads/Drainage",
    "request_reason": "Pothole",
    "date_created": "2024-07-24T14:38:14.000",
    "date_modified": "2024-07-24T14:38:14.000",
    "request_status": "Pending",
    "responsible_agency": "Department of Public Works",
    "final_address": "5118 Royal St",
    "address_councildis": "E",
    "status": "Pending",
    "rowid": "1115497",
    "final_x": "3695982.41334",
    "final_y": "532654.616324",
    "longitude": "-90.02229931914293",
    "latitude": "29.958167811717384",
    "geocoded_column": {
      "latitude": "29.958167811717384",
      "longitude": "-90.02229931914293"
    }
  },
  {
    "service_request": "2024-1115496",
    "request_type": "Trash/Recycling",
    "request_reason": "Request a Large Item Pick Up",
    "date_created": "2024-07-24T14:33:58.000",
    "date_modified": "2024-07-24T14:33:59.000",
    "request_status": "Pending",
    "responsible_agency": "Department of Sanitation",
    "final_address": "8006 Mullet St",
    "address_councildis": "E",
    "status": "Assigned to Contractor",
    "contractor": "Waste Pro",
    "rowid": "1115496",
    "final_x": "3698656.93104",
    "final_y": "561170.798622",
    "longitude": "-90.01281625046893",
    "latitude": "30.0364923281965",
    "geocoded_column": {
      "latitude": "30.0364923281965",
      "longitude": "-90.01281625046893"
    }
  },
  {
    "service_request": "2024-1115495",
    "request_type": "Healthy Homes",
    "request_reason": "Healthy Homes",
    "date_created": "2024-07-24T14:31:00.000",
    "date_modified": "2024-07-24T14:31:00.000",
    "request_status": "Pending",
    "responsible_agency": "Department of Code Enforcement",
    "final_address": "3021 Rue Parc Fontaine Apt 209",
    "address_councildis": "C",
    "status": "Pending",
    "rowid": "1115495",
    "final_x": "3699969.01373",
    "final_y": "519879.657848",
    "longitude": "-90.01017663607068",
    "latitude": "29.922915114475476",
    "geocoded_column": {
      "latitude": "29.922915114475476",
      "longitude": "-90.01017663607068"
    }
  },
  {
    "service_request": "2024-1115494",
    "request_type": "Roads/Drainage",
    "request_reason": "Catch Basin - Broken/Damage",
    "date_created": "2024-07-24T14:30:09.000",
    "date_modified": "2024-07-24T14:30:09.000",
    "request_status": "Pending",
    "responsible_agency": "Department of Public Works",
    "final_address": "6029 Wingate Dr",
    "address_councildis": "D",
    "status": "Pending",
    "rowid": "1115494",
    "final_x": "3681256.76744",
    "final_y": "554993.805848",
    "longitude": "-90.06801985939302",
    "latitude": "30.020047772896564",
    "geocoded_column": {
      "latitude": "30.020047772896564",
      "longitude": "-90.06801985939302"
    }
  },
  {
    "service_request": "2024-1115493",
    "request_type": "Property Maintenance",
    "request_reason": "Property Maintenance",
    "date_created": "2024-07-24T14:28:16.000",
    "date_modified": "2024-07-24T14:58:30.000",
    "case_close_date": "2024-07-24T09:58:30.000",
    "request_status": "Closed",
    "responsible_agency": "Department of Code Enforcement",
    "final_address": "4527 Sierra Madre Dr",
    "address_councildis": "E",
    "status": "Referred to Code Enforcement",
    "rowid": "1115493",
    "final_x": "3714064.84069",
    "final_y": "555498.639257",
    "longitude": "-89.9643387950937",
    "latitude": "30.0203988999574",
    "geocoded_column": {
      "latitude": "30.0203988999574",
      "longitude": "-89.9643387950937"
    }
  },
  {
    "service_request": "2024-1115492",
    "request_type": "Property Maintenance",
    "request_reason": "Property Maintenance",
    "date_created": "2024-07-24T14:24:11.000",
    "date_modified": "2024-07-24T15:12:00.000",
    "case_close_date": "2024-07-24T10:12:00.000",
    "request_status": "Closed",
    "responsible_agency": "Department of Code Enforcement",
    "final_address": "1129 Teche St",
    "address_councildis": "C",
    "status": "Referred to Code Enforcement",
    "rowid": "1115492",
    "final_x": "3686567.98626",
    "final_y": "527280.545279",
    "longitude": "-90.05221715225159",
    "latitude": "29.94368377903549",
    "geocoded_column": {
      "latitude": "29.94368377903549",
      "longitude": "-90.05221715225159"
    }
  },
  {
    "service_request": "2024-1115491",
    "request_type": "Trash/Recycling",
    "request_reason": "Request a Large Item Pick Up",
    "date_created": "2024-07-24T14:20:19.000",
    "date_modified": "2024-07-24T14:20:21.000",
    "request_status": "Pending",
    "responsible_agency": "Department of Sanitation",
    "final_address": "201 16Th St",
    "address_councildis": "A",
    "status": "Assigned to Contractor",
    "contractor": "IV Waste",
    "rowid": "1115491",
    "final_x": "3665664.22554",
    "final_y": "548451.630418",
    "longitude": "-90.11750689956494",
    "latitude": "30.002523297269494",
    "geocoded_column": {
      "latitude": "30.002523297269494",
      "longitude": "-90.11750689956494"
    }
  },
  {
    "service_request": "2024-1115490",
    "request_type": "Roads/Drainage",
    "request_reason": "Catch Basin - Broken/Damage",
    "date_created": "2024-07-24T14:20:12.000",
    "date_modified": "2024-07-24T14:20:12.000",
    "request_status": "Pending",
    "responsible_agency": "Department of Public Works",
    "final_address": "6028 Wingate Dr",
    "address_councildis": "D",
    "status": "Pending",
    "rowid": "1115490",
    "final_x": "3681180.59823",
    "final_y": "554960.302232",
    "longitude": "-90.06826169862474",
    "latitude": "30.019957962720696",
    "geocoded_column": {
      "latitude": "30.019957962720696",
      "longitude": "-90.06826169862474"
    }
  },
  {
    "service_request": "2024-1115489",
    "request_type": "Healthy Homes",
    "request_reason": "Healthy Homes",
    "date_created": "2024-07-24T14:19:45.000",
    "date_modified": "2024-07-24T14:19:45.000",
    "request_status": "Pending",
    "responsible_agency": "Department of Code Enforcement",
    "final_address": "3500 Garden Oaks Dr Apt 1908",
    "address_councildis": "C",
    "status": "Pending",
    "rowid": "1115489",
    "final_x": "3696298.43171",
    "final_y": "518582.484407",
    "longitude": "-90.0218100358151",
    "latitude": "29.91946436442217",
    "geocoded_column": {
      "latitude": "29.91946436442217",
      "longitude": "-90.0218100358151"
    }
  },
  {
    "service_request": "2024-1115488",
    "request_type": "Trash/Recycling",
    "request_reason": "Repair Trash Cart",
    "date_created": "2024-07-24T14:17:32.000",
    "date_modified": "2024-07-24T14:17:33.000",
    "request_status": "Pending",
    "responsible_agency": "Department of Sanitation",
    "final_address": "5705 Wingate Dr",
    "address_councildis": "D",
    "status": "Assigned to Contractor",
    "contractor": "IV Waste",
    "rowid": "1115488",
    "final_x": "3681359.70671",
    "final_y": "553770.460055",
    "longitude": "-90.06773729776076",
    "latitude": "30.01668089216634",
    "geocoded_column": {
      "latitude": "30.01668089216634",
      "longitude": "-90.06773729776076"
    }
  },
  {
    "service_request": "2024-1115487",
    "request_type": "Mosquito, Termite & Rodent Control",
    "request_reason": "Mosquito Complaint",
    "date_created": "2024-07-24T14:13:50.000",
    "date_modified": "2024-07-24T14:13:50.000",
    "request_status": "Pending",
    "responsible_agency": "Mosquito, Termite & Rodent Control Board",
    "final_address": "5000 BLK Cucullu St",
    "address_councildis": "B",
    "status": "Pending",
    "rowid": "1115487",
    "final_x": "3668722.24979",
    "final_y": "525643.649288",
    "longitude": "-90.10861631056235",
    "latitude": "29.939719409433266",
    "geocoded_column": {
      "latitude": "29.939719409433266",
      "longitude": "-90.10861631056235"
    }
  },
  {
    "service_request": "2024-1115486",
    "request_type": "Parks & Parkways",
    "request_reason": "Request Tree Service (Right of Way/Public Property)",
    "date_created": "2024-07-24T14:12:01.000",
    "date_modified": "2024-07-24T14:12:02.000",
    "request_status": "Pending",
    "responsible_agency": "Department of Parks & Parkway",
    "final_address": "7919 Hickory St",
    "address_councildis": "A",
    "status": "Pending",
    "rowid": "1115486",
    "final_x": "3663855.0937",
    "final_y": "529557.974273",
    "longitude": "-90.12385223278154",
    "latitude": "29.95062469358755",
    "geocoded_column": {
      "latitude": "29.95062469358755",
      "longitude": "-90.12385223278154"
    }
  },
  {
    "service_request": "2024-1115485",
    "request_type": "Property Maintenance",
    "request_reason": "Property Maintenance",
    "date_created": "2024-07-24T14:11:52.000",
    "date_modified": "2024-07-24T14:11:53.000",
    "request_status": "Pending",
    "responsible_agency": "Department of Code Enforcement",
    "final_address": "3328 Short St",
    "address_councildis": "B",
    "status": "Pending",
    "rowid": "1115485",
    "final_x": "3667466.91674",
    "final_y": "533803.229893",
    "longitude": "-90.11230507393235",
    "latitude": "29.9621924313249",
    "geocoded_column": {
      "latitude": "29.9621924313249",
      "longitude": "-90.11230507393235"
    }
  },
  {
    "service_request": "2024-1115484",
    "request_type": "Trash/Recycling",
    "request_reason": "Request a Large Item Pick Up",
    "date_created": "2024-07-24T14:07:47.000",
    "date_modified": "2024-07-24T14:07:48.000",
    "request_status": "Pending",
    "responsible_agency": "Department of Sanitation",
    "final_address": "2229 Valence St",
    "address_councildis": "B",
    "status": "Assigned to Contractor",
    "contractor": "IV Waste",
    "rowid": "1115484",
    "final_x": "3669595.98734",
    "final_y": "523147.127163",
    "longitude": "-90.10594221855766",
    "latitude": "29.932829069973195",
    "geocoded_column": {
      "latitude": "29.932829069973195",
      "longitude": "-90.10594221855766"
    }
  },
  {
    "service_request": "2024-1115483",
    "request_type": "Property Maintenance",
    "request_reason": "Property Maintenance",
    "date_created": "2024-07-24T14:05:11.000",
    "date_modified": "2024-07-24T14:05:12.000",
    "request_status": "Pending",
    "responsible_agency": "Department of Code Enforcement",
    "final_address": "8800 Forshey St",
    "address_councildis": "A",
    "status": "Pending",
    "rowid": "1115483",
    "final_x": "3665085.24628",
    "final_y": "535624.66407",
    "longitude": "-90.11976514979902",
    "latitude": "29.967270345864762",
    "geocoded_column": {
      "latitude": "29.967270345864762",
      "longitude": "-90.11976514979902"
    }
  },
  {
    "service_request": "2024-1115482",
    "request_type": "Property Maintenance",
    "request_reason": "Property Maintenance",
    "date_created": "2024-07-24T14:03:46.000",
    "date_modified": "2024-07-24T14:03:47.000",
    "request_status": "Pending",
    "responsible_agency": "Department of Code Enforcement",
    "final_address": "325 Pacific Ave",
    "address_councildis": "C",
    "status": "Pending",
    "rowid": "1115482",
    "final_x": "3688492.33526",
    "final_y": "530529.903106",
    "longitude": "-90.04602623078246",
    "latitude": "29.952559100967342",
    "geocoded_column": {
      "latitude": "29.952559100967342",
      "longitude": "-90.04602623078246"
    }
  },