[
  {
    "service_request": "2025-1236715",
    "request_type": "Trash/Recycling",
    "request_reason": "Request a Large Item Pick Up",
    "date_created": "2025-10-29T23:53:29.000",
    "date_modified": "2025-10-29T23:53:31.000",
    "request_status": "Pending",
    "responsible_agency": "Department of Sanitation",
    "final_address": "1608 St Roch Ave",
    "address_councildis": "D",
    "status": "Assigned to Contractor",
    "contractor": "IV Waste",
    "rowid": "1236715",
    "final_x": "3686242.92745",
    "final_y": "538358.440649",
    "longitude": "-90.05285259097836",
    "latitude": "29.974154165029574",
    "geocoded_column": {
      "latitude": "29.974154165029574",
      "longitude": "-90.05285259097836"
    }
  },
  {
    "service_request": "2025-1236714",
    "request_type": "Streetlights",
    "request_reason": "Streetlight Outage/Malfunction",
    "date_created": "2025-10-29T23:04:45.000",
    "date_modified": "2025-10-29T23:04:47.000",
    "request_status": "Pending",
    "responsible_agency": "Department of Public Works",
    "final_address": "961 Emerald St",
    "address_councildis": "D",
    "status": "Pending",
    "rowid": "1236714",
    "final_x": "3671166.00878",
    "final_y": "554903.983704",
    "longitude": "-90.09990659770511",
    "latitude": "30.020103322865896",
    "geocoded_column": {
      "latitude": "30.020103322865896",
      "longitude": "-90.09990659770511"
    }
  },
  {
    "service_request": "2025-1236713",
    "request_type": "Streetlights",
    "request_reason": "Streetlight Outage/Malfunction",
    "date_created": "2025-10-29T23:03:55.000",
    "date_modified": "2025-10-29T23:03:57.000",
    "request_status": "Pending",
    "responsible_agency": "Department of Public Works",
    "final_address": "5037 Stephen Girard Ave",
    "address_councildis": "D",
    "status": "Pending",
    "rowid": "1236713",
    "final_x": "3692738.74781",
    "final_y": "551309.949717",
    "longitude": "-90.03187278940473",
    "latitude": "30.009564912973055",
    "geocoded_column": {
      "latitude": "30.009564912973055",
      "longitude": "-90.03187278940473"
    }
  },
  {
    "service_request": "2025-1236712",
    "request_type": "Health Related Request",
    "request_reason": "Noise Ordinance Complaint",
    "date_created": "2025-10-29T22:34:36.000",
    "date_modified": "2025-10-29T22:34:40.000",
    "request_status": "Pending",
    "responsible_agency": "Health Department",
    "final_address": "8214 Willow St",
    "address_councildis": "A",
    "status": "Pending",
    "rowid": "1236712",
    "final_x": "3662049.75815",
    "final_y": "529192.40992",
    "longitude": "-90.12956470927939",
    "latitude": "29.9496717833792",
    "geocoded_column": {
      "latitude": "29.9496717833792",
      "longitude": "-90.12956470927939"
    }
  },
  {
    "service_request": "2025-1236711",
    "request_type": "Trash/Recycling",
    "request_reason": "Repair Trash Cart",
    "date_created": "2025-10-29T21:57:57.000",
    "date_modified": "2025-10-29T21:57:58.000",
    "request_status": "Pending",
    "responsible_agency": "Department of Sanitation",
    "final_address": "2501 Third St",
    "address_councildis": "B",
    "status": "Assigned to Contractor",
    "contractor": "IV Waste",
    "rowid": "1236711",
    "final_x": "3674633.56622",
    "final_y": "525667.886525",
    "longitude": "-90.08995259618175",
    "latitude": "29.93961099952239",
    "geocoded_column": {
      "latitude": "29.93961099952239",
      "longitude": "-90.08995259618175"
    }
  },
  {
    "service_request": "2025-1236710",
    "request_type": "Property Maintenance",
    "request_reason": "Property Maintenance",
    "date_created": "2025-10-29T21:54:57.000",
    "date_modified": "2025-10-29T21:54:59.000",
    "request_status": "Pending",
    "responsible_agency": "Department of Code Enforcement",
    "final_address": "7501 Arbor Dr",
    "address_councildis": "E",
    "status": "Pending",
    "rowid": "1236710",
    "final_x": "3701461.84017",
    "final_y": "558301.5647",
    "longitude": "-90.00405741367722",
    "latitude": "30.028513868888417",
    "geocoded_column": {
      "latitude": "30.028513868888417",
      "longitude": "-90.00405741367722"
    }
  },
  {
    "service_request": "2025-1236709",
    "request_type": "Trash/Recycling",
    "request_reason": "Request a Large Item Pick Up",
    "date_created": "2025-10-29T21:49:21.000",
    "date_modified": "2025-10-29T21:49:24.000",
    "request_status": "Pending",
    "responsible_agency": "Department of Sanitation",
    "final_address": "2424 Jena St",
    "address_councildis": "B",
    "status": "Assigned to Contractor",
    "contractor": "IV Waste",
    "rowid": "1236709",
    "final_x": "3670095.28833",
    "final_y": "523874.683516",
    "longitude": "-90.10434132436562",
    "latitude": "29.93481490027657",
    "geocoded_column": {
      "latitude": "29.93481490027657",
      "longitude": "-90.10434132436562"
    }
  },
  {
    "service_request": "2025-1236708",
    "request_type": "Trash/Recycling",
    "request_reason": "Missed Trash Pick-Up",
    "date_created": "2025-10-29T20:42:07.000",
    "date_modified": "2025-10-29T20:42:10.000",
    "request_status": "Pending",
    "responsible_agency": "Department of Sanitation",
    "final_address": "7273 Canal Blvd",
    "address_councildis": "D",
    "status": "Assigned to Contractor",
    "contractor": "IV Waste",
    "rowid": "1236708",
    "final_x": "3669370.15649",
    "final_y": "555353.780249",
    "longitude": "-90.10556571449084",
    "latitude": "30.021393134964946",
    "geocoded_column": {
      "latitude": "30.021393134964946",
      "longitude": "-90.10556571449084"
    }
  },
  {
    "service_request": "2025-1236707",
    "request_type": "Trash/Recycling",
    "request_reason": "Repair Trash Cart",
    "date_created": "2025-10-29T20:28:41.000",
    "date_modified": "2025-10-29T20:28:43.000",
    "request_status": "Pending",
    "responsible_agency": "Department of Sanitation",
    "final_address": "1553 De Battista Pl",
    "address_councildis": "C",
    "status": "Assigned to Contractor",
    "contractor": "Richards Disposal",
    "rowid": "1236707",
    "final_x": "3699709.95844",
    "final_y": "525355.025853",
    "longitude": "-90.01079487893296",
    "latitude": "29.937978708588094",
    "geocoded_column": {
      "latitude": "29.937978708588094",
      "longitude": "-90.01079487893296"
    }
  },
  {
    "service_request": "2025-1236706",
    "request_type": "Streetlights",
    "request_reason": "Streetlight Outage/Malfunction",
    "date_created": "2025-10-29T20:26:23.000",
    "date_modified": "2025-10-29T20:26:25.000",
    "request_status": "Pending",
    "responsible_agency": "Department of Public Works",
    "final_address": "5500 BLK Rosemary Pl",
    "address_councildis": "A",
    "status": "Pending",
    "rowid": "1236706",
    "final_x": "3667096.71006",
    "final_y": "544284.815746",
    "longitude": "-90.11312165935534",
    "latitude": "29.991024117516528",
    "geocoded_column": {
      "latitude": "29.991024117516528",
      "longitude": "-90.11312165935534"
    }
  },
  {
    "service_request": "2025-1236705",
    "request_type": "Streetlights",
    "request_reason": "Streetlight Outage/Malfunction",
    "date_created": "2025-10-29T20:24:55.000",
    "date_modified": "2025-10-29T20:24:57.000",
    "request_status": "Pending",
    "responsible_agency": "Department of Public Works",
    "final_address": "5500 BLK Rosemary Pl",
    "address_councildis": "A",
    "status": "Pending",
    "rowid": "1236705",
    "final_x": "3667096.71006",
    "final_y": "544284.815746",
    "longitude": "-90.11312165935534",
    "latitude": "29.991024117516528",
    "geocoded_column": {
      "latitude": "29.991024117516528",
      "longitude": "-90.11312165935534"
    }
  },
  {
    "service_request": "2025-1236704",
    "request_type": "Trash/Recycling",
    "request_reason": "Replace Trash Cart",
    "date_created": "2025-10-29T19:58:12.000",
    "date_modified": "2025-10-29T19:58:14.000",
    "request_status": "Pending",
    "responsible_agency": "Department of Sanitation",
    "final_address": "1700 Fern St",
    "address_councildis": "A",
    "status": "Assigned to Contractor",
    "contractor": "IV Waste",
    "rowid": "1236704",
    "final_x": "3663710.84243",
    "final_y": "529199.635968",
    "longitude": "-90.12431964450678",
    "latitude": "29.949643564749703",
    "geocoded_column": {
      "latitude": "29.949643564749703",
      "longitude": "-90.12431964450678"
    }
  },
  {
    "service_request": "2025-1236703",
    "request_type": "Trash/Recycling",
    "request_reason": "Repair Recycling Cart",
    "date_created": "2025-10-29T19:32:56.000",
    "date_modified": "2025-10-29T19:32:58.000",
    "request_status": "Pending",
    "responsible_agency": "Department of Sanitation",
    "final_address": "1120 Upperline St",
    "address_councildis": "B",
    "status": "Pending",
    "rowid": "1236703",
    "final_x": "3668956.61812",
    "final_y": "519531.740663",
    "longitude": "-90.10808270904685",
    "latitude": "29.922906724893117",
    "geocoded_column": {
      "latitude": "29.922906724893117",
      "longitude": "-90.10808270904685"
    }
  },
  {
    "service_request": "2025-1236702",
    "request_type": "Trash/Recycling",
    "request_reason": "Illegal Dumping",
    "date_created": "2025-10-29T18:54:52.000",
    "date_modified": "2025-10-29T18:54:54.000",
    "request_status": "Pending",
    "responsible_agency": "Department of Sanitation",
    "final_address": "400 Leboeuf St",
    "address_councildis": "C",
    "status": "Pending",
    "rowid": "1236702",
    "final_x": "3689912.9775",
    "final_y": "530207.900801",
    "longitude": "-90.0415519632163",
    "latitude": "29.951629743634918",
    "geocoded_column": {
      "latitude": "29.951629743634918",
      "longitude": "-90.0415519632163"
    }
  },
  {
    "service_request": "2025-1236701",
    "request_type": "Trash/Recycling",
    "request_reason": "Request a Large Item Pick Up",
    "date_created": "2025-10-29T18:53:33.000",
    "date_modified": "2025-10-29T18:53:35.000",
    "request_status": "Pending",
    "responsible_agency": "Department of Sanitation",
    "final_address": "542 Vallette St",
    "address_councildis": "C",
    "status": "Assigned to Contractor",
    "contractor": "Richards Disposal",
    "rowid": "1236701",
    "final_x": "3687564.0358",
    "final_y": "529607.343041",
    "longitude": "-90.04899002380934",
    "latitude": "29.950051020657174",
    "geocoded_column": {
      "latitude": "29.950051020657174",
      "longitude": "-90.04899002380934"
    }
  },
  {
    "service_request": "2025-1236698",
    "request_type": "Streetlights",
    "request_reason": "Streetlight Outage/Malfunction",
    "date_created": "2025-10-29T18:26:03.000",
    "date_modified": "2025-10-29T18:26:08.000",
    "request_status": "Pending",
    "responsible_agency": "Department of Public Works",
    "final_address": "5950 Chef Menteur Hwy",
    "address_councildis": "E",
    "status": "Pending",
    "rowid": "1236698",
    "final_x": "3696520.0312",
    "final_y": "551430.003349",
    "longitude": "-90.0199221019063",
    "latitude": "30.00977638133447",
    "geocoded_column": {
      "latitude": "30.00977638133447",
      "longitude": "-90.0199221019063"
    }
  },
  {
    "service_request": "2025-1236697",
    "request_type": "General Services",
    "request_reason": "General Service Request",
    "date_created": "2025-10-29T18:13:20.000",
    "date_modified": "2025-10-29T18:13:23.000",
    "request_status": "Pending",
    "responsible_agency": "Orleans Parish Communication District",
    "final_address": "924 Upperline St",
    "address_councildis": "B",
    "status": "Pending",
    "rowid": "1236697",
    "final_x": "3668948.6793",
    "final_y": "518800.058615",
    "longitude": "-90.10813246488392",
    "latitude": "29.920895064146723",
    "geocoded_column": {
      "latitude": "29.920895064146723",
      "longitude": "-90.10813246488392"
    }
  },
  {
    "service_request": "2025-1236696",
    "request_type": "Trash/Recycling",
    "request_reason": "Order Trash Cart",
    "date_created": "2025-10-29T17:53:00.000",
    "date_modified": "2025-10-29T17:53:03.000",
    "request_status": "Pending",
    "responsible_agency": "Department of Sanitation",
    "final_address": "4400 BLK Saint Anthony Ave",
    "address_councildis": "D",
    "status": "Assigned to Contractor",
    "contractor": "IV Waste",
    "rowid": "1236696",
    "final_x": "3682520.65231",
    "final_y": "548893.249114",
    "longitude": "-90.06423987926942",
    "latitude": "30.00323501876668",
    "geocoded_column": {
      "latitude": "30.00323501876668",
      "longitude": "-90.06423987926942"
    }
  },
  {
    "service_request": "2025-1236695",
    "request_type": "Trash/Recycling",
    "request_reason": "Order Recycling Cart",
    "date_created": "2025-10-29T17:24:20.000",
    "date_modified": "2025-10-29T17:24:24.000",
    "request_status": "Pending",
    "responsible_agency": "Department of Sanitation",
    "final_address": "4400 BLK Saint Anthony Ave",
    "address_councildis": "D",
    "status": "Pending",
    "rowid": "1236695",
    "final_x": "3682520.65231",
    "final_y": "548893.249114",
    "longitude": "-90.06423987926942",
    "latitude": "30.00323501876668",
    "geocoded_column": {
      "latitude": "30.00323501876668",
      "longitude": "-90.06423987926942"
    }
  },
  {
    "service_request": "2025-1236694",
    "request_type": "Trash/Recycling",
    "request_reason": "Request a Large Item Pick Up",
    "date_created": "2025-10-29T16:57:08.000",
    "date_modified": "2025-10-29T16:57:13.000",
    "request_status": "Pending",
    "responsible_agency": "Department of Sanitation",
    "final_address": "6562 Coveview Ct",
    "address_councildis": "E",
    "status": "Assigned to Contractor",
    "contractor": "Waste Pro",
    "rowid": "1236694",
    "final_x": "3698898.9528",
    "final_y": "555659.189337",
    "longitude": "-90.01225223271055",
    "latitude": "30.021329849887138",
    "geocoded_column": {
      "latitude": "30.021329849887138",
      "longitude": "-90.01225223271055"
    }
  },
  {
    "service_request": "2025-1236693",
    "request_type": "Street and Traffic Signs",
    "request_reason": "Street Name Sign Damaged or Missing",
    "date_created": "2025-10-29T16:57:04.000",
    "date_modified": "2025-10-29T16:57:07.000",
    "request_status": "Pending",
    "responsible_agency": "Department of Public Works",
    "final_address": "6301 Eastover Dr",
    "address_councildis": "E",
    "status": "Pending",
    "rowid": "1236693",
    "final_x": "3717863.29727",
    "final_y": "564176.683361",
    "longitude": "-89.95200642885847",
    "latitude": "30.044134694630458",
    "geocoded_column": {
      "latitude": "30.044134694630458",
      "longitude": "-89.95200642885847"
    }
  },
  {
    "service_request": "2025-1236692",
    "request_type": "Trash/Recycling",
    "request_reason": "Replace Trash Cart",
    "date_created": "2025-10-29T16:56:49.000",
    "date_modified": "2025-10-29T16:56:53.000",
    "request_status": "Pending",
    "responsible_agency": "Department of Sanitation",
    "final_address": "206 Cherokee St",
    "address_councildis": "A",
    "status": "Assigned to Contractor",
    "contractor": "IV Waste",
    "rowid": "1236692",
    "final_x": "3661026.3801",
    "final_y": "524242.445244",
    "longitude": "-90.13295972905301",
    "latitude": "29.936090475245265",
    "geocoded_column": {
      "latitude": "29.936090475245265",
      "longitude": "-90.13295972905301"
    }
  },
  {
    "service_request": "2025-1236691",
    "request_type": "Trash/Recycling",
    "request_reason": "Illegal Dumping",
    "date_created": "2025-10-29T16:53:09.000",
    "date_modified": "2025-10-29T16:53:13.000",
    "request_status": "Pending",
    "responsible_agency": "Department of Sanitation",
    "final_address": "6301 Eastover Dr",
    "address_councildis": "E",
    "status": "Pending",
    "rowid": "1236691",
    "final_x": "3717863.29727",
    "final_y": "564176.683361",
    "longitude": "-89.95200642885847",
    "latitude": "30.044134694630458",
    "geocoded_column": {
      "latitude": "30.044134694630458",
      "longitude": "-89.95200642885847"
    }
  },
  {
    "service_request": "2025-1236690",
    "request_type": "Trash/Recycling",
    "request_reason": "Order Second Trash Cart",
    "date_created": "2025-10-29T16:47:01.000",
    "date_modified": "2025-10-29T16:47:04.000",
    "request_status": "Pending",
    "responsible_agency": "Department of Sanitation",
    "final_address": "8802 Forshey St",
    "address_councildis": "A",
    "status": "Assigned to Contractor",
    "contractor": "IV Waste",
    "rowid": "1236690",
    "final_x": "3665066.2226",
    "final_y": "535630.174406",
    "longitude": "-90.11982504277698",
    "latitude": "29.967286051460878",
    "geocoded_column": {
      "latitude": "29.967286051460878",
      "longitude": "-90.11982504277698"
    }
  },
  {
    "service_request": "2025-1236689",
    "request_type": "Trash/Recycling",
    "request_reason": "Request a Large Item Pick Up",
    "date_created": "2025-10-29T16:41:54.000",
    "date_modified": "2025-10-29T16:42:35.000",
    "request_status": "Pending",
    "responsible_agency": "Department of Sanitation",
    "final_address": "6115 N Johnson St",
    "address_councildis": "E",
    "status": "Assigned to Contractor",
    "contractor": "Waste Pro",
    "rowid": "1236689",
    "final_x": "3700934.91709",
    "final_y": "536501.818247",
    "longitude": "-90.00652011198102",
    "latitude": "29.968589498321023",
    "geocoded_column": {
      "latitude": "29.968589498321023",
      "longitude": "-90.00652011198102"
    }
  },
  {
    "service_request": "2025-1236688",
    "request_type": "Trash/Recycling",
    "request_reason": "Replace Trash Cart",
    "date_created": "2025-10-29T16:39:23.000",
    "date_modified": "2025-10-29T16:39:26.000",
    "request_status": "Pending",
    "responsible_agency": "Department of Sanitation",
    "final_address": "4651 Gabriel Dr",
    "address_councildis": "E",
    "status": "Assigned to Contractor",
    "contractor": "Waste Pro",
    "rowid": "1236688",
    "final_x": "3709005.96715",
    "final_y": "555173.864281",
    "longitude": "-89.98033525927221",
    "latitude": "30.0196711151423",
    "geocoded_column": {
      "latitude": "30.0196711151423",
      "longitude": "-89.98033525927221"
    }
  },
  {
    "service_request": "2025-1236687",
    "request_type": "Street and Traffic Signs",
    "request_reason": "Street Name Sign Damaged or Missing",
    "date_created": "2025-10-29T16:38:47.000",
    "date_modified": "2025-10-29T16:38:51.000",
    "request_status": "Pending",
    "responsible_agency": "Department of Public Works",
    "final_address": "7221 Voyageur Ct",
    "address_councildis": "E",
    "status": "Pending",
    "rowid": "1236687",
    "final_x": "3726512.13209",
    "final_y": "568830.034853",
    "longitude": "-89.92449183830298",
    "latitude": "30.05663994215329",
    "geocoded_column": {
      "latitude": "30.05663994215329",
      "longitude": "-89.92449183830298"
    }
  },
  {
    "service_request": "2025-1236686",
    "request_type": "Trash/Recycling",
    "request_reason": "Order Trash Cart",
    "date_created": "2025-10-29T16:35:46.000",
    "date_modified": "2025-10-29T16:35:52.000",
    "request_status": "Pending",
    "responsible_agency": "Department of Sanitation",
    "final_address": "7221 Voyageur Ct",
    "address_councildis": "E",
    "status": "Assigned to Contractor",
    "contractor": "Waste Pro",
    "rowid": "1236686",
    "final_x": "3726512.13209",
    "final_y": "568830.034853",
    "longitude": "-89.92449183830298",
    "latitude": "30.05663994215329",
    "geocoded_column": {
      "latitude": "30.05663994215329",
      "longitude": "-89.92449183830298"
    }
  },
  {
    "service_request": "2025-1236685",
    "request_type": "Trash/Recycling",
    "request_reason": "Request a Large Item Pick Up",
    "date_created": "2025-10-29T16:12:24.000",
    "date_modified": "2025-10-29T16:12:29.000",
    "request_status": "Pending",
    "responsible_agency": "Department of Sanitation",
    "final_address": "6954 Foch Rd",
    "address_councildis": "D",
    "status": "Assigned to Contractor",
    "contractor": "Waste Pro",
    "rowid": "1236685",
    "final_x": "3696456.46999",
    "final_y": "556667.512026",
    "longitude": "-90.01993324472464",
    "latitude": "30.024179558756934",
    "geocoded_column": {
      "latitude": "30.024179558756934",
      "longitude": "-90.01993324472464"
    }
  },
  {
    "service_request": "2025-1236684",
    "request_type": "Property Maintenance",
    "request_reason": "Property Maintenance",
    "date_created": "2025-10-29T16:10:32.000",
    "date_modified": "2025-10-29T16:10:36.000",
    "request_status": "Pending",
    "responsible_agency": "Department of Code Enforcement",
    "final_address": "2830 Behrman Hwy",
    "address_councildis": "C",
    "status": "Pending",
    "rowid": "1236684",
    "final_x": "3693362.00886",
    "final_y": "520319.306744",
    "longitude": "-90.03101650550178",
    "latitude": "29.924332131260602",
    "geocoded_column": {
      "latitude": "29.924332131260602",
      "longitude": "-90.03101650550178"
    }
  },
  {
    "service_request": "2025-1236683",
    "request_type": "Trash/Recycling",
    "request_reason": "Replace Trash Cart",
    "date_created": "2025-10-29T16:08:13.000",
    "date_modified": "2025-10-29T16:08:17.000",
    "request_status": "Pending",
    "responsible_agency": "Department of Sanitation",
    "final_address": "2515 Sage St",
    "address_councildis": "D",
    "status": "Assigned to Contractor",
    "contractor": "IV Waste",
    "rowid": "1236683",
    "final_x": "3686858.54729",
    "final_y": "545491.82408",
    "longitude": "-90.05065613373422",
    "latitude": "29.993749507352994",
    "geocoded_column": {
      "latitude": "29.993749507352994",
      "longitude": "-90.05065613373422"
    }
  },
  {
    "service_request": "2025-1236682",
    "request_type": "Trash/Recycling",
    "request_reason": "Missed Trash Pick-Up",
    "date_created": "2025-10-29T16:07:03.000",
    "date_modified": "2025-10-29T16:45:38.000",
    "case_close_date": "2025-10-29T11:45:36.000",
    "request_status": "Closed",
    "responsible_agency": "Department of Sanitation",
    "final_address": "7273 Canal Blvd",
    "address_councildis": "D",
    "status": "Invalid Request",
    "contractor": "IV Waste",
    "contractor_action": "Invalid",
    "rowid": "1236682",
    "final_x": "3669370.15649",
    "final_y": "555353.780249",
    "longitude": "-90.10556571449084",
    "latitude": "30.021393134964946",
    "geocoded_column": {
      "latitude": "30.021393134964946",
      "longitude": "-90.10556571449084"
    }
  },
  {
    "service_request": "2025-1236681",
    "request_type": "Abandoned Vehicles",
    "request_reason": "Abandoned/Junk Vehicles",
    "date_created": "2025-10-29T16:01:15.000",
    "date_modified": "2025-10-29T16:01:22.000",
    "request_status": "Pending",
    "responsible_agency": "Department of Public Works",
    "final_address": "2652 Orleans Ave",
    "address_councildis": "D",
    "status": "Pending",
    "rowid": "1236681",
    "final_x": "3676857.22241",
    "final_y": "536871.746184",
    "longitude": "-90.08254608498291",
    "latitude": "29.970351324460935",
    "geocoded_column": {
      "latitude": "29.970351324460935",
      "longitude": "-90.08254608498291"
    }
  },
  {
    "service_request": "2025-1236680",
    "request_type": "Streetlights",
    "request_reason": "Streetlight Outage/Malfunction",
    "date_created": "2025-10-29T16:00:13.000",
    "date_modified": "2025-10-29T16:00:19.000",
    "request_status": "Pending",
    "responsible_agency": "Department of Public Works",
    "final_address": "4450 Franklin Ave",
    "address_councildis": "D",
    "status": "Pending",
    "rowid": "1236680",
    "final_x": "3686839.5039",
    "final_y": "549344.500819",
    "longitude": "-90.05058004703302",
    "latitude": "30.004343563421003",
    "geocoded_column": {
      "latitude": "30.004343563421003",
      "longitude": "-90.05058004703302"
    }
  },
  {
    "service_request": "2025-1236679",
    "request_type": "Trash/Recycling",
    "request_reason": "Repair Trash Cart",
    "date_created": "2025-10-29T15:58:12.000",
    "date_modified": "2025-10-29T15:58:17.000",
    "request_status": "Pending",
    "responsible_agency": "Department of Sanitation",
    "final_address": "3938 Banks St",
    "address_councildis": "B",
    "status": "Assigned to Contractor",
    "contractor": "IV Waste",
    "rowid": "1236679",
    "final_x": "3670765.38305",
    "final_y": "537008.172744",
    "longitude": "-90.10178020181792",
    "latitude": "29.97090789186671",
    "geocoded_column": {
      "latitude": "29.97090789186671",
      "longitude": "-90.10178020181792"
    }
  },
  {
    "service_request": "2025-1236678",
    "request_type": "Trash/Recycling",
    "request_reason": "Order Second Trash Cart",
    "date_created": "2025-10-29T15:56:59.000",
    "date_modified": "2025-10-29T15:57:04.000",
    "request_status": "Pending",
    "responsible_agency": "Department of Sanitation",
    "final_address": "1931 St Claude Ave",
    "address_councildis": "C",
    "status": "Assigned to Contractor",
    "contractor": "IV Waste",
    "rowid": "1236678",
    "final_x": "3684129.64098",
    "final_y": "536257.877191",
    "longitude": "-90.05960057173445",
    "latitude": "29.96844311212494",
    "geocoded_column": {
      "latitude": "29.96844311212494",
      "longitude": "-90.05960057173445"
    }
  },
  {
    "service_request": "2025-1236677",
    "request_type": "Alley Ways",
    "request_reason": "Alley Way Issues",
    "date_created": "2025-10-29T15:56:36.000",
    "date_modified": "2025-10-29T15:57:42.000",
    "request_status": "Pending",
    "responsible_agency": "Department of Public Works",
    "final_address": "5944 Canal Blvd",
    "address_councildis": "A",
    "status": "Pending",
    "rowid": "1236677",
    "final_x": "3668285.55233",
    "final_y": "546976.946193",
    "longitude": "-90.10927553139781",
    "latitude": "29.998391686226864",
    "geocoded_column": {
      "latitude": "29.998391686226864",
      "longitude": "-90.10927553139781"
    }
  },
  {
    "service_request": "2025-1236676",
    "request_type": "Trash/Recycling",
    "request_reason": "Request a Large Item Pick Up",
    "date_created": "2025-10-29T15:54:40.000",
    "date_modified": "2025-10-29T15:54:44.000",
    "request_status": "Pending",
    "responsible_agency": "Department of Sanitation",
    "final_address": "321 S St Patrick St",
    "address_councildis": "A",
    "status": "Assigned to Contractor",
    "contractor": "IV Waste",
    "rowid": "1236676",
    "final_x": "3668489.77409",
    "final_y": "539082.344522",
    "longitude": "-90.10889689010287",
    "latitude": "29.976678224127557",
    "geocoded_column": {
      "latitude": "29.976678224127557",
      "longitude": "-90.10889689010287"
    }
  },
  {
    "service_request": "2025-1236675",
    "request_type": "Trash/Recycling",
    "request_reason": "Replace Trash Cart",
    "date_created": "2025-10-29T15:51:16.000",
    "date_modified": "2025-10-29T15:51:22.000",
    "request_status": "Pending",
    "responsible_agency": "Department of Sanitation",
    "final_address": "3938 Banks St",
    "address_councildis": "B",
    "status": "Assigned to Contractor",
    "contractor": "IV Waste",
    "rowid": "1236675",
    "final_x": "3670765.38305",
    "final_y": "537008.172744",
    "longitude": "-90.10178020181792",
    "latitude": "29.97090789186671",
    "geocoded_column": {
      "latitude": "29.97090789186671",
      "longitude": "-90.10178020181792"
    }
  },
  {
    "service_request": "2025-1236674",
    "request_type": "Trash/Recycling",
    "request_reason": "Request a Large Item Pick Up",
    "date_created": "2025-10-29T15:47:29.000",
    "date_modified": "2025-10-29T15:56:45.000",
    "request_status": "Pending",
    "responsible_agency": "Department of Sanitation",
    "final_address": "2309 Dryades St",
    "address_councildis": "B",
    "status": "Assigned to Contractor",
    "contractor": "IV Waste",
    "rowid": "1236674",
    "final_x": "3676468.39112",
    "final_y": "524238.482428",
    "longitude": "-90.08420899314687",
    "latitude": "29.935625733470538",
    "geocoded_column": {
      "latitude": "29.935625733470538",
      "longitude": "-90.08420899314687"
    }
  },
  {
    "service_request": "2025-1236673",
    "request_type": "Trash/Recycling",
    "request_reason": "Request a Large Item Pick Up",
    "date_created": "2025-10-29T15:46:11.000",
    "date_modified": "2025-10-29T15:46:17.000",
    "request_status": "Pending",
    "responsible_agency": "Department of Sanitation",
    "final_address": "2324 George Nick Connor Dr",
    "address_councildis": "D",
    "status": "Assigned to Contractor",
    "contractor": "IV Waste",
    "rowid": "1236673",
    "final_x": "3681172.22152",
    "final_y": "540650.053899",
    "longitude": "-90.06878716671181",
    "latitude": "29.980610140999396",
    "geocoded_column": {
      "latitude": "29.980610140999396",
      "longitude": "-90.06878716671181"
    }
  },
  {
    "service_request": "2025-1236672",
    "request_type": "Trash/Recycling",
    "request_reason": "Order Recycling Cart",
    "date_created": "2025-10-29T15:45:35.000",
    "date_modified": "2025-10-29T15:45:39.000",
    "request_status": "Pending",
    "responsible_agency": "Department of Sanitation",
    "final_address": "13 Christopher Ct",
    "address_councildis": "E",
    "status": "Pending",
    "rowid": "1236672",
    "final_x": "3716706.41599",
    "final_y": "570559.862055",
    "longitude": "-89.95542005243937",
    "latitude": "30.06172410733423",
    "geocoded_column": {
      "latitude": "30.06172410733423",
      "longitude": "-89.95542005243937"
    }
  },
  {
    "service_request": "2025-1236671",
    "request_type": "Trash/Recycling",
    "request_reason": "Order Trash Cart",
    "date_created": "2025-10-29T15:43:44.000",
    "date_modified": "2025-10-29T15:43:49.000",
    "request_status": "Pending",
    "responsible_agency": "Department of Sanitation",
    "final_address": "13 Christopher Ct",
    "address_councildis": "E",
    "status": "Assigned to Contractor",
    "contractor": "Waste Pro",
    "rowid": "1236671",
    "final_x": "3716706.41599",
    "final_y": "570559.862055",
    "longitude": "-89.95542005243937",
    "latitude": "30.06172410733423",
    "geocoded_column": {
      "latitude": "30.06172410733423",
      "longitude": "-89.95542005243937"
    }
  },
  {
    "service_request": "2025-1236670",
    "request_type": "Abandoned Vehicles",
    "request_reason": "Abandoned/Junk Vehicles",
    "date_created": "2025-10-29T15:38:47.000",
    "date_modified": "2025-10-29T15:38:53.000",
    "request_status": "Pending",
    "responsible_agency": "Department of Public Works",
    "final_address": "1711 Montegut St",
    "address_councildis": "D",
    "status": "Pending",
    "rowid": "1236670",
    "final_x": "3689056.70825",
    "final_y": "538487.208713",
    "longitude": "-90.0439614735665",
    "latitude": "29.974421471390027",
    "geocoded_column": {
      "latitude": "29.974421471390027",
      "longitude": "-90.0439614735665"
    }
  },
  {
    "service_request": "2025-1236669",
    "request_type": "Street and Traffic Signs",
    "request_reason": "Stop Sign Missing or Damaged",
    "date_created": "2025-10-29T15:38:01.000",
    "date_modified": "2025-10-29T15:38:07.000",
    "request_status": "Pending",
    "responsible_agency": "Department of Public Works",
    "final_address": "FORSHEY ST & HOLLYGROVE ST",
    "address_councildis": "A",
    "status": "Pending",
    "rowid": "1236669",
    "final_x": "3664665.6",
    "final_y": "536057.08",
    "longitude": "-90.12107595641918",
    "latitude": "29.968471561147773",
    "geocoded_column": {
      "latitude": "29.968471561147773",
      "longitude": "-90.12107595641918"
    }
  },
  {
    "service_request": "2025-1236668",
    "request_type": "Utility Poles",
    "request_reason": "Wires Sagging/Hanging Low",
    "date_created": "2025-10-29T15:30:10.000",
    "date_modified": "2025-10-29T15:30:15.000",
    "request_status": "Pending",
    "responsible_agency": "Utility Company Collective",
    "final_address": "934 Desire St",
    "address_councildis": "C",
    "status": "Pending",
    "rowid": "1236668",
    "final_x": "3690018.37027",
    "final_y": "535188.149254",
    "longitude": "-90.04104183421296",
    "latitude": "29.96532042909405",
    "geocoded_column": {
      "latitude": "29.96532042909405",
      "longitude": "-90.04104183421296"
    }
  },
  {
    "service_request": "2025-1236667",
    "request_type": "Trash/Recycling",
    "request_reason": "Request a Large Item Pick Up",
    "date_created": "2025-10-29T15:29:15.000",
    "date_modified": "2025-10-29T15:29:20.000",
    "request_status": "Pending",
    "responsible_agency": "Department of Sanitation",
    "final_address": "6018 Chatham Dr",
    "address_councildis": "D",
    "status": "Assigned to Contractor",
    "contractor": "IV Waste",
    "rowid": "1236667",
    "final_x": "3679508.58767",
    "final_y": "554610.554584",
    "longitude": "-90.0735568677078",
    "latitude": "30.019046935984417",
    "geocoded_column": {
      "latitude": "30.019046935984417",
      "longitude": "-90.0735568677078"
    }
  },
  {
    "service_request": "2025-1236666",
    "request_type": "Trash/Recycling",
    "request_reason": "Order Second Trash Cart",
    "date_created": "2025-10-29T15:25:46.000",
    "date_modified": "2025-10-29T15:25:50.000",
    "request_status": "Pending",
    "responsible_agency": "Department of Sanitation",
    "final_address": "2655 Hyman Pl",
    "address_councildis": "C",
    "status": "Assigned to Contractor",
    "contractor": "Richards Disposal",
    "rowid": "1236666",
    "final_x": "3700987.68509",
    "final_y": "521197.391865",
    "longitude": "-90.00691295937551",
    "latitude": "29.926506045346628",
    "geocoded_column": {
      "latitude": "29.926506045346628",
      "longitude": "-90.00691295937551"
    }
  },
  {
    "service_request": "2025-1236665",
    "request_type": "Trash/Recycling",
    "request_reason": "Request a Large Item Pick Up",
    "date_created": "2025-10-29T15:20:09.000",
    "date_modified": "2025-10-29T15:20:17.000",
    "request_status": "Pending",
    "responsible_agency": "Department of Sanitation",
    "final_address": "1222 Odeon St",
    "address_councildis": "C",
    "status": "Assigned to Contractor",
    "contractor": "Richards Disposal",
    "rowid": "1236665",
    "final_x": "3696062.72163",
    "final_y": "526763.369918",
    "longitude": "-90.02225858406005",
    "latitude": "29.941966415867494",
    "geocoded_column": {
      "latitude": "29.941966415867494",
      "longitude": "-90.02225858406005"
    }
  },
  {
    "service_request": "2025-1236664",
    "request_type": "Parks & Parkways",
    "request_reason": "Request Tree Service (Right of Way/Public Property)",
    "date_created": "2025-10-29T15:15:59.000",
    "date_modified": "2025-10-29T15:16:06.000",
    "request_status": "Pending",
    "responsible_agency": "Department of Parks & Parkway",
    "final_address": "2010 Palmer Ave",
    "address_councildis": "A",
    "status": "Pending",
    "rowid": "1236664",
    "final_x": "3665783.60954",
    "final_y": "524427.199292",
    "longitude": "-90.11793478513788",
    "latitude": "29.93646059890064",
    "geocoded_column": {
      "latitude": "29.93646059890064",
      "longitude": "-90.11793478513788"
    }
  },
  {
    "service_request": "2025-1236663",
    "request_type": "Streetlights",
    "request_reason": "Streetlight Outage/Malfunction",
    "date_created": "2025-10-29T15:07:18.000",
    "date_modified": "2025-10-29T15:07:20.000",
    "request_status": "Pending",
    "responsible_agency": "Department of Public Works",
    "final_address": "7712 Jeannette St",
    "address_councildis": "A",
    "status": "Pending",
    "rowid": "1236663",
    "final_x": "3663638.33722",
    "final_y": "528215.278912",
    "longitude": "-90.12458136462105",
    "latitude": "29.946939002914423",
    "geocoded_column": {
      "latitude": "29.946939002914423",
      "longitude": "-90.12458136462105"
    }
  },
  {
    "service_request": "2025-1236662",
    "request_type": "Trash/Recycling",
    "request_reason": "Request a Large Item Pick Up",
    "date_created": "2025-10-29T15:06:32.000",
    "date_modified": "2025-10-29T15:06:37.000",
    "request_status": "Pending",
    "responsible_agency": "Department of Sanitation",
    "final_address": "106 Norland Ave",
    "address_councildis": "C",
    "status": "Assigned to Contractor",
    "contractor": "Richards Disposal",
    "rowid": "1236662",
    "final_x": "3705971.03556",
    "final_y": "520482.352248",
    "longitude": "-89.99120847264905",
    "latitude": "29.92438037515692",
    "geocoded_column": {
      "latitude": "29.92438037515692",
      "longitude": "-89.99120847264905"
    }
  },
  {
    "service_request": "2025-1236661",
    "request_type": "Utility Poles",
    "request_reason": "Wires Sagging/Hanging Low",
    "date_created": "2025-10-29T15:04:12.000",
    "date_modified": "2025-10-29T15:04:15.000",
    "request_status": "Pending",
    "responsible_agency": "Utility Company Collective",
    "final_address": "3018 N Rampart St",
    "address_councildis": "C",
    "status": "Pending",
    "rowid": "1236661",
    "final_x": "3688490.815",
    "final_y": "535629.945222",
    "longitude": "-90.04585008855632",
    "latitude": "29.96658249628761",
    "geocoded_column": {
      "latitude": "29.96658249628761",
      "longitude": "-90.04585008855632"
    }
  },
  {
    "service_request": "2025-1236660",
    "request_type": "Trash/Recycling",
    "request_reason": "Return Trash Cart",
    "date_created": "2025-10-29T15:01:08.000",
    "date_modified": "2025-10-29T15:01:11.000",
    "request_status": "Pending",
    "responsible_agency": "Department of Sanitation",
    "final_address": "5520 Loyola Ave",
    "address_councildis": "A",
    "status": "Assigned to Contractor",
    "contractor": "IV Waste",
    "rowid": "1236660",
    "final_x": "3667187.98151",
    "final_y": "523025.699259",
    "longitude": "-90.11354821521977",
    "latitude": "29.932565887026126",
    "geocoded_column": {
      "latitude": "29.932565887026126",
      "longitude": "-90.11354821521977"
    }
  },
  {
    "service_request": "2025-1236659",
    "request_type": "Streetlights",
    "request_reason": "Streetlight Outage/Malfunction",
    "date_created": "2025-10-29T14:54:50.000",
    "date_modified": "2025-10-29T14:54:55.000",
    "request_status": "Pending",
    "responsible_agency": "Department of Public Works",
    "final_address": "3520 Preston Pl",
    "address_councildis": "C",
    "status": "Pending",
    "rowid": "1236659",
    "final_x": "3708567.31153",
    "final_y": "517816.666614",
    "longitude": "-89.98311215391513",
    "latitude": "29.916966798404893",
    "geocoded_column": {
      "latitude": "29.916966798404893",
      "longitude": "-89.98311215391513"
    }
  },
  {
    "service_request": "2025-1236658",
    "request_type": "Abandoned Vehicles",
    "request_reason": "Abandoned/Junk Vehicles",
    "date_created": "2025-10-29T14:52:48.000",
    "date_modified": "2025-10-29T14:52:53.000",
    "request_status": "Pending",
    "responsible_agency": "Department of Public Works",
    "final_address": "TOULOUSE ST & N OLYMPIA ST",
    "address_councildis": "A",
    "status": "Pending",
    "rowid": "1236658",
    "final_x": "3670494.6",
    "final_y": "541042.78",
    "longitude": "-90.1024985018874",
    "latitude": "29.982009697026022",
    "geocoded_column": {
      "latitude": "29.982009697026022",
      "longitude": "-90.1024985018874"
    }
  },
  {
    "service_request": "2025-1236657",
    "request_type": "Trash/Recycling",
    "request_reason": "Order Trash Cart",
    "date_created": "2025-10-29T14:51:26.000",
    "date_modified": "2025-10-29T14:51:30.000",
    "request_status": "Pending",
    "responsible_agency": "Department of Sanitation",
    "final_address": "2410 State St",
    "address_councildis": "A",
    "status": "Assigned to Contractor",
    "contractor": "IV Waste",
    "rowid": "1236657",
    "final_x": "3666667.59514",
    "final_y": "525537.662845",
    "longitude": "-90.11510672634142",
    "latitude": "29.939488206120803",
    "geocoded_column": {
      "latitude": "29.939488206120803",
      "longitude": "-90.11510672634142"
    }
  },
  {
    "service_request": "2025-1236656",
    "request_type": "Trash/Recycling",
    "request_reason": "Missed Trash Pick-Up",
    "date_created": "2025-10-29T14:50:30.000",
    "date_modified": "2025-10-29T15:54:40.000",
    "case_close_date": "2025-10-29T10:54:37.000",
    "request_status": "Closed",
    "responsible_agency": "Department of Sanitation",
    "final_address": "2024 Adams St",
    "address_councildis": "A",
    "status": "Invalid Request",
    "contractor": "IV Waste",
    "contractor_action": "Invalid",
    "rowid": "1236656",
    "final_x": "3665071.09287",
    "final_y": "529649.018305",
    "longitude": "-90.1200096725507",
    "latitude": "29.950839686176813",
    "geocoded_column": {
      "latitude": "29.950839686176813",
      "longitude": "-90.1200096725507"
    }
  },
  {
    "service_request": "2025-1236655",
    "request_type": "Trash/Recycling",
    "request_reason": "Replace Trash Cart",
    "date_created": "2025-10-29T14:49:00.000",
    "date_modified": "2025-10-29T14:49:02.000",
    "request_status": "Pending",
    "responsible_agency": "Department of Sanitation",
    "final_address": "2653 Madrid St",
    "address_councildis": "D",
    "status": "Assigned to Contractor",
    "contractor": "IV Waste",
    "rowid": "1236655",
    "final_x": "3686888.64041",
    "final_y": "555648.462105",
    "longitude": "-90.05020180030003",
    "latitude": "30.02167563035786",
    "geocoded_column": {
      "latitude": "30.02167563035786",
      "longitude": "-90.05020180030003"
    }
  },
  {
    "service_request": "2025-1236654",
    "request_type": "Utility Poles",
    "request_reason": "Wires Sagging/Hanging Low",
    "date_created": "2025-10-29T14:48:12.000",
    "date_modified": "2025-10-29T14:48:15.000",
    "request_status": "Pending",
    "responsible_agency": "Utility Company Collective",
    "final_address": "HARMONY ST & S LIBERTY ST",
    "address_councildis": "B",
    "status": "Pending",
    "rowid": "1236654",
    "final_x": "3673724.0",
    "final_y": "524066.28",
    "longitude": "-90.09287896660568",
    "latitude": "29.935234211199866",
    "geocoded_column": {
      "latitude": "29.935234211199866",
      "longitude": "-90.09287896660568"
    }
  },
  {
    "service_request": "2025-1236653",
    "request_type": "Utility Poles",
    "request_reason": "Utility Pole Down",
    "date_created": "2025-10-29T14:45:09.000",
    "date_modified": "2025-10-29T14:49:33.000",
    "request_status": "Pending",
    "responsible_agency": "Utility Company Collective",
    "final_address": "St Charles",
    "address_councildis": "B",
    "status": "Pending",
    "rowid": "1236653",
    "final_x": "3678017.69902",
    "final_y": "524100.331324",
    "longitude": "-90.07932258198856",
    "latitude": "29.935199331585935",
    "geocoded_column": {
      "latitude": "29.935199331585935",
      "longitude": "-90.07932258198856"
    }
  },
  {
    "service_request": "2025-1236652",
    "request_type": "Abandoned Vehicles",
    "request_reason": "Abandoned/Junk Vehicles",
    "date_created": "2025-10-29T14:44:44.000",
    "date_modified": "2025-10-29T14:44:49.000",
    "request_status": "Pending",
    "responsible_agency": "Department of Public Works",
    "final_address": "729 Second St",
    "address_councildis": "B",
    "status": "Pending",
    "rowid": "1236652",
    "final_x": "3678552.49499",
    "final_y": "520320.456696",
    "longitude": "-90.0777649898052",
    "latitude": "29.92478980869324",
    "geocoded_column": {
      "latitude": "29.92478980869324",
      "longitude": "-90.0777649898052"
    }
  },
  {
    "service_request": "2025-1236650",
    "request_type": "Trash/Recycling",
    "request_reason": "Order Second Trash Cart",
    "date_created": "2025-10-29T14:41:52.000",
    "date_modified": "2025-10-29T14:41:58.000",
    "request_status": "Pending",
    "responsible_agency": "Department of Sanitation",
    "final_address": "3321 Fourth St",
    "address_councildis": "B",
    "status": "Assigned to Contractor",
    "contractor": "IV Waste",
    "rowid": "1236650",
    "final_x": "3672762.18958",
    "final_y": "527936.414207",
    "longitude": "-90.09578344782766",
    "latitude": "29.945904413030615",
    "geocoded_column": {
      "latitude": "29.945904413030615",
      "longitude": "-90.09578344782766"
    }
  },
  {
    "service_request": "2025-1236649",
    "request_type": "Drainage",
    "request_reason": "Catch Basin Not Draining",
    "date_created": "2025-10-29T14:39:56.000",
    "date_modified": "2025-10-29T14:39:59.000",
    "request_status": "Pending",
    "responsible_agency": "Sewerage & Water Board",
    "final_address": "4333 S Carrollton Ave",
    "address_councildis": "A",
    "status": "Pending",
    "rowid": "1236649",
    "final_x": "3669890.22196",
    "final_y": "537107.152456",
    "longitude": "-90.1045407277373",
    "latitude": "29.971205887848555",
    "geocoded_column": {
      "latitude": "29.971205887848555",
      "longitude": "-90.1045407277373"
    }
  },
  {
    "service_request": "2025-1236648",
    "request_type": "Trash/Recycling",
    "request_reason": "Request a Large Item Pick Up",
    "date_created": "2025-10-29T14:38:55.000",
    "date_modified": "2025-10-29T14:38:59.000",
    "request_status": "Pending",
    "responsible_agency": "Department of Sanitation",
    "final_address": "4404 Rhodes Dr",
    "address_councildis": "E",
    "status": "Assigned to Contractor",
    "contractor": "Waste Pro",
    "rowid": "1236648",
    "final_x": "3702608.19818",
    "final_y": "552862.174359",
    "longitude": "-90.00063491510917",
    "latitude": "30.01352101854222",
    "geocoded_column": {
      "latitude": "30.01352101854222",
      "longitude": "-90.00063491510917"
    }
  },
  {
    "service_request": "2025-1236647",
    "request_type": "Parks & Parkways",
    "request_reason": "Request Tree Service (Right of Way/Public Property)",
    "date_created": "2025-10-29T14:38:03.000",
    "date_modified": "2025-10-29T14:52:41.000",
    "case_close_date": "2025-10-29T09:52:39.000",
    "request_status": "Closed",
    "responsible_agency": "Department of Parks & Parkway",
    "final_address": "2301 Joseph St",
    "address_councildis": "A",
    "status": "Duplicate Request",
    "rowid": "1236647",
    "final_x": "3667439.30279",
    "final_y": "524508.228796",
    "longitude": "-90.11270495565576",
    "latitude": "29.936635010418236",
    "geocoded_column": {
      "latitude": "29.936635010418236",
      "longitude": "-90.11270495565576"
    }
  },
  {
    "service_request": "2025-1236646",
    "request_type": "Trash/Recycling",
    "request_reason": "Order Recycling Cart",
    "date_created": "2025-10-29T14:27:23.000",
    "date_modified": "2025-10-29T14:27:28.000",
    "request_status": "Pending",
    "responsible_agency": "Department of Sanitation",
    "final_address": "5024 S Claiborne Ave",
    "address_councildis": "B",
    "status": "Pending",
    "rowid": "1236646",
    "final_x": "3668632.3865",
    "final_y": "525959.016573",
    "longitude": "-90.10888938290474",
    "latitude": "29.94058920842743",
    "geocoded_column": {
      "latitude": "29.94058920842743",
      "longitude": "-90.10888938290474"
    }
  },
  {
    "service_request": "2025-1236645",
    "request_type": "Trash/Recycling",
    "request_reason": "Request a Large Item Pick Up",
    "date_created": "2025-10-29T14:26:42.000",
    "date_modified": "2025-10-29T14:26:48.000",
    "request_status": "Pending",
    "responsible_agency": "Department of Sanitation",
    "final_address": "2309 Bienville Ave",
    "address_councildis": "B",
    "status": "Assigned to Contractor",
    "contractor": "IV Waste",
    "rowid": "1236645",
    "final_x": "3677135.50632",
    "final_y": "534810.457606",
    "longitude": "-90.08173833915107",
    "latitude": "29.964675126326956",
    "geocoded_column": {
      "latitude": "29.964675126326956",
      "longitude": "-90.08173833915107"
    }
  },
  {
    "service_request": "2025-1236644",
    "request_type": "Trash/Recycling",
    "request_reason": "Request a Large Item Pick Up",
    "date_created": "2025-10-29T14:26:33.000",
    "date_modified": "2025-10-29T14:27:46.000",
    "request_status": "Pending",
    "responsible_agency": "Department of Sanitation",
    "final_address": "3961 Louisiana Avenue Prkwy",
    "address_councildis": "B",
    "status": "Assigned to Contractor",
    "contractor": "IV Waste",
    "rowid": "1236644",
    "final_x": "3671071.32308",
    "final_y": "529502.936705",
    "longitude": "-90.10106890430876",
    "latitude": "29.950261942692194",
    "geocoded_column": {
      "latitude": "29.950261942692194",
      "longitude": "-90.10106890430876"
    }
  },
  {
    "service_request": "2025-1236643",
    "request_type": "Trash/Recycling",
    "request_reason": "Repair Recycling Cart",
    "date_created": "2025-10-29T14:26:19.000",
    "date_modified": "2025-10-29T14:26:26.000",
    "request_status": "Pending",
    "responsible_agency": "Department of Sanitation",
    "final_address": "5540 Rosemary Pl",
    "address_councildis": "A",
    "status": "Pending",
    "rowid": "1236643",
    "final_x": "3667015.51597",
    "final_y": "544196.419278",
    "longitude": "-90.11338110613254",
    "latitude": "29.99078343460651",
    "geocoded_column": {
      "latitude": "29.99078343460651",
      "longitude": "-90.11338110613254"
    }
  },
  {
    "service_request": "2025-1236642",
    "request_type": "Street and Traffic Signs",
    "request_reason": "Street Name Sign Damaged or Missing",
    "date_created": "2025-10-29T14:25:16.000",
    "date_modified": "2025-10-29T14:25:22.000",
    "request_status": "Pending",
    "responsible_agency": "Department of Public Works",
    "final_address": "FONTAINEBLEAU DR & AUDUBON ST",
    "address_councildis": "A",
    "status": "Pending",
    "rowid": "1236642",
    "final_x": "3667146.0",
    "final_y": "530595.08",
    "longitude": "-90.11342634237744",
    "latitude": "29.953380471186517",
    "geocoded_column": {
      "latitude": "29.953380471186517",
      "longitude": "-90.11342634237744"
    }
  },
  {
    "service_request": "2025-1236641",
    "request_type": "Trash/Recycling",
    "request_reason": "Replace Trash Cart",
    "date_created": "2025-10-29T14:21:26.000",
    "date_modified": "2025-10-29T14:22:24.000",
    "request_status": "Pending",
    "responsible_agency": "Department of Sanitation",
    "final_address": "1614 State St",
    "address_councildis": "A",
    "status": "Assigned to Contractor",
    "contractor": "IV Waste",
    "rowid": "1236641",
    "final_x": "3665762.42842",
    "final_y": "522719.192634",
    "longitude": "-90.1180588450045",
    "latitude": "29.931764741786097",
    "geocoded_column": {
      "latitude": "29.931764741786097",
      "longitude": "-90.1180588450045"
    }
  },
  {
    "service_request": "2025-1236640",
    "request_type": "Roads and Streets",
    "request_reason": "Push-up/Pavement Expansion",
    "date_created": "2025-10-29T14:20:54.000",
    "date_modified": "2025-10-29T14:21:01.000",
    "request_status": "Pending",
    "responsible_agency": "Department of Public Works",
    "final_address": "6100 BLK Perlita St",
    "address_councildis": "D",
    "status": "Pending",
    "rowid": "1236640",
    "final_x": "3678276.4984",
    "final_y": "555080.262987",
    "longitude": "-90.07743357548968",
    "latitude": "30.020375652778668",
    "geocoded_column": {
      "latitude": "30.020375652778668",
      "longitude": "-90.07743357548968"
    }
  },
  {
    "service_request": "2025-1236639",
    "request_type": "Trash/Recycling",
    "request_reason": "Request a Large Item Pick Up",
    "date_created": "2025-10-29T14:19:27.000",
    "date_modified": "2025-10-29T14:19:30.000",
    "request_status": "Pending",
    "responsible_agency": "Department of Sanitation",
    "final_address": "1413 Constance St",
    "address_councildis": "B",
    "status": "Assigned to Contractor",
    "contractor": "IV Waste",
    "rowid": "1236639",
    "final_x": "3680666.37237",
    "final_y": "524319.68998",
    "longitude": "-90.0709531001795",
    "latitude": "29.935722524467426",
    "geocoded_column": {
      "latitude": "29.935722524467426",
      "longitude": "-90.0709531001795"
    }
  },
  {
    "service_request": "2025-1236638",
    "request_type": "Abandoned Vehicles",
    "request_reason": "Abandoned/Junk Vehicles",
    "date_created": "2025-10-29T14:17:35.000",
    "date_modified": "2025-10-29T14:17:41.000",
    "request_status": "Pending",
    "responsible_agency": "Department of Public Works",
    "final_address": "WRIGHT RD & DWYER RD",
    "address_councildis": "E",
    "status": "Pending",
    "rowid": "1236638",
    "final_x": "3716325.8",
    "final_y": "558449.78",
    "longitude": "-89.95708294067948",
    "latitude": "30.028438893641248",
    "geocoded_column": {
      "latitude": "30.028438893641248",
      "longitude": "-89.95708294067948"
    }
  },
  {
    "service_request": "2025-1236637",
    "request_type": "Drainage",
    "request_reason": "Catch Basin Not Draining",
    "date_created": "2025-10-29T14:14:52.000",
    "date_modified": "2025-10-29T14:14:59.000",
    "request_status": "Pending",
    "responsible_agency": "Sewerage & Water Board",
    "final_address": "8901 Colapissa St",
    "address_councildis": "A",
    "status": "Pending",
    "rowid": "1236637",
    "final_x": "3664450.27949",
    "final_y": "535355.973702",
    "longitude": "-90.12177936357087",
    "latitude": "29.966550012047",
    "geocoded_column": {
      "latitude": "29.966550012047",
      "longitude": "-90.12177936357087"
    }
  },
  {
    "service_request": "2025-1236636",
    "request_type": "Trash/Recycling",
    "request_reason": "Illegal Dumping",
    "date_created": "2025-10-29T14:13:56.000",
    "date_modified": "2025-10-29T14:14:00.000",
    "request_status": "Pending",
    "responsible_agency": "Department of Sanitation",
    "final_address": "1128 Flood St",
    "address_councildis": "E",
    "status": "Pending",
    "rowid": "1236636",
    "final_x": "3697745.56221",
    "final_y": "534162.806917",
    "longitude": "-90.01667708882717",
    "latitude": "29.962259213135972",
    "geocoded_column": {
      "latitude": "29.962259213135972",
      "longitude": "-90.01667708882717"
    }
  },
  {
    "service_request": "2025-1236635",
    "request_type": "Trash/Recycling",
    "request_reason": "Order Recycling Cart",
    "date_created": "2025-10-29T14:08:26.000",
    "date_modified": "2025-10-29T14:08:30.000",
    "request_status": "Pending",
    "responsible_agency": "Department of Sanitation",
    "final_address": "2236 Prytania St",
    "address_councildis": "B",
    "status": "Pending",
    "rowid": "1236635",
    "final_x": "3677721.41538",
    "final_y": "523055.473083",
    "longitude": "-90.08029402138911",
    "latitude": "29.932335226517772",
    "geocoded_column": {
      "latitude": "29.932335226517772",
      "longitude": "-90.08029402138911"
    }
  },
  {
    "service_request": "2025-1236634",
    "request_type": "Parks & Parkways",
    "request_reason": "Request Tree Service (Right of Way/Public Property)",
    "date_created": "2025-10-29T14:06:56.000",
    "date_modified": "2025-10-29T14:07:52.000",
    "request_status": "Pending",
    "responsible_agency": "Department of Parks & Parkway",
    "final_address": "10000 BLK Lake Forest Blvd",
    "address_councildis": "E",
    "status": "Pending",
    "rowid": "1236634",
    "final_x": "3711492.82468",
    "final_y": "560035.767511",
    "longitude": "-89.9722952151593",
    "latitude": "30.03295845537357",
    "geocoded_column": {
      "latitude": "30.03295845537357",
      "longitude": "-89.9722952151593"
    }
  },
  {
    "service_request": "2025-1236633",
    "request_type": "Drainage",
    "request_reason": "Drainage Manhole Cover Missing or Damaged",
    "date_created": "2025-10-29T13:56:44.000",
    "date_modified": "2025-10-29T13:56:51.000",
    "request_status": "Pending",
    "responsible_agency": "Sewerage & Water Board",
    "final_address": "4500 Magazine St",
    "address_councildis": "B",
    "status": "Pending",
    "rowid": "1236633",
    "final_x": "3670622.99195",
    "final_y": "518710.399927",
    "longitude": "-90.10285044646265",
    "latitude": "29.920599198235752",
    "geocoded_column": {
      "latitude": "29.920599198235752",
      "longitude": "-90.10285044646265"
    }
  },
  {
    "service_request": "2025-1236632",
    "request_type": "Streetlights",
    "request_reason": "Streetlight Outage/Malfunction",
    "date_created": "2025-10-29T13:55:04.000",
    "date_modified": "2025-10-29T13:56:02.000",
    "request_status": "Pending",
    "responsible_agency": "Department of Public Works",
    "final_address": "4320 Eastern St",
    "address_councildis": "D",
    "status": "Pending",
    "rowid": "1236632",
    "final_x": "3688091.48265",
    "final_y": "549037.042515",
    "longitude": "-90.04663573092411",
    "latitude": "30.00345956739647",
    "geocoded_column": {
      "latitude": "30.00345956739647",
      "longitude": "-90.04663573092411"
    }
  },
  {
    "service_request": "2025-1236631",
    "request_type": "Trash/Recycling",
    "request_reason": "Repair Trash Cart",
    "date_created": "2025-10-29T13:54:38.000",
    "date_modified": "2025-10-29T13:54:43.000",
    "request_status": "Pending",
    "responsible_agency": "Department of Sanitation",
    "final_address": "6654 Louisville St, New Orleans, Louisiana, 70124",
    "address_councildis": "A",
    "status": "Assigned to Contractor",
    "contractor": "IV Waste",
    "rowid": "1236631",
    "final_x": "3668059.41351",
    "final_y": "551917.204118",
    "longitude": "-90.1098232644216",
    "latitude": "30.011982316341307",
    "geocoded_column": {
      "latitude": "30.011982316341307",
      "longitude": "-90.1098232644216"
    }
  },
  {
    "service_request": "2025-1236630",
    "request_type": "Trash/Recycling",
    "request_reason": "Request a Large Item Pick Up",
    "date_created": "2025-10-29T13:49:07.000",
    "date_modified": "2025-10-29T13:49:09.000",
    "request_status": "Pending",
    "responsible_agency": "Department of Sanitation",
    "final_address": "2125 Willow St",
    "address_councildis": "B",
    "status": "Assigned to Contractor",
    "contractor": "IV Waste",
    "rowid": "1236630",
    "final_x": "3674955.18568",
    "final_y": "527465.695295",
    "longitude": "-90.08887555373869",
    "latitude": "29.94454478271209",
    "geocoded_column": {
      "latitude": "29.94454478271209",
      "longitude": "-90.08887555373869"
    }
  },
  {
    "service_request": "2025-1236629",
    "request_type": "Trash/Recycling",
    "request_reason": "Request a Large Item Pick Up",
    "date_created": "2025-10-29T13:48:27.000",
    "date_modified": "2025-10-29T13:48:29.000",
    "request_status": "Pending",
    "responsible_agency": "Department of Sanitation",
    "final_address": "5651 Red Maple Dr",
    "address_councildis": "E",
    "status": "Assigned to Contractor",
    "contractor": "Waste Pro",
    "rowid": "1236629",
    "final_x": "3723463.47513",
    "final_y": "564349.357281",
    "longitude": "-89.93430095072014",
    "latitude": "30.044422658307703",
    "geocoded_column": {
      "latitude": "30.044422658307703",
      "longitude": "-89.93430095072014"
    }
  },
  {
    "service_request": "2025-1236628",
    "request_type": "Abandoned Vehicles",
    "request_reason": "Abandoned/Junk Vehicles",
    "date_created": "2025-10-29T13:46:12.000",
    "date_modified": "2025-10-29T13:51:19.000",
    "request_status": "Pending",
    "responsible_agency": "Department of Public Works",
    "final_address": "8700 BLK Green St",
    "address_councildis": "A",
    "status": "Inspected",
    "rowid": "1236628",
    "final_x": "3661438.64067",
    "final_y": "531224.488848",
    "longitude": "-90.13142699419195",
    "latitude": "29.95527698606181",
    "geocoded_column": {
      "latitude": "29.95527698606181",
      "longitude": "-90.13142699419195"
    }
  },
  {
    "service_request": "2025-1236627",
    "request_type": "Roads and Streets",
    "request_reason": "Sidewalk Damaged or Missing",
    "date_created": "2025-10-29T13:45:16.000",
    "date_modified": "2025-10-29T13:45:20.000",
    "request_status": "Pending",
    "responsible_agency": "Department of Public Works",
    "final_address": "351 Audubon St",
    "address_councildis": "A",
    "status": "Pending",
    "rowid": "1236627",
    "final_x": "3661892.51463",
    "final_y": "522468.711802",
    "longitude": "-90.13028409890177",
    "latitude": "29.9311882890828",
    "geocoded_column": {
      "latitude": "29.9311882890828",
      "longitude": "-90.13028409890177"
    }
  },
  {
    "service_request": "2025-1236626",
    "request_type": "Trash/Recycling",
    "request_reason": "Illegal Dumping",
    "date_created": "2025-10-29T13:44:31.000",
    "date_modified": "2025-10-29T13:44:37.000",
    "request_status": "Pending",
    "responsible_agency": "Department of Sanitation",
    "final_address": "2226 Tupelo St",
    "address_councildis": "E",
    "status": "Pending",
    "rowid": "1236626",
    "final_x": "3701042.99831",
    "final_y": "537488.634696",
    "longitude": "-90.00614269152202",
    "latitude": "29.971299445186887",
    "geocoded_column": {
      "latitude": "29.971299445186887",
      "longitude": "-90.00614269152202"
    }
  },
  {
    "service_request": "2025-1236625",
    "request_type": "Trash/Recycling",
    "request_reason": "Request a Large Item Pick Up",
    "date_created": "2025-10-29T13:42:54.000",
    "date_modified": "2025-10-29T13:43:00.000",
    "request_status": "Pending",
    "responsible_agency": "Department of Sanitation",
    "final_address": "1015 Aline St",
    "address_councildis": "B",
    "status": "Assigned to Contractor",
    "contractor": "IV Waste",
    "rowid": "1236625",
    "final_x": "3674566.83688",
    "final_y": "519199.318839",
    "longitude": "-90.09038479927906",
    "latitude": "29.921826525753694",
    "geocoded_column": {
      "latitude": "29.921826525753694",
      "longitude": "-90.09038479927906"
    }
  },
  {
    "service_request": "2025-1236624",
    "request_type": "Trash/Recycling",
    "request_reason": "Replace Trash Cart",
    "date_created": "2025-10-29T13:39:52.000",
    "date_modified": "2025-10-29T13:39:57.000",
    "request_status": "Pending",
    "responsible_agency": "Department of Sanitation",
    "final_address": "11436 S Easterlyn Cir",
    "address_councildis": "E",
    "status": "Assigned to Contractor",
    "contractor": "Waste Pro",
    "rowid": "1236624",
    "final_x": "3719082.19327",
    "final_y": "560575.985566",
    "longitude": "-89.94829177505154",
    "latitude": "30.034193782341816",
    "geocoded_column": {
      "latitude": "30.034193782341816",
      "longitude": "-89.94829177505154"
    }
  },
  {
    "service_request": "2025-1236623",
    "request_type": "Trash/Recycling",
    "request_reason": "Request a Large Item Pick Up",
    "date_created": "2025-10-29T13:38:48.000",
    "date_modified": "2025-10-29T13:38:55.000",
    "request_status": "Pending",
    "responsible_agency": "Department of Sanitation",
    "final_address": "6925 Milne Blvd",
    "address_councildis": "A",
    "status": "Assigned to Contractor",
    "contractor": "IV Waste",
    "rowid": "1236623",
    "final_x": "3667742.1545",
    "final_y": "553653.179543",
    "longitude": "-90.11076710538774",
    "latitude": "30.016764949066722",
    "geocoded_column": {
      "latitude": "30.016764949066722",
      "longitude": "-90.11076710538774"
    }
  },
  {
    "service_request": "2025-1236622",
    "request_type": "Trash/Recycling",
    "request_reason": "Request a Large Item Pick Up",
    "date_created": "2025-10-29T13:37:18.000",
    "date_modified": "2025-10-29T13:37:25.000",
    "request_status": "Pending",
    "responsible_agency": "Department of Sanitation",
    "final_address": "2528 S Carrollton Ave",
    "address_councildis": "A",
    "status": "Assigned to Contractor",
    "contractor": "IV Waste",
    "rowid": "1236622",
    "final_x": "3665292.20448",
    "final_y": "532066.173443",
    "longitude": "-90.11923064302228",
    "latitude": "29.957479636792897",
    "geocoded_column": {
      "latitude": "29.957479636792897",
      "longitude": "-90.11923064302228"
    }
  },
  {
    "service_request": "2025-1236621",
    "request_type": "Streetlights",
    "request_reason": "Streetlight Outage/Malfunction",
    "date_created": "2025-10-29T13:35:32.000",
    "date_modified": "2025-10-29T13:35:38.000",
    "request_status": "Pending",
    "responsible_agency": "Department of Public Works",
    "final_address": "6041 Wright Rd",
    "address_councildis": "E",
    "status": "Pending",
    "rowid": "1236621",
    "final_x": "3713201.35243",
    "final_y": "562849.848096",
    "longitude": "-89.96679011121533",
    "latitude": "30.04064013801302",
    "geocoded_column": {
      "latitude": "30.04064013801302",
      "longitude": "-89.96679011121533"
    }
  },
  {
    "service_request": "2025-1236620",
    "request_type": "Trash/Recycling",
    "request_reason": "Repair Trash Cart",
    "date_created": "2025-10-29T13:33:15.000",
    "date_modified": "2025-10-29T13:33:20.000",
    "request_status": "Pending",
    "responsible_agency": "Department of Sanitation",
    "final_address": "3326 Grand-Route St John St",
    "address_councildis": "A",
    "status": "Assigned to Contractor",
    "contractor": "IV Waste",
    "rowid": "1236620",
    "final_x": "3675581.43342",
    "final_y": "540263.481099",
    "longitude": "-90.08645861174939",
    "latitude": "29.979715667202473",
    "geocoded_column": {
      "latitude": "29.979715667202473",
      "longitude": "-90.08645861174939"
    }
  },
  {
    "service_request": "2025-1236619",
    "request_type": "Streetlights",
    "request_reason": "Streetlight Outage/Malfunction",
    "date_created": "2025-10-29T13:23:25.000",
    "date_modified": "2025-10-29T13:24:19.000",
    "request_status": "Pending",
    "responsible_agency": "Department of Public Works",
    "final_address": "MISTLETOE ST & NELSON ST",
    "address_councildis": "A",
    "status": "Pending",
    "rowid": "1236619",
    "final_x": "3662251.1",
    "final_y": "534451.58",
    "longitude": "-90.12875440947062",
    "latitude": "29.964126979966643",
    "geocoded_column": {
      "latitude": "29.964126979966643",
      "longitude": "-90.12875440947062"
    }
  },
  {
    "service_request": "2025-1236618",
    "request_type": "Streetlights",
    "request_reason": "Streetlight Outage/Malfunction",
    "date_created": "2025-10-29T13:21:45.000",
    "date_modified": "2025-10-29T13:21:51.000",
    "request_status": "Pending",
    "responsible_agency": "Department of Public Works",
    "final_address": "2433 Oriole St",
    "address_councildis": "D",
    "status": "Pending",
    "rowid": "1236618",
    "final_x": "3684826.37269",
    "final_y": "558278.817884",
    "longitude": "-90.05662540463887",
    "latitude": "30.028971471425688",
    "geocoded_column": {
      "latitude": "30.028971471425688",
      "longitude": "-90.05662540463887"
    }
  },
  {
    "service_request": "2025-1236617",
    "request_type": "Trash/Recycling",
    "request_reason": "Request a Large Item Pick Up",
    "date_created": "2025-10-29T13:21:24.000",
    "date_modified": "2025-10-29T13:21:29.000",
    "request_status": "Pending",
    "responsible_agency": "Department of Sanitation",
    "final_address": "2428 Ursulines Ave",
    "address_councildis": "D",
    "status": "Assigned to Contractor",
    "contractor": "IV Waste",
    "rowid": "1236617",
    "final_x": "3678485.03355",
    "final_y": "537415.26132",
    "longitude": "-90.07738646298472",
    "latitude": "29.971796845754305",
    "geocoded_column": {
      "latitude": "29.971796845754305",
      "longitude": "-90.07738646298472"
    }
  },
  {
    "service_request": "2025-1236616",
    "request_type": "Trash/Recycling",
    "request_reason": "Request a Large Item Pick Up",
    "date_created": "2025-10-29T13:18:12.000",
    "date_modified": "2025-10-29T13:18:18.000",
    "request_status": "Pending",
    "responsible_agency": "Department of Sanitation",
    "final_address": "4015 Banks St",
    "address_councildis": "A",
    "status": "Assigned to Contractor",
    "contractor": "IV Waste",
    "rowid": "1236616",
    "final_x": "3670686.00852",
    "final_y": "537232.649352",
    "longitude": "-90.1020232592935",
    "latitude": "29.971527472602105",
    "geocoded_column": {
      "latitude": "29.971527472602105",
      "longitude": "-90.1020232592935"
    }
  },
  {
    "service_request": "2025-1236615",
    "request_type": "Trash/Recycling",
    "request_reason": "Replace Recycling Cart",
    "date_created": "2025-10-29T13:14:42.000",
    "date_modified": "2025-10-29T13:14:48.000",
    "request_status": "Pending",
    "responsible_agency": "Department of Sanitation",
    "final_address": "1313 St Roch Ave",
    "address_councildis": "C",
    "status": "Pending",
    "rowid": "1236615",
    "final_x": "3686497.89276",
    "final_y": "537316.4418",
    "longitude": "-90.0520841512371",
    "latitude": "29.971281196006142",
    "geocoded_column": {
      "latitude": "29.971281196006142",
      "longitude": "-90.0520841512371"
    }
  },
  {
    "service_request": "2025-1236614",
    "request_type": "Parks & Parkways",
    "request_reason": "Request Tree Service (Right of Way/Public Property)",
    "date_created": "2025-10-29T13:12:33.000",
    "date_modified": "2025-10-29T13:12:40.000",
    "request_status": "Pending",
    "responsible_agency": "Department of Parks & Parkway",
    "final_address": "12981 N Lake Carmel Dr",
    "address_councildis": "E",
    "status": "Pending",
    "rowid": "1236614",
    "final_x": "3716588.78335",
    "final_y": "568423.582245",
    "longitude": "-89.95587306301587",
    "latitude": "30.05585411099728",
    "geocoded_column": {
      "latitude": "30.05585411099728",
      "longitude": "-89.95587306301587"
    }
  },
  {
    "service_request": "2025-1236613",
    "request_type": "Trash/Recycling",
    "request_reason": "Replace Trash Cart",
    "date_created": "2025-10-29T13:12:30.000",
    "date_modified": "2025-10-29T13:12:36.000",
    "request_status": "Pending",
    "responsible_agency": "Department of Sanitation",
    "final_address": "1685 Elizardi Blvd",
    "address_councildis": "C",
    "status": "Assigned to Contractor",
    "contractor": "Richards Disposal",
    "rowid": "1236613",
    "final_x": "3694601.06691",
    "final_y": "524920.520892",
    "longitude": "-90.02693965082518",
    "latitude": "29.936945120614613",
    "geocoded_column": {
      "latitude": "29.936945120614613",
      "longitude": "-90.02693965082518"
    }
  },
  {
    "service_request": "2025-1236612",
    "request_type": "Trash/Recycling",
    "request_reason": "Return Trash Cart",
    "date_created": "2025-10-29T13:07:14.000",
    "date_modified": "2025-10-29T13:07:19.000",
    "request_status": "Pending",
    "responsible_agency": "Department of Sanitation",
    "final_address": "3452 Somerset Dr",
    "address_councildis": "C",
    "status": "Assigned to Contractor",
    "contractor": "Richards Disposal",
    "rowid": "1236612",
    "final_x": "3702575.36074",
    "final_y": "518270.385718",
    "longitude": "-90.00200849785575",
    "latitude": "29.91840715689195",
    "geocoded_column": {
      "latitude": "29.91840715689195",
      "longitude": "-90.00200849785575"
    }
  },
  {
    "service_request": "2025-1236611",
    "request_type": "Trash/Recycling",
    "request_reason": "Request a Large Item Pick Up",
    "date_created": "2025-10-29T13:04:35.000",
    "date_modified": "2025-10-29T13:04:39.000",
    "request_status": "Pending",
    "responsible_agency": "Department of Sanitation",
    "final_address": "1207 N Robertson St",
    "address_councildis": "D",
    "status": "Assigned to Contractor",
    "contractor": "IV Waste",
    "rowid": "1236611",
    "final_x": "3681264.63727",
    "final_y": "535998.089799",
    "longitude": "-90.06865744506572",
    "latitude": "29.96781604559466",
    "geocoded_column": {
      "latitude": "29.96781604559466",
      "longitude": "-90.06865744506572"
    }
  },
  {
    "service_request": "2025-1236610",
    "request_type": "Trash/Recycling",
    "request_reason": "Illegal Dumping",
    "date_created": "2025-10-29T13:04:31.000",
    "date_modified": "2025-10-29T13:04:35.000",
    "request_status": "Pending",
    "responsible_agency": "Department of Sanitation",
    "final_address": "2300 BLK Frenchmen St",
    "address_councildis": "D",
    "status": "Pending",
    "rowid": "1236610",
    "final_x": "3684220.51013",
    "final_y": "540876.332405",
    "longitude": "-90.05915141338691",
    "latitude": "29.98113947469722",
    "geocoded_column": {
      "latitude": "29.98113947469722",
      "longitude": "-90.05915141338691"
    }
  },
  {
    "service_request": "2025-1236609",
    "request_type": "Safety & Permits",
    "request_reason": "Licenses & Permits",
    "date_created": "2025-10-29T13:01:21.000",
    "date_modified": "2025-10-29T13:02:57.000",
    "request_status": "Pending",
    "responsible_agency": "Safety and Permits",
    "final_address": "1860 Burgundy St",
    "address_councildis": "C",
    "status": "Pending",
    "rowid": "1236609",
    "final_x": "3683867.46351",
    "final_y": "535454.942598",
    "longitude": "-90.06045670835087",
    "latitude": "29.96624333054572",
    "geocoded_column": {
      "latitude": "29.96624333054572",
      "longitude": "-90.06045670835087"
    }
  },
  {
    "service_request": "2025-1236608",
    "request_type": "Trash/Recycling",
    "request_reason": "Request a Large Item Pick Up",
    "date_created": "2025-10-29T13:00:58.000",
    "date_modified": "2025-10-29T13:01:02.000",
    "request_status": "Pending",
    "responsible_agency": "Department of Sanitation",
    "final_address": "2240 Frenchmen St",
    "address_councildis": "D",
    "status": "Assigned to Contractor",
    "contractor": "IV Waste",
    "rowid": "1236608",
    "final_x": "3684203.73257",
    "final_y": "540654.539595",
    "longitude": "-90.05921219388814",
    "latitude": "29.980530135378046",
    "geocoded_column": {
      "latitude": "29.980530135378046",
      "longitude": "-90.05921219388814"
    }
  },
  {
    "service_request": "2025-1236607",
    "request_type": "Trash/Recycling",
    "request_reason": "Replace Trash Cart",
    "date_created": "2025-10-29T12:59:35.000",
    "date_modified": "2025-10-29T12:59:41.000",
    "request_status": "Pending",
    "responsible_agency": "Department of Sanitation",
    "final_address": "4616 Crowder Blvd",
    "address_councildis": "E",
    "status": "Assigned to Contractor",
    "contractor": "Waste Pro",
    "rowid": "1236607",
    "final_x": "3706408.54769",
    "final_y": "554806.443736",
    "longitude": "-89.9885558071711",
    "latitude": "30.018744926338673",
    "geocoded_column": {
      "latitude": "30.018744926338673",
      "longitude": "-89.9885558071711"
    }
  },
  {
    "service_request": "2025-1236606",
    "request_type": "Trash/Recycling",
    "request_reason": "Repair Trash Cart",
    "date_created": "2025-10-29T12:57:35.000",
    "date_modified": "2025-10-29T12:57:39.000",
    "request_status": "Pending",
    "responsible_agency": "Department of Sanitation",
    "final_address": "5609 Burgundy St",
    "address_councildis": "E",
    "status": "Assigned to Contractor",
    "contractor": "Waste Pro",
    "rowid": "1236606",
    "final_x": "3697900.66371",
    "final_y": "532989.198148",
    "longitude": "-90.0162299038469",
    "latitude": "29.959027304300704",
    "geocoded_column": {
      "latitude": "29.959027304300704",
      "longitude": "-90.0162299038469"
    }
  },
  {
    "service_request": "2025-1236605",
    "request_type": "Trash/Recycling",
    "request_reason": "Request a Large Item Pick Up",
    "date_created": "2025-10-29T12:54:33.000",
    "date_modified": "2025-10-29T12:58:25.000",
    "request_status": "Pending",
    "responsible_agency": "Department of Sanitation",
    "final_address": "5609 Burgundy St",
    "address_councildis": "E",
    "status": "Assigned to Contractor",
    "contractor": "Waste Pro",
    "rowid": "1236605",
    "final_x": "3697900.66371",
    "final_y": "532989.198148",
    "longitude": "-90.0162299038469",
    "latitude": "29.959027304300704",
    "geocoded_column": {
      "latitude": "29.959027304300704",
      "longitude": "-90.0162299038469"
    }
  },
  {
    "service_request": "2025-1236604",
    "request_type": "Trash/Recycling",
    "request_reason": "Order Trash Cart",
    "date_created": "2025-10-29T12:48:56.000",
    "date_modified": "2025-10-29T12:49:05.000",
    "request_status": "Pending",
    "responsible_agency": "Department of Sanitation",
    "final_address": "3310 Oliver White Ave",
    "address_councildis": "D",
    "status": "Assigned to Contractor",
    "contractor": "IV Waste",
    "rowid": "1236604",
    "final_x": "3692334.21078",
    "final_y": "544504.345295",
    "longitude": "-90.03339478762736",
    "latitude": "29.990864621305555",
    "geocoded_column": {
      "latitude": "29.990864621305555",
      "longitude": "-90.03339478762736"
    }
  },
  {
    "service_request": "2025-1236603",
    "request_type": "Roads and Streets",
    "request_reason": "Street Subsidence (Sinking)",
    "date_created": "2025-10-29T12:47:23.000",
    "date_modified": "2025-10-29T12:47:26.000",
    "request_status": "Pending",
    "responsible_agency": "Sewerage & Water Board",
    "final_address": "732 Canal St",
    "address_councildis": "B",
    "status": "Pending",
    "rowid": "1236603",
    "final_x": "3680913.34069",
    "final_y": "530765.521922",
    "longitude": "-90.06994904703954",
    "latitude": "29.9534389225908",
    "geocoded_column": {
      "latitude": "29.9534389225908",
      "longitude": "-90.06994904703954"
    }
  },
  {
    "service_request": "2025-1236602",
    "request_type": "Safety & Permits",
    "request_reason": "Zoning Enforcement",
    "date_created": "2025-10-29T12:43:45.000",
    "date_modified": "2025-10-29T12:44:12.000",
    "request_status": "Pending",
    "responsible_agency": "Safety and Permits",
    "final_address": "1850 Burgundy St",
    "address_councildis": "C",
    "status": "Pending",
    "rowid": "1236602",
    "final_x": "3683787.86082",
    "final_y": "535451.742022",
    "longitude": "-90.0607082039607",
    "latitude": "29.96623696129396",
    "geocoded_column": {
      "latitude": "29.96623696129396",
      "longitude": "-90.0607082039607"
    }
  },
  {
    "service_request": "2025-1236601",
    "request_type": "Trash/Recycling",
    "request_reason": "Replace Recycling Cart",
    "date_created": "2025-10-29T12:42:36.000",
    "date_modified": "2025-10-29T12:42:41.000",
    "request_status": "Pending",
    "responsible_agency": "Department of Sanitation",
    "final_address": "7705 Green St",
    "address_councildis": "A",
    "status": "Pending",
    "rowid": "1236601",
    "final_x": "3664211.28186",
    "final_y": "528761.170624",
    "longitude": "-90.1227541491755",
    "latitude": "29.94842339787863",
    "geocoded_column": {
      "latitude": "29.94842339787863",
      "longitude": "-90.1227541491755"
    }
  },
  {
    "service_request": "2025-1236600",
    "request_type": "Trash/Recycling",
    "request_reason": "Order Trash Cart",
    "date_created": "2025-10-29T12:41:35.000",
    "date_modified": "2025-10-29T12:41:40.000",
    "request_status": "Pending",
    "responsible_agency": "Department of Sanitation",
    "final_address": "7705 Green St",
    "address_councildis": "A",
    "status": "Assigned to Contractor",
    "contractor": "IV Waste",
    "rowid": "1236600",
    "final_x": "3664211.28186",
    "final_y": "528761.170624",
    "longitude": "-90.1227541491755",
    "latitude": "29.94842339787863",
    "geocoded_column": {
      "latitude": "29.94842339787863",
      "longitude": "-90.1227541491755"
    }
  },
  {
    "service_request": "2025-1236599",
    "request_type": "Trash/Recycling",
    "request_reason": "Repair Trash Cart",
    "date_created": "2025-10-29T12:39:31.000",
    "date_modified": "2025-10-29T12:39:39.000",
    "request_status": "Pending",
    "responsible_agency": "Department of Sanitation",
    "final_address": "1010 Crete St",
    "address_councildis": "A",
    "status": "Assigned to Contractor",
    "contractor": "IV Waste",
    "rowid": "1236599",
    "final_x": "3677544.41627",
    "final_y": "538420.777289",
    "longitude": "-90.08032235447394",
    "latitude": "29.974589985599035",
    "geocoded_column": {
      "latitude": "29.974589985599035",
      "longitude": "-90.08032235447394"
    }
  },
  {
    "service_request": "2025-1236598",
    "request_type": "Abandoned Vehicles",
    "request_reason": "Abandoned/Junk Vehicles",
    "date_created": "2025-10-29T12:39:30.000",
    "date_modified": "2025-10-29T12:39:37.000",
    "request_status": "Pending",
    "responsible_agency": "Department of Public Works",
    "final_address": "2400 BLK Hollygrove St",
    "address_councildis": "A",
    "status": "Pending",
    "rowid": "1236598",
    "final_x": "3662647.43517",
    "final_y": "533849.27953",
    "longitude": "-90.12752282694711",
    "latitude": "29.962459387948943",
    "geocoded_column": {
      "latitude": "29.962459387948943",
      "longitude": "-90.12752282694711"
    }
  },
  {
    "service_request": "2025-1236596",
    "request_type": "Trash/Recycling",
    "request_reason": "Repair Trash Cart",
    "date_created": "2025-10-29T12:33:07.000",
    "date_modified": "2025-10-29T12:33:11.000",
    "request_status": "Pending",
    "responsible_agency": "Department of Sanitation",
    "final_address": "1217 Leboeuf St",
    "address_councildis": "C",
    "status": "Assigned to Contractor",
    "contractor": "Richards Disposal",
    "rowid": "1236596",
    "final_x": "3689666.5119",
    "final_y": "526840.355902",
    "longitude": "-90.04244997046875",
    "latitude": "29.94237778725688",
    "geocoded_column": {
      "latitude": "29.94237778725688",
      "longitude": "-90.04244997046875"
    }
  },
  {
    "service_request": "2025-1236595",
    "request_type": "Trash/Recycling",
    "request_reason": "Replace Recycling Cart",
    "date_created": "2025-10-29T12:29:52.000",
    "date_modified": "2025-10-29T12:29:54.000",
    "request_status": "Pending",
    "responsible_agency": "Department of Sanitation",
    "final_address": "1436 Athis St",
    "address_councildis": "D",
    "status": "Pending",
    "rowid": "1236595",
    "final_x": "3677806.85614",
    "final_y": "553645.553431",
    "longitude": "-90.07896712801612",
    "latitude": "30.016444865998274",
    "geocoded_column": {
      "latitude": "30.016444865998274",
      "longitude": "-90.07896712801612"
    }
  },
  {
    "service_request": "2025-1236594",
    "request_type": "Trash/Recycling",
    "request_reason": "Replace Trash Cart",
    "date_created": "2025-10-29T12:28:20.000",
    "date_modified": "2025-10-29T12:28:25.000",
    "request_status": "Pending",
    "responsible_agency": "Department of Sanitation",
    "final_address": "1436 Athis St",
    "address_councildis": "D",
    "status": "Assigned to Contractor",
    "contractor": "IV Waste",
    "rowid": "1236594",
    "final_x": "3677806.85614",
    "final_y": "553645.553431",
    "longitude": "-90.07896712801612",
    "latitude": "30.016444865998274",
    "geocoded_column": {
      "latitude": "30.016444865998274",
      "longitude": "-90.07896712801612"
    }
  },
  {
    "service_request": "2025-1236593",
    "request_type": "Trash/Recycling",
    "request_reason": "Replace Trash Cart",
    "date_created": "2025-10-29T12:25:27.000",
    "date_modified": "2025-10-29T12:25:34.000",
    "request_status": "Pending",
    "responsible_agency": "Department of Sanitation",
    "final_address": "2511 Broadway St",
    "address_councildis": "A",
    "status": "Assigned to Contractor",
    "contractor": "IV Waste",
    "rowid": "1236593",
    "final_x": "3666904.56097",
    "final_y": "530472.462402",
    "longitude": "-90.11419282594997",
    "latitude": "29.953050378479716",
    "geocoded_column": {
      "latitude": "29.953050378479716",
      "longitude": "-90.11419282594997"
    }
  },
  {
    "service_request": "2025-1236592",
    "request_type": "Drainage",
    "request_reason": "Catch Basin Frame and Cover Missing or Damaged",
    "date_created": "2025-10-29T12:22:55.000",
    "date_modified": "2025-10-29T12:23:30.000",
    "request_status": "Pending",
    "responsible_agency": "Sewerage & Water Board",
    "final_address": "7935 Plum St",
    "address_councildis": "A",
    "status": "Pending",
    "rowid": "1236592",
    "final_x": "3662605.57517",
    "final_y": "528316.678784",
    "longitude": "-90.12783882347121",
    "latitude": "29.9472477363595",
    "geocoded_column": {
      "latitude": "29.9472477363595",
      "longitude": "-90.12783882347121"
    }
  },
  {
    "service_request": "2025-1236591",
    "request_type": "Trash/Recycling",
    "request_reason": "Request a Large Item Pick Up",
    "date_created": "2025-10-29T12:21:57.000",
    "date_modified": "2025-10-29T12:22:03.000",
    "request_status": "Pending",
    "responsible_agency": "Department of Sanitation",
    "final_address": "7620 Daniel Dr",
    "address_councildis": "E",
    "status": "Assigned to Contractor",
    "contractor": "Waste Pro",
    "rowid": "1236591",
    "final_x": "3705026.53201",
    "final_y": "562756.264224",
    "longitude": "-89.99262854480342",
    "latitude": "30.04064835639841",
    "geocoded_column": {
      "latitude": "30.04064835639841",
      "longitude": "-89.99262854480342"
    }
  },
  {
    "service_request": "2025-1236590",
    "request_type": "Trash/Recycling",
    "request_reason": "Request a Large Item Pick Up",
    "date_created": "2025-10-29T12:21:50.000",
    "date_modified": "2025-10-29T12:21:54.000",
    "request_status": "Pending",
    "responsible_agency": "Department of Sanitation",
    "final_address": "2319 Short St",
    "address_councildis": "A",
    "status": "Assigned to Contractor",
    "contractor": "IV Waste",
    "rowid": "1236590",
    "final_x": "3665039.41959",
    "final_y": "531026.666434",
    "longitude": "-90.12006362212367",
    "latitude": "29.954628693597694",
    "geocoded_column": {
      "latitude": "29.954628693597694",
      "longitude": "-90.12006362212367"
    }
  },
  {
    "service_request": "2025-1236589",
    "request_type": "Parks & Parkways",
    "request_reason": "Request Tree Service (Right of Way/Public Property)",
    "date_created": "2025-10-29T12:21:27.000",
    "date_modified": "2025-10-29T12:26:17.000",
    "case_close_date": "2025-10-29T07:26:12.000",
    "request_status": "Closed",
    "responsible_agency": "Department of Parks & Parkway",
    "final_address": "1010 Octavia St",
    "address_councildis": "A",
    "status": "Duplicate Request",
    "rowid": "1236589",
    "final_x": "3666593.20717",
    "final_y": "519714.845624",
    "longitude": "-90.11553695865487",
    "latitude": "29.923479484240136",
    "geocoded_column": {
      "latitude": "29.923479484240136",
      "longitude": "-90.11553695865487"
    }
  },
  {
    "service_request": "2025-1236588",
    "request_type": "Trash/Recycling",
    "request_reason": "Order Trash Cart",
    "date_created": "2025-10-29T12:20:24.000",
    "date_modified": "2025-10-29T12:20:29.000",
    "request_status": "Pending",
    "responsible_agency": "Department of Sanitation",
    "final_address": "3014 Cherry St",
    "address_councildis": "A",
    "status": "Assigned to Contractor",
    "contractor": "IV Waste",
    "rowid": "1236588",
    "final_x": "3663261.4064",
    "final_y": "536133.242503",
    "longitude": "-90.12550795635923",
    "latitude": "29.968721756820543",
    "geocoded_column": {
      "latitude": "29.968721756820543",
      "longitude": "-90.12550795635923"
    }
  },
  {
    "service_request": "2025-1236587",
    "request_type": "Trash/Recycling",
    "request_reason": "Order Trash Cart",
    "date_created": "2025-10-29T12:20:05.000",
    "date_modified": "2025-10-29T12:20:11.000",
    "request_status": "Pending",
    "responsible_agency": "Department of Sanitation",
    "final_address": "3012 Cherry St",
    "address_councildis": "A",
    "status": "Assigned to Contractor",
    "contractor": "IV Waste",
    "rowid": "1236587",
    "final_x": "3663252.61786",
    "final_y": "536123.119047",
    "longitude": "-90.12553604820548",
    "latitude": "29.968694175374825",
    "geocoded_column": {
      "latitude": "29.968694175374825",
      "longitude": "-90.12553604820548"
    }
  },
  {
    "service_request": "2025-1236586",
    "request_type": "Property Maintenance",
    "request_reason": "Property Maintenance",
    "date_created": "2025-10-29T12:17:29.000",
    "date_modified": "2025-10-29T12:17:31.000",
    "request_status": "Pending",
    "responsible_agency": "Department of Code Enforcement",
    "final_address": "2319 Short St, New Orleans, Louisiana, 70118",
    "address_councildis": "A",
    "status": "Pending",
    "rowid": "1236586",
    "final_x": "3665039.41959",
    "final_y": "531026.666434",
    "longitude": "-90.12006362212367",
    "latitude": "29.954628693597694",
    "geocoded_column": {
      "latitude": "29.954628693597694",
      "longitude": "-90.12006362212367"
    }
  },
  {
    "service_request": "2025-1236585",
    "request_type": "Streetlights",
    "request_reason": "Streetlight Outage/Malfunction",
    "date_created": "2025-10-29T12:14:58.000",
    "date_modified": "2025-10-29T12:15:05.000",
    "request_status": "Pending",
    "responsible_agency": "Department of Public Works",
    "final_address": "9807 E Rockton Cir",
    "address_councildis": "E",
    "status": "Pending",
    "rowid": "1236585",
    "final_x": "3708381.13611",
    "final_y": "562887.005792",
    "longitude": "-89.98202209126472",
    "latitude": "30.04089949175433",
    "geocoded_column": {
      "latitude": "30.04089949175433",
      "longitude": "-89.98202209126472"
    }
  },
  {
    "service_request": "2025-1236584",
    "request_type": "Trash/Recycling",
    "request_reason": "Order Second Trash Cart",
    "date_created": "2025-10-29T12:11:46.000",
    "date_modified": "2025-10-29T12:11:55.000",
    "request_status": "Pending",
    "responsible_agency": "Department of Sanitation",
    "final_address": "8815 Fig St",
    "address_councildis": "A",
    "status": "Assigned to Contractor",
    "contractor": "IV Waste",
    "rowid": "1236584",
    "final_x": "3664396.56365",
    "final_y": "534926.417478",
    "longitude": "-90.12196333953872",
    "latitude": "29.965370435411046",
    "geocoded_column": {
      "latitude": "29.965370435411046",
      "longitude": "-90.12196333953872"
    }
  },
  {
    "service_request": "2025-1236583",
    "request_type": "Abandoned Vehicles",
    "request_reason": "Abandoned/Junk Vehicles",
    "date_created": "2025-10-29T12:07:34.000",
    "date_modified": "2025-10-29T12:07:37.000",
    "request_status": "Pending",
    "responsible_agency": "Department of Public Works",
    "final_address": "3026 George Nick Connor Dr",
    "address_councildis": "D",
    "status": "Pending",
    "rowid": "1236583",
    "final_x": "3680927.83144",
    "final_y": "543599.279886",
    "longitude": "-90.06945631145624",
    "latitude": "29.988726893581628",
    "geocoded_column": {
      "latitude": "29.988726893581628",
      "longitude": "-90.06945631145624"
    }
  },
  {
    "service_request": "2025-1236582",
    "request_type": "Roads and Streets",
    "request_reason": "Abandoned Service Cut",
    "date_created": "2025-10-29T12:06:59.000",
    "date_modified": "2025-10-29T12:07:01.000",
    "request_status": "Pending",
    "responsible_agency": "Department of Public Works",
    "final_address": "2318 S Johnson St",
    "address_councildis": "B",
    "status": "Pending",
    "rowid": "1236582",
    "final_x": "3673605.8571",
    "final_y": "528626.48544",
    "longitude": "-90.09309611832428",
    "latitude": "29.947776799994553",
    "geocoded_column": {
      "latitude": "29.947776799994553",
      "longitude": "-90.09309611832428"
    }
  },
  {
    "service_request": "2025-1236581",
    "request_type": "Trash/Recycling",
    "request_reason": "Order Trash Cart",
    "date_created": "2025-10-29T12:06:13.000",
    "date_modified": "2025-10-29T12:06:17.000",
    "request_status": "Pending",
    "responsible_agency": "Department of Sanitation",
    "final_address": "8815 Fig St",
    "address_councildis": "A",
    "status": "Assigned to Contractor",
    "contractor": "IV Waste",
    "rowid": "1236581",
    "final_x": "3664396.56365",
    "final_y": "534926.417478",
    "longitude": "-90.12196333953872",
    "latitude": "29.965370435411046",
    "geocoded_column": {
      "latitude": "29.965370435411046",
      "longitude": "-90.12196333953872"
    }
  },
  {
    "service_request": "2025-1236580",
    "request_type": "Trash/Recycling",
    "request_reason": "Illegal Dumping",
    "date_created": "2025-10-29T12:05:19.000",
    "date_modified": "2025-10-29T12:05:20.000",
    "request_status": "Pending",
    "responsible_agency": "Department of Sanitation",
    "final_address": "2313 S Johnson St",
    "address_councildis": "B",
    "status": "Pending",
    "rowid": "1236580",
    "final_x": "3673604.85358",
    "final_y": "528700.773312",
    "longitude": "-90.09309674804481",
    "latitude": "29.947981097020467",
    "geocoded_column": {
      "latitude": "29.947981097020467",
      "longitude": "-90.09309674804481"
    }
  },
  {
    "service_request": "2025-1236579",
    "request_type": "Trash/Recycling",
    "request_reason": "Request a Large Item Pick Up",
    "date_created": "2025-10-29T12:05:17.000",
    "date_modified": "2025-10-29T12:05:20.000",
    "request_status": "Pending",
    "responsible_agency": "Department of Sanitation",
    "final_address": "4917 St Claude Ave",
    "address_councildis": "E",
    "status": "Assigned to Contractor",
    "contractor": "Waste Pro",
    "rowid": "1236579",
    "final_x": "3695860.19907",
    "final_y": "534474.466245",
    "longitude": "-90.02261950173137",
    "latitude": "29.963175600407713",
    "geocoded_column": {
      "latitude": "29.963175600407713",
      "longitude": "-90.02261950173137"
    }
  },
  {
    "service_request": "2025-1236578",
    "request_type": "Trash/Recycling",
    "request_reason": "Order Second Trash Cart",
    "date_created": "2025-10-29T12:04:47.000",
    "date_modified": "2025-10-29T12:04:50.000",
    "request_status": "Pending",
    "responsible_agency": "Department of Sanitation",
    "final_address": "4974 Sandalwood St",
    "address_councildis": "E",
    "status": "Assigned to Contractor",
    "contractor": "Waste Pro",
    "rowid": "1236578",
    "final_x": "3712011.36018",
    "final_y": "557577.020955",
    "longitude": "-89.97074900740701",
    "latitude": "30.026180931117764",
    "geocoded_column": {
      "latitude": "30.026180931117764",
      "longitude": "-89.97074900740701"
    }
  },
  {
    "service_request": "2025-1236577",
    "request_type": "Streetlights",
    "request_reason": "Streetlight Outage/Malfunction",
    "date_created": "2025-10-29T11:57:27.000",
    "date_modified": "2025-10-29T11:57:54.000",
    "request_status": "Pending",
    "responsible_agency": "Department of Public Works",
    "final_address": "800 BLK Saint Mary St",
    "address_councildis": "B",
    "status": "Pending",
    "rowid": "1236577",
    "final_x": "3680377.94367",
    "final_y": "522132.010314",
    "longitude": "-90.07193970371743",
    "latitude": "29.929715860830445",
    "geocoded_column": {
      "latitude": "29.929715860830445",
      "longitude": "-90.07193970371743"
    }
  },
  {
    "service_request": "2025-1236576",
    "request_type": "Parks & Parkways",
    "request_reason": "Request Tree Service (Right of Way/Public Property)",
    "date_created": "2025-10-29T11:54:05.000",
    "date_modified": "2025-10-29T11:54:09.000",
    "request_status": "Pending",
    "responsible_agency": "Department of Parks & Parkway",
    "final_address": "1833 Louisiana Ave",
    "address_councildis": "B",
    "status": "Pending",
    "rowid": "1236576",
    "final_x": "3673871.50267",
    "final_y": "522512.76249",
    "longitude": "-90.09246641198798",
    "latitude": "29.930958150429188",
    "geocoded_column": {
      "latitude": "29.930958150429188",
      "longitude": "-90.09246641198798"
    }
  },
  {
    "service_request": "2025-1236575",
    "request_type": "Trash/Recycling",
    "request_reason": "Damaged Caused By Contractor",
    "date_created": "2025-10-29T11:52:03.000",
    "date_modified": "2025-10-29T11:52:10.000",
    "request_status": "Pending",
    "responsible_agency": "Department of Sanitation",
    "final_address": "1306 Webster St",
    "address_councildis": "A",
    "status": "Assigned to Contractor",
    "contractor": "IV Waste",
    "rowid": "1236575",
    "final_x": "3664703.53639",
    "final_y": "521101.681337",
    "longitude": "-90.12145567022326",
    "latitude": "29.927347934288562",
    "geocoded_column": {
      "latitude": "29.927347934288562",
      "longitude": "-90.12145567022326"
    }
  },
  {
    "service_request": "2025-1236574",
    "request_type": "Trash/Recycling",
    "request_reason": "Order Trash Cart",
    "date_created": "2025-10-29T11:49:19.000",
    "date_modified": "2025-10-29T11:49:35.000",
    "request_status": "Pending",
    "responsible_agency": "Department of Sanitation",
    "final_address": "338 S Norman C Francis Prkwy",
    "address_councildis": "B",
    "status": "Assigned to Contractor",
    "contractor": "IV Waste",
    "rowid": "1236574",
    "final_x": "3672648.15566",
    "final_y": "535752.936903",
    "longitude": "-90.09587696543271",
    "latitude": "29.967400639686698",
    "geocoded_column": {
      "latitude": "29.967400639686698",
      "longitude": "-90.09587696543271"
    }
  },
  {
    "service_request": "2025-1236573",
    "request_type": "Trash/Recycling",
    "request_reason": "Order Trash Cart",
    "date_created": "2025-10-29T11:48:42.000",
    "date_modified": "2025-10-29T11:48:44.000",
    "request_status": "Pending",
    "responsible_agency": "Department of Sanitation",
    "final_address": "336 S Norman C Francis Prkwy",
    "address_councildis": "B",
    "status": "Assigned to Contractor",
    "contractor": "IV Waste",
    "rowid": "1236573",
    "final_x": "3672654.14766",
    "final_y": "535759.376775",
    "longitude": "-90.0958578229234",
    "latitude": "29.967418169234044",
    "geocoded_column": {
      "latitude": "29.967418169234044",
      "longitude": "-90.0958578229234"
    }
  },