[
  {
    "service_request": "2024-1104124",
    "request_type": "Trash/Recycling",
    "request_reason": "Request a Large Item Pick Up",
    "date_created": "2024-06-16T23:37:47.000",
    "date_modified": "2024-06-16T23:37:48.000",
    "request_status": "Pending",
    "responsible_agency": "Department of Sanitation",
    "final_address": "2608 St Peter St",
    "address_councildis": "D",
    "status": "Assigned to Contractor",
    "contractor": "IV Waste",
    "rowid": "1104124",
    "final_x": "3676985.74946",
    "final_y": "536556.798087",
    "longitude": "-90.08215104297007",
    "latitude": "29.969481466210212",
    "geocoded_column": {
      "latitude": "29.969481466210212",
      "longitude": "-90.08215104297007"
    }
  },
  {
    "service_request": "2024-1104123",
    "request_type": "Roads/Drainage",
    "request_reason": "Pothole",
    "date_created": "2024-06-16T23:24:55.000",
    "date_modified": "2024-06-16T23:24:55.000",
    "request_status": "Pending",
    "responsible_agency": "Department of Public Works",
    "final_address": "1122 Aline St",
    "address_councildis": "B",
    "status": "Pending",
    "rowid": "1104123",
    "final_x": "3674288.77825",
    "final_y": "519514.088503",
    "longitude": "-90.09125174299426",
    "latitude": "29.92270033208624",
    "geocoded_column": {
      "latitude": "29.92270033208624",
      "longitude": "-90.09125174299426"
    }
  },
  {
    "service_request": "2024-1104122",
    "request_type": "Roads/Drainage",
    "request_reason": "Street Subsidence (Sinking)",
    "date_created": "2024-06-16T22:41:24.000",
    "date_modified": "2024-06-16T22:41:24.000",
    "request_status": "Pending",
    "responsible_agency": "Department of Public Works",
    "final_address": "1359 Rapides Dr",
    "address_councildis": "D",
    "status": "Pending",
    "rowid": "1104122",
    "final_x": "3677513.234",
    "final_y": "552780.356118",
    "longitude": "-90.07992475086587",
    "latitude": "30.01407471995035",
    "geocoded_column": {
      "latitude": "30.01407471995035",
      "longitude": "-90.07992475086587"
    }
  },
  {
    "service_request": "2024-1104121",
    "request_type": "Roads/Drainage",
    "request_reason": "Catch Basin - Clogged",
    "date_created": "2024-06-16T22:30:24.000",
    "date_modified": "2024-06-16T22:30:24.000",
    "request_status": "Pending",
    "responsible_agency": "Department of Public Works",
    "final_address": "12 Brownlee Ct",
    "address_councildis": "E",
    "status": "Pending",
    "rowid": "1104121",
    "final_x": "3712764.27544",
    "final_y": "567015.325412",
    "longitude": "-89.96801454889399",
    "latitude": "30.052107840680485",
    "geocoded_column": {
      "latitude": "30.052107840680485",
      "longitude": "-89.96801454889399"
    }
  },
  {
    "service_request": "2024-1104120",
    "request_type": "Roads/Drainage",
    "request_reason": "Catch Basin - Clogged",
    "date_created": "2024-06-16T22:24:02.000",
    "date_modified": "2024-06-16T22:24:02.000",
    "request_status": "Pending",
    "responsible_agency": "Department of Public Works",
    "final_address": "5 Brownlee Ct",
    "address_councildis": "E",
    "status": "Pending",
    "rowid": "1104120",
    "final_x": "3712672.82469",
    "final_y": "567255.755364",
    "longitude": "-89.96829454123358",
    "latitude": "30.052771920979204",
    "geocoded_column": {
      "latitude": "30.052771920979204",
      "longitude": "-89.96829454123358"
    }
  },
  {
    "service_request": "2024-1104119",
    "request_type": "Roads/Drainage",
    "request_reason": "Catch Basin - Broken/Damage",
    "date_created": "2024-06-16T22:21:06.000",
    "date_modified": "2024-06-16T22:21:06.000",
    "request_status": "Pending",
    "responsible_agency": "Department of Public Works",
    "final_address": "16 Brownlee Ct",
    "address_councildis": "E",
    "status": "Pending",
    "rowid": "1104119",
    "final_x": "3712644.99499",
    "final_y": "567176.830948",
    "longitude": "-89.96838547380105",
    "latitude": "30.05255582255392",
    "geocoded_column": {
      "latitude": "30.05255582255392",
      "longitude": "-89.96838547380105"
    }
  },
  {
    "service_request": "2024-1104118",
    "request_type": "Trash/Recycling",
    "request_reason": "Order Recycling Cart",
    "date_created": "2024-06-16T22:20:22.000",
    "date_modified": "2024-06-16T22:20:22.000",
    "request_status": "Pending",
    "responsible_agency": "Department of Sanitation",
    "final_address": "6380 Canal Blvd",
    "address_councildis": "A",
    "status": "Pending",
    "rowid": "1104118",
    "final_x": "3668594.84942",
    "final_y": "549943.5405",
    "longitude": "-90.10819825948238",
    "latitude": "30.0065397012978",
    "geocoded_column": {
      "latitude": "30.0065397012978",
      "longitude": "-90.10819825948238"
    }
  },
  {
    "service_request": "2024-1104117",
    "request_type": "Trash/Recycling",
    "request_reason": "Order Recycling Cart",
    "date_created": "2024-06-16T22:14:41.000",
    "date_modified": "2024-06-16T22:14:41.000",
    "request_status": "Pending",
    "responsible_agency": "Department of Sanitation",
    "final_address": "3732 Napoleon Ave",
    "address_councildis": "B",
    "status": "Pending",
    "rowid": "1104117",
    "final_x": "3669963.34183",
    "final_y": "528404.46368",
    "longitude": "-90.10460452934618",
    "latitude": "29.94727421823389",
    "geocoded_column": {
      "latitude": "29.94727421823389",
      "longitude": "-90.10460452934618"
    }
  },
  {
    "service_request": "2024-1104116",
    "request_type": "Roads/Drainage",
    "request_reason": "Catch Basin - Clogged",
    "date_created": "2024-06-16T22:09:38.000",
    "date_modified": "2024-06-16T22:09:38.000",
    "request_status": "Pending",
    "responsible_agency": "Department of Public Works",
    "final_address": "1300 BLK Rapides Dr",
    "address_councildis": "D",
    "status": "Pending",
    "rowid": "1104116",
    "final_x": "3677264.86164",
    "final_y": "552670.461048",
    "longitude": "-90.080713278126",
    "latitude": "30.013780016127193",
    "geocoded_column": {
      "latitude": "30.013780016127193",
      "longitude": "-90.080713278126"
    }
  },
  {
    "service_request": "2024-1104115",
    "request_type": "Trash/Recycling",
    "request_reason": "Request a Large Item Pick Up",
    "date_created": "2024-06-16T22:07:33.000",
    "date_modified": "2024-06-16T22:07:33.000",
    "request_status": "Pending",
    "responsible_agency": "Department of Sanitation",
    "final_address": "80 Yosemite Dr",
    "address_councildis": "C",
    "status": "Assigned to Contractor",
    "contractor": "Richards Disposal",
    "rowid": "1104115",
    "final_x": "3699493.14826",
    "final_y": "516061.934196",
    "longitude": "-90.01181773451229",
    "latitude": "29.912432775643875",
    "geocoded_column": {
      "latitude": "29.912432775643875",
      "longitude": "-90.01181773451229"
    }
  },
  {
    "service_request": "2024-1104113",
    "request_type": "Trash/Recycling",
    "request_reason": "Replace Trash Cart",
    "date_created": "2024-06-16T21:26:22.000",
    "date_modified": "2024-06-16T21:26:22.000",
    "request_status": "Pending",
    "responsible_agency": "Department of Sanitation",
    "final_address": "3219 Nashville Ave",
    "address_councildis": "A",
    "status": "Assigned to Contractor",
    "contractor": "IV Waste",
    "rowid": "1104113",
    "final_x": "3667963.65357",
    "final_y": "527585.622847",
    "longitude": "-90.11094590692178",
    "latitude": "29.945081482425614",
    "geocoded_column": {
      "latitude": "29.945081482425614",
      "longitude": "-90.11094590692178"
    }
  },
  {
    "service_request": "2024-1104112",
    "request_type": "Mosquito, Termite & Rodent Control",
    "request_reason": "Rodent Complaint (Rats)",
    "date_created": "2024-06-16T21:10:03.000",
    "date_modified": "2024-06-16T21:10:03.000",
    "request_status": "Pending",
    "responsible_agency": "Mosquito, Termite & Rodent Control Board",
    "final_address": "3509 Nashville Ave",
    "address_councildis": "A",
    "status": "Pending",
    "rowid": "1104112",
    "final_x": "3668279.3778",
    "final_y": "528505.468224",
    "longitude": "-90.10991805566245",
    "latitude": "29.94760149341001",
    "geocoded_column": {
      "latitude": "29.94760149341001",
      "longitude": "-90.10991805566245"
    }
  },
  {
    "service_request": "2024-1104111",
    "request_type": "Roads/Drainage",
    "request_reason": "Man hole cover issue",
    "date_created": "2024-06-16T20:40:54.000",
    "date_modified": "2024-06-16T20:40:54.000",
    "request_status": "Pending",
    "responsible_agency": "Department of Public Works",
    "final_address": "JEFFERSON AVE & CAMP ST",
    "address_councildis": "B",
    "status": "Pending",
    "rowid": "1104111",
    "final_x": "3666870.0",
    "final_y": "519152.18",
    "longitude": "-90.11468211356055",
    "latitude": "29.921924239228343",
    "geocoded_column": {
      "latitude": "29.921924239228343",
      "longitude": "-90.11468211356055"
    }
  },
  {
    "service_request": "2024-1104110",
    "request_type": "Roads/Drainage",
    "request_reason": "Street Subsidence (Sinking)",
    "date_created": "2024-06-16T20:30:30.000",
    "date_modified": "2024-06-16T20:30:30.000",
    "request_status": "Pending",
    "responsible_agency": "Department of Public Works",
    "final_address": "4955 Spain St",
    "address_councildis": "D",
    "status": "Pending",
    "rowid": "1104110",
    "final_x": "3684981.89794",
    "final_y": "551193.986069",
    "longitude": "-90.0563834457126",
    "latitude": "30.00948602657713",
    "geocoded_column": {
      "latitude": "30.00948602657713",
      "longitude": "-90.0563834457126"
    }
  },
  {
    "service_request": "2024-1104109",
    "request_type": "Trash/Recycling",
    "request_reason": "Request a Large Item Pick Up",
    "date_created": "2024-06-16T20:29:53.000",
    "date_modified": "2024-06-16T20:29:54.000",
    "request_status": "Pending",
    "responsible_agency": "Department of Sanitation",
    "final_address": "7900 Sycamore St",
    "address_councildis": "A",
    "status": "Assigned to Contractor",
    "contractor": "IV Waste",
    "rowid": "1104109",
    "final_x": "3664853.35533",
    "final_y": "530445.789122",
    "longitude": "-90.12067055498666",
    "latitude": "29.953036885568316",
    "geocoded_column": {
      "latitude": "29.953036885568316",
      "longitude": "-90.12067055498666"
    }
  },
  {
    "service_request": "2024-1104108",
    "request_type": "Trash/Recycling",
    "request_reason": "Replace Trash Cart",
    "date_created": "2024-06-16T20:21:01.000",
    "date_modified": "2024-06-16T20:21:02.000",
    "request_status": "Pending",
    "responsible_agency": "Department of Sanitation",
    "final_address": "2800 BLK Saint Ann St",
    "address_councildis": "A",
    "status": "Assigned to Contractor",
    "contractor": "IV Waste",
    "rowid": "1104108",
    "final_x": "3676339.73816",
    "final_y": "537660.830634",
    "longitude": "-90.0841531909546",
    "latitude": "29.97253655973893",
    "geocoded_column": {
      "latitude": "29.97253655973893",
      "longitude": "-90.0841531909546"
    }
  },
  {
    "service_request": "2024-1104107",
    "request_type": "Roads/Drainage",
    "request_reason": "Street Subsidence (Sinking)",
    "date_created": "2024-06-16T20:20:24.000",
    "date_modified": "2024-06-16T20:20:24.000",
    "request_status": "Pending",
    "responsible_agency": "Department of Public Works",
    "final_address": "4955 Spain St",
    "address_councildis": "D",
    "status": "Pending",
    "rowid": "1104107",
    "final_x": "3684981.89794",
    "final_y": "551193.986069",
    "longitude": "-90.0563834457126",
    "latitude": "30.00948602657713",
    "geocoded_column": {
      "latitude": "30.00948602657713",
      "longitude": "-90.0563834457126"
    }
  },
  {
    "service_request": "2024-1104106",
    "request_type": "Property Maintenance",
    "request_reason": "Property Maintenance",
    "date_created": "2024-06-16T20:00:39.000",
    "date_modified": "2024-06-16T20:00:39.000",
    "request_status": "Pending",
    "responsible_agency": "Department of Code Enforcement",
    "final_address": "11731 W Barrington Dr",
    "address_councildis": "E",
    "status": "Pending",
    "rowid": "1104106",
    "final_x": "3713973.11711",
    "final_y": "565589.99197",
    "longitude": "-89.96424763282866",
    "latitude": "30.04814909396246",
    "geocoded_column": {
      "latitude": "30.04814909396246",
      "longitude": "-89.96424763282866"
    }
  },
  {
    "service_request": "2024-1104105",
    "request_type": "Property Maintenance",
    "request_reason": "Property Maintenance",
    "date_created": "2024-06-16T19:49:29.000",
    "date_modified": "2024-06-16T19:49:29.000",
    "request_status": "Pending",
    "responsible_agency": "Department of Code Enforcement",
    "final_address": "11731 W Barrington Dr",
    "address_councildis": "E",
    "status": "Pending",
    "rowid": "1104105",
    "final_x": "3713973.11711",
    "final_y": "565589.99197",
    "longitude": "-89.96424763282866",
    "latitude": "30.04814909396246",
    "geocoded_column": {
      "latitude": "30.04814909396246",
      "longitude": "-89.96424763282866"
    }
  },
  {
    "service_request": "2024-1104104",
    "request_type": "Roads/Drainage",
    "request_reason": "Pothole",
    "date_created": "2024-06-16T19:44:42.000",
    "date_modified": "2024-06-16T19:44:42.000",
    "request_status": "Pending",
    "responsible_agency": "Department of Public Works",
    "final_address": "2510 General Ogden St",
    "address_councildis": "A",
    "status": "Pending",
    "rowid": "1104104",
    "final_x": "3663058.44544",
    "final_y": "533842.249669",
    "longitude": "-90.12622514160051",
    "latitude": "29.962428158839753",
    "geocoded_column": {
      "latitude": "29.962428158839753",
      "longitude": "-90.12622514160051"
    }
  },
  {
    "service_request": "2024-1104103",
    "request_type": "Traffic Signals/Signs/Striping/Streetlights",
    "request_reason": "Street Light Outage/Malfunction",
    "date_created": "2024-06-16T19:42:49.000",
    "date_modified": "2024-06-16T19:42:49.000",
    "request_status": "Pending",
    "responsible_agency": "Department of Public Works",
    "final_address": "4100 BLK Vendome Pl",
    "address_councildis": "B",
    "status": "Assigned to Contractor",
    "contractor": "Legacy Professional Services",
    "rowid": "1104103",
    "final_x": "3668887.99519",
    "final_y": "530720.296615",
    "longitude": "-90.1079216201178",
    "latitude": "29.95367366561618",
    "geocoded_column": {
      "latitude": "29.95367366561618",
      "longitude": "-90.1079216201178"
    }
  },
  {
    "service_request": "2024-1104102",
    "request_type": "Abandoned Vehicles",
    "request_reason": "Abandoned/Junk Vehicles",
    "date_created": "2024-06-16T19:36:47.000",
    "date_modified": "2024-06-16T19:36:47.000",
    "request_status": "Pending",
    "responsible_agency": "Department of Public Works",
    "final_address": "812 Vallette St",
    "address_councildis": "C",
    "status": "Pending",
    "rowid": "1104102",
    "final_x": "3687513.13449",
    "final_y": "528644.947072",
    "longitude": "-90.0491847978408",
    "latitude": "29.94740632916796",
    "geocoded_column": {
      "latitude": "29.94740632916796",
      "longitude": "-90.0491847978408"
    }
  },
  {
    "service_request": "2024-1104101",
    "request_type": "Trash/Recycling",
    "request_reason": "Request a Large Item Pick Up",
    "date_created": "2024-06-16T19:26:14.000",
    "date_modified": "2024-06-16T19:26:14.000",
    "request_status": "Pending",
    "responsible_agency": "Department of Sanitation",
    "final_address": "624 Webster St A",
    "address_councildis": "A",
    "status": "Assigned to Contractor",
    "contractor": "IV Waste",
    "rowid": "1104101",
    "final_x": "3663917.37895",
    "final_y": "518988.279095",
    "longitude": "-90.12400779486175",
    "latitude": "29.92155957927547",
    "geocoded_column": {
      "latitude": "29.92155957927547",
      "longitude": "-90.12400779486175"
    }
  },
  {
    "service_request": "2024-1104100",
    "request_type": "Trash/Recycling",
    "request_reason": "Request a Large Item Pick Up",
    "date_created": "2024-06-16T19:23:50.000",
    "date_modified": "2024-06-16T19:23:51.000",
    "request_status": "Pending",
    "responsible_agency": "Department of Sanitation",
    "final_address": "1812 Napoleon Ave",
    "address_councildis": "B",
    "status": "Assigned to Contractor",
    "contractor": "IV Waste",
    "rowid": "1104100",
    "final_x": "3670663.85063",
    "final_y": "521711.492665",
    "longitude": "-90.10261972682066",
    "latitude": "29.9288500401314",
    "geocoded_column": {
      "latitude": "29.9288500401314",
      "longitude": "-90.10261972682066"
    }
  },
  {
    "service_request": "2024-1104099",
    "request_type": "Trash/Recycling",
    "request_reason": "Order Trash Cart",
    "date_created": "2024-06-16T18:59:49.000",
    "date_modified": "2024-06-16T18:59:49.000",
    "request_status": "Pending",
    "responsible_agency": "Department of Sanitation",
    "final_address": "4010 St Charles Ave",
    "address_councildis": "B",
    "status": "Assigned to Contractor",
    "contractor": "IV Waste",
    "rowid": "1104099",
    "final_x": "3672208.95246",
    "final_y": "520877.553657",
    "longitude": "-90.09777053086646",
    "latitude": "29.926511252990153",
    "geocoded_column": {
      "latitude": "29.926511252990153",
      "longitude": "-90.09777053086646"
    }
  },
  {
    "service_request": "2024-1104098",
    "request_type": "Trash/Recycling",
    "request_reason": "Order Trash Cart",
    "date_created": "2024-06-16T18:59:45.000",
    "date_modified": "2024-06-16T18:59:49.000",
    "request_status": "Pending",
    "responsible_agency": "Department of Sanitation",
    "final_address": "4010 St Charles Ave",
    "address_councildis": "B",
    "status": "Assigned to Contractor",
    "contractor": "IV Waste",
    "rowid": "1104098",
    "final_x": "3672208.95246",
    "final_y": "520877.553657",
    "longitude": "-90.09777053086646",
    "latitude": "29.926511252990153",
    "geocoded_column": {
      "latitude": "29.926511252990153",
      "longitude": "-90.09777053086646"
    }
  },
  {
    "service_request": "2024-1104097",
    "request_type": "Roads/Drainage",
    "request_reason": "Pothole",
    "date_created": "2024-06-16T18:57:34.000",
    "date_modified": "2024-06-16T18:57:34.000",
    "request_status": "Pending",
    "responsible_agency": "Department of Public Works",
    "final_address": "4960 Spain St",
    "address_councildis": "D",
    "status": "Pending",
    "rowid": "1104097",
    "final_x": "3684876.10831",
    "final_y": "551234.809621",
    "longitude": "-90.05671623455169",
    "latitude": "30.0096015177347",
    "geocoded_column": {
      "latitude": "30.0096015177347",
      "longitude": "-90.05671623455169"
    }
  },
  {
    "service_request": "2024-1104096",
    "request_type": "Trash/Recycling",
    "request_reason": "Order Recycling Cart",
    "date_created": "2024-06-16T18:46:19.000",
    "date_modified": "2024-06-16T18:46:19.000",
    "request_status": "Pending",
    "responsible_agency": "Department of Sanitation",
    "final_address": "338 Bouny St",
    "address_councildis": "C",
    "status": "Pending",
    "rowid": "1104096",
    "final_x": "3685869.86185",
    "final_y": "530141.648129",
    "longitude": "-90.05432048111166",
    "latitude": "29.95157228361809",
    "geocoded_column": {
      "latitude": "29.95157228361809",
      "longitude": "-90.05432048111166"
    }
  },
  {
    "service_request": "2024-1104095",
    "request_type": "Trash/Recycling",
    "request_reason": "Request a Large Item Pick Up",
    "date_created": "2024-06-16T18:39:53.000",
    "date_modified": "2024-06-16T18:39:53.000",
    "request_status": "Pending",
    "responsible_agency": "Department of Sanitation",
    "final_address": "4614 Allen St",
    "address_councildis": "D",
    "status": "Assigned to Contractor",
    "contractor": "IV Waste",
    "rowid": "1104095",
    "final_x": "3681660.93589",
    "final_y": "549518.229267",
    "longitude": "-90.06693402993716",
    "latitude": "30.0049796437878",
    "geocoded_column": {
      "latitude": "30.0049796437878",
      "longitude": "-90.06693402993716"
    }
  },
  {
    "service_request": "2024-1104094",
    "request_type": "Property Maintenance",
    "request_reason": "Property Maintenance",
    "date_created": "2024-06-16T18:22:31.000",
    "date_modified": "2024-06-16T18:22:31.000",
    "request_status": "Pending",
    "responsible_agency": "Department of Code Enforcement",
    "final_address": "3515 Laurel St",
    "address_councildis": "B",
    "status": "Pending",
    "rowid": "1104094",
    "final_x": "3674527.25512",
    "final_y": "518676.332023",
    "longitude": "-90.09052764773227",
    "latitude": "29.920389660238516",
    "geocoded_column": {
      "latitude": "29.920389660238516",
      "longitude": "-90.09052764773227"
    }
  },
  {
    "service_request": "2024-1104093",
    "request_type": "Trash/Recycling",
    "request_reason": "Request a Large Item Pick Up",
    "date_created": "2024-06-16T18:21:31.000",
    "date_modified": "2024-06-16T18:21:31.000",
    "request_status": "Pending",
    "responsible_agency": "Department of Sanitation",
    "final_address": "129 N Rendon St, New Orleans, Louisiana, 70119",
    "address_councildis": "B",
    "status": "Assigned to Contractor",
    "contractor": "IV Waste",
    "rowid": "1104093",
    "final_x": "3673699.21851",
    "final_y": "536747.590408",
    "longitude": "-90.0925236712219",
    "latitude": "29.970104347596102",
    "geocoded_column": {
      "latitude": "29.970104347596102",
      "longitude": "-90.0925236712219"
    }
  },
  {
    "service_request": "2024-1104092",
    "request_type": "Trash/Recycling",
    "request_reason": "Repair Trash Cart",
    "date_created": "2024-06-16T18:18:05.000",
    "date_modified": "2024-06-16T18:18:06.000",
    "request_status": "Pending",
    "responsible_agency": "Department of Sanitation",
    "final_address": "5651 Pembrook Dr",
    "address_councildis": "C",
    "status": "Assigned to Contractor",
    "contractor": "Richards Disposal",
    "rowid": "1104092",
    "final_x": "3704583.97425",
    "final_y": "520833.765625",
    "longitude": "-89.99557396209727",
    "latitude": "29.92539123985479",
    "geocoded_column": {
      "latitude": "29.92539123985479",
      "longitude": "-89.99557396209727"
    }
  },
  {
    "service_request": "2024-1104091",
    "request_type": "Roads/Drainage",
    "request_reason": "Pothole",
    "date_created": "2024-06-16T18:16:10.000",
    "date_modified": "2024-06-16T18:16:10.000",
    "request_status": "Pending",
    "responsible_agency": "Department of Public Works",
    "final_address": "2924 Wall Blvd",
    "address_councildis": "C",
    "status": "Pending",
    "rowid": "1104091",
    "final_x": "3694858.59306",
    "final_y": "523972.8407",
    "longitude": "-90.0261607622448",
    "latitude": "29.934331249324735",
    "geocoded_column": {
      "latitude": "29.934331249324735",
      "longitude": "-90.0261607622448"
    }
  },
  {
    "service_request": "2024-1104090",
    "request_type": "Property Maintenance",
    "request_reason": "Property Maintenance",
    "date_created": "2024-06-16T18:06:55.000",
    "date_modified": "2024-06-16T18:06:55.000",
    "request_status": "Pending",
    "responsible_agency": "Department of Code Enforcement",
    "final_address": "1452 N Prieur St",
    "address_councildis": "D",
    "status": "Pending",
    "rowid": "1104090",
    "final_x": "3680778.86357",
    "final_y": "537585.198216",
    "longitude": "-90.07013627737622",
    "latitude": "29.97219478100957",
    "geocoded_column": {
      "latitude": "29.97219478100957",
      "longitude": "-90.07013627737622"
    }
  },
  {
    "service_request": "2024-1104089",
    "request_type": "Property Maintenance",
    "request_reason": "Property Maintenance",
    "date_created": "2024-06-16T18:03:19.000",
    "date_modified": "2024-06-16T18:03:19.000",
    "request_status": "Pending",
    "responsible_agency": "Department of Code Enforcement",
    "final_address": "1438 N Prieur St",
    "address_councildis": "D",
    "status": "Pending",
    "rowid": "1104089",
    "final_x": "3680669.24751",
    "final_y": "537488.344968",
    "longitude": "-90.07048583433115",
    "latitude": "29.971931790286245",
    "geocoded_column": {
      "latitude": "29.971931790286245",
      "longitude": "-90.07048583433115"
    }
  },
  {
    "service_request": "2024-1104088",
    "request_type": "Property Maintenance",
    "request_reason": "Property Maintenance",
    "date_created": "2024-06-16T18:03:05.000",
    "date_modified": "2024-06-16T18:03:05.000",
    "request_status": "Pending",
    "responsible_agency": "Department of Code Enforcement",
    "final_address": "1111 S Broad St",
    "address_councildis": "B",
    "status": "Pending",
    "rowid": "1104088",
    "final_x": "3672421.86177",
    "final_y": "531191.868674",
    "longitude": "-90.09674705348147",
    "latitude": "29.954865942196243",
    "geocoded_column": {
      "latitude": "29.954865942196243",
      "longitude": "-90.09674705348147"
    }
  },
  {
    "service_request": "2024-1104086",
    "request_type": "Property Maintenance",
    "request_reason": "Property Maintenance",
    "date_created": "2024-06-16T17:59:04.000",
    "date_modified": "2024-06-16T17:59:04.000",
    "request_status": "Pending",
    "responsible_agency": "Department of Code Enforcement",
    "final_address": "1535 N Roman St",
    "address_councildis": "D",
    "status": "Pending",
    "rowid": "1104086",
    "final_x": "3681308.63944",
    "final_y": "537876.534153",
    "longitude": "-90.06845300030612",
    "latitude": "29.972979784556436",
    "geocoded_column": {
      "latitude": "29.972979784556436",
      "longitude": "-90.06845300030612"
    }
  },
  {
    "service_request": "2024-1104085",
    "request_type": "Trash/Recycling",
    "request_reason": "Request a Large Item Pick Up",
    "date_created": "2024-06-16T17:57:48.000",
    "date_modified": "2024-06-16T17:57:49.000",
    "request_status": "Pending",
    "responsible_agency": "Department of Sanitation",
    "final_address": "132 S Scott St, New Orleans, Louisiana, 70119",
    "address_councildis": "A",
    "status": "Assigned to Contractor",
    "contractor": "IV Waste",
    "rowid": "1104085",
    "final_x": "3671610.26951",
    "final_y": "537532.18356",
    "longitude": "-90.0990941108146",
    "latitude": "29.972323748581616",
    "geocoded_column": {
      "latitude": "29.972323748581616",
      "longitude": "-90.0990941108146"
    }
  },
  {
    "service_request": "2024-1104084",
    "request_type": "Trash/Recycling",
    "request_reason": "Illegal Dumping",
    "date_created": "2024-06-16T17:49:46.000",
    "date_modified": "2024-06-16T17:49:46.000",
    "request_status": "Pending",
    "responsible_agency": "Department of Sanitation",
    "final_address": "1339 Desire St",
    "address_councildis": "C",
    "status": "Pending",
    "rowid": "1104084",
    "final_x": "3690470.9919",
    "final_y": "536731.021831",
    "longitude": "-90.03955746875765",
    "latitude": "29.96954874268181",
    "geocoded_column": {
      "latitude": "29.96954874268181",
      "longitude": "-90.03955746875765"
    }
  },
  {
    "service_request": "2024-1104083",
    "request_type": "Roads/Drainage",
    "request_reason": "Pothole",
    "date_created": "2024-06-16T17:33:31.000",
    "date_modified": "2024-06-16T17:33:31.000",
    "request_status": "Pending",
    "responsible_agency": "Department of Public Works",
    "final_address": "5710 Canal Blvd",
    "address_councildis": "A",
    "status": "Pending",
    "rowid": "1104083",
    "final_x": "3668162.87828",
    "final_y": "545592.702288",
    "longitude": "-90.10970975641882",
    "latitude": "29.994589095173907",
    "geocoded_column": {
      "latitude": "29.994589095173907",
      "longitude": "-90.10970975641882"
    }
  },
  {
    "service_request": "2024-1104082",
    "request_type": "Roads/Drainage",
    "request_reason": "Pothole",
    "date_created": "2024-06-16T17:27:16.000",
    "date_modified": "2024-06-16T17:27:16.000",
    "request_status": "Pending",
    "responsible_agency": "Department of Public Works",
    "final_address": "5100 BLK Marconi Dr",
    "address_councildis": "A",
    "status": "Pending",
    "rowid": "1104082",
    "final_x": "3670788.83654",
    "final_y": "543866.571503",
    "longitude": "-90.10147327514476",
    "latitude": "29.989765463268288",
    "geocoded_column": {
      "latitude": "29.989765463268288",
      "longitude": "-90.10147327514476"
    }
  },
  {
    "service_request": "2024-1104081",
    "request_type": "Trash/Recycling",
    "request_reason": "Illegal Dumping",
    "date_created": "2024-06-16T17:22:48.000",
    "date_modified": "2024-06-16T17:22:48.000",
    "request_status": "Pending",
    "responsible_agency": "Department of Sanitation",
    "final_address": "1526 St Roch Ave",
    "address_councildis": "C",
    "status": "Pending",
    "rowid": "1104081",
    "final_x": "3686283.54511",
    "final_y": "538084.574729",
    "longitude": "-90.0527339778577",
    "latitude": "29.9733998815321",
    "geocoded_column": {
      "latitude": "29.9733998815321",
      "longitude": "-90.0527339778577"
    }
  },
  {
    "service_request": "2024-1104080",
    "request_type": "Roads/Drainage",
    "request_reason": "Street Subsidence (Sinking)",
    "date_created": "2024-06-16T16:35:04.000",
    "date_modified": "2024-06-16T16:35:04.000",
    "request_status": "Pending",
    "responsible_agency": "Department of Public Works",
    "final_address": "2734 Republic St",
    "address_councildis": "D",
    "status": "Pending",
    "rowid": "1104080",
    "final_x": "3680667.33896",
    "final_y": "542587.722509",
    "longitude": "-90.07031434605567",
    "latitude": "29.985953363771635",
    "geocoded_column": {
      "latitude": "29.985953363771635",
      "longitude": "-90.07031434605567"
    }
  },
  {
    "service_request": "2024-1104079",
    "request_type": "Trash/Recycling",
    "request_reason": "Request a Large Item Pick Up",
    "date_created": "2024-06-16T16:21:43.000",
    "date_modified": "2024-06-16T16:21:43.000",
    "request_status": "Pending",
    "responsible_agency": "Department of Sanitation",
    "final_address": "6056 Beechcraft St",
    "address_councildis": "D",
    "status": "Assigned to Contractor",
    "contractor": "Waste Pro",
    "rowid": "1104079",
    "final_x": "3696729.19568",
    "final_y": "553298.429271",
    "longitude": "-90.01919357952458",
    "latitude": "30.014907257536297",
    "geocoded_column": {
      "latitude": "30.014907257536297",
      "longitude": "-90.01919357952458"
    }
  },
  {
    "service_request": "2024-1104078",
    "request_type": "Trash/Recycling",
    "request_reason": "Request a Large Item Pick Up",
    "date_created": "2024-06-16T16:18:11.000",
    "date_modified": "2024-06-16T16:18:12.000",
    "request_status": "Pending",
    "responsible_agency": "Department of Sanitation",
    "final_address": "1633 Second St",
    "address_councildis": "B",
    "status": "Assigned to Contractor",
    "contractor": "IV Waste",
    "rowid": "1104078",
    "final_x": "3676545.63342",
    "final_y": "523333.528891",
    "longitude": "-90.08399628813085",
    "latitude": "29.93313509163598",
    "geocoded_column": {
      "latitude": "29.93313509163598",
      "longitude": "-90.08399628813085"
    }
  },
  {
    "service_request": "2024-1104077",
    "request_type": "Trash/Recycling",
    "request_reason": "Replace Trash Cart",
    "date_created": "2024-06-16T16:11:37.000",
    "date_modified": "2024-06-16T16:11:38.000",
    "request_status": "Pending",
    "responsible_agency": "Department of Sanitation",
    "final_address": "2130 Jefferson Ave",
    "address_councildis": "A",
    "status": "Assigned to Contractor",
    "contractor": "IV Waste",
    "rowid": "1104077",
    "final_x": "3667759.92141",
    "final_y": "523566.636347",
    "longitude": "-90.11172443752424",
    "latitude": "29.93403653744158",
    "geocoded_column": {
      "latitude": "29.93403653744158",
      "longitude": "-90.11172443752424"
    }
  },
  {
    "service_request": "2024-1104076",
    "request_type": "Trash/Recycling",
    "request_reason": "Request a Large Item Pick Up",
    "date_created": "2024-06-16T16:05:09.000",
    "date_modified": "2024-06-16T16:05:10.000",
    "request_status": "Pending",
    "responsible_agency": "Department of Sanitation",
    "final_address": "4615 Mandeville St",
    "address_councildis": "D",
    "status": "Assigned to Contractor",
    "contractor": "IV Waste",
    "rowid": "1104076",
    "final_x": "3684840.4893",
    "final_y": "549690.974548",
    "longitude": "-90.0568831022351",
    "latitude": "30.005357622747407",
    "geocoded_column": {
      "latitude": "30.005357622747407",
      "longitude": "-90.0568831022351"
    }
  },
  {
    "service_request": "2024-1104075",
    "request_type": "Safety & Permits",
    "request_reason": "Construction permit",
    "date_created": "2024-06-16T15:54:57.000",
    "date_modified": "2024-06-16T15:54:57.000",
    "request_status": "Pending",
    "responsible_agency": "Safety and Permits",
    "final_address": "858 Amethyst St",
    "address_councildis": "D",
    "status": "Pending",
    "rowid": "1104075",
    "final_x": "3670655.97947",
    "final_y": "556855.545178",
    "longitude": "-90.10145184048895",
    "latitude": "30.025484504683416",
    "geocoded_column": {
      "latitude": "30.025484504683416",
      "longitude": "-90.10145184048895"
    }
  },
  {
    "service_request": "2024-1104074",
    "request_type": "Trash/Recycling",
    "request_reason": "Request a Large Item Pick Up",
    "date_created": "2024-06-16T15:54:33.000",
    "date_modified": "2024-06-16T15:54:33.000",
    "request_status": "Pending",
    "responsible_agency": "Department of Sanitation",
    "final_address": "6229 Carlson Dr",
    "address_councildis": "D",
    "status": "Assigned to Contractor",
    "contractor": "IV Waste",
    "rowid": "1104074",
    "final_x": "3679791.05755",
    "final_y": "556168.055194",
    "longitude": "-90.0726102157595",
    "latitude": "30.023320952514844",
    "geocoded_column": {
      "latitude": "30.023320952514844",
      "longitude": "-90.0726102157595"
    }
  },
  {
    "service_request": "2024-1104073",
    "request_type": "Safety & Permits",
    "request_reason": "Construction permit",
    "date_created": "2024-06-16T15:45:11.000",
    "date_modified": "2024-06-16T15:45:11.000",
    "request_status": "Pending",
    "responsible_agency": "Safety and Permits",
    "final_address": "618 Newton St",
    "address_councildis": "C",
    "status": "Pending",
    "rowid": "1104073",
    "final_x": "3687321.53545",
    "final_y": "528026.504703",
    "longitude": "-90.04981162092636",
    "latitude": "29.94571172614204",
    "geocoded_column": {
      "latitude": "29.94571172614204",
      "longitude": "-90.04981162092636"
    }
  },
  {
    "service_request": "2024-1104072",
    "request_type": "Roads/Drainage",
    "request_reason": "Pothole",
    "date_created": "2024-06-16T15:41:20.000",
    "date_modified": "2024-06-16T15:41:20.000",
    "request_status": "Pending",
    "responsible_agency": "Department of Public Works",
    "final_address": "1000 BLK Tricou St",
    "address_councildis": "E",
    "status": "Pending",
    "rowid": "1104072",
    "final_x": "3700052.61561",
    "final_y": "532835.493828",
    "longitude": "-90.00944022595714",
    "latitude": "29.958536481416765",
    "geocoded_column": {
      "latitude": "29.958536481416765",
      "longitude": "-90.00944022595714"
    }
  },
  {
    "service_request": "2024-1104071",
    "request_type": "Roads/Drainage",
    "request_reason": "Damaged Sidewalk",
    "date_created": "2024-06-16T15:37:54.000",
    "date_modified": "2024-06-16T15:37:54.000",
    "request_status": "Pending",
    "responsible_agency": "Department of Public Works",
    "final_address": "1725 Dufossat St",
    "address_councildis": "B",
    "status": "Pending",
    "rowid": "1104071",
    "final_x": "3668192.68743",
    "final_y": "522036.060218",
    "longitude": "-90.11040977787289",
    "latitude": "29.92981524824353",
    "geocoded_column": {
      "latitude": "29.92981524824353",
      "longitude": "-90.11040977787289"
    }
  },
  {
    "service_request": "2024-1104070",
    "request_type": "Property Maintenance",
    "request_reason": "Property Maintenance",
    "date_created": "2024-06-16T15:31:42.000",
    "date_modified": "2024-06-16T15:31:42.000",
    "request_status": "Pending",
    "responsible_agency": "Department of Code Enforcement",
    "final_address": "6300 St Claude Ave",
    "address_councildis": "E",
    "status": "Pending",
    "rowid": "1104070",
    "final_x": "3700146.28816",
    "final_y": "532977.506564",
    "longitude": "-90.00913925230147",
    "latitude": "29.95892398960287",
    "geocoded_column": {
      "latitude": "29.95892398960287",
      "longitude": "-90.00913925230147"
    }
  },
  {
    "service_request": "2024-1104068",
    "request_type": "Trash/Recycling",
    "request_reason": "Request a Large Item Pick Up",
    "date_created": "2024-06-16T15:27:54.000",
    "date_modified": "2024-06-16T15:27:54.000",
    "request_status": "Pending",
    "responsible_agency": "Department of Sanitation",
    "final_address": "1803 Treasure St",
    "address_councildis": "D",
    "status": "Assigned to Contractor",
    "contractor": "IV Waste",
    "rowid": "1104068",
    "final_x": "3681475.33826",
    "final_y": "543839.17115",
    "longitude": "-90.06771853789742",
    "latitude": "29.98936989333288",
    "geocoded_column": {
      "latitude": "29.98936989333288",
      "longitude": "-90.06771853789742"
    }
  },
  {
    "service_request": "2024-1104067",
    "request_type": "Parks & Parkways",
    "request_reason": "Request Tree Service (Right of Way/Public Property)",
    "date_created": "2024-06-16T15:25:08.000",
    "date_modified": "2024-06-16T15:25:08.000",
    "request_status": "Pending",
    "responsible_agency": "Department of Parks & Parkway",
    "final_address": "3232 Laurel St",
    "address_councildis": "B",
    "status": "Pending",
    "rowid": "1104067",
    "final_x": "3675870.474",
    "final_y": "519171.087287",
    "longitude": "-90.08627073676406",
    "latitude": "29.9217099500363",
    "geocoded_column": {
      "latitude": "29.9217099500363",
      "longitude": "-90.08627073676406"
    }
  },
  {
    "service_request": "2024-1104066",
    "request_type": "Roads/Drainage",
    "request_reason": "Pothole",
    "date_created": "2024-06-16T15:23:17.000",
    "date_modified": "2024-06-16T15:23:17.000",
    "request_status": "Pending",
    "responsible_agency": "Department of Public Works",
    "final_address": "1400 BLK Valence St",
    "address_councildis": "B",
    "status": "Pending",
    "rowid": "1104066",
    "final_x": "3669784.65285",
    "final_y": "520336.257015",
    "longitude": "-90.1054417057675",
    "latitude": "29.925094517046503",
    "geocoded_column": {
      "latitude": "29.925094517046503",
      "longitude": "-90.1054417057675"
    }
  },
  {
    "service_request": "2024-1104065",
    "request_type": "Trash/Recycling",
    "request_reason": "Request a Large Item Pick Up",
    "date_created": "2024-06-16T15:20:31.000",
    "date_modified": "2024-06-16T15:20:31.000",
    "request_status": "Pending",
    "responsible_agency": "Department of Sanitation",
    "final_address": "2907 Hollygrove St",
    "address_councildis": "A",
    "status": "Assigned to Contractor",
    "contractor": "IV Waste",
    "rowid": "1104065",
    "final_x": "3663798.26554",
    "final_y": "535061.486918",
    "longitude": "-90.12384824276344",
    "latitude": "29.965759210447615",
    "geocoded_column": {
      "latitude": "29.965759210447615",
      "longitude": "-90.12384824276344"
    }
  },
  {
    "service_request": "2024-1104064",
    "request_type": "Roads/Drainage",
    "request_reason": "Pothole",
    "date_created": "2024-06-16T15:14:18.000",
    "date_modified": "2024-06-16T15:14:18.000",
    "request_status": "Pending",
    "responsible_agency": "Department of Public Works",
    "final_address": "1312 Milan St",
    "address_councildis": "B",
    "status": "Pending",
    "rowid": "1104064",
    "final_x": "3671625.82823",
    "final_y": "520286.919608",
    "longitude": "-90.09963137110304",
    "latitude": "29.92490447494246",
    "geocoded_column": {
      "latitude": "29.92490447494246",
      "longitude": "-90.09963137110304"
    }
  },
  {
    "service_request": "2024-1104063",
    "request_type": "Roads/Drainage",
    "request_reason": "Pothole",
    "date_created": "2024-06-16T15:13:40.000",
    "date_modified": "2024-06-16T15:13:40.000",
    "request_status": "Pending",
    "responsible_agency": "Department of Public Works",
    "final_address": "4216 Chestnut St",
    "address_councildis": "B",
    "status": "Pending",
    "rowid": "1104063",
    "final_x": "3671574.31393",
    "final_y": "519539.203703",
    "longitude": "-90.09981939416457",
    "latitude": "29.922850019854593",
    "geocoded_column": {
      "latitude": "29.922850019854593",
      "longitude": "-90.09981939416457"
    }
  },
  {
    "service_request": "2024-1104062",
    "request_type": "Property Maintenance",
    "request_reason": "Property Maintenance",
    "date_created": "2024-06-16T15:00:15.000",
    "date_modified": "2024-06-16T15:00:15.000",
    "request_status": "Pending",
    "responsible_agency": "Department of Code Enforcement",
    "final_address": "1609 Gordon St",
    "address_councildis": "E",
    "status": "Pending",
    "rowid": "1104062",
    "final_x": "3699939.74711",
    "final_y": "535293.770374",
    "longitude": "-90.00970696265561",
    "latitude": "29.965299448720753",
    "geocoded_column": {
      "latitude": "29.965299448720753",
      "longitude": "-90.00970696265561"
    }
  },
  {
    "service_request": "2024-1104061",
    "request_type": "Trash/Recycling",
    "request_reason": "Request a Large Item Pick Up",
    "date_created": "2024-06-16T14:51:25.000",
    "date_modified": "2024-06-16T14:51:26.000",
    "request_status": "Pending",
    "responsible_agency": "Department of Sanitation",
    "final_address": "617 Soniat St",
    "address_councildis": "B",
    "status": "Assigned to Contractor",
    "contractor": "IV Waste",
    "rowid": "1104061",
    "final_x": "3668400.8843",
    "final_y": "517702.662966",
    "longitude": "-90.10989859587028",
    "latitude": "29.917893666281575",
    "geocoded_column": {
      "latitude": "29.917893666281575",
      "longitude": "-90.10989859587028"
    }
  },
  {
    "service_request": "2024-1104060",
    "request_type": "Roads/Drainage",
    "request_reason": "Street Subsidence (Sinking)",
    "date_created": "2024-06-16T14:16:43.000",
    "date_modified": "2024-06-16T14:16:43.000",
    "request_status": "Pending",
    "responsible_agency": "Department of Public Works",
    "final_address": "1 English Turn Prkwy",
    "address_councildis": "C",
    "status": "Pending",
    "rowid": "1104060",
    "final_x": "3713690.71429",
    "final_y": "516301.512564",
    "longitude": "-89.96699773956271",
    "latitude": "29.912633659868995",
    "geocoded_column": {
      "latitude": "29.912633659868995",
      "longitude": "-89.96699773956271"
    }
  },
  {
    "service_request": "2024-1104059",
    "request_type": "Trash/Recycling",
    "request_reason": "Replace Trash Cart",
    "date_created": "2024-06-16T14:15:04.000",
    "date_modified": "2024-06-16T14:15:04.000",
    "request_status": "Pending",
    "responsible_agency": "Department of Sanitation",
    "final_address": "1216 Desire St",
    "address_councildis": "C",
    "status": "Assigned to Contractor",
    "contractor": "IV Waste",
    "rowid": "1104059",
    "final_x": "3690272.06716",
    "final_y": "536204.642823",
    "longitude": "-90.04020444807468",
    "latitude": "29.968107559953967",
    "geocoded_column": {
      "latitude": "29.968107559953967",
      "longitude": "-90.04020444807468"
    }
  },
  {
    "service_request": "2024-1104058",
    "request_type": "Trash/Recycling",
    "request_reason": "Request a Large Item Pick Up",
    "date_created": "2024-06-16T13:37:41.000",
    "date_modified": "2024-06-16T13:37:41.000",
    "request_status": "Pending",
    "responsible_agency": "Department of Sanitation",
    "final_address": "560 Chapelle St",
    "address_councildis": "A",
    "status": "Assigned to Contractor",
    "contractor": "IV Waste",
    "rowid": "1104058",
    "final_x": "3668800.90401",
    "final_y": "552637.474966",
    "longitude": "-90.10745622513073",
    "latitude": "30.013941016437947",
    "geocoded_column": {
      "latitude": "30.013941016437947",
      "longitude": "-90.10745622513073"
    }
  },
  {
    "service_request": "2024-1104057",
    "request_type": "Roads/Drainage",
    "request_reason": "Catch Basin - Clogged",
    "date_created": "2024-06-16T13:37:15.000",
    "date_modified": "2024-06-16T13:37:15.000",
    "request_status": "Pending",
    "responsible_agency": "Department of Public Works",
    "final_address": "2815 Banks St",
    "address_councildis": "B",
    "status": "Pending",
    "rowid": "1104057",
    "final_x": "3674077.3515",
    "final_y": "534629.730438",
    "longitude": "-90.09140197991222",
    "latitude": "29.964269682843096",
    "geocoded_column": {
      "latitude": "29.964269682843096",
      "longitude": "-90.09140197991222"
    }
  },
  {
    "service_request": "2024-1104056",
    "request_type": "Parks & Parkways",
    "request_reason": "Request Grass Cutting Service (City Owned Property)",
    "date_created": "2024-06-16T13:28:53.000",
    "date_modified": "2024-06-16T13:28:53.000",
    "request_status": "Pending",
    "responsible_agency": "Department of Parks & Parkway",
    "final_address": "2522 N Rampart St",
    "address_councildis": "C",
    "status": "Pending",
    "rowid": "1104056",
    "final_x": "3686724.35452",
    "final_y": "536044.786375",
    "longitude": "-90.05141388511889",
    "latitude": "29.967777622602416",
    "geocoded_column": {
      "latitude": "29.967777622602416",
      "longitude": "-90.05141388511889"
    }
  },
  {
    "service_request": "2024-1104055",
    "request_type": "Abandoned Vehicles",
    "request_reason": "Abandoned/Junk Vehicles",
    "date_created": "2024-06-16T13:14:32.000",
    "date_modified": "2024-06-16T13:14:32.000",
    "request_status": "Pending",
    "responsible_agency": "Department of Public Works",
    "final_address": "4000 BLK Canal St",
    "address_councildis": "A",
    "status": "Inspected",
    "rowid": "1104055",
    "final_x": "3671265.28703",
    "final_y": "538272.092207",
    "longitude": "-90.10015847891161",
    "latitude": "29.97436846070621",
    "geocoded_column": {
      "latitude": "29.97436846070621",
      "longitude": "-90.10015847891161"
    }
  },
  {
    "service_request": "2024-1104054",
    "request_type": "Traffic Signals/Signs/Striping/Streetlights",
    "request_reason": "Street Light Outage/Malfunction",
    "date_created": "2024-06-16T13:14:02.000",
    "date_modified": "2024-06-16T13:14:02.000",
    "request_status": "Pending",
    "responsible_agency": "Department of Public Works",
    "final_address": "CHIPPEWA ST & WASHINGTON AVE",
    "address_councildis": "B",
    "status": "Assigned to Contractor",
    "contractor": "Legacy Professional Services",
    "rowid": "1104054",
    "final_x": "3677887.1",
    "final_y": "519571.98",
    "longitude": "-90.07989126778891",
    "latitude": "29.922751772047153",
    "geocoded_column": {
      "latitude": "29.922751772047153",
      "longitude": "-90.07989126778891"
    }
  },
  {
    "service_request": "2024-1104053",
    "request_type": "Parks & Parkways",
    "request_reason": "Request Grass Cutting Service (City Owned Property)",
    "date_created": "2024-06-16T13:11:34.000",
    "date_modified": "2024-06-16T13:11:34.000",
    "request_status": "Pending",
    "responsible_agency": "Department of Parks & Parkway",
    "final_address": "2522 N Rampart St",
    "address_councildis": "C",
    "status": "Pending",
    "rowid": "1104053",
    "final_x": "3686724.35452",
    "final_y": "536044.786375",
    "longitude": "-90.05141388511889",
    "latitude": "29.967777622602416",
    "geocoded_column": {
      "latitude": "29.967777622602416",
      "longitude": "-90.05141388511889"
    }
  },
  {
    "service_request": "2024-1104052",
    "request_type": "Abandoned Vehicles",
    "request_reason": "Abandoned/Junk Vehicles",
    "date_created": "2024-06-16T13:09:51.000",
    "date_modified": "2024-06-16T13:09:51.000",
    "request_status": "Pending",
    "responsible_agency": "Department of Public Works",
    "final_address": "7803 Belfast St",
    "address_councildis": "A",
    "status": "Pending",
    "rowid": "1104052",
    "final_x": "3666423.43994",
    "final_y": "531666.588035",
    "longitude": "-90.11567193279373",
    "latitude": "29.956347900944508",
    "geocoded_column": {
      "latitude": "29.956347900944508",
      "longitude": "-90.11567193279373"
    }
  },
  {
    "service_request": "2024-1104051",
    "request_type": "Roads/Drainage",
    "request_reason": "Pothole",
    "date_created": "2024-06-16T12:55:36.000",
    "date_modified": "2024-06-16T12:55:36.000",
    "request_status": "Pending",
    "responsible_agency": "Department of Public Works",
    "final_address": "5530 Cameron Blvd",
    "address_councildis": "D",
    "status": "Pending",
    "rowid": "1104051",
    "final_x": "3682414.4861",
    "final_y": "553178.030423",
    "longitude": "-90.0644253729129",
    "latitude": "30.015019850680506",
    "geocoded_column": {
      "latitude": "30.015019850680506",
      "longitude": "-90.0644253729129"
    }
  },
  {
    "service_request": "2024-1104050",
    "request_type": "Abandoned Vehicles",
    "request_reason": "Abandoned/Junk Vehicles",
    "date_created": "2024-06-16T12:50:59.000",
    "date_modified": "2024-06-16T12:50:59.000",
    "request_status": "Pending",
    "responsible_agency": "Department of Public Works",
    "final_address": "4628 Prentiss Ave",
    "address_councildis": "D",
    "status": "Pending",
    "rowid": "1104050",
    "final_x": "3690869.31747",
    "final_y": "554199.019992",
    "longitude": "-90.03767574602473",
    "latitude": "30.017567036437057",
    "geocoded_column": {
      "latitude": "30.017567036437057",
      "longitude": "-90.03767574602473"
    }
  },
  {
    "service_request": "2024-1104049",
    "request_type": "Traffic Signals/Signs/Striping/Streetlights",
    "request_reason": "Street Light Outage/Malfunction",
    "date_created": "2024-06-16T12:48:26.000",
    "date_modified": "2024-06-16T12:48:27.000",
    "request_status": "Pending",
    "responsible_agency": "Department of Public Works",
    "final_address": "297 Audubon Blvd",
    "address_councildis": "A",
    "status": "Assigned to Contractor",
    "contractor": "Legacy Professional Services",
    "rowid": "1104049",
    "final_x": "3667106.72801",
    "final_y": "529674.368001",
    "longitude": "-90.11358129446668",
    "latitude": "29.950849962899806",
    "geocoded_column": {
      "latitude": "29.950849962899806",
      "longitude": "-90.11358129446668"
    }
  },
  {
    "service_request": "2024-1104048",
    "request_type": "Roads/Drainage",
    "request_reason": "Damaged Sidewalk",
    "date_created": "2024-06-16T12:43:39.000",
    "date_modified": "2024-06-16T12:43:39.000",
    "request_status": "Pending",
    "responsible_agency": "Department of Public Works",
    "final_address": "619 Chartres St",
    "address_councildis": "C",
    "status": "Pending",
    "rowid": "1104048",
    "final_x": "3682641.30408",
    "final_y": "532132.636163",
    "longitude": "-90.06444507580007",
    "latitude": "29.957145521666323",
    "geocoded_column": {
      "latitude": "29.957145521666323",
      "longitude": "-90.06444507580007"
    }
  },
  {
    "service_request": "2024-1104047",
    "request_type": "Abandoned Vehicles",
    "request_reason": "Abandoned/Junk Vehicles",
    "date_created": "2024-06-16T12:41:53.000",
    "date_modified": "2024-06-16T12:41:53.000",
    "request_status": "Pending",
    "responsible_agency": "Department of Public Works",
    "final_address": "4628 Prentiss Ave",
    "address_councildis": "D",
    "status": "Pending",
    "rowid": "1104047",
    "final_x": "3690869.31747",
    "final_y": "554199.019992",
    "longitude": "-90.03767574602473",
    "latitude": "30.017567036437057",
    "geocoded_column": {
      "latitude": "30.017567036437057",
      "longitude": "-90.03767574602473"
    }
  },
  {
    "service_request": "2024-1104045",
    "request_type": "Traffic Signals/Signs/Striping/Streetlights",
    "request_reason": "Street Light Outage/Malfunction",
    "date_created": "2024-06-16T12:36:45.000",
    "date_modified": "2024-06-16T12:36:46.000",
    "request_status": "Pending",
    "responsible_agency": "Department of Public Works",
    "final_address": "430 Notre Dame St",
    "address_councildis": "B",
    "status": "Assigned to Contractor",
    "contractor": "Legacy Professional Services",
    "rowid": "1104045",
    "final_x": "3681552.92207",
    "final_y": "527976.610175",
    "longitude": "-90.06802676574847",
    "latitude": "29.945750948916945",
    "geocoded_column": {
      "latitude": "29.945750948916945",
      "longitude": "-90.06802676574847"
    }
  },
  {
    "service_request": "2024-1104044",
    "request_type": "Trash/Recycling",
    "request_reason": "Request a Large Item Pick Up",
    "date_created": "2024-06-16T12:19:53.000",
    "date_modified": "2024-06-16T12:19:54.000",
    "request_status": "Pending",
    "responsible_agency": "Department of Sanitation",
    "final_address": "8632 Hayne Blvd",
    "address_councildis": "E",
    "status": "Assigned to Contractor",
    "contractor": "Waste Pro",
    "rowid": "1104044",
    "final_x": "3703687.38404",
    "final_y": "563681.823457",
    "longitude": "-89.99682655269486",
    "latitude": "30.043236294605325",
    "geocoded_column": {
      "latitude": "30.043236294605325",
      "longitude": "-89.99682655269486"
    }
  },
  {
    "service_request": "2024-1104043",
    "request_type": "Trash/Recycling",
    "request_reason": "Request a Large Item Pick Up",
    "date_created": "2024-06-16T12:18:42.000",
    "date_modified": "2024-06-16T12:18:42.000",
    "request_status": "Pending",
    "responsible_agency": "Department of Sanitation",
    "final_address": "8632 Hayne Blvd",
    "address_councildis": "E",
    "status": "Assigned to Contractor",
    "contractor": "Waste Pro",
    "rowid": "1104043",
    "final_x": "3703687.38404",
    "final_y": "563681.823457",
    "longitude": "-89.99682655269486",
    "latitude": "30.043236294605325",
    "geocoded_column": {
      "latitude": "30.043236294605325",
      "longitude": "-89.99682655269486"
    }
  },
  {
    "service_request": "2024-1104042",
    "request_type": "Abandoned Vehicles",
    "request_reason": "Abandoned/Junk Vehicles",
    "date_created": "2024-06-16T12:03:21.000",
    "date_modified": "2024-06-16T12:03:21.000",
    "request_status": "Pending",
    "responsible_agency": "Department of Public Works",
    "final_address": "2301 St Thomas St",
    "address_councildis": "B",
    "status": "Pending",
    "rowid": "1104042",
    "final_x": "3679610.99599",
    "final_y": "520399.607608",
    "longitude": "-90.07442090822205",
    "latitude": "29.92497551293832",
    "geocoded_column": {
      "latitude": "29.92497551293832",
      "longitude": "-90.07442090822205"
    }
  },
  {
    "service_request": "2024-1104041",
    "request_type": "Trash/Recycling",
    "request_reason": "MIssed Recycling Pick-Up",
    "date_created": "2024-06-16T11:51:08.000",
    "date_modified": "2024-06-16T12:05:55.000",
    "case_close_date": "2024-06-16T07:05:55.000",
    "request_status": "Closed",
    "responsible_agency": "Department of Sanitation",
    "final_address": "1914 Adams St",
    "address_councildis": "A",
    "status": "Invalid Request",
    "contractor": "IV Waste",
    "contractor_action": "Invalid Request",
    "rowid": "1104041",
    "final_x": "3664770.9088",
    "final_y": "529319.459777",
    "longitude": "-90.12096851552486",
    "latitude": "29.94994224358321",
    "geocoded_column": {
      "latitude": "29.94994224358321",
      "longitude": "-90.12096851552486"
    }
  },
  {
    "service_request": "2024-1104040",
    "request_type": "Trash/Recycling",
    "request_reason": "Request a Large Item Pick Up",
    "date_created": "2024-06-16T11:38:52.000",
    "date_modified": "2024-06-16T11:38:53.000",
    "request_status": "Pending",
    "responsible_agency": "Department of Sanitation",
    "final_address": "1905 Constantinople St, New Orleans, Louisiana, 70115",
    "status": "Assigned to Contractor",
    "rowid": "1104040",
    "longitude": "0.0",
    "latitude": "0.0",
    "geocoded_column": {
      "latitude": "0.0",
      "longitude": "0.0"
    }
  },
  {
    "service_request": "2024-1104039",
    "request_type": "Abandoned Vehicles",
    "request_reason": "Abandoned/Junk Vehicles",
    "date_created": "2024-06-16T11:21:29.000",
    "date_modified": "2024-06-16T11:21:29.000",
    "request_status": "Pending",
    "responsible_agency": "Department of Public Works",
    "final_address": "3700 BLK Martin Luther King, Jr. Blvd",
    "address_councildis": "B",
    "status": "Inspected",
    "rowid": "1104039",
    "final_x": "3672719.72375",
    "final_y": "529572.889789",
    "longitude": "-90.09586172602985",
    "latitude": "29.95040544349557",
    "geocoded_column": {
      "latitude": "29.95040544349557",
      "longitude": "-90.09586172602985"
    }
  },
  {
    "service_request": "2024-1104038",
    "request_type": "Abandoned Vehicles",
    "request_reason": "Abandoned/Junk Vehicles",
    "date_created": "2024-06-16T11:20:39.000",
    "date_modified": "2024-06-16T11:20:39.000",
    "request_status": "Pending",
    "responsible_agency": "Department of Public Works",
    "final_address": "3365 Martin Luther King, Jr. Blvd",
    "address_councildis": "B",
    "status": "Inspected",
    "rowid": "1104038",
    "final_x": "3673780.48859",
    "final_y": "529045.343168",
    "longitude": "-90.09253041567744",
    "latitude": "29.94892332201597",
    "geocoded_column": {
      "latitude": "29.94892332201597",
      "longitude": "-90.09253041567744"
    }
  },
  {
    "service_request": "2024-1104037",
    "request_type": "Parks & Parkways",
    "request_reason": "Request Tree Service (Right of Way/Public Property)",
    "date_created": "2024-06-16T11:02:22.000",
    "date_modified": "2024-06-16T11:02:22.000",
    "request_status": "Pending",
    "responsible_agency": "Department of Parks & Parkway",
    "final_address": "1839 Bordeaux St",
    "address_councildis": "B",
    "status": "Pending",
    "rowid": "1104037",
    "final_x": "3669329.85428",
    "final_y": "521753.37337",
    "longitude": "-90.10682947979618",
    "latitude": "29.92900452881874",
    "geocoded_column": {
      "latitude": "29.92900452881874",
      "longitude": "-90.10682947979618"
    }
  },
  {
    "service_request": "2024-1104036",
    "request_type": "Graffiti Removal",
    "request_reason": "Graffiti Removal",
    "date_created": "2024-06-16T09:54:33.000",
    "date_modified": "2024-06-16T09:54:33.000",
    "request_status": "Pending",
    "responsible_agency": "Department of Code Enforcement",
    "final_address": "5425 St Claude Ave",
    "address_councildis": "E",
    "status": "Pending",
    "rowid": "1104036",
    "final_x": "3697394.58045",
    "final_y": "534033.042117",
    "longitude": "-90.01779013638387",
    "latitude": "29.961913490835514",
    "geocoded_column": {
      "latitude": "29.961913490835514",
      "longitude": "-90.01779013638387"
    }
  },
  {
    "service_request": "2024-1104035",
    "request_type": "Roads/Drainage",
    "request_reason": "Street Subsidence (Sinking)",
    "date_created": "2024-06-16T09:37:51.000",
    "date_modified": "2024-06-16T09:37:51.000",
    "request_status": "Pending",
    "responsible_agency": "Department of Public Works",
    "final_address": "1 English Turn Prkwy",
    "address_councildis": "C",
    "status": "Pending",
    "rowid": "1104035",
    "final_x": "3713690.71429",
    "final_y": "516301.512564",
    "longitude": "-89.96699773956271",
    "latitude": "29.912633659868995",
    "geocoded_column": {
      "latitude": "29.912633659868995",
      "longitude": "-89.96699773956271"
    }
  },
  {
    "service_request": "2024-1104034",
    "request_type": "Trash/Recycling",
    "request_reason": "Order Recycling Cart",
    "date_created": "2024-06-16T09:31:20.000",
    "date_modified": "2024-06-16T09:31:20.000",
    "request_status": "Pending",
    "responsible_agency": "Department of Sanitation",
    "final_address": "6 Castle Pines Dr",
    "address_councildis": "C",
    "status": "Pending",
    "rowid": "1104034",
    "final_x": "3719685.2277",
    "final_y": "511827.637808",
    "longitude": "-89.94824828486004",
    "latitude": "29.90013418286825",
    "geocoded_column": {
      "latitude": "29.90013418286825",
      "longitude": "-89.94824828486004"
    }
  },
  {
    "service_request": "2024-1104033",
    "request_type": "Trash/Recycling",
    "request_reason": "Request a Large Item Pick Up",
    "date_created": "2024-06-16T09:24:11.000",
    "date_modified": "2024-06-16T09:24:12.000",
    "request_status": "Pending",
    "responsible_agency": "Department of Sanitation",
    "final_address": "5508 St Anthony Ave",
    "address_councildis": "D",
    "status": "Assigned to Contractor",
    "contractor": "IV Waste",
    "rowid": "1104033",
    "final_x": "3682044.04392",
    "final_y": "553120.266391",
    "longitude": "-90.06559781224588",
    "latitude": "30.01487229521824",
    "geocoded_column": {
      "latitude": "30.01487229521824",
      "longitude": "-90.06559781224588"
    }
  },
  {
    "service_request": "2024-1104032",
    "request_type": "Abandoned Vehicles",
    "request_reason": "Abandoned/Junk Vehicles",
    "date_created": "2024-06-16T09:18:49.000",
    "date_modified": "2024-06-16T09:18:49.000",
    "request_status": "Pending",
    "responsible_agency": "Department of Public Works",
    "final_address": "3439 Octavia St",
    "address_councildis": "A",
    "status": "Pending",
    "rowid": "1104032",
    "final_x": "3668583.71322",
    "final_y": "528292.636608",
    "longitude": "-90.10896432743324",
    "latitude": "29.94700733744463",
    "geocoded_column": {
      "latitude": "29.94700733744463",
      "longitude": "-90.10896432743324"
    }
  },
  {
    "service_request": "2024-1104025",
    "request_type": "Trash/Recycling",
    "request_reason": "Request a Large Item Pick Up",
    "date_created": "2024-06-16T08:28:44.000",
    "date_modified": "2024-06-16T08:28:45.000",
    "request_status": "Pending",
    "responsible_agency": "Department of Sanitation",
    "final_address": "318 S Gayoso St",
    "address_councildis": "B",
    "status": "Assigned to Contractor",
    "contractor": "IV Waste",
    "rowid": "1104025",
    "final_x": "3673787.6315",
    "final_y": "535076.588806",
    "longitude": "-90.0923016095317",
    "latitude": "29.965507024261907",
    "geocoded_column": {
      "latitude": "29.965507024261907",
      "longitude": "-90.0923016095317"
    }
  },
  {
    "service_request": "2024-1104024",
    "request_type": "Trash/Recycling",
    "request_reason": "Replace Trash Cart",
    "date_created": "2024-06-16T07:53:52.000",
    "date_modified": "2024-06-16T07:53:53.000",
    "request_status": "Pending",
    "responsible_agency": "Department of Sanitation",
    "final_address": "6067 Tchoupitoulas St",
    "address_councildis": "A",
    "status": "Assigned to Contractor",
    "contractor": "IV Waste",
    "rowid": "1104024",
    "final_x": "3663660.2496",
    "final_y": "517742.588534",
    "longitude": "-90.12486091490855",
    "latitude": "29.918141777559374",
    "geocoded_column": {
      "latitude": "29.918141777559374",
      "longitude": "-90.12486091490855"
    }
  },
  {
    "service_request": "2024-1104023",
    "request_type": "Trash/Recycling",
    "request_reason": "Replace Trash Cart",
    "date_created": "2024-06-16T07:53:46.000",
    "date_modified": "2024-06-16T07:53:47.000",
    "request_status": "Pending",
    "responsible_agency": "Department of Sanitation",
    "final_address": "5043 E Saint Andrews Cir, New Orleans, Louisiana, 70128",
    "status": "Assigned to Contractor",
    "rowid": "1104023",
    "longitude": "0.0",
    "latitude": "0.0",
    "geocoded_column": {
      "latitude": "0.0",
      "longitude": "0.0"
    }
  },
  {
    "service_request": "2024-1104022",
    "request_type": "Roads/Drainage",
    "request_reason": "Pothole",
    "date_created": "2024-06-16T02:50:26.000",
    "date_modified": "2024-06-16T02:50:26.000",
    "request_status": "Pending",
    "responsible_agency": "Department of Public Works",
    "final_address": "1221 Henry Clay Ave",
    "address_councildis": "A",
    "status": "Pending",
    "rowid": "1104022",
    "final_x": "3664415.3465",
    "final_y": "520988.190073",
    "longitude": "-90.122369203775",
    "latitude": "29.927044246855406",
    "geocoded_column": {
      "latitude": "29.927044246855406",
      "longitude": "-90.122369203775"
    }
  },
  {
    "service_request": "2024-1104021",
    "request_type": "Roads/Drainage",
    "request_reason": "Pothole",
    "date_created": "2024-06-16T02:49:04.000",
    "date_modified": "2024-06-16T02:49:04.000",
    "request_status": "Pending",
    "responsible_agency": "Department of Public Works",
    "final_address": "1475 Calhoun St",
    "address_councildis": "A",
    "status": "Pending",
    "rowid": "1104021",
    "final_x": "3664531.76442",
    "final_y": "522145.615162",
    "longitude": "-90.12196307460573",
    "latitude": "29.930223417464774",
    "geocoded_column": {
      "latitude": "29.930223417464774",
      "longitude": "-90.12196307460573"
    }
  },
  {
    "service_request": "2024-1104020",
    "request_type": "Roads/Drainage",
    "request_reason": "Pothole",
    "date_created": "2024-06-16T02:47:46.000",
    "date_modified": "2024-06-16T02:47:46.000",
    "request_status": "Pending",
    "responsible_agency": "Department of Public Works",
    "final_address": "6215 Hurst St",
    "address_councildis": "A",
    "status": "Pending",
    "rowid": "1104020",
    "final_x": "3664668.32039",
    "final_y": "522243.373626",
    "longitude": "-90.12152872358996",
    "latitude": "29.93048825206563",
    "geocoded_column": {
      "latitude": "29.93048825206563",
      "longitude": "-90.12152872358996"
    }
  },
  {
    "service_request": "2024-1104019",
    "request_type": "Traffic Signals/Signs/Striping/Streetlights",
    "request_reason": "Street Light Outage/Malfunction",
    "date_created": "2024-06-15T23:25:24.000",
    "date_modified": "2024-06-15T23:25:25.000",
    "request_status": "Pending",
    "responsible_agency": "Department of Public Works",
    "final_address": "8000 BLK Burthe St",
    "address_councildis": "A",
    "status": "Assigned to Contractor",
    "contractor": "Legacy Professional Services",
    "rowid": "1104019",
    "final_x": "3661462.85355",
    "final_y": "527401.336061",
    "longitude": "-90.13147716134512",
    "latitude": "29.944763843433737",
    "geocoded_column": {
      "latitude": "29.944763843433737",
      "longitude": "-90.13147716134512"
    }
  },
  {
    "service_request": "2024-1104018",
    "request_type": "Traffic Signals/Signs/Striping/Streetlights",
    "request_reason": "Street Light Outage/Malfunction",
    "date_created": "2024-06-15T23:16:19.000",
    "date_modified": "2024-06-15T23:16:20.000",
    "request_status": "Pending",
    "responsible_agency": "Department of Public Works",
    "final_address": "8000 BLK Burthe St",
    "address_councildis": "A",
    "status": "Assigned to Contractor",
    "contractor": "Legacy Professional Services",
    "rowid": "1104018",
    "final_x": "3661462.85355",
    "final_y": "527401.336061",
    "longitude": "-90.13147716134512",
    "latitude": "29.944763843433737",
    "geocoded_column": {
      "latitude": "29.944763843433737",
      "longitude": "-90.13147716134512"
    }
  },
  {
    "service_request": "2024-1104017",
    "request_type": "Abandoned Vehicles",
    "request_reason": "Abandoned/Junk Vehicles",
    "date_created": "2024-06-15T22:16:21.000",
    "date_modified": "2024-06-15T22:16:21.000",
    "request_status": "Pending",
    "responsible_agency": "Department of Public Works",
    "final_address": "1225 Franklin Ave",
    "address_councildis": "C",
    "status": "Pending",
    "rowid": "1104017",
    "final_x": "3687294.71618",
    "final_y": "537012.826952",
    "longitude": "-90.04957842064135",
    "latitude": "29.97042183828982",
    "geocoded_column": {
      "latitude": "29.97042183828982",
      "longitude": "-90.04957842064135"
    }
  },
  {
    "service_request": "2024-1104016",
    "request_type": "Roads/Drainage",
    "request_reason": "Street Subsidence (Sinking)",
    "date_created": "2024-06-15T22:14:22.000",
    "date_modified": "2024-06-15T22:14:22.000",
    "request_status": "Pending",
    "responsible_agency": "Department of Public Works",
    "final_address": "1 English Turn Prkwy",
    "address_councildis": "C",
    "status": "Pending",
    "rowid": "1104016",
    "final_x": "3713690.71429",
    "final_y": "516301.512564",
    "longitude": "-89.96699773956271",
    "latitude": "29.912633659868995",
    "geocoded_column": {
      "latitude": "29.912633659868995",
      "longitude": "-89.96699773956271"
    }
  },
  {
    "service_request": "2024-1104015",
    "request_type": "Abandoned Vehicles",
    "request_reason": "Abandoned/Junk Vehicles",
    "date_created": "2024-06-15T21:34:48.000",
    "date_modified": "2024-06-15T21:34:48.000",
    "request_status": "Pending",
    "responsible_agency": "Department of Public Works",
    "final_address": "2623 Columbus St",
    "address_councildis": "D",
    "status": "Pending",
    "rowid": "1104015",
    "final_x": "3678492.30664",
    "final_y": "539745.01761",
    "longitude": "-90.07728283922329",
    "latitude": "29.978202654424134",
    "geocoded_column": {
      "latitude": "29.978202654424134",
      "longitude": "-90.07728283922329"
    }
  },
  {
    "service_request": "2024-1104014",
    "request_type": "Abandoned Vehicles",
    "request_reason": "Abandoned/Junk Vehicles",
    "date_created": "2024-06-15T21:28:42.000",
    "date_modified": "2024-06-16T08:07:37.000",
    "request_status": "Pending",
    "responsible_agency": "Department of Public Works",
    "final_address": "2623 Columbus St",
    "address_councildis": "D",
    "status": "Inspected",
    "rowid": "1104014",
    "final_x": "3678492.30664",
    "final_y": "539745.01761",
    "longitude": "-90.07728283922329",
    "latitude": "29.978202654424134",
    "geocoded_column": {
      "latitude": "29.978202654424134",
      "longitude": "-90.07728283922329"
    }
  },
  {
    "service_request": "2024-1104013",
    "request_type": "Traffic Signals/Signs/Striping/Streetlights",
    "request_reason": "Traffic Signal Malfunctioning/Damaged",
    "date_created": "2024-06-15T20:34:23.000",
    "date_modified": "2024-06-15T20:34:23.000",
    "request_status": "Pending",
    "responsible_agency": "Department of Public Works",
    "final_address": "833 Decatur St",
    "address_councildis": "C",
    "status": "Pending",
    "rowid": "1104013",
    "final_x": "3683521.32585",
    "final_y": "532551.8937",
    "longitude": "-90.06165154885053",
    "latitude": "29.95827151121039",
    "geocoded_column": {
      "latitude": "29.95827151121039",
      "longitude": "-90.06165154885053"
    }
  },
  {
    "service_request": "2024-1104012",
    "request_type": "Mosquito, Termite & Rodent Control",
    "request_reason": "Mosquito Complaint",
    "date_created": "2024-06-15T20:24:58.000",
    "date_modified": "2024-06-15T20:24:58.000",
    "request_status": "Pending",
    "responsible_agency": "Mosquito, Termite & Rodent Control Board",
    "final_address": "10911 Lake Forest Blvd",
    "address_councildis": "E",
    "status": "Pending",
    "rowid": "1104012",
    "final_x": "3713785.40063",
    "final_y": "560368.857566",
    "longitude": "-89.96503797213117",
    "latitude": "30.033799244623992",
    "geocoded_column": {
      "latitude": "30.033799244623992",
      "longitude": "-89.96503797213117"
    }
  },
  {
    "service_request": "2024-1104011",
    "request_type": "Trash/Recycling",
    "request_reason": "Repair Trash Cart",
    "date_created": "2024-06-15T20:21:00.000",
    "date_modified": "2024-06-15T20:21:01.000",
    "request_status": "Pending",
    "responsible_agency": "Department of Sanitation",
    "final_address": "2931 Banks St",
    "address_councildis": "B",
    "status": "Assigned to Contractor",
    "contractor": "IV Waste",
    "rowid": "1104011",
    "final_x": "3673700.87092",
    "final_y": "534929.388806",
    "longitude": "-90.09258062970083",
    "latitude": "29.965104857305484",
    "geocoded_column": {
      "latitude": "29.965104857305484",
      "longitude": "-90.09258062970083"
    }
  },
  {
    "service_request": "2024-1104010",
    "request_type": "Trash/Recycling",
    "request_reason": "Request a Large Item Pick Up",
    "date_created": "2024-06-15T20:17:19.000",
    "date_modified": "2024-06-15T20:17:19.000",
    "request_status": "Pending",
    "responsible_agency": "Department of Sanitation",
    "final_address": "2515 N Rampart St",
    "address_councildis": "C",
    "status": "Assigned to Contractor",
    "contractor": "IV Waste",
    "rowid": "1104010",
    "final_x": "3686650.49602",
    "final_y": "536102.920263",
    "longitude": "-90.05164507830017",
    "latitude": "29.967939742381322",
    "geocoded_column": {
      "latitude": "29.967939742381322",
      "longitude": "-90.05164507830017"
    }
  },
  {
    "service_request": "2024-1104009",
    "request_type": "Abandoned Vehicles",
    "request_reason": "Abandoned/Junk Vehicles",
    "date_created": "2024-06-15T19:36:38.000",
    "date_modified": "2024-06-15T19:36:38.000",
    "request_status": "Pending",
    "responsible_agency": "Department of Public Works",
    "final_address": "3015 Robert St",
    "address_councildis": "B",
    "status": "Pending",
    "rowid": "1104009",
    "final_x": "3668944.5474",
    "final_y": "526484.823038",
    "longitude": "-90.107886081452",
    "latitude": "29.942025830264246",
    "geocoded_column": {
      "latitude": "29.942025830264246",
      "longitude": "-90.107886081452"
    }
  },
  {
    "service_request": "2024-1104008",
    "request_type": "Abandoned Vehicles",
    "request_reason": "Abandoned/Junk Vehicles",
    "date_created": "2024-06-15T19:35:13.000",
    "date_modified": "2024-06-15T19:35:13.000",
    "request_status": "Pending",
    "responsible_agency": "Department of Public Works",
    "final_address": "3015 Robert St",
    "address_councildis": "B",
    "status": "Pending",
    "rowid": "1104008",
    "final_x": "3668944.5474",
    "final_y": "526484.823038",
    "longitude": "-90.107886081452",
    "latitude": "29.942025830264246",
    "geocoded_column": {
      "latitude": "29.942025830264246",
      "longitude": "-90.107886081452"
    }
  },
  {
    "service_request": "2024-1104007",
    "request_type": "Traffic Signals/Signs/Striping/Streetlights",
    "request_reason": "Traffic Sign Missing/Damaged",
    "date_created": "2024-06-15T18:57:27.000",
    "date_modified": "2024-06-15T18:57:27.000",
    "request_status": "Pending",
    "responsible_agency": "Department of Public Works",
    "final_address": "JULIA ST & OKEEFE AVE",
    "address_councildis": "B",
    "status": "Pending",
    "rowid": "1104007",
    "final_x": "3679232.3",
    "final_y": "528318.58",
    "longitude": "-90.07534188516476",
    "latitude": "29.946761509976117",
    "geocoded_column": {
      "latitude": "29.946761509976117",
      "longitude": "-90.07534188516476"
    }
  },
  {
    "service_request": "2024-1104006",
    "request_type": "Trash/Recycling",
    "request_reason": "Replace Trash Cart",
    "date_created": "2024-06-15T18:09:06.000",
    "date_modified": "2024-06-15T18:09:06.000",
    "request_status": "Pending",
    "responsible_agency": "Department of Sanitation",
    "final_address": "2504 Wisteria St",
    "address_councildis": "D",
    "status": "Assigned to Contractor",
    "contractor": "IV Waste",
    "rowid": "1104006",
    "final_x": "3686307.35644",
    "final_y": "548270.096082",
    "longitude": "-90.05229914350926",
    "latitude": "30.001405709344315",
    "geocoded_column": {
      "latitude": "30.001405709344315",
      "longitude": "-90.05229914350926"
    }
  },
  {
    "service_request": "2024-1104005",
    "request_type": "Roads/Drainage",
    "request_reason": "Pothole",
    "date_created": "2024-06-15T18:01:19.000",
    "date_modified": "2024-06-15T18:01:19.000",
    "request_status": "Pending",
    "responsible_agency": "Department of Public Works",
    "final_address": "0 BLK English Turn Pkwy",
    "address_councildis": "C",
    "status": "Pending",
    "rowid": "1104005",
    "final_x": "3714478.8315",
    "final_y": "516189.451005",
    "longitude": "-89.96451447055301",
    "latitude": "29.912299665809115",
    "geocoded_column": {
      "latitude": "29.912299665809115",
      "longitude": "-89.96451447055301"
    }
  },
  {
    "service_request": "2024-1104004",
    "request_type": "Roads/Drainage",
    "request_reason": "Catch Basin - Clogged",
    "date_created": "2024-06-15T17:51:47.000",
    "date_modified": "2024-06-15T17:51:47.000",
    "request_status": "Pending",
    "responsible_agency": "Department of Public Works",
    "final_address": "3601 Tall Timbers Dr",
    "address_councildis": "C",
    "status": "Pending",
    "rowid": "1104004",
    "final_x": "3703592.27966",
    "final_y": "512300.019953",
    "longitude": "-89.99901810122643",
    "latitude": "29.901958162844263",
    "geocoded_column": {
      "latitude": "29.901958162844263",
      "longitude": "-89.99901810122643"
    }
  },
  {
    "service_request": "2024-1104003",
    "request_type": "Trash/Recycling",
    "request_reason": "Request a Large Item Pick Up",
    "date_created": "2024-06-15T17:39:48.000",
    "date_modified": "2024-06-15T17:39:48.000",
    "request_status": "Pending",
    "responsible_agency": "Department of Sanitation",
    "final_address": "343 Pacific Ave",
    "address_councildis": "C",
    "status": "Assigned to Contractor",
    "contractor": "Richards Disposal",
    "rowid": "1104003",
    "final_x": "3688486.67087",
    "final_y": "530388.346626",
    "longitude": "-90.04604913776272",
    "latitude": "29.952170044291538",
    "geocoded_column": {
      "latitude": "29.952170044291538",
      "longitude": "-90.04604913776272"
    }
  },
  {
    "service_request": "2024-1104002",
    "request_type": "Healthy Homes",
    "request_reason": "Healthy Homes",
    "date_created": "2024-06-15T17:31:44.000",
    "date_modified": "2024-06-15T17:31:44.000",
    "request_status": "Pending",
    "responsible_agency": "Department of Code Enforcement",
    "final_address": "2444 Onzaga St",
    "address_councildis": "D",
    "status": "Pending",
    "rowid": "1104002",
    "final_x": "3679829.78043",
    "final_y": "540011.126347",
    "longitude": "-90.0730493741552",
    "latitude": "29.978893980286255",
    "geocoded_column": {
      "latitude": "29.978893980286255",
      "longitude": "-90.0730493741552"
    }
  },
  {
    "service_request": "2024-1104001",
    "request_type": "Abandoned Vehicles",
    "request_reason": "Abandoned/Junk Vehicles",
    "date_created": "2024-06-15T17:01:11.000",
    "date_modified": "2024-06-15T17:01:11.000",
    "request_status": "Pending",
    "responsible_agency": "Department of Public Works",
    "final_address": "930 Congress St",
    "address_councildis": "C",
    "status": "Pending",
    "rowid": "1104001",
    "final_x": "3690561.34294",
    "final_y": "535043.588742",
    "longitude": "-90.03933231464363",
    "latitude": "29.9649060890964",
    "geocoded_column": {
      "latitude": "29.9649060890964",
      "longitude": "-90.03933231464363"
    }
  },
  {
    "service_request": "2024-1104000",
    "request_type": "Roads/Drainage",
    "request_reason": "Street Subsidence (Sinking)",
    "date_created": "2024-06-15T16:53:18.000",
    "date_modified": "2024-06-15T16:53:18.000",
    "request_status": "Pending",
    "responsible_agency": "Department of Public Works",
    "final_address": "2130 Perdido St",
    "address_councildis": "B",
    "status": "Pending",
    "rowid": "1104000",
    "final_x": "3675609.30229",
    "final_y": "531912.165187",
    "longitude": "-90.08665757097846",
    "latitude": "29.956751546943305",
    "geocoded_column": {
      "latitude": "29.956751546943305",
      "longitude": "-90.08665757097846"
    }
  },
  {
    "service_request": "2024-1103999",
    "request_type": "Parks & Parkways",
    "request_reason": "Request Tree Service (Right of Way/Public Property)",
    "date_created": "2024-06-15T16:41:55.000",
    "date_modified": "2024-06-15T16:41:55.000",
    "request_status": "Pending",
    "responsible_agency": "Department of Parks & Parkway",
    "final_address": "1200 Allen Toussaint Blvd",
    "address_councildis": "D",
    "status": "Pending",
    "rowid": "1103999",
    "final_x": "3676667.27361",
    "final_y": "555074.621081",
    "longitude": "-90.08251843209551",
    "latitude": "30.020408539295705",
    "geocoded_column": {
      "latitude": "30.020408539295705",
      "longitude": "-90.08251843209551"
    }
  },
  {
    "service_request": "2024-1103998",
    "request_type": "Traffic Signals/Signs/Striping/Streetlights",
    "request_reason": "Street Light Outage/Malfunction",
    "date_created": "2024-06-15T16:11:02.000",
    "date_modified": "2024-06-15T16:11:03.000",
    "request_status": "Pending",
    "responsible_agency": "Department of Public Works",
    "final_address": "1 Westbank Expressway",
    "address_councildis": "C",
    "status": "Assigned to Contractor",
    "contractor": "Legacy Professional Services",
    "rowid": "1103998",
    "final_x": "3691031.72937",
    "final_y": "521468.144121",
    "longitude": "-90.03833137963025",
    "latitude": "29.92756366725035",
    "geocoded_column": {
      "latitude": "29.92756366725035",
      "longitude": "-90.03833137963025"
    }
  },
  {
    "service_request": "2024-1103997",
    "request_type": "Abandoned Vehicles",
    "request_reason": "Abandoned/Junk Vehicles",
    "date_created": "2024-06-15T16:10:07.000",
    "date_modified": "2024-06-15T16:10:07.000",
    "request_status": "Pending",
    "responsible_agency": "Department of Public Works",
    "final_address": "3103 Chestnut St",
    "address_councildis": "B",
    "status": "Pending",
    "rowid": "1103997",
    "final_x": "3675622.55829",
    "final_y": "520799.222969",
    "longitude": "-90.08699740049975",
    "latitude": "29.926194214778427",
    "geocoded_column": {
      "latitude": "29.926194214778427",
      "longitude": "-90.08699740049975"
    }
  },
  {
    "service_request": "2024-1103996",
    "request_type": "Trash/Recycling",
    "request_reason": "Replace Recycling Cart",
    "date_created": "2024-06-15T16:08:43.000",
    "date_modified": "2024-06-15T16:08:43.000",
    "request_status": "Pending",
    "responsible_agency": "Department of Sanitation",
    "final_address": "136 N Alexander St",
    "address_councildis": "A",
    "status": "Pending",
    "rowid": "1103996",
    "final_x": "3670260.14977",
    "final_y": "539439.866442",
    "longitude": "-90.10329335801617",
    "latitude": "29.97760915139891",
    "geocoded_column": {
      "latitude": "29.97760915139891",
      "longitude": "-90.10329335801617"
    }
  },
  {
    "service_request": "2024-1103995",
    "request_type": "Roads/Drainage",
    "request_reason": "Street Subsidence (Sinking)",
    "date_created": "2024-06-15T16:04:16.000",
    "date_modified": "2024-06-15T16:04:16.000",
    "request_status": "Pending",
    "responsible_agency": "Department of Public Works",
    "final_address": "1540 General Collins Ave",
    "address_councildis": "C",
    "status": "Pending",
    "rowid": "1103995",
    "final_x": "3698617.95396",
    "final_y": "525383.964861",
    "longitude": "-90.01424135820281",
    "latitude": "29.9380928924185",
    "geocoded_column": {
      "latitude": "29.9380928924185",
      "longitude": "-90.01424135820281"
    }
  },
  {
    "service_request": "2024-1103994",
    "request_type": "Trash/Recycling",
    "request_reason": "Order Recycling Cart",
    "date_created": "2024-06-15T16:01:06.000",
    "date_modified": "2024-06-15T16:01:06.000",
    "request_status": "Pending",
    "responsible_agency": "Department of Sanitation",
    "final_address": "4635 Hauck Dr",
    "address_councildis": "E",
    "status": "Pending",
    "rowid": "1103994",
    "final_x": "3714687.17048",
    "final_y": "556175.217242",
    "longitude": "-89.96234686671603",
    "latitude": "30.02223876314898",
    "geocoded_column": {
      "latitude": "30.02223876314898",
      "longitude": "-89.96234686671603"
    }
  },
  {
    "service_request": "2024-1103993",
    "request_type": "Trash/Recycling",
    "request_reason": "Missed Trash Pick-Up",
    "date_created": "2024-06-15T15:58:10.000",
    "date_modified": "2024-06-16T08:14:48.000",
    "case_close_date": "2024-06-16T03:14:48.000",
    "request_status": "Closed",
    "responsible_agency": "Department of Sanitation",
    "final_address": "3500 BLK Republic St",
    "address_councildis": "D",
    "status": "Invalid Request",
    "contractor": "IV Waste",
    "contractor_action": "Invalid Request",
    "rowid": "1103993",
    "final_x": "3680472.21612",
    "final_y": "545389.606187",
    "longitude": "-90.0708331508246",
    "latitude": "29.99366347040658",
    "geocoded_column": {
      "latitude": "29.99366347040658",
      "longitude": "-90.0708331508246"
    }
  },
  {
    "service_request": "2024-1103992",
    "request_type": "Trash/Recycling",
    "request_reason": "Replace Trash Cart",
    "date_created": "2024-06-15T15:57:45.000",
    "date_modified": "2024-06-15T15:57:46.000",
    "request_status": "Pending",
    "responsible_agency": "Department of Sanitation",
    "final_address": "1133 Allen Toussaint Blvd",
    "address_councildis": "D",
    "status": "Assigned to Contractor",
    "contractor": "IV Waste",
    "rowid": "1103992",
    "final_x": "3675011.42881",
    "final_y": "554949.503256",
    "longitude": "-90.08775470097441",
    "latitude": "30.020114107271404",
    "geocoded_column": {
      "latitude": "30.020114107271404",
      "longitude": "-90.08775470097441"
    }
  },
  {
    "service_request": "2024-1103991",
    "request_type": "Abandoned Vehicles",
    "request_reason": "Abandoned/Junk Vehicles",
    "date_created": "2024-06-15T15:49:02.000",
    "date_modified": "2024-06-15T15:49:02.000",
    "request_status": "Pending",
    "responsible_agency": "Department of Public Works",
    "final_address": "3600 BLK Havana St",
    "address_councildis": "D",
    "status": "Pending",
    "rowid": "1103991",
    "final_x": "3680811.84274",
    "final_y": "545787.7048",
    "longitude": "-90.06974645489915",
    "latitude": "29.99474780700183",
    "geocoded_column": {
      "latitude": "29.99474780700183",
      "longitude": "-90.06974645489915"
    }
  },
  {
    "service_request": "2024-1103990",
    "request_type": "Trash/Recycling",
    "request_reason": "Request a Large Item Pick Up",
    "date_created": "2024-06-15T15:44:48.000",
    "date_modified": "2024-06-15T15:44:49.000",
    "request_status": "Pending",
    "responsible_agency": "Department of Sanitation",
    "final_address": "3015 Carondelet St",
    "address_councildis": "B",
    "status": "Assigned to Contractor",
    "contractor": "IV Waste",
    "rowid": "1103990",
    "final_x": "3674871.98971",
    "final_y": "522343.308602",
    "longitude": "-90.08931381443753",
    "latitude": "29.93046237769801",
    "geocoded_column": {
      "latitude": "29.93046237769801",
      "longitude": "-90.08931381443753"
    }
  },
  {
    "service_request": "2024-1103989",
    "request_type": "Abandoned Vehicles",
    "request_reason": "Abandoned/Junk Vehicles",
    "date_created": "2024-06-15T15:44:20.000",
    "date_modified": "2024-06-15T15:44:20.000",
    "request_status": "Pending",
    "responsible_agency": "Department of Public Works",
    "final_address": "7700 BLK Unity Dr",
    "address_councildis": "E",
    "status": "Pending",
    "rowid": "1103989",
    "final_x": "3711650.99497",
    "final_y": "567658.337568",
    "longitude": "-89.97150910373445",
    "latitude": "30.053912289818463",
    "geocoded_column": {
      "latitude": "30.053912289818463",
      "longitude": "-89.97150910373445"
    }
  },
  {
    "service_request": "2024-1103988",
    "request_type": "Abandoned Vehicles",
    "request_reason": "Abandoned/Junk Vehicles",
    "date_created": "2024-06-15T15:41:32.000",
    "date_modified": "2024-06-15T15:41:32.000",
    "request_status": "Pending",
    "responsible_agency": "Department of Public Works",
    "final_address": "7700 BLK Unity Dr",
    "address_councildis": "E",
    "status": "Pending",
    "rowid": "1103988",
    "final_x": "3711650.99497",
    "final_y": "567658.337568",
    "longitude": "-89.97150910373445",
    "latitude": "30.053912289818463",
    "geocoded_column": {
      "latitude": "30.053912289818463",
      "longitude": "-89.97150910373445"
    }
  },
  {
    "service_request": "2024-1103987",
    "request_type": "Abandoned Vehicles",
    "request_reason": "Abandoned/Junk Vehicles",
    "date_created": "2024-06-15T15:39:42.000",
    "date_modified": "2024-06-15T15:39:42.000",
    "request_status": "Pending",
    "responsible_agency": "Department of Public Works",
    "final_address": "7700 BLK Unity Dr",
    "address_councildis": "E",
    "status": "Pending",
    "rowid": "1103987",
    "final_x": "3711650.99497",
    "final_y": "567658.337568",
    "longitude": "-89.97150910373445",
    "latitude": "30.053912289818463",
    "geocoded_column": {
      "latitude": "30.053912289818463",
      "longitude": "-89.97150910373445"
    }
  },
  {
    "service_request": "2024-1103986",
    "request_type": "Abandoned Vehicles",
    "request_reason": "Abandoned/Junk Vehicles",
    "date_created": "2024-06-15T15:37:21.000",
    "date_modified": "2024-06-15T15:37:21.000",
    "request_status": "Pending",
    "responsible_agency": "Department of Public Works",
    "final_address": "857 Olga St",
    "address_councildis": "A",
    "status": "Pending",
    "rowid": "1103986",
    "final_x": "3673315.04244",
    "final_y": "540218.941835",
    "longitude": "-90.09361833026179",
    "latitude": "29.979660817593306",
    "geocoded_column": {
      "latitude": "29.979660817593306",
      "longitude": "-90.09361833026179"
    }
  },
  {
    "service_request": "2024-1103985",
    "request_type": "Trash/Recycling",
    "request_reason": "Missed Trash Pick-Up",
    "date_created": "2024-06-15T15:18:42.000",
    "date_modified": "2024-06-16T10:46:05.000",
    "case_close_date": "2024-06-16T05:46:05.000",
    "request_status": "Closed",
    "responsible_agency": "Department of Sanitation",
    "final_address": "3527 Carondelet St",
    "address_councildis": "B",
    "status": "Invalid Request",
    "contractor": "IV Waste",
    "contractor_action": "Invalid Request",
    "rowid": "1103985",
    "final_x": "3673433.98331",
    "final_y": "521721.799418",
    "longitude": "-90.09387461309655",
    "latitude": "29.928796278154742",
    "geocoded_column": {
      "latitude": "29.928796278154742",
      "longitude": "-90.09387461309655"
    }
  },
  {
    "service_request": "2024-1103984",
    "request_type": "Trash/Recycling",
    "request_reason": "Request a Large Item Pick Up",
    "date_created": "2024-06-15T14:39:32.000",
    "date_modified": "2024-06-15T14:39:33.000",
    "request_status": "Pending",
    "responsible_agency": "Department of Sanitation",
    "final_address": "325 Opelousas Ave",
    "address_councildis": "C",
    "status": "Assigned to Contractor",
    "contractor": "Richards Disposal",
    "rowid": "1103984",
    "final_x": "3686326.70818",
    "final_y": "528991.73248",
    "longitude": "-90.05291855780796",
    "latitude": "29.94839637815939",
    "geocoded_column": {
      "latitude": "29.94839637815939",
      "longitude": "-90.05291855780796"
    }
  },
  {
    "service_request": "2024-1103983",
    "request_type": "Trash/Recycling",
    "request_reason": "Replace Trash Cart",
    "date_created": "2024-06-15T14:26:14.000",
    "date_modified": "2024-06-15T14:26:15.000",
    "request_status": "Pending",
    "responsible_agency": "Department of Sanitation",
    "final_address": "1919 Robert St",
    "address_councildis": "B",
    "status": "Assigned to Contractor",
    "contractor": "IV Waste",
    "rowid": "1103983",
    "final_x": "3668821.78279",
    "final_y": "522682.588602",
    "longitude": "-90.10840200757546",
    "latitude": "29.93157451805284",
    "geocoded_column": {
      "latitude": "29.93157451805284",
      "longitude": "-90.10840200757546"
    }
  },
  {
    "service_request": "2024-1103982",
    "request_type": "Trash/Recycling",
    "request_reason": "Return Trash Cart",
    "date_created": "2024-06-15T14:25:24.000",
    "date_modified": "2024-06-15T14:25:25.000",
    "request_status": "Pending",
    "responsible_agency": "Department of Sanitation",
    "final_address": "4815 Allen St",
    "address_councildis": "D",
    "status": "Assigned to Contractor",
    "contractor": "IV Waste",
    "rowid": "1103982",
    "final_x": "3681677.85468",
    "final_y": "550259.759828",
    "longitude": "-90.0668546871285",
    "latitude": "30.007018071969306",
    "geocoded_column": {
      "latitude": "30.007018071969306",
      "longitude": "-90.0668546871285"
    }
  },
  {
    "service_request": "2024-1103981",
    "request_type": "Traffic Signals/Signs/Striping/Streetlights",
    "request_reason": "Traffic Sign Missing/Damaged",
    "date_created": "2024-06-15T14:24:11.000",
    "date_modified": "2024-06-15T14:24:11.000",
    "request_status": "Pending",
    "responsible_agency": "Department of Public Works",
    "final_address": "8502 Palm St",
    "address_councildis": "A",
    "status": "Pending",
    "rowid": "1103981",
    "final_x": "3666601.6105",
    "final_y": "535664.220294",
    "longitude": "-90.11497510639494",
    "latitude": "29.96733486587647",
    "geocoded_column": {
      "latitude": "29.96733486587647",
      "longitude": "-90.11497510639494"
    }
  },
  {
    "service_request": "2024-1103980",
    "request_type": "Trash/Recycling",
    "request_reason": "Request a Large Item Pick Up",
    "date_created": "2024-06-15T14:22:34.000",
    "date_modified": "2024-06-15T14:22:34.000",
    "request_status": "Pending",
    "responsible_agency": "Department of Sanitation",
    "final_address": "1919 Robert St",
    "address_councildis": "B",
    "status": "Assigned to Contractor",
    "contractor": "IV Waste",
    "rowid": "1103980",
    "final_x": "3668821.78279",
    "final_y": "522682.588602",
    "longitude": "-90.10840200757546",
    "latitude": "29.93157451805284",
    "geocoded_column": {
      "latitude": "29.93157451805284",
      "longitude": "-90.10840200757546"
    }
  },
  {
    "service_request": "2024-1103979",
    "request_type": "Trash/Recycling",
    "request_reason": "Request a Large Item Pick Up",
    "date_created": "2024-06-15T14:20:16.000",
    "date_modified": "2024-06-15T14:20:17.000",
    "request_status": "Pending",
    "responsible_agency": "Department of Sanitation",
    "final_address": "3827 Cleveland Ave, New Orleans LA 70119 ",
    "address_councildis": "A",
    "status": "Assigned to Contractor",
    "contractor": "IV Waste",
    "rowid": "1103979",
    "final_x": "3671654.71617",
    "final_y": "537436.475784",
    "longitude": "-90.09895699644785",
    "latitude": "29.97205926800432",
    "geocoded_column": {
      "latitude": "29.97205926800432",
      "longitude": "-90.09895699644785"
    }
  },
  {
    "service_request": "2024-1103978",
    "request_type": "Trash/Recycling",
    "request_reason": "Order Recycling Cart",
    "date_created": "2024-06-15T14:13:59.000",
    "date_modified": "2024-06-15T14:13:59.000",
    "request_status": "Pending",
    "responsible_agency": "Department of Sanitation",
    "final_address": "EARHART BLVD & GENERAL OGDEN ST",
    "address_councildis": "A",
    "status": "Pending",
    "rowid": "1103978",
    "final_x": "3663962.2",
    "final_y": "534780.48",
    "longitude": "-90.12333991213892",
    "latitude": "29.964981774711223",
    "geocoded_column": {
      "latitude": "29.964981774711223",
      "longitude": "-90.12333991213892"
    }
  },
  {
    "service_request": "2024-1103977",
    "request_type": "Roads/Drainage",
    "request_reason": "Street Subsidence (Sinking)",
    "date_created": "2024-06-15T14:12:14.000",
    "date_modified": "2024-06-15T14:12:14.000",
    "request_status": "Pending",
    "responsible_agency": "Department of Public Works",
    "final_address": "1 English Turn Dr",
    "address_councildis": "C",
    "status": "Pending",
    "rowid": "1103977",
    "final_x": "3718743.04537",
    "final_y": "514375.150771",
    "longitude": "-89.95112468975525",
    "latitude": "29.907170226931942",
    "geocoded_column": {
      "latitude": "29.907170226931942",
      "longitude": "-89.95112468975525"
    }
  },
  {
    "service_request": "2024-1103976",
    "request_type": "Roads/Drainage",
    "request_reason": "Pothole",
    "date_created": "2024-06-15T13:44:07.000",
    "date_modified": "2024-06-15T13:44:07.000",
    "request_status": "Pending",
    "responsible_agency": "Department of Public Works",
    "final_address": "BORDEAUX ST & PITT ST",
    "address_councildis": "B",
    "status": "Pending",
    "rowid": "1103976",
    "final_x": "3669410.7",
    "final_y": "520423.78",
    "longitude": "-90.1066192002336",
    "latitude": "29.925346190935787",
    "geocoded_column": {
      "latitude": "29.925346190935787",
      "longitude": "-90.1066192002336"
    }
  },
  {
    "service_request": "2024-1103975",
    "request_type": "Parks & Parkways",
    "request_reason": "Request Tree Service (Right of Way/Public Property)",
    "date_created": "2024-06-15T13:39:19.000",
    "date_modified": "2024-06-15T13:39:19.000",
    "request_status": "Pending",
    "responsible_agency": "Department of Parks & Parkway",
    "final_address": "4816 Bienville Ave",
    "address_councildis": "A",
    "status": "Pending",
    "rowid": "1103975",
    "final_x": "3669150.55623",
    "final_y": "540748.415499",
    "longitude": "-90.10675360132869",
    "latitude": "29.981239923914018",
    "geocoded_column": {
      "latitude": "29.981239923914018",
      "longitude": "-90.10675360132869"
    }
  },