[
  {
    "service_request": "2022-911934",
    "request_type": "Roads/Drainage",
    "request_reason": "Street Subsidence (Sinking)",
    "date_created": "2022-08-21T01:43:52.000",
    "date_modified": "2022-08-21T01:43:52.000",
    "request_status": "Pending",
    "responsible_agency": "Department of Public Works",
    "final_address": "2800 N Rocheblave St",
    "address_councildis": "D",
    "status": "Pending",
    "rowid": "911934",
    "final_x": "3687932.32572",
    "final_y": "541319.6843",
    "longitude": "-90.04741214020679",
    "latitude": "29.982244519419105",
    "geocoded_column": {
      "latitude": "29.982244519419105",
      "longitude": "-90.04741214020679"
    }
  },
  {
    "service_request": "2022-911933",
    "request_type": "Property Maintenance",
    "request_reason": "Property Maintenance",
    "date_created": "2022-08-21T00:28:20.000",
    "date_modified": "2022-08-21T00:28:20.000",
    "request_status": "Pending",
    "responsible_agency": "Department of Code Enforcement",
    "final_address": "2233 Canal St",
    "address_councildis": "B",
    "status": "Pending",
    "rowid": "911933",
    "final_x": "3676835.54427",
    "final_y": "534168.493317",
    "longitude": "-90.08270772580175",
    "latitude": "29.962918947545308",
    "geocoded_column": {
      "latitude": "29.962918947545308",
      "longitude": "-90.08270772580175"
    }
  },
  {
    "service_request": "2022-911932",
    "request_type": "Trash/Recycling",
    "request_reason": "Illegal Dumping",
    "date_created": "2022-08-21T00:26:39.000",
    "date_modified": "2022-08-21T00:26:39.000",
    "request_status": "Pending",
    "responsible_agency": "Department of Sanitation",
    "final_address": "2233 Canal St",
    "address_councildis": "B",
    "status": "Pending",
    "rowid": "911932",
    "final_x": "3676835.54427",
    "final_y": "534168.493317",
    "longitude": "-90.08270772580175",
    "latitude": "29.962918947545308",
    "geocoded_column": {
      "latitude": "29.962918947545308",
      "longitude": "-90.08270772580175"
    }
  },
  {
    "service_request": "2022-911931",
    "request_type": "Property Maintenance",
    "request_reason": "Property Maintenance",
    "date_created": "2022-08-21T00:18:02.000",
    "date_modified": "2022-08-21T00:18:02.000",
    "request_status": "Pending",
    "responsible_agency": "Department of Code Enforcement",
    "final_address": "2228 Iberville St",
    "address_councildis": "B",
    "status": "Pending",
    "rowid": "911931",
    "final_x": "3676988.57998",
    "final_y": "534347.226949",
    "longitude": "-90.08221829511926",
    "latitude": "29.96340581090875",
    "geocoded_column": {
      "latitude": "29.96340581090875",
      "longitude": "-90.08221829511926"
    }
  },
  {
    "service_request": "2022-911929",
    "request_type": "Health Related Questions",
    "request_reason": "Noise Ordinance Complaint",
    "date_created": "2022-08-21T00:05:19.000",
    "date_modified": "2022-08-21T00:05:19.000",
    "request_status": "Pending",
    "responsible_agency": "Health Department",
    "final_address": "206 N Miro St",
    "address_councildis": "B",
    "status": "Pending",
    "rowid": "911929",
    "final_x": "3677050.89486",
    "final_y": "534457.432197",
    "longitude": "-90.0820177109301",
    "latitude": "29.963706967018457",
    "geocoded_column": {
      "latitude": "29.963706967018457",
      "longitude": "-90.0820177109301"
    }
  },
  {
    "service_request": "2022-911928",
    "request_type": "Abandoned Vehicles",
    "request_reason": "Abandoned/Junk Vehicles",
    "date_created": "2022-08-20T23:15:19.000",
    "date_modified": "2022-08-20T23:15:19.000",
    "request_status": "Pending",
    "responsible_agency": "Department of Public Works",
    "final_address": "8333 Jeannette St",
    "address_councildis": "A",
    "status": "Pending",
    "rowid": "911928",
    "final_x": "3661933.34554",
    "final_y": "529872.838721",
    "longitude": "-90.12990971486317",
    "latitude": "29.95154610626974",
    "geocoded_column": {
      "latitude": "29.95154610626974",
      "longitude": "-90.12990971486317"
    }
  },
  {
    "service_request": "2022-911927",
    "request_type": "Abandoned Vehicles",
    "request_reason": "Abandoned/Junk Vehicles",
    "date_created": "2022-08-20T23:08:29.000",
    "date_modified": "2022-08-20T23:08:29.000",
    "request_status": "Pending",
    "responsible_agency": "Department of Public Works",
    "final_address": "8333 Jeannette St",
    "address_councildis": "A",
    "status": "Pending",
    "rowid": "911927",
    "final_x": "3661933.34554",
    "final_y": "529872.838721",
    "longitude": "-90.12990971486317",
    "latitude": "29.95154610626974",
    "geocoded_column": {
      "latitude": "29.95154610626974",
      "longitude": "-90.12990971486317"
    }
  },
  {
    "service_request": "2022-911926",
    "request_type": "Health Related Questions",
    "request_reason": "Noise Ordinance Complaint",
    "date_created": "2022-08-20T22:18:35.000",
    "date_modified": "2022-08-20T22:18:35.000",
    "request_status": "Pending",
    "responsible_agency": "Health Department",
    "final_address": "206 N Miro St",
    "address_councildis": "B",
    "status": "Pending",
    "rowid": "911926",
    "final_x": "3677050.89486",
    "final_y": "534457.432197",
    "longitude": "-90.0820177109301",
    "latitude": "29.963706967018457",
    "geocoded_column": {
      "latitude": "29.963706967018457",
      "longitude": "-90.0820177109301"
    }
  },
  {
    "service_request": "2022-911925",
    "request_type": "Trash/Recycling",
    "request_reason": "Replace Trash Cart",
    "date_created": "2022-08-20T22:13:15.000",
    "date_modified": "2022-08-20T22:13:16.000",
    "request_status": "Pending",
    "responsible_agency": "Department of Sanitation",
    "final_address": "5231 Marigny St",
    "address_councildis": "D",
    "status": "Assigned to Contractor",
    "contractor": "Metro Disposal",
    "rowid": "911925",
    "final_x": "3684300.17685",
    "final_y": "552317.174422",
    "longitude": "-90.05849775704169",
    "latitude": "30.012595257760825",
    "geocoded_column": {
      "latitude": "30.012595257760825",
      "longitude": "-90.05849775704169"
    }
  },
  {
    "service_request": "2022-911924",
    "request_type": "Trash/Recycling",
    "request_reason": "Order Recycling Cart",
    "date_created": "2022-08-20T22:11:46.000",
    "date_modified": "2022-08-20T22:11:46.000",
    "request_status": "Pending",
    "responsible_agency": "Department of Sanitation",
    "final_address": "5231 Marigny St",
    "address_councildis": "D",
    "status": "Pending",
    "rowid": "911924",
    "final_x": "3684300.17685",
    "final_y": "552317.174422",
    "longitude": "-90.05849775704169",
    "latitude": "30.012595257760825",
    "geocoded_column": {
      "latitude": "30.012595257760825",
      "longitude": "-90.05849775704169"
    }
  },
  {
    "service_request": "2022-911922",
    "request_type": "Property Maintenance",
    "request_reason": "Property Maintenance",
    "date_created": "2022-08-20T20:54:07.000",
    "date_modified": "2022-08-20T20:54:07.000",
    "request_status": "Pending",
    "responsible_agency": "Department of Code Enforcement",
    "final_address": "4906 Burgundy St",
    "address_councildis": "E",
    "status": "Pending",
    "rowid": "911922",
    "final_x": "3695244.3928",
    "final_y": "533588.743813",
    "longitude": "-90.02459608256262",
    "latitude": "29.960759531212037",
    "geocoded_column": {
      "latitude": "29.960759531212037",
      "longitude": "-90.02459608256262"
    }
  },
  {
    "service_request": "2022-911921",
    "request_type": "Property Maintenance",
    "request_reason": "Property Maintenance",
    "date_created": "2022-08-20T20:48:30.000",
    "date_modified": "2022-08-20T20:48:30.000",
    "request_status": "Pending",
    "responsible_agency": "Department of Code Enforcement",
    "final_address": "4906 Burgundy St",
    "address_councildis": "E",
    "status": "Pending",
    "rowid": "911921",
    "final_x": "3695244.3928",
    "final_y": "533588.743813",
    "longitude": "-90.02459608256262",
    "latitude": "29.960759531212037",
    "geocoded_column": {
      "latitude": "29.960759531212037",
      "longitude": "-90.02459608256262"
    }
  },
  {
    "service_request": "2022-911920",
    "request_type": "Trash/Recycling",
    "request_reason": "Replace Trash Cart",
    "date_created": "2022-08-20T20:48:06.000",
    "date_modified": "2022-08-20T20:48:07.000",
    "request_status": "Pending",
    "responsible_agency": "Department of Sanitation",
    "final_address": "1301 Riviera Ave",
    "address_councildis": "D",
    "status": "Assigned to Contractor",
    "contractor": "Metro Disposal",
    "rowid": "911920",
    "final_x": "3677236.94395",
    "final_y": "550891.659477",
    "longitude": "-90.08086291465943",
    "latitude": "30.008889788190213",
    "geocoded_column": {
      "latitude": "30.008889788190213",
      "longitude": "-90.08086291465943"
    }
  },
  {
    "service_request": "2022-911919",
    "request_type": "Trash/Recycling",
    "request_reason": "Replace Trash Cart",
    "date_created": "2022-08-20T20:47:56.000",
    "date_modified": "2022-08-20T20:47:57.000",
    "request_status": "Pending",
    "responsible_agency": "Department of Sanitation",
    "final_address": "1301 Riviera Ave",
    "address_councildis": "D",
    "status": "Assigned to Contractor",
    "contractor": "Metro Disposal",
    "rowid": "911919",
    "final_x": "3677236.94395",
    "final_y": "550891.659477",
    "longitude": "-90.08086291465943",
    "latitude": "30.008889788190213",
    "geocoded_column": {
      "latitude": "30.008889788190213",
      "longitude": "-90.08086291465943"
    }
  },
  {
    "service_request": "2022-911918",
    "request_type": "Trash/Recycling",
    "request_reason": "Request a Large Item Pick Up",
    "date_created": "2022-08-20T20:44:34.000",
    "date_modified": "2022-08-20T20:44:34.000",
    "request_status": "Pending",
    "responsible_agency": "Department of Sanitation",
    "final_address": "1301 Riviera Ave",
    "address_councildis": "D",
    "status": "Assigned to Contractor",
    "contractor": "Metro Disposal",
    "rowid": "911918",
    "final_x": "3677236.94395",
    "final_y": "550891.659477",
    "longitude": "-90.08086291465943",
    "latitude": "30.008889788190213",
    "geocoded_column": {
      "latitude": "30.008889788190213",
      "longitude": "-90.08086291465943"
    }
  },
  {
    "service_request": "2022-911917",
    "request_type": "Trash/Recycling",
    "request_reason": "Request a Large Item Pick Up",
    "date_created": "2022-08-20T20:01:05.000",
    "date_modified": "2022-08-20T20:01:06.000",
    "request_status": "Pending",
    "responsible_agency": "Department of Sanitation",
    "final_address": "524 Washington Ave",
    "address_councildis": "B",
    "status": "Assigned to Contractor",
    "contractor": "Richards Disposal",
    "rowid": "911917",
    "final_x": "3678061.82178",
    "final_y": "519219.996727",
    "longitude": "-90.07935189941102",
    "latitude": "29.921778675480546",
    "geocoded_column": {
      "latitude": "29.921778675480546",
      "longitude": "-90.07935189941102"
    }
  },
  {
    "service_request": "2022-911916",
    "request_type": "Trash/Recycling",
    "request_reason": "Request a Large Item Pick Up",
    "date_created": "2022-08-20T19:45:17.000",
    "date_modified": "2022-08-20T19:45:18.000",
    "request_status": "Pending",
    "responsible_agency": "Department of Sanitation",
    "final_address": "1026 Clouet St",
    "address_councildis": "C",
    "status": "Assigned to Contractor",
    "contractor": "Metro Disposal",
    "rowid": "911916",
    "final_x": "3688911.82191",
    "final_y": "535784.392263",
    "longitude": "-90.04451507056518",
    "latitude": "29.966994157685544",
    "geocoded_column": {
      "latitude": "29.966994157685544",
      "longitude": "-90.04451507056518"
    }
  },
  {
    "service_request": "2022-911915",
    "request_type": "Trash/Recycling",
    "request_reason": "Replace Trash Cart",
    "date_created": "2022-08-20T19:41:07.000",
    "date_modified": "2022-08-20T19:41:08.000",
    "request_status": "Pending",
    "responsible_agency": "Department of Sanitation",
    "final_address": "29 Versailles Blvd",
    "address_councildis": "A",
    "status": "Assigned to Contractor",
    "contractor": "Richards Disposal",
    "rowid": "911915",
    "final_x": "3667332.94106",
    "final_y": "529293.653953",
    "longitude": "-90.1128798296363",
    "latitude": "29.949796499907425",
    "geocoded_column": {
      "latitude": "29.949796499907425",
      "longitude": "-90.1128798296363"
    }
  },
  {
    "service_request": "2022-911913",
    "request_type": "Trash/Recycling",
    "request_reason": "Repair Trash Cart",
    "date_created": "2022-08-20T19:19:13.000",
    "date_modified": "2022-08-20T19:19:14.000",
    "request_status": "Pending",
    "responsible_agency": "Department of Sanitation",
    "final_address": "6115 Patton St",
    "address_councildis": "A",
    "status": "Assigned to Contractor",
    "contractor": "Richards Disposal",
    "rowid": "911913",
    "final_x": "3663787.90714",
    "final_y": "518940.384375",
    "longitude": "-90.12441807815962",
    "latitude": "29.921431640410532",
    "geocoded_column": {
      "latitude": "29.921431640410532",
      "longitude": "-90.12441807815962"
    }
  },
  {
    "service_request": "2022-911912",
    "request_type": "Traffic Signals/Signs/Striping/Streetlights",
    "request_reason": "Street Light Outage/Malfunction",
    "date_created": "2022-08-20T19:16:38.000",
    "date_modified": "2022-08-20T19:16:39.000",
    "request_status": "Pending",
    "responsible_agency": "Department of Public Works",
    "final_address": "5030 Alcee Fortier Blvd",
    "address_councildis": "E",
    "status": "Pending",
    "contractor": "Legacy Professional Services",
    "rowid": "911912",
    "final_x": "3729777.2569",
    "final_y": "563714.483617",
    "longitude": "-89.91437169268",
    "latitude": "30.042463544880803",
    "geocoded_column": {
      "latitude": "30.042463544880803",
      "longitude": "-89.91437169268"
    }
  },
  {
    "service_request": "2022-911911",
    "request_type": "Roads/Drainage",
    "request_reason": "Catch Basin - Clogged",
    "date_created": "2022-08-20T18:57:42.000",
    "date_modified": "2022-08-20T18:57:42.000",
    "request_status": "Pending",
    "responsible_agency": "Department of Public Works",
    "final_address": "3137 Spain St",
    "address_councildis": "D",
    "status": "Pending",
    "rowid": "911911",
    "final_x": "3685562.57692",
    "final_y": "544453.606799",
    "longitude": "-90.05478649677157",
    "latitude": "29.99093460711734",
    "geocoded_column": {
      "latitude": "29.99093460711734",
      "longitude": "-90.05478649677157"
    }
  },
  {
    "service_request": "2022-911910",
    "request_type": "Trash/Recycling",
    "request_reason": "Request a Large Item Pick Up",
    "date_created": "2022-08-20T18:56:02.000",
    "date_modified": "2022-08-20T18:56:03.000",
    "request_status": "Pending",
    "responsible_agency": "Department of Sanitation",
    "final_address": "7929 Freret St",
    "address_councildis": "A",
    "status": "Assigned to Contractor",
    "contractor": "Richards Disposal",
    "rowid": "911910",
    "final_x": "3661926.85114",
    "final_y": "527522.518655",
    "longitude": "-90.13000815603785",
    "latitude": "29.9450836666227",
    "geocoded_column": {
      "latitude": "29.9450836666227",
      "longitude": "-90.13000815603785"
    }
  },
  {
    "service_request": "2022-911909",
    "request_type": "Roads/Drainage",
    "request_reason": "Catch Basin - Clogged",
    "date_created": "2022-08-20T18:55:25.000",
    "date_modified": "2022-08-20T18:55:26.000",
    "request_status": "Pending",
    "responsible_agency": "Department of Public Works",
    "final_address": "3137 Spain St",
    "address_councildis": "D",
    "status": "Pending",
    "rowid": "911909",
    "final_x": "3685562.57692",
    "final_y": "544453.606799",
    "longitude": "-90.05478649677157",
    "latitude": "29.99093460711734",
    "geocoded_column": {
      "latitude": "29.99093460711734",
      "longitude": "-90.05478649677157"
    }
  },
  {
    "service_request": "2022-911908",
    "request_type": "Trash/Recycling",
    "request_reason": "Missed Trash Pick-Up",
    "date_created": "2022-08-20T18:41:14.000",
    "date_modified": "2022-08-20T18:41:14.000",
    "request_status": "Pending",
    "responsible_agency": "Department of Sanitation",
    "final_address": "2124 Tupelo St",
    "address_councildis": "E",
    "status": "Assigned to Contractor",
    "contractor": "Metro Disposal",
    "rowid": "911908",
    "final_x": "3700897.01105",
    "final_y": "537113.93972",
    "longitude": "-90.00661743793172",
    "latitude": "29.970273818161424",
    "geocoded_column": {
      "latitude": "29.970273818161424",
      "longitude": "-90.00661743793172"
    }
  },
  {
    "service_request": "2022-911907",
    "request_type": "Mosquito, Termite & Rodent Control",
    "request_reason": "Mosquito Complaint",
    "date_created": "2022-08-20T18:22:19.000",
    "date_modified": "2022-08-20T18:22:19.000",
    "request_status": "Pending",
    "responsible_agency": "Mosquito, Termite & Rodent Control Board",
    "final_address": "3517 Jena St",
    "address_councildis": "B",
    "status": "Pending",
    "rowid": "911907",
    "final_x": "3669823.51393",
    "final_y": "527676.622271",
    "longitude": "-90.10507065415212",
    "latitude": "29.945277013795078",
    "geocoded_column": {
      "latitude": "29.945277013795078",
      "longitude": "-90.10507065415212"
    }
  },
  {
    "service_request": "2022-911906",
    "request_type": "Trash/Recycling",
    "request_reason": "Replace Trash Cart",
    "date_created": "2022-08-20T18:21:35.000",
    "date_modified": "2022-08-20T18:21:36.000",
    "request_status": "Pending",
    "responsible_agency": "Department of Sanitation",
    "final_address": "3517 Jena St",
    "address_councildis": "B",
    "status": "Assigned to Contractor",
    "contractor": "Richards Disposal",
    "rowid": "911906",
    "final_x": "3669823.51393",
    "final_y": "527676.622271",
    "longitude": "-90.10507065415212",
    "latitude": "29.945277013795078",
    "geocoded_column": {
      "latitude": "29.945277013795078",
      "longitude": "-90.10507065415212"
    }
  },
  {
    "service_request": "2022-911905",
    "request_type": "Trash/Recycling",
    "request_reason": "Order Recycling Cart",
    "date_created": "2022-08-20T18:20:24.000",
    "date_modified": "2022-08-20T18:20:24.000",
    "request_status": "Pending",
    "responsible_agency": "Department of Sanitation",
    "final_address": "3517 Jena St",
    "address_councildis": "B",
    "status": "Pending",
    "rowid": "911905",
    "final_x": "3669823.51393",
    "final_y": "527676.622271",
    "longitude": "-90.10507065415212",
    "latitude": "29.945277013795078",
    "geocoded_column": {
      "latitude": "29.945277013795078",
      "longitude": "-90.10507065415212"
    }
  },
  {
    "service_request": "2022-911904",
    "request_type": "Trash/Recycling",
    "request_reason": "Repair Trash Cart",
    "date_created": "2022-08-20T18:18:46.000",
    "date_modified": "2022-08-20T18:18:46.000",
    "request_status": "Pending",
    "responsible_agency": "Department of Sanitation",
    "final_address": "3517 Jena St",
    "address_councildis": "B",
    "status": "Assigned to Contractor",
    "contractor": "Richards Disposal",
    "rowid": "911904",
    "final_x": "3669823.51393",
    "final_y": "527676.622271",
    "longitude": "-90.10507065415212",
    "latitude": "29.945277013795078",
    "geocoded_column": {
      "latitude": "29.945277013795078",
      "longitude": "-90.10507065415212"
    }
  },
  {
    "service_request": "2022-911903",
    "request_type": "Roads/Drainage",
    "request_reason": "Pothole",
    "date_created": "2022-08-20T18:10:37.000",
    "date_modified": "2022-08-20T18:10:37.000",
    "request_status": "Pending",
    "responsible_agency": "Department of Public Works",
    "final_address": "2003 Joseph St",
    "address_councildis": "A",
    "status": "Pending",
    "rowid": "911903",
    "final_x": "3667210.0722",
    "final_y": "523480.369147",
    "longitude": "-90.11346319564885",
    "latitude": "29.9338154375375",
    "geocoded_column": {
      "latitude": "29.9338154375375",
      "longitude": "-90.11346319564885"
    }
  },
  {
    "service_request": "2022-911902",
    "request_type": "Trash/Recycling",
    "request_reason": "Illegal Dumping",
    "date_created": "2022-08-20T18:03:18.000",
    "date_modified": "2022-08-20T18:03:18.000",
    "request_status": "Pending",
    "responsible_agency": "Department of Sanitation",
    "final_address": "222 Chartres St",
    "address_councildis": "C",
    "status": "Pending",
    "rowid": "911902",
    "final_x": "3681873.03887",
    "final_y": "530929.808962",
    "longitude": "-90.06691299730501",
    "latitude": "29.9538615259406",
    "geocoded_column": {
      "latitude": "29.9538615259406",
      "longitude": "-90.06691299730501"
    }
  },
  {
    "service_request": "2022-911901",
    "request_type": "Trash/Recycling",
    "request_reason": "Replace Trash Cart",
    "date_created": "2022-08-20T18:03:11.000",
    "date_modified": "2022-08-20T18:03:12.000",
    "request_status": "Pending",
    "responsible_agency": "Department of Sanitation",
    "final_address": "4433 Iberville St",
    "address_councildis": "A",
    "status": "Assigned to Contractor",
    "contractor": "Richards Disposal",
    "rowid": "911901",
    "final_x": "3670072.28558",
    "final_y": "539721.919306",
    "longitude": "-90.10387714032035",
    "latitude": "29.978390245169688",
    "geocoded_column": {
      "latitude": "29.978390245169688",
      "longitude": "-90.10387714032035"
    }
  },
  {
    "service_request": "2022-911900",
    "request_type": "Abandoned Vehicles",
    "request_reason": "Abandoned/Junk Vehicles",
    "date_created": "2022-08-20T17:40:28.000",
    "date_modified": "2022-08-20T17:40:28.000",
    "request_status": "Pending",
    "responsible_agency": "Department of Public Works",
    "final_address": "1724 Dublin St",
    "address_councildis": "A",
    "status": "Pending",
    "rowid": "911900",
    "final_x": "3662977.76275",
    "final_y": "530089.659585",
    "longitude": "-90.12660472610612",
    "latitude": "29.95211209117504",
    "geocoded_column": {
      "latitude": "29.95211209117504",
      "longitude": "-90.12660472610612"
    }
  },
  {
    "service_request": "2022-911899",
    "request_type": "Trash/Recycling",
    "request_reason": "Illegal Dumping",
    "date_created": "2022-08-20T17:40:12.000",
    "date_modified": "2022-08-20T17:40:12.000",
    "request_status": "Pending",
    "responsible_agency": "Department of Sanitation",
    "final_address": "2627 Tchoupitoulas St",
    "address_councildis": "B",
    "status": "Pending",
    "rowid": "911899",
    "final_x": "3678815.1261",
    "final_y": "519005.055799",
    "longitude": "-90.07698147786488",
    "latitude": "29.921164967844756",
    "geocoded_column": {
      "latitude": "29.921164967844756",
      "longitude": "-90.07698147786488"
    }
  },
  {
    "service_request": "2022-911898",
    "request_type": "Abandoned Vehicles",
    "request_reason": "Abandoned/Junk Vehicles",
    "date_created": "2022-08-20T17:38:07.000",
    "date_modified": "2022-08-20T17:38:07.000",
    "request_status": "Pending",
    "responsible_agency": "Department of Public Works",
    "final_address": "1808 Arts St",
    "address_councildis": "D",
    "status": "Pending",
    "rowid": "911898",
    "final_x": "3686964.65263",
    "final_y": "539149.616842",
    "longitude": "-90.05054524845426",
    "latitude": "29.97630742500286",
    "geocoded_column": {
      "latitude": "29.97630742500286",
      "longitude": "-90.05054524845426"
    }
  },
  {
    "service_request": "2022-911897",
    "request_type": "Abandoned Vehicles",
    "request_reason": "Abandoned/Junk Vehicles",
    "date_created": "2022-08-20T17:34:53.000",
    "date_modified": "2022-08-20T17:34:53.000",
    "request_status": "Pending",
    "responsible_agency": "Department of Public Works",
    "final_address": "1808 Arts St",
    "address_councildis": "D",
    "status": "Pending",
    "rowid": "911897",
    "final_x": "3686964.65263",
    "final_y": "539149.616842",
    "longitude": "-90.05054524845426",
    "latitude": "29.97630742500286",
    "geocoded_column": {
      "latitude": "29.97630742500286",
      "longitude": "-90.05054524845426"
    }
  },
  {
    "service_request": "2022-911896",
    "request_type": "Trash/Recycling",
    "request_reason": "Request a Large Item Pick Up",
    "date_created": "2022-08-20T17:01:16.000",
    "date_modified": "2022-08-20T17:01:17.000",
    "request_status": "Pending",
    "responsible_agency": "Department of Sanitation",
    "final_address": "1516 Camp St, New Orleans, Louisiana, 70130",
    "address_councildis": "B",
    "status": "Assigned to Contractor",
    "contractor": "Richards Disposal",
    "rowid": "911896",
    "final_x": "3679806.64111",
    "final_y": "523760.020859",
    "longitude": "-90.07368670736403",
    "latitude": "29.93420963516469",
    "geocoded_column": {
      "latitude": "29.93420963516469",
      "longitude": "-90.07368670736403"
    }
  },
  {
    "service_request": "2022-911895",
    "request_type": "Property Maintenance",
    "request_reason": "Property Maintenance",
    "date_created": "2022-08-20T16:56:49.000",
    "date_modified": "2022-08-20T16:56:49.000",
    "request_status": "Pending",
    "responsible_agency": "Department of Code Enforcement",
    "final_address": "1014 Teche St",
    "address_councildis": "C",
    "status": "Pending",
    "rowid": "911895",
    "final_x": "3686624.4141",
    "final_y": "527785.045183",
    "longitude": "-90.05202118335106",
    "latitude": "29.945069247778633",
    "geocoded_column": {
      "latitude": "29.945069247778633",
      "longitude": "-90.05202118335106"
    }
  },
  {
    "service_request": "2022-911894",
    "request_type": "Property Maintenance",
    "request_reason": "Property Maintenance",
    "date_created": "2022-08-20T16:32:22.000",
    "date_modified": "2022-08-20T16:32:22.000",
    "request_status": "Pending",
    "responsible_agency": "Department of Code Enforcement",
    "final_address": "5533 Bundy Rd",
    "address_councildis": "E",
    "status": "Pending",
    "rowid": "911894",
    "final_x": "3709673.74309",
    "final_y": "557981.084379",
    "longitude": "-89.97812042068206",
    "latitude": "30.027368173467046",
    "geocoded_column": {
      "latitude": "30.027368173467046",
      "longitude": "-89.97812042068206"
    }
  },
  {
    "service_request": "2022-911893",
    "request_type": "Property Maintenance",
    "request_reason": "Property Maintenance",
    "date_created": "2022-08-20T16:32:18.000",
    "date_modified": "2022-08-20T16:32:18.000",
    "request_status": "Pending",
    "responsible_agency": "Department of Code Enforcement",
    "final_address": "5533 Bundy Rd",
    "address_councildis": "E",
    "status": "Pending",
    "rowid": "911893",
    "final_x": "3709673.74309",
    "final_y": "557981.084379",
    "longitude": "-89.97812042068206",
    "latitude": "30.027368173467046",
    "geocoded_column": {
      "latitude": "30.027368173467046",
      "longitude": "-89.97812042068206"
    }
  },
  {
    "service_request": "2022-911892",
    "request_type": "Property Maintenance",
    "request_reason": "Property Maintenance",
    "date_created": "2022-08-20T16:26:58.000",
    "date_modified": "2022-08-20T16:26:58.000",
    "request_status": "Pending",
    "responsible_agency": "Department of Code Enforcement",
    "final_address": "5529 Bundy Rd",
    "address_councildis": "E",
    "status": "Pending",
    "rowid": "911892",
    "final_x": "3709887.63198",
    "final_y": "558036.639899",
    "longitude": "-89.97744247903816",
    "latitude": "30.02751397178733",
    "geocoded_column": {
      "latitude": "30.02751397178733",
      "longitude": "-89.97744247903816"
    }
  },
  {
    "service_request": "2022-911891",
    "request_type": "Property Maintenance",
    "request_reason": "Property Maintenance",
    "date_created": "2022-08-20T16:26:56.000",
    "date_modified": "2022-08-20T16:26:56.000",
    "request_status": "Pending",
    "responsible_agency": "Department of Code Enforcement",
    "final_address": "5529 Bundy Rd",
    "address_councildis": "E",
    "status": "Pending",
    "rowid": "911891",
    "final_x": "3709887.63198",
    "final_y": "558036.639899",
    "longitude": "-89.97744247903816",
    "latitude": "30.02751397178733",
    "geocoded_column": {
      "latitude": "30.02751397178733",
      "longitude": "-89.97744247903816"
    }
  },
  {
    "service_request": "2022-911890",
    "request_type": "Property Maintenance",
    "request_reason": "Property Maintenance",
    "date_created": "2022-08-20T16:23:24.000",
    "date_modified": "2022-08-20T16:23:24.000",
    "request_status": "Pending",
    "responsible_agency": "Department of Code Enforcement",
    "final_address": "5517 Bundy Rd",
    "address_councildis": "E",
    "status": "Pending",
    "rowid": "911890",
    "final_x": "3709873.74309",
    "final_y": "558297.751004",
    "longitude": "-89.97747660325491",
    "latitude": "30.02823237643335",
    "geocoded_column": {
      "latitude": "30.02823237643335",
      "longitude": "-89.97747660325491"
    }
  },
  {
    "service_request": "2022-911889",
    "request_type": "Property Maintenance",
    "request_reason": "Property Maintenance",
    "date_created": "2022-08-20T16:18:38.000",
    "date_modified": "2022-08-20T16:18:38.000",
    "request_status": "Pending",
    "responsible_agency": "Department of Code Enforcement",
    "final_address": "5511 Bundy Rd",
    "address_councildis": "E",
    "status": "Pending",
    "rowid": "911889",
    "final_x": "3709476.08677",
    "final_y": "557830.180699",
    "longitude": "-89.97875062913505",
    "latitude": "30.026959674042576",
    "geocoded_column": {
      "latitude": "30.026959674042576",
      "longitude": "-89.97875062913505"
    }
  },
  {
    "service_request": "2022-911887",
    "request_type": "Abandoned Vehicles",
    "request_reason": "Abandoned/Junk Vehicles",
    "date_created": "2022-08-20T16:15:48.000",
    "date_modified": "2022-08-20T16:18:10.000",
    "request_status": "Pending",
    "responsible_agency": "Department of Public Works",
    "final_address": "3901 Toulouse St",
    "address_councildis": "A",
    "status": "Pending",
    "rowid": "911887",
    "final_x": "3672864.31918",
    "final_y": "539308.925066",
    "longitude": "-90.09507295971285",
    "latitude": "29.97717198271486",
    "geocoded_column": {
      "latitude": "29.97717198271486",
      "longitude": "-90.09507295971285"
    }
  },
  {
    "service_request": "2022-911886",
    "request_type": "Property Maintenance",
    "request_reason": "Property Maintenance",
    "date_created": "2022-08-20T16:14:06.000",
    "date_modified": "2022-08-20T16:14:06.000",
    "request_status": "Pending",
    "responsible_agency": "Department of Code Enforcement",
    "final_address": "5507 Bundy Rd",
    "address_councildis": "E",
    "status": "Pending",
    "rowid": "911886",
    "final_x": "3709376.52088",
    "final_y": "558186.639899",
    "longitude": "-89.97905193195268",
    "latitude": "30.027943032798387",
    "geocoded_column": {
      "latitude": "30.027943032798387",
      "longitude": "-89.97905193195268"
    }
  },
  {
    "service_request": "2022-911885",
    "request_type": "Trash/Recycling",
    "request_reason": "Request a Large Item Pick Up",
    "date_created": "2022-08-20T16:00:14.000",
    "date_modified": "2022-08-20T16:00:14.000",
    "request_status": "Pending",
    "responsible_agency": "Department of Sanitation",
    "final_address": "3123 St Peter St",
    "address_councildis": "A",
    "status": "Assigned to Contractor",
    "contractor": "Richards Disposal",
    "rowid": "911885",
    "final_x": "3675052.96129",
    "final_y": "538111.689993",
    "longitude": "-90.08820159514866",
    "latitude": "29.97381477958792",
    "geocoded_column": {
      "latitude": "29.97381477958792",
      "longitude": "-90.08820159514866"
    }
  },
  {
    "service_request": "2022-911884",
    "request_type": "Trash/Recycling",
    "request_reason": "Order Trash Cart",
    "date_created": "2022-08-20T15:38:16.000",
    "date_modified": "2022-08-20T15:38:17.000",
    "request_status": "Pending",
    "responsible_agency": "Department of Sanitation",
    "final_address": "45 Spanish Fort Blvd",
    "address_councildis": "D",
    "status": "Assigned to Contractor",
    "contractor": "Metro Disposal",
    "rowid": "911884",
    "final_x": "3674078.1556",
    "final_y": "555193.664473",
    "longitude": "-90.09069518921231",
    "latitude": "30.020813325112048",
    "geocoded_column": {
      "latitude": "30.020813325112048",
      "longitude": "-90.09069518921231"
    }
  },
  {
    "service_request": "2022-911883",
    "request_type": "Trash/Recycling",
    "request_reason": "Illegal Dumping",
    "date_created": "2022-08-20T15:24:41.000",
    "date_modified": "2022-08-20T15:24:41.000",
    "request_status": "Pending",
    "responsible_agency": "Department of Sanitation",
    "final_address": "2414 St Ann St",
    "address_councildis": "D",
    "status": "Pending",
    "rowid": "911883",
    "final_x": "3677868.58926",
    "final_y": "536419.755207",
    "longitude": "-90.07936769725389",
    "latitude": "29.969078108763366",
    "geocoded_column": {
      "latitude": "29.969078108763366",
      "longitude": "-90.07936769725389"
    }
  },
  {
    "service_request": "2022-911882",
    "request_type": "Trash/Recycling",
    "request_reason": "Replace Trash Cart",
    "date_created": "2022-08-20T15:22:40.000",
    "date_modified": "2022-08-20T15:22:41.000",
    "request_status": "Pending",
    "responsible_agency": "Department of Sanitation",
    "final_address": "1929 General Taylor St",
    "address_councildis": "B",
    "status": "Assigned to Contractor",
    "contractor": "Richards Disposal",
    "rowid": "911882",
    "final_x": "3672368.77524",
    "final_y": "522353.66713",
    "longitude": "-90.09721574551604",
    "latitude": "29.930565350777094",
    "geocoded_column": {
      "latitude": "29.930565350777094",
      "longitude": "-90.09721574551604"
    }
  },
  {
    "service_request": "2022-911881",
    "request_type": "Trash/Recycling",
    "request_reason": "Missed Trash Pick-Up",
    "date_created": "2022-08-20T15:18:35.000",
    "date_modified": "2022-08-20T15:18:36.000",
    "request_status": "Pending",
    "responsible_agency": "Department of Sanitation",
    "final_address": "5006 N Galvez St",
    "address_councildis": "E",
    "status": "Assigned to Contractor",
    "contractor": "Metro Disposal",
    "rowid": "911881",
    "final_x": "3697065.836",
    "final_y": "537903.945161",
    "longitude": "-90.01868800928291",
    "latitude": "29.972567466573878",
    "geocoded_column": {
      "latitude": "29.972567466573878",
      "longitude": "-90.01868800928291"
    }
  },
  {
    "service_request": "2022-911880",
    "request_type": "Trash/Recycling",
    "request_reason": "Order Trash Cart",
    "date_created": "2022-08-20T15:05:59.000",
    "date_modified": "2022-08-20T15:05:59.000",
    "request_status": "Pending",
    "responsible_agency": "Department of Sanitation",
    "final_address": "5245 Pratt Dr",
    "address_councildis": "D",
    "status": "Assigned to Contractor",
    "contractor": "Metro Disposal",
    "rowid": "911880",
    "final_x": "3680518.13",
    "final_y": "551909.082006",
    "longitude": "-90.07046114165612",
    "latitude": "30.011588308625694",
    "geocoded_column": {
      "latitude": "30.011588308625694",
      "longitude": "-90.07046114165612"
    }
  },
  {
    "service_request": "2022-911879",
    "request_type": "Trash/Recycling",
    "request_reason": "Missed Trash Pick-Up",
    "date_created": "2022-08-20T14:57:23.000",
    "date_modified": "2022-08-20T14:57:24.000",
    "request_status": "Pending",
    "responsible_agency": "Department of Sanitation",
    "final_address": "421 Hillary St, New Orleans, Louisiana, 70118",
    "address_councildis": "A",
    "status": "Assigned to Contractor",
    "contractor": "Richards Disposal",
    "rowid": "911879",
    "final_x": "3663961.97338",
    "final_y": "527763.687359",
    "longitude": "-90.12357457497043",
    "latitude": "29.945687879730954",
    "geocoded_column": {
      "latitude": "29.945687879730954",
      "longitude": "-90.12357457497043"
    }
  },
  {
    "service_request": "2022-911878",
    "request_type": "Roads/Drainage",
    "request_reason": "Pothole",
    "date_created": "2022-08-20T14:54:41.000",
    "date_modified": "2022-08-20T14:54:41.000",
    "request_status": "Pending",
    "responsible_agency": "Department of Public Works",
    "final_address": "7513 Plum St",
    "address_councildis": "A",
    "status": "Pending",
    "rowid": "911878",
    "final_x": "3663826.99168",
    "final_y": "527267.613887",
    "longitude": "-90.12401728898989",
    "latitude": "29.944327754651958",
    "geocoded_column": {
      "latitude": "29.944327754651958",
      "longitude": "-90.12401728898989"
    }
  },
  {
    "service_request": "2022-911877",
    "request_type": "Trash/Recycling",
    "request_reason": "MIssed Recycling Pick-Up",
    "date_created": "2022-08-20T14:52:08.000",
    "date_modified": "2022-08-20T14:52:08.000",
    "request_status": "Pending",
    "responsible_agency": "Department of Sanitation",
    "final_address": "421 Hillary St, New Orleans, Louisiana, 70118",
    "address_councildis": "A",
    "status": "Assigned to Contractor",
    "contractor": "Richards Disposal",
    "rowid": "911877",
    "final_x": "3663961.97338",
    "final_y": "527763.687359",
    "longitude": "-90.12357457497043",
    "latitude": "29.945687879730954",
    "geocoded_column": {
      "latitude": "29.945687879730954",
      "longitude": "-90.12357457497043"
    }
  },
  {
    "service_request": "2022-911876",
    "request_type": "Abandoned Vehicles",
    "request_reason": "Abandoned/Junk Vehicles",
    "date_created": "2022-08-20T14:48:07.000",
    "date_modified": "2022-08-20T14:48:07.000",
    "request_status": "Pending",
    "responsible_agency": "Department of Public Works",
    "final_address": "2257 Carondelet St",
    "address_councildis": "B",
    "status": "Pending",
    "rowid": "911876",
    "final_x": "3676946.78216",
    "final_y": "523751.035835",
    "longitude": "-90.0827155021044",
    "latitude": "29.934271066483923",
    "geocoded_column": {
      "latitude": "29.934271066483923",
      "longitude": "-90.0827155021044"
    }
  },
  {
    "service_request": "2022-911874",
    "request_type": "Trash/Recycling",
    "request_reason": "MIssed Recycling Pick-Up",
    "date_created": "2022-08-20T14:29:36.000",
    "date_modified": "2022-08-20T14:29:37.000",
    "request_status": "Pending",
    "responsible_agency": "Department of Sanitation",
    "final_address": "7836 Nelson St",
    "address_councildis": "A",
    "status": "Assigned to Contractor",
    "contractor": "Richards Disposal",
    "rowid": "911874",
    "final_x": "3665705.8786",
    "final_y": "531260.180546",
    "longitude": "-90.1179513734152",
    "latitude": "29.95525136067576",
    "geocoded_column": {
      "latitude": "29.95525136067576",
      "longitude": "-90.1179513734152"
    }
  },
  {
    "service_request": "2022-911873",
    "request_type": "Trash/Recycling",
    "request_reason": "Missed Trash Pick-Up",
    "date_created": "2022-08-20T14:28:20.000",
    "date_modified": "2022-08-20T14:28:21.000",
    "request_status": "Pending",
    "responsible_agency": "Department of Sanitation",
    "final_address": "7836 Nelson St",
    "address_councildis": "A",
    "status": "Assigned to Contractor",
    "contractor": "Richards Disposal",
    "rowid": "911873",
    "final_x": "3665705.8786",
    "final_y": "531260.180546",
    "longitude": "-90.1179513734152",
    "latitude": "29.95525136067576",
    "geocoded_column": {
      "latitude": "29.95525136067576",
      "longitude": "-90.1179513734152"
    }
  },
  {
    "service_request": "2022-911872",
    "request_type": "Abandoned Vehicles",
    "request_reason": "Abandoned/Junk Vehicles",
    "date_created": "2022-08-20T14:26:20.000",
    "date_modified": "2022-08-20T14:26:20.000",
    "request_status": "Pending",
    "responsible_agency": "Department of Public Works",
    "final_address": "2257 Carondelet St",
    "address_councildis": "B",
    "status": "Pending",
    "rowid": "911872",
    "final_x": "3676946.78216",
    "final_y": "523751.035835",
    "longitude": "-90.0827155021044",
    "latitude": "29.934271066483923",
    "geocoded_column": {
      "latitude": "29.934271066483923",
      "longitude": "-90.0827155021044"
    }
  },
  {
    "service_request": "2022-911871",
    "request_type": "Property Maintenance",
    "request_reason": "Property Maintenance",
    "date_created": "2022-08-20T14:25:19.000",
    "date_modified": "2022-08-20T14:25:19.000",
    "request_status": "Pending",
    "responsible_agency": "Department of Code Enforcement",
    "final_address": "10046 S Interstate 10 Service Rd",
    "address_councildis": "E",
    "status": "Pending",
    "rowid": "911871",
    "final_x": "3711206.85649",
    "final_y": "561796.410911",
    "longitude": "-89.97313284575034",
    "latitude": "30.037808860304647",
    "geocoded_column": {
      "latitude": "30.037808860304647",
      "longitude": "-89.97313284575034"
    }
  },
  {
    "service_request": "2022-911870",
    "request_type": "Trash/Recycling",
    "request_reason": "Request a Large Item Pick Up",
    "date_created": "2022-08-20T14:23:19.000",
    "date_modified": "2022-08-20T14:23:20.000",
    "request_status": "Pending",
    "responsible_agency": "Department of Sanitation",
    "final_address": "1 Yellowstone Dr",
    "address_councildis": "C",
    "status": "Assigned to Contractor",
    "contractor": "Richards Disposal",
    "rowid": "911870",
    "final_x": "3699306.17232",
    "final_y": "518029.404854",
    "longitude": "-90.01233628756079",
    "latitude": "29.917848580087043",
    "geocoded_column": {
      "latitude": "29.917848580087043",
      "longitude": "-90.01233628756079"
    }
  },
  {
    "service_request": "2022-911869",
    "request_type": "Property Maintenance",
    "request_reason": "Property Maintenance",
    "date_created": "2022-08-20T14:17:47.000",
    "date_modified": "2022-08-20T14:17:47.000",
    "request_status": "Pending",
    "responsible_agency": "Department of Code Enforcement",
    "final_address": "5851 Read Blvd",
    "address_councildis": "E",
    "status": "Pending",
    "rowid": "911869",
    "final_x": "3710972.66885",
    "final_y": "561102.245214",
    "longitude": "-89.97389895558436",
    "latitude": "30.03590782320124",
    "geocoded_column": {
      "latitude": "30.03590782320124",
      "longitude": "-89.97389895558436"
    }
  },
  {
    "service_request": "2022-911868",
    "request_type": "Property Maintenance",
    "request_reason": "Property Maintenance",
    "date_created": "2022-08-20T14:15:44.000",
    "date_modified": "2022-08-20T14:15:44.000",
    "request_status": "Pending",
    "responsible_agency": "Department of Code Enforcement",
    "final_address": "6721 Downman Rd",
    "address_councildis": "D",
    "status": "Pending",
    "rowid": "911868",
    "final_x": "3695759.93392",
    "final_y": "555387.541977",
    "longitude": "-90.02218043796941",
    "latitude": "30.020682060403594",
    "geocoded_column": {
      "latitude": "30.020682060403594",
      "longitude": "-90.02218043796941"
    }
  },
  {
    "service_request": "2022-911867",
    "request_type": "Property Maintenance",
    "request_reason": "Property Maintenance",
    "date_created": "2022-08-20T14:14:32.000",
    "date_modified": "2022-08-20T14:14:32.000",
    "request_status": "Pending",
    "responsible_agency": "Department of Code Enforcement",
    "final_address": "6715 Downman Rd",
    "address_councildis": "D",
    "status": "Pending",
    "rowid": "911867",
    "final_x": "3695785.4616",
    "final_y": "555324.816793",
    "longitude": "-90.02210204647318",
    "latitude": "30.020508786648804",
    "geocoded_column": {
      "latitude": "30.020508786648804",
      "longitude": "-90.02210204647318"
    }
  },
  {
    "service_request": "2022-911866",
    "request_type": "Property Maintenance",
    "request_reason": "Property Maintenance",
    "date_created": "2022-08-20T14:13:43.000",
    "date_modified": "2022-08-20T14:13:43.000",
    "request_status": "Pending",
    "responsible_agency": "Department of Code Enforcement",
    "final_address": "6709 Downman Rd",
    "address_councildis": "D",
    "status": "Pending",
    "rowid": "911866",
    "final_x": "3695807.34243",
    "final_y": "555268.655897",
    "longitude": "-90.0220349407552",
    "latitude": "30.02035367690894",
    "geocoded_column": {
      "latitude": "30.02035367690894",
      "longitude": "-90.0220349407552"
    }
  },
  {
    "service_request": "2022-911865",
    "request_type": "Property Maintenance",
    "request_reason": "Property Maintenance",
    "date_created": "2022-08-20T14:12:12.000",
    "date_modified": "2022-08-20T14:12:12.000",
    "request_status": "Pending",
    "responsible_agency": "Department of Code Enforcement",
    "final_address": "6701 Downman Rd",
    "address_councildis": "D",
    "status": "Pending",
    "rowid": "911865",
    "final_x": "3695823.38845",
    "final_y": "555205.201305",
    "longitude": "-90.02198653507858",
    "latitude": "30.020178695833632",
    "geocoded_column": {
      "latitude": "30.020178695833632",
      "longitude": "-90.02198653507858"
    }
  },
  {
    "service_request": "2022-911864",
    "request_type": "Abandoned Vehicles",
    "request_reason": "Abandoned/Junk Vehicles",
    "date_created": "2022-08-20T14:11:51.000",
    "date_modified": "2022-08-20T14:11:51.000",
    "request_status": "Pending",
    "responsible_agency": "Department of Public Works",
    "final_address": "3509 Delachaise St",
    "address_councildis": "B",
    "status": "Pending",
    "rowid": "911864",
    "final_x": "3671408.18023",
    "final_y": "527790.325247",
    "longitude": "-90.10006348535902",
    "latitude": "29.945542857314557",
    "geocoded_column": {
      "latitude": "29.945542857314557",
      "longitude": "-90.10006348535902"
    }
  },
  {
    "service_request": "2022-911863",
    "request_type": "Trash/Recycling",
    "request_reason": "Request a Large Item Pick Up",
    "date_created": "2022-08-20T14:11:10.000",
    "date_modified": "2022-08-20T14:11:10.000",
    "request_status": "Pending",
    "responsible_agency": "Department of Sanitation",
    "final_address": "5725 Fleur de Lis Dr, New Orleans, Louisiana, 70124",
    "status": "Assigned to Contractor",
    "rowid": "911863",
    "longitude": "0.0",
    "latitude": "0.0",
    "geocoded_column": {
      "latitude": "0.0",
      "longitude": "0.0"
    }
  },
  {
    "service_request": "2022-911862",
    "request_type": "Trash/Recycling",
    "request_reason": "Request a Large Item Pick Up",
    "date_created": "2022-08-20T14:01:46.000",
    "date_modified": "2022-08-20T14:01:47.000",
    "request_status": "Pending",
    "responsible_agency": "Department of Sanitation",
    "final_address": "1512 General Pershing St",
    "address_councildis": "B",
    "status": "Assigned to Contractor",
    "contractor": "Richards Disposal",
    "rowid": "911862",
    "final_x": "3671215.61991",
    "final_y": "520705.571577",
    "longitude": "-90.10091205336771",
    "latitude": "29.92606777202637",
    "geocoded_column": {
      "latitude": "29.92606777202637",
      "longitude": "-90.10091205336771"
    }
  },
  {
    "service_request": "2022-911861",
    "request_type": "Traffic Signals/Signs/Striping/Streetlights",
    "request_reason": "Street Name Sign Damaged or Missing",
    "date_created": "2022-08-20T13:50:48.000",
    "date_modified": "2022-08-20T13:50:48.000",
    "request_status": "Pending",
    "responsible_agency": "Department of Public Works",
    "final_address": "8946 Birch St",
    "address_councildis": "A",
    "status": "Pending",
    "rowid": "911861",
    "final_x": "3660530.38906",
    "final_y": "531524.393859",
    "longitude": "-90.13428502559564",
    "latitude": "29.956127792868795",
    "geocoded_column": {
      "latitude": "29.956127792868795",
      "longitude": "-90.13428502559564"
    }
  },
  {
    "service_request": "2022-911860",
    "request_type": "Traffic Signals/Signs/Striping/Streetlights",
    "request_reason": "Street Light Outage/Malfunction",
    "date_created": "2022-08-20T13:49:13.000",
    "date_modified": "2022-08-20T13:49:14.000",
    "request_status": "Pending",
    "responsible_agency": "Department of Public Works",
    "final_address": "8946 Birch St",
    "address_councildis": "A",
    "status": "Pending",
    "contractor": "Legacy Professional Services",
    "rowid": "911860",
    "final_x": "3660530.38906",
    "final_y": "531524.393859",
    "longitude": "-90.13428502559564",
    "latitude": "29.956127792868795",
    "geocoded_column": {
      "latitude": "29.956127792868795",
      "longitude": "-90.13428502559564"
    }
  },
  {
    "service_request": "2022-911859",
    "request_type": "Traffic Signals/Signs/Striping/Streetlights",
    "request_reason": "Request for Stop Sign",
    "date_created": "2022-08-20T13:46:35.000",
    "date_modified": "2022-08-20T13:46:35.000",
    "request_status": "Pending",
    "responsible_agency": "Department of Public Works",
    "final_address": "8946 Birch St",
    "address_councildis": "A",
    "status": "Pending",
    "rowid": "911859",
    "final_x": "3660530.38906",
    "final_y": "531524.393859",
    "longitude": "-90.13428502559564",
    "latitude": "29.956127792868795",
    "geocoded_column": {
      "latitude": "29.956127792868795",
      "longitude": "-90.13428502559564"
    }
  },
  {
    "service_request": "2022-911857",
    "request_type": "Parks & Parkways",
    "request_reason": "Request Tree Service (Right of Way/Public Property)",
    "date_created": "2022-08-20T13:44:32.000",
    "date_modified": "2022-08-20T13:46:06.000",
    "request_status": "Pending",
    "responsible_agency": "Department of Parks & Parkway",
    "final_address": "2341 Broadway St",
    "address_councildis": "A",
    "status": "Pending",
    "rowid": "911857",
    "final_x": "3666609.12647",
    "final_y": "530040.656257",
    "longitude": "-90.11514017786172",
    "latitude": "29.951871692039603",
    "geocoded_column": {
      "latitude": "29.951871692039603",
      "longitude": "-90.11514017786172"
    }
  },
  {
    "service_request": "2022-911856",
    "request_type": "Traffic Signals/Signs/Striping/Streetlights",
    "request_reason": "Traffic Signal Malfunctioning/Damaged",
    "date_created": "2022-08-20T13:35:22.000",
    "date_modified": "2022-08-20T13:35:23.000",
    "request_status": "Pending",
    "responsible_agency": "Department of Public Works",
    "final_address": "CANAL ST & CAMP ST & CHARTRES ST",
    "address_councildis": "B",
    "status": "Pending",
    "rowid": "911856",
    "final_x": "3681440.9",
    "final_y": "530424.38",
    "longitude": "-90.06829513253405",
    "latitude": "29.9524848929036",
    "geocoded_column": {
      "latitude": "29.9524848929036",
      "longitude": "-90.06829513253405"
    }
  },
  {
    "service_request": "2022-911855",
    "request_type": "Abandoned Vehicles",
    "request_reason": "Abandoned/Junk Vehicles",
    "date_created": "2022-08-20T12:33:20.000",
    "date_modified": "2022-08-20T12:33:20.000",
    "request_status": "Pending",
    "responsible_agency": "Department of Public Works",
    "final_address": "2224 St Ann St",
    "address_councildis": "D",
    "status": "Pending",
    "rowid": "911855",
    "final_x": "3678383.94875",
    "final_y": "536030.214855",
    "longitude": "-90.07775363578345",
    "latitude": "29.967991487970508",
    "geocoded_column": {
      "latitude": "29.967991487970508",
      "longitude": "-90.07775363578345"
    }
  },
  {
    "service_request": "2022-911854",
    "request_type": "Roads/Drainage",
    "request_reason": "Ditch Issue",
    "date_created": "2022-08-20T12:29:52.000",
    "date_modified": "2022-08-20T12:29:52.000",
    "request_status": "Pending",
    "responsible_agency": "Department of Public Works",
    "final_address": "2201 Canal St, New Orleans, Louisiana, 70119",
    "address_councildis": "B",
    "status": "Pending",
    "rowid": "911854",
    "final_x": "3676939.52411",
    "final_y": "534089.898885",
    "longitude": "-90.08238207984729",
    "latitude": "29.962699718469494",
    "geocoded_column": {
      "latitude": "29.962699718469494",
      "longitude": "-90.08238207984729"
    }
  },
  {
    "service_request": "2022-911853",
    "request_type": "Trash/Recycling",
    "request_reason": "MIssed Recycling Pick-Up",
    "date_created": "2022-08-20T12:26:09.000",
    "date_modified": "2022-08-20T12:26:10.000",
    "request_status": "Pending",
    "responsible_agency": "Department of Sanitation",
    "final_address": "8506 Apricot St",
    "address_councildis": "A",
    "status": "Assigned to Contractor",
    "contractor": "Richards Disposal",
    "rowid": "911853",
    "final_x": "3664686.92685",
    "final_y": "533611.932741",
    "longitude": "-90.12109029887758",
    "latitude": "29.961747590287853",
    "geocoded_column": {
      "latitude": "29.961747590287853",
      "longitude": "-90.12109029887758"
    }
  },
  {
    "service_request": "2022-911852",
    "request_type": "Trash/Recycling",
    "request_reason": "Replace Trash Cart",
    "date_created": "2022-08-20T12:24:36.000",
    "date_modified": "2022-08-20T12:24:37.000",
    "request_status": "Pending",
    "responsible_agency": "Department of Sanitation",
    "final_address": "1225 Leonidas St, New Orleans, Louisiana, 70118",
    "address_councildis": "A",
    "status": "Assigned to Contractor",
    "contractor": "Richards Disposal",
    "rowid": "911852",
    "final_x": "3660828.70291",
    "final_y": "529708.553857",
    "longitude": "-90.13340309161296",
    "latitude": "29.9511262297782",
    "geocoded_column": {
      "latitude": "29.9511262297782",
      "longitude": "-90.13340309161296"
    }
  },
  {
    "service_request": "2022-911851",
    "request_type": "Property Maintenance",
    "request_reason": "Property Maintenance",
    "date_created": "2022-08-20T12:14:31.000",
    "date_modified": "2022-08-20T12:14:31.000",
    "request_status": "Pending",
    "responsible_agency": "Department of Code Enforcement",
    "final_address": "11126 Curran Rd",
    "address_councildis": "E",
    "status": "Pending",
    "rowid": "911851",
    "final_x": "3710837.44094",
    "final_y": "566253.858083",
    "longitude": "-89.97413318271148",
    "latitude": "30.05007710173681",
    "geocoded_column": {
      "latitude": "30.05007710173681",
      "longitude": "-89.97413318271148"
    }
  },
  {
    "service_request": "2022-911850",
    "request_type": "Trash/Recycling",
    "request_reason": "Illegal Dumping",
    "date_created": "2022-08-20T12:13:45.000",
    "date_modified": "2022-08-20T12:13:45.000",
    "request_status": "Pending",
    "responsible_agency": "Department of Sanitation",
    "final_address": "325 S Lopez St",
    "address_councildis": "B",
    "status": "Pending",
    "rowid": "911850",
    "final_x": "3673197.8514",
    "final_y": "535443.318918",
    "longitude": "-90.09415158831064",
    "latitude": "29.96653295974475",
    "geocoded_column": {
      "latitude": "29.96653295974475",
      "longitude": "-90.09415158831064"
    }
  },
  {
    "service_request": "2022-911849",
    "request_type": "Property Maintenance",
    "request_reason": "Property Maintenance",
    "date_created": "2022-08-20T12:09:22.000",
    "date_modified": "2022-08-20T12:09:22.000",
    "request_status": "Pending",
    "responsible_agency": "Department of Code Enforcement",
    "final_address": "11126 Curran Rd",
    "address_councildis": "E",
    "status": "Pending",
    "rowid": "911849",
    "final_x": "3710837.44094",
    "final_y": "566253.858083",
    "longitude": "-89.97413318271148",
    "latitude": "30.05007710173681",
    "geocoded_column": {
      "latitude": "30.05007710173681",
      "longitude": "-89.97413318271148"
    }
  },
  {
    "service_request": "2022-911848",
    "request_type": "Trash/Recycling",
    "request_reason": "Replace Trash Cart",
    "date_created": "2022-08-20T12:08:01.000",
    "date_modified": "2022-08-20T12:08:02.000",
    "request_status": "Pending",
    "responsible_agency": "Department of Sanitation",
    "final_address": "2244 State St",
    "address_councildis": "A",
    "status": "Assigned to Contractor",
    "contractor": "Richards Disposal",
    "rowid": "911848",
    "final_x": "3666543.38113",
    "final_y": "525122.271485",
    "longitude": "-90.11551282633914",
    "latitude": "29.938349643701198",
    "geocoded_column": {
      "latitude": "29.938349643701198",
      "longitude": "-90.11551282633914"
    }
  },
  {
    "service_request": "2022-911847",
    "request_type": "Traffic Signals/Signs/Striping/Streetlights",
    "request_reason": "Traffic Signal Malfunctioning/Damaged",
    "date_created": "2022-08-20T12:02:32.000",
    "date_modified": "2022-08-20T12:02:32.000",
    "request_status": "Pending",
    "responsible_agency": "Department of Public Works",
    "final_address": "FRERET ST & MCALISTER DR",
    "address_councildis": "A",
    "status": "Pending",
    "rowid": "911847",
    "final_x": "3664922.8",
    "final_y": "525146.08",
    "longitude": "-90.12062838511929",
    "latitude": "29.938462369952916",
    "geocoded_column": {
      "latitude": "29.938462369952916",
      "longitude": "-90.12062838511929"
    }
  },
  {
    "service_request": "2022-911846",
    "request_type": "Trash/Recycling",
    "request_reason": "Replace Trash Cart",
    "date_created": "2022-08-20T11:56:13.000",
    "date_modified": "2022-08-20T13:06:09.000",
    "request_status": "Pending",
    "responsible_agency": "Department of Sanitation",
    "final_address": "New Orleans,LA",
    "address_councildis": "E",
    "status": "Assigned to Contractor",
    "contractor": "Metro Disposal",
    "rowid": "911846",
    "final_x": "3712387.36805",
    "final_y": "567675.680804",
    "longitude": "-89.96918097913306",
    "latitude": "30.053935892172536",
    "geocoded_column": {
      "latitude": "30.053935892172536",
      "longitude": "-89.96918097913306"
    }
  },
  {
    "service_request": "2022-911845",
    "request_type": "Trash/Recycling",
    "request_reason": "Return Trash Cart",
    "date_created": "2022-08-20T11:47:57.000",
    "date_modified": "2022-08-20T11:47:58.000",
    "request_status": "Pending",
    "responsible_agency": "Department of Sanitation",
    "final_address": "3606 Dumaine St",
    "address_councildis": "A",
    "status": "Assigned to Contractor",
    "contractor": "Richards Disposal",
    "rowid": "911845",
    "final_x": "3674378.74011",
    "final_y": "539581.260042",
    "longitude": "-90.09028058694967",
    "latitude": "29.97787572387413",
    "geocoded_column": {
      "latitude": "29.97787572387413",
      "longitude": "-90.09028058694967"
    }
  },
  {
    "service_request": "2022-911844",
    "request_type": "Trash/Recycling",
    "request_reason": "Repair Trash Cart",
    "date_created": "2022-08-20T11:46:56.000",
    "date_modified": "2022-08-20T11:46:56.000",
    "request_status": "Pending",
    "responsible_agency": "Department of Sanitation",
    "final_address": "3606 Dumaine St",
    "address_councildis": "A",
    "status": "Assigned to Contractor",
    "contractor": "Richards Disposal",
    "rowid": "911844",
    "final_x": "3674378.74011",
    "final_y": "539581.260042",
    "longitude": "-90.09028058694967",
    "latitude": "29.97787572387413",
    "geocoded_column": {
      "latitude": "29.97787572387413",
      "longitude": "-90.09028058694967"
    }
  },
  {
    "service_request": "2022-911843",
    "request_type": "Trash/Recycling",
    "request_reason": "Order Recycling Cart",
    "date_created": "2022-08-20T11:46:20.000",
    "date_modified": "2022-08-20T11:46:21.000",
    "request_status": "Pending",
    "responsible_agency": "Department of Sanitation",
    "final_address": "3606 Dumaine St",
    "address_councildis": "A",
    "status": "Pending",
    "rowid": "911843",
    "final_x": "3674378.74011",
    "final_y": "539581.260042",
    "longitude": "-90.09028058694967",
    "latitude": "29.97787572387413",
    "geocoded_column": {
      "latitude": "29.97787572387413",
      "longitude": "-90.09028058694967"
    }
  },
  {
    "service_request": "2022-911842",
    "request_type": "Trash/Recycling",
    "request_reason": "Illegal Dumping",
    "date_created": "2022-08-20T11:39:34.000",
    "date_modified": "2022-08-20T11:39:34.000",
    "request_status": "Pending",
    "responsible_agency": "Department of Sanitation",
    "final_address": "2950 Clio St",
    "address_councildis": "B",
    "status": "Pending",
    "rowid": "911842",
    "final_x": "3675361.14408",
    "final_y": "529044.330752",
    "longitude": "-90.08753963249511",
    "latitude": "29.948873378787578",
    "geocoded_column": {
      "latitude": "29.948873378787578",
      "longitude": "-90.08753963249511"
    }
  },
  {
    "service_request": "2022-911841",
    "request_type": "Trash/Recycling",
    "request_reason": "Missed Trash Pick-Up",
    "date_created": "2022-08-20T11:38:19.000",
    "date_modified": "2022-08-20T11:38:19.000",
    "request_status": "Pending",
    "responsible_agency": "Department of Sanitation",
    "final_address": "6465 Oakland Dr",
    "address_councildis": "A",
    "status": "Assigned to Contractor",
    "contractor": "Richards Disposal",
    "rowid": "911841",
    "final_x": "3666916.94285",
    "final_y": "540193.467723",
    "longitude": "-90.11382704849251",
    "latitude": "29.97977955973463",
    "geocoded_column": {
      "latitude": "29.97977955973463",
      "longitude": "-90.11382704849251"
    }
  },
  {
    "service_request": "2022-911840",
    "request_type": "Trash/Recycling",
    "request_reason": "Missed Trash Pick-Up",
    "date_created": "2022-08-20T11:36:18.000",
    "date_modified": "2022-08-20T11:36:19.000",
    "request_status": "Pending",
    "responsible_agency": "Department of Sanitation",
    "final_address": "4501 Longfellow Dr",
    "address_councildis": "E",
    "status": "Assigned to Contractor",
    "contractor": "Metro Disposal",
    "rowid": "911840",
    "final_x": "3709827.22699",
    "final_y": "554454.782296",
    "longitude": "-89.97776725185857",
    "latitude": "30.01766723008671",
    "geocoded_column": {
      "latitude": "30.01766723008671",
      "longitude": "-89.97776725185857"
    }
  },
  {
    "service_request": "2022-911839",
    "request_type": "Property Maintenance",
    "request_reason": "Property Maintenance",
    "date_created": "2022-08-20T11:35:35.000",
    "date_modified": "2022-08-20T11:35:35.000",
    "request_status": "Pending",
    "responsible_agency": "Department of Code Enforcement",
    "final_address": "2102 Josephine St",
    "address_councildis": "B",
    "status": "Pending",
    "rowid": "911839",
    "final_x": "3676706.7515",
    "final_y": "525463.530941",
    "longitude": "-90.08341429832878",
    "latitude": "29.938987067688156",
    "geocoded_column": {
      "latitude": "29.938987067688156",
      "longitude": "-90.08341429832878"
    }
  },
  {
    "service_request": "2022-911838",
    "request_type": "Trash/Recycling",
    "request_reason": "Request a Large Item Pick Up",
    "date_created": "2022-08-20T11:05:58.000",
    "date_modified": "2022-08-20T11:05:59.000",
    "request_status": "Pending",
    "responsible_agency": "Department of Sanitation",
    "final_address": "1920 Dublin St",
    "address_councildis": "A",
    "status": "Assigned to Contractor",
    "contractor": "Richards Disposal",
    "rowid": "911838",
    "final_x": "3663465.1088",
    "final_y": "530601.73165",
    "longitude": "-90.1250488577542",
    "latitude": "29.95350600232551",
    "geocoded_column": {
      "latitude": "29.95350600232551",
      "longitude": "-90.1250488577542"
    }
  },
  {
    "service_request": "2022-911837",
    "request_type": "Trash/Recycling",
    "request_reason": "Missed Trash Pick-Up",
    "date_created": "2022-08-20T11:02:47.000",
    "date_modified": "2022-08-20T11:02:48.000",
    "request_status": "Pending",
    "responsible_agency": "Department of Sanitation",
    "final_address": "5936 Dover Pl",
    "address_councildis": "C",
    "status": "Assigned to Contractor",
    "contractor": "Richards Disposal",
    "rowid": "911837",
    "final_x": "3705786.2147",
    "final_y": "519177.085879",
    "longitude": "-89.9918401216447",
    "latitude": "29.92079729789274",
    "geocoded_column": {
      "latitude": "29.92079729789274",
      "longitude": "-89.9918401216447"
    }
  },
  {
    "service_request": "2022-911836",
    "request_type": "Trash/Recycling",
    "request_reason": "Missed Trash Pick-Up",
    "date_created": "2022-08-20T10:57:10.000",
    "date_modified": "2022-08-20T10:57:10.000",
    "request_status": "Pending",
    "responsible_agency": "Department of Sanitation",
    "final_address": "6110 Dover Pl",
    "address_councildis": "C",
    "status": "Assigned to Contractor",
    "contractor": "Richards Disposal",
    "rowid": "911836",
    "final_x": "3706624.75716",
    "final_y": "519146.700023",
    "longitude": "-89.98919437465128",
    "latitude": "29.920686726583085",
    "geocoded_column": {
      "latitude": "29.920686726583085",
      "longitude": "-89.98919437465128"
    }
  },
  {
    "service_request": "2022-911835",
    "request_type": "Trash/Recycling",
    "request_reason": "Request a Large Item Pick Up",
    "date_created": "2022-08-20T10:56:19.000",
    "date_modified": "2022-08-20T10:56:20.000",
    "request_status": "Pending",
    "responsible_agency": "Department of Sanitation",
    "final_address": "6110 Dover Pl",
    "address_councildis": "C",
    "status": "Assigned to Contractor",
    "contractor": "Richards Disposal",
    "rowid": "911835",
    "final_x": "3706624.75716",
    "final_y": "519146.700023",
    "longitude": "-89.98919437465128",
    "latitude": "29.920686726583085",
    "geocoded_column": {
      "latitude": "29.920686726583085",
      "longitude": "-89.98919437465128"
    }
  },
  {
    "service_request": "2022-911834",
    "request_type": "Trash/Recycling",
    "request_reason": "Replace Trash Cart",
    "date_created": "2022-08-20T10:47:21.000",
    "date_modified": "2022-08-20T10:47:22.000",
    "request_status": "Pending",
    "responsible_agency": "Department of Sanitation",
    "final_address": "1805 Farragut St",
    "address_councildis": "C",
    "status": "Assigned to Contractor",
    "contractor": "Richards Disposal",
    "rowid": "911834",
    "final_x": "3692230.58281",
    "final_y": "524621.505724",
    "longitude": "-90.03443406596732",
    "latitude": "29.93619703139417",
    "geocoded_column": {
      "latitude": "29.93619703139417",
      "longitude": "-90.03443406596732"
    }
  },
  {
    "service_request": "2022-911833",
    "request_type": "Trash/Recycling",
    "request_reason": "Missed Trash Pick-Up",
    "date_created": "2022-08-20T10:29:57.000",
    "date_modified": "2022-08-20T10:29:58.000",
    "request_status": "Pending",
    "responsible_agency": "Department of Sanitation",
    "final_address": "1623 Dante St",
    "address_councildis": "A",
    "status": "Assigned to Contractor",
    "contractor": "Richards Disposal",
    "rowid": "911833",
    "final_x": "3662517.6144",
    "final_y": "530004.841025",
    "longitude": "-90.12806048390688",
    "latitude": "29.95189218433669",
    "geocoded_column": {
      "latitude": "29.95189218433669",
      "longitude": "-90.12806048390688"
    }
  },
  {
    "service_request": "2022-911832",
    "request_type": "Trash/Recycling",
    "request_reason": "MIssed Recycling Pick-Up",
    "date_created": "2022-08-20T10:29:41.000",
    "date_modified": "2022-08-20T10:29:42.000",
    "request_status": "Pending",
    "responsible_agency": "Department of Sanitation",
    "final_address": "2634 State St",
    "address_councildis": "A",
    "status": "Assigned to Contractor",
    "contractor": "Richards Disposal",
    "rowid": "911832",
    "final_x": "3666958.24154",
    "final_y": "526379.549182",
    "longitude": "-90.11416083295897",
    "latitude": "29.941794622960224",
    "geocoded_column": {
      "latitude": "29.941794622960224",
      "longitude": "-90.11416083295897"
    }
  },
  {
    "service_request": "2022-911831",
    "request_type": "Trash/Recycling",
    "request_reason": "MIssed Recycling Pick-Up",
    "date_created": "2022-08-20T10:23:51.000",
    "date_modified": "2022-08-20T10:23:52.000",
    "request_status": "Pending",
    "responsible_agency": "Department of Sanitation",
    "final_address": "7700 Nelson St",
    "address_councildis": "A",
    "status": "Assigned to Contractor",
    "contractor": "Richards Disposal",
    "rowid": "911831",
    "final_x": "3666146.38298",
    "final_y": "530844.74381",
    "longitude": "-90.11657434708667",
    "latitude": "29.95409619029235",
    "geocoded_column": {
      "latitude": "29.95409619029235",
      "longitude": "-90.11657434708667"
    }
  },
  {
    "service_request": "2022-911830",
    "request_type": "Parks & Parkways",
    "request_reason": "Request Grass Cutting Service (City Owned Property)",
    "date_created": "2022-08-20T10:22:28.000",
    "date_modified": "2022-08-20T10:22:56.000",
    "request_status": "Pending",
    "responsible_agency": "Department of Parks & Parkway",
    "final_address": "STAR ST & CURRAN BLVD",
    "address_councildis": "E",
    "rowid": "911830",
    "final_x": "3720849.5",
    "final_y": "574301.28",
    "longitude": "-89.9421803332373",
    "latitude": "30.071873787537783",
    "geocoded_column": {
      "latitude": "30.071873787537783",
      "longitude": "-89.9421803332373"
    }
  },
  {
    "service_request": "2022-911829",
    "request_type": "Abandoned Vehicles",
    "request_reason": "Abandoned/Junk Vehicles",
    "date_created": "2022-08-20T10:17:31.000",
    "date_modified": "2022-08-20T10:17:31.000",
    "request_status": "Pending",
    "responsible_agency": "Department of Public Works",
    "final_address": "330 S Bernadotte St",
    "address_councildis": "A",
    "status": "Pending",
    "rowid": "911829",
    "final_x": "3668198.20423",
    "final_y": "539198.477898",
    "longitude": "-90.10981384470726",
    "latitude": "29.977006115700448",
    "geocoded_column": {
      "latitude": "29.977006115700448",
      "longitude": "-90.10981384470726"
    }
  },
  {
    "service_request": "2022-911828",
    "request_type": "Trash/Recycling",
    "request_reason": "Illegal Dumping",
    "date_created": "2022-08-20T10:08:52.000",
    "date_modified": "2022-08-20T10:08:53.000",
    "request_status": "Pending",
    "responsible_agency": "Department of Sanitation",
    "final_address": "2051 Caton St",
    "address_councildis": "D",
    "status": "Pending",
    "rowid": "911828",
    "final_x": "3683068.12264",
    "final_y": "547431.524113",
    "longitude": "-90.06256155266429",
    "latitude": "29.99919911540073",
    "geocoded_column": {
      "latitude": "29.99919911540073",
      "longitude": "-90.06256155266429"
    }
  },
  {
    "service_request": "2022-911827",
    "request_type": "Trash/Recycling",
    "request_reason": "Repair Trash Cart",
    "date_created": "2022-08-20T10:05:42.000",
    "date_modified": "2022-08-20T11:06:30.000",
    "request_status": "Pending",
    "responsible_agency": "Department of Sanitation",
    "final_address": "3111 Audubon St",
    "address_councildis": "B",
    "status": "Assigned to Contractor",
    "contractor": "Richards Disposal",
    "rowid": "911827",
    "final_x": "3668226.06753",
    "final_y": "531995.156547",
    "longitude": "-90.10996873967481",
    "latitude": "29.957198560228914",
    "geocoded_column": {
      "latitude": "29.957198560228914",
      "longitude": "-90.10996873967481"
    }
  },
  {
    "service_request": "2022-911826",
    "request_type": "Roads/Drainage",
    "request_reason": "Street Subsidence (Sinking)",
    "date_created": "2022-08-20T10:03:02.000",
    "date_modified": "2022-08-20T10:03:03.000",
    "request_status": "Pending",
    "responsible_agency": "Department of Public Works",
    "final_address": "DUMAINE ST & BOURBON ST",
    "address_councildis": "C",
    "status": "Pending",
    "rowid": "911826",
    "final_x": "3682714.0",
    "final_y": "533267.48",
    "longitude": "-90.06417583325131",
    "latitude": "29.960263741112918",
    "geocoded_column": {
      "latitude": "29.960263741112918",
      "longitude": "-90.06417583325131"
    }
  },
  {
    "service_request": "2022-911825",
    "request_type": "Traffic Signals/Signs/Striping/Streetlights",
    "request_reason": "Street Light Outage/Malfunction",
    "date_created": "2022-08-20T10:01:25.000",
    "date_modified": "2022-08-20T10:01:25.000",
    "request_status": "Pending",
    "responsible_agency": "Department of Public Works",
    "final_address": "ST ANN ST & BOURBON ST",
    "address_councildis": "C",
    "status": "Pending",
    "contractor": "Legacy Professional Services",
    "rowid": "911825",
    "final_x": "3682497.6",
    "final_y": "532982.48",
    "longitude": "-90.06486914130842",
    "latitude": "29.95948667733661",
    "geocoded_column": {
      "latitude": "29.95948667733661",
      "longitude": "-90.06486914130842"
    }
  },
  {
    "service_request": "2022-911824",
    "request_type": "Trash/Recycling",
    "request_reason": "Missed Trash Pick-Up",
    "date_created": "2022-08-20T10:01:21.000",
    "date_modified": "2022-08-20T10:01:22.000",
    "request_status": "Pending",
    "responsible_agency": "Department of Sanitation",
    "final_address": "4789 Charlene Dr",
    "address_councildis": "E",
    "status": "Assigned to Contractor",
    "contractor": "Metro Disposal",
    "rowid": "911824",
    "final_x": "3707937.88484",
    "final_y": "555894.048217",
    "longitude": "-89.98368321551924",
    "latitude": "30.021685975568253",
    "geocoded_column": {
      "latitude": "30.021685975568253",
      "longitude": "-89.98368321551924"
    }
  },
  {
    "service_request": "2022-911823",
    "request_type": "Traffic Signals/Signs/Striping/Streetlights",
    "request_reason": "Street Light Outage/Malfunction",
    "date_created": "2022-08-20T10:00:09.000",
    "date_modified": "2022-08-20T10:00:10.000",
    "request_status": "Pending",
    "responsible_agency": "Department of Public Works",
    "final_address": "800 BLK Bourbon St",
    "address_councildis": "C",
    "status": "Pending",
    "contractor": "Legacy Professional Services",
    "rowid": "911823",
    "final_x": "3682602.88049",
    "final_y": "533123.709131",
    "longitude": "-90.06453175222377",
    "latitude": "29.95987180412784",
    "geocoded_column": {
      "latitude": "29.95987180412784",
      "longitude": "-90.06453175222377"
    }
  },
  {
    "service_request": "2022-911822",
    "request_type": "Property Maintenance",
    "request_reason": "Property Maintenance",
    "date_created": "2022-08-20T09:49:27.000",
    "date_modified": "2022-08-20T09:49:27.000",
    "request_status": "Pending",
    "responsible_agency": "Department of Code Enforcement",
    "final_address": "2520 Danneel St",
    "address_councildis": "B",
    "status": "Pending",
    "rowid": "911822",
    "final_x": "3675763.18587",
    "final_y": "524114.345084",
    "longitude": "-90.08643960106882",
    "latitude": "29.93530551618305",
    "geocoded_column": {
      "latitude": "29.93530551618305",
      "longitude": "-90.08643960106882"
    }
  },
  {
    "service_request": "2022-911821",
    "request_type": "Trash/Recycling",
    "request_reason": "Request a Large Item Pick Up",
    "date_created": "2022-08-20T09:48:53.000",
    "date_modified": "2022-08-20T09:48:54.000",
    "request_status": "Pending",
    "responsible_agency": "Department of Sanitation",
    "final_address": "2215 General Pershing St",
    "address_councildis": "B",
    "status": "Assigned to Contractor",
    "contractor": "Richards Disposal",
    "rowid": "911821",
    "final_x": "3671077.65057",
    "final_y": "523186.935099",
    "longitude": "-90.10126335936285",
    "latitude": "29.93289480534703",
    "geocoded_column": {
      "latitude": "29.93289480534703",
      "longitude": "-90.10126335936285"
    }
  },
  {
    "service_request": "2022-911820",
    "request_type": "Trash/Recycling",
    "request_reason": "Replace Trash Cart",
    "date_created": "2022-08-20T09:44:39.000",
    "date_modified": "2022-08-20T09:44:40.000",
    "request_status": "Pending",
    "responsible_agency": "Department of Sanitation",
    "final_address": "2920 Pauger St",
    "address_councildis": "D",
    "status": "Assigned to Contractor",
    "contractor": "Metro Disposal",
    "rowid": "911820",
    "final_x": "3683474.62799",
    "final_y": "540436.404747",
    "longitude": "-90.06152266535874",
    "latitude": "29.979952613112605",
    "geocoded_column": {
      "latitude": "29.979952613112605",
      "longitude": "-90.06152266535874"
    }
  },
  {
    "service_request": "2022-911819",
    "request_type": "Trash/Recycling",
    "request_reason": "Request a Large Item Pick Up",
    "date_created": "2022-08-20T09:44:19.000",
    "date_modified": "2022-08-20T09:44:20.000",
    "request_status": "Pending",
    "responsible_agency": "Department of Sanitation",
    "final_address": "116 N Miro St",
    "address_councildis": "B",
    "status": "Assigned to Contractor",
    "contractor": "Richards Disposal",
    "rowid": "911819",
    "final_x": "3676870.81819",
    "final_y": "534221.677573",
    "longitude": "-90.08259450185498",
    "latitude": "29.963064127609247",
    "geocoded_column": {
      "latitude": "29.963064127609247",
      "longitude": "-90.08259450185498"
    }
  },
  {
    "service_request": "2022-911818",
    "request_type": "Trash/Recycling",
    "request_reason": "Start Trash Service",
    "date_created": "2022-08-20T09:43:30.000",
    "date_modified": "2022-08-20T09:43:31.000",
    "request_status": "Pending",
    "responsible_agency": "Department of Sanitation",
    "final_address": "116 N Miro St",
    "address_councildis": "B",
    "status": "Assigned to Contractor",
    "contractor": "Richards Disposal",
    "rowid": "911818",
    "final_x": "3676870.81819",
    "final_y": "534221.677573",
    "longitude": "-90.08259450185498",
    "latitude": "29.963064127609247",
    "geocoded_column": {
      "latitude": "29.963064127609247",
      "longitude": "-90.08259450185498"
    }
  },
  {
    "service_request": "2022-911817",
    "request_type": "Trash/Recycling",
    "request_reason": "Order Recycling Cart",
    "date_created": "2022-08-20T09:43:13.000",
    "date_modified": "2022-08-20T09:43:13.000",
    "request_status": "Pending",
    "responsible_agency": "Department of Sanitation",
    "final_address": "116 N Miro St",
    "address_councildis": "B",
    "status": "Pending",
    "rowid": "911817",
    "final_x": "3676870.81819",
    "final_y": "534221.677573",
    "longitude": "-90.08259450185498",
    "latitude": "29.963064127609247",
    "geocoded_column": {
      "latitude": "29.963064127609247",
      "longitude": "-90.08259450185498"
    }
  },
  {
    "service_request": "2022-911816",
    "request_type": "Trash/Recycling",
    "request_reason": "Order Trash Cart",
    "date_created": "2022-08-20T09:42:59.000",
    "date_modified": "2022-08-20T09:42:59.000",
    "request_status": "Pending",
    "responsible_agency": "Department of Sanitation",
    "final_address": "116 N Miro St",
    "address_councildis": "B",
    "status": "Assigned to Contractor",
    "contractor": "Richards Disposal",
    "rowid": "911816",
    "final_x": "3676870.81819",
    "final_y": "534221.677573",
    "longitude": "-90.08259450185498",
    "latitude": "29.963064127609247",
    "geocoded_column": {
      "latitude": "29.963064127609247",
      "longitude": "-90.08259450185498"
    }
  },
  {
    "service_request": "2022-911815",
    "request_type": "Trash/Recycling",
    "request_reason": "Missed Trash Pick-Up",
    "date_created": "2022-08-20T09:34:21.000",
    "date_modified": "2022-08-20T09:42:32.000",
    "request_status": "Pending",
    "responsible_agency": "Department of Sanitation",
    "final_address": "New Orleans,LA",
    "address_councildis": "D",
    "status": "Assigned to Contractor",
    "contractor": "Metro Disposal",
    "rowid": "911815",
    "final_x": "3678337.82734",
    "final_y": "549484.619978",
    "longitude": "-90.07743358231633",
    "latitude": "30.004987799058057",
    "geocoded_column": {
      "latitude": "30.004987799058057",
      "longitude": "-90.07743358231633"
    }
  },
  {
    "service_request": "2022-911814",
    "request_type": "Trash/Recycling",
    "request_reason": "Request a Large Item Pick Up",
    "date_created": "2022-08-20T09:32:15.000",
    "date_modified": "2022-08-20T09:32:15.000",
    "request_status": "Pending",
    "responsible_agency": "Department of Sanitation",
    "final_address": "5525 Wimbledon Ct, New Orleans, Louisiana, 70131",
    "address_councildis": "C",
    "status": "Assigned to Contractor",
    "contractor": "Richards Disposal",
    "rowid": "911814",
    "final_x": "3704486.58474",
    "final_y": "518999.667831",
    "longitude": "-89.99594896277956",
    "latitude": "29.920351233040307",
    "geocoded_column": {
      "latitude": "29.920351233040307",
      "longitude": "-89.99594896277956"
    }
  },
  {
    "service_request": "2022-911813",
    "request_type": "Trash/Recycling",
    "request_reason": "Order Recycling Cart",
    "date_created": "2022-08-20T09:30:56.000",
    "date_modified": "2022-08-20T09:30:56.000",
    "request_status": "Pending",
    "responsible_agency": "Department of Sanitation",
    "final_address": "6221 Burgundy St",
    "address_councildis": "E",
    "status": "Pending",
    "rowid": "911813",
    "final_x": "3699696.51312",
    "final_y": "532386.946179",
    "longitude": "-90.01058104725878",
    "latitude": "29.957314443189134",
    "geocoded_column": {
      "latitude": "29.957314443189134",
      "longitude": "-90.01058104725878"
    }
  },
  {
    "service_request": "2022-911811",
    "request_type": "Property Maintenance",
    "request_reason": "Property Maintenance",
    "date_created": "2022-08-20T09:15:55.000",
    "date_modified": "2022-08-20T09:15:55.000",
    "request_status": "Pending",
    "responsible_agency": "Department of Code Enforcement",
    "final_address": "4052 Ulloa St",
    "address_councildis": "A",
    "status": "Pending",
    "rowid": "911811",
    "final_x": "3669677.65748",
    "final_y": "536391.234887",
    "longitude": "-90.10523627017909",
    "latitude": "29.96924362063183",
    "geocoded_column": {
      "latitude": "29.96924362063183",
      "longitude": "-90.10523627017909"
    }
  },
  {
    "service_request": "2022-911810",
    "request_type": "Property Maintenance",
    "request_reason": "Property Maintenance",
    "date_created": "2022-08-20T09:14:25.000",
    "date_modified": "2022-08-20T09:14:25.000",
    "request_status": "Pending",
    "responsible_agency": "Department of Code Enforcement",
    "final_address": "4044 Ulloa St",
    "address_councildis": "A",
    "status": "Pending",
    "rowid": "911810",
    "final_x": "3669728.88967",
    "final_y": "536366.720263",
    "longitude": "-90.10507530450072",
    "latitude": "29.969174703683215",
    "geocoded_column": {
      "latitude": "29.969174703683215",
      "longitude": "-90.10507530450072"
    }
  },
  {
    "service_request": "2022-911809",
    "request_type": "Trash/Recycling",
    "request_reason": "Illegal Dumping",
    "date_created": "2022-08-20T09:05:53.000",
    "date_modified": "2022-08-20T09:05:53.000",
    "request_status": "Pending",
    "responsible_agency": "Department of Sanitation",
    "final_address": "1910 Onzaga St",
    "address_councildis": "D",
    "status": "Pending",
    "rowid": "911809",
    "final_x": "3681435.79055",
    "final_y": "538744.412233",
    "longitude": "-90.06802116570354",
    "latitude": "29.975362288655923",
    "geocoded_column": {
      "latitude": "29.975362288655923",
      "longitude": "-90.06802116570354"
    }
  },
  {
    "service_request": "2022-911808",
    "request_type": "Trash/Recycling",
    "request_reason": "Missed Trash Pick-Up",
    "date_created": "2022-08-20T09:04:02.000",
    "date_modified": "2022-08-20T09:04:03.000",
    "request_status": "Pending",
    "responsible_agency": "Department of Sanitation",
    "final_address": "8336 Pritchard Pl",
    "address_councildis": "A",
    "status": "Assigned to Contractor",
    "contractor": "Richards Disposal",
    "rowid": "911808",
    "final_x": "3665269.46912",
    "final_y": "533553.965317",
    "longitude": "-90.1192526568307",
    "latitude": "29.961571239822813",
    "geocoded_column": {
      "latitude": "29.961571239822813",
      "longitude": "-90.1192526568307"
    }
  },
  {
    "service_request": "2022-911807",
    "request_type": "Abandoned Vehicles",
    "request_reason": "Abandoned/Junk Vehicles",
    "date_created": "2022-08-20T09:03:30.000",
    "date_modified": "2022-08-20T09:03:31.000",
    "request_status": "Pending",
    "responsible_agency": "Department of Public Works",
    "final_address": "1829 Marigny St",
    "address_councildis": "D",
    "status": "Pending",
    "rowid": "911807",
    "final_x": "3685239.69935",
    "final_y": "539175.253258",
    "longitude": "-90.05599225327035",
    "latitude": "29.976430902362036",
    "geocoded_column": {
      "latitude": "29.976430902362036",
      "longitude": "-90.05599225327035"
    }
  },
  {
    "service_request": "2022-911806",
    "request_type": "Trash/Recycling",
    "request_reason": "Repair Trash Cart",
    "date_created": "2022-08-20T08:57:56.000",
    "date_modified": "2022-08-20T08:57:56.000",
    "request_status": "Pending",
    "responsible_agency": "Department of Sanitation",
    "final_address": "6100 Providence Pl",
    "address_councildis": "D",
    "status": "Assigned to Contractor",
    "contractor": "Metro Disposal",
    "rowid": "911806",
    "final_x": "3688150.91695",
    "final_y": "556000.082649",
    "longitude": "-90.04620087122248",
    "latitude": "30.022603529028814",
    "geocoded_column": {
      "latitude": "30.022603529028814",
      "longitude": "-90.04620087122248"
    }
  },
  {
    "service_request": "2022-911804",
    "request_type": "Property Maintenance",
    "request_reason": "Property Maintenance",
    "date_created": "2022-08-20T08:47:52.000",
    "date_modified": "2022-08-20T08:47:52.000",
    "request_status": "Pending",
    "responsible_agency": "Department of Code Enforcement",
    "final_address": "8517 Belfast St",
    "address_councildis": "A",
    "status": "Pending",
    "rowid": "911804",
    "final_x": "3664453.11866",
    "final_y": "533458.927364",
    "longitude": "-90.12183373897078",
    "latitude": "29.961333675035707",
    "geocoded_column": {
      "latitude": "29.961333675035707",
      "longitude": "-90.12183373897078"
    }
  },
  {
    "service_request": "2022-911803",
    "request_type": "Trash/Recycling",
    "request_reason": "Repair Trash Cart",
    "date_created": "2022-08-20T08:47:07.000",
    "date_modified": "2022-08-20T08:47:07.000",
    "request_status": "Pending",
    "responsible_agency": "Department of Sanitation",
    "final_address": "1318 Flood St",
    "address_councildis": "E",
    "status": "Assigned to Contractor",
    "contractor": "Metro Disposal",
    "rowid": "911803",
    "final_x": "3697896.10237",
    "final_y": "534727.422342",
    "longitude": "-90.01618121237766",
    "latitude": "29.963806947290472",
    "geocoded_column": {
      "latitude": "29.963806947290472",
      "longitude": "-90.01618121237766"
    }
  },
  {
    "service_request": "2022-911802",
    "request_type": "Abandoned Vehicles",
    "request_reason": "Abandoned/Junk Vehicles",
    "date_created": "2022-08-20T08:45:59.000",
    "date_modified": "2022-08-20T08:45:59.000",
    "request_status": "Pending",
    "responsible_agency": "Department of Public Works",
    "final_address": "2404 Ap Tureaud Ave",
    "address_councildis": "D",
    "status": "Pending",
    "rowid": "911802",
    "final_x": "3681543.74895",
    "final_y": "540909.840907",
    "longitude": "-90.06760465869583",
    "latitude": "29.981313185305673",
    "geocoded_column": {
      "latitude": "29.981313185305673",
      "longitude": "-90.06760465869583"
    }
  },
  {
    "service_request": "2022-911801",
    "request_type": "Roads/Drainage",
    "request_reason": "Catch Basin - Clogged",
    "date_created": "2022-08-20T08:36:52.000",
    "date_modified": "2022-08-20T08:36:52.000",
    "request_status": "Pending",
    "responsible_agency": "Department of Public Works",
    "final_address": "4239 Vincennes Pl",
    "address_councildis": "B",
    "status": "Pending",
    "rowid": "911801",
    "final_x": "3668859.62663",
    "final_y": "531565.533059",
    "longitude": "-90.10798265543059",
    "latitude": "29.955998622424612",
    "geocoded_column": {
      "latitude": "29.955998622424612",
      "longitude": "-90.10798265543059"
    }
  },
  {
    "service_request": "2022-911800",
    "request_type": "Trash/Recycling",
    "request_reason": "MIssed Recycling Pick-Up",
    "date_created": "2022-08-20T08:21:44.000",
    "date_modified": "2022-08-20T08:21:45.000",
    "request_status": "Pending",
    "responsible_agency": "Department of Sanitation",
    "final_address": "3701 State Street Dr",
    "address_councildis": "A",
    "status": "Assigned to Contractor",
    "contractor": "Richards Disposal",
    "rowid": "911800",
    "final_x": "3668023.8338",
    "final_y": "529323.251585",
    "longitude": "-90.11069735928967",
    "latitude": "29.949857631376833",
    "geocoded_column": {
      "latitude": "29.949857631376833",
      "longitude": "-90.11069735928967"
    }
  },
  {
    "service_request": "2022-911799",
    "request_type": "Roads/Drainage",
    "request_reason": "Pothole",
    "date_created": "2022-08-20T07:58:47.000",
    "date_modified": "2022-08-20T07:58:47.000",
    "request_status": "Pending",
    "responsible_agency": "Department of Public Works",
    "final_address": "264 Audubon St",
    "address_councildis": "A",
    "status": "Pending",
    "rowid": "911799",
    "final_x": "3661291.22355",
    "final_y": "521739.32985",
    "longitude": "-90.13220644398676",
    "latitude": "29.929200062486068",
    "geocoded_column": {
      "latitude": "29.929200062486068",
      "longitude": "-90.13220644398676"
    }
  },
  {
    "service_request": "2022-911798",
    "request_type": "Traffic Signals/Signs/Striping/Streetlights",
    "request_reason": "Traffic Signal Malfunctioning/Damaged",
    "date_created": "2022-08-20T07:56:57.000",
    "date_modified": "2022-08-20T07:56:58.000",
    "request_status": "Pending",
    "responsible_agency": "Department of Public Works",
    "final_address": "N MIRO ST & ST BERNARD AVE",
    "address_councildis": "D",
    "status": "Pending",
    "rowid": "911798",
    "final_x": "3681139.6",
    "final_y": "539920.98",
    "longitude": "-90.06891560989456",
    "latitude": "29.978606431550983",
    "geocoded_column": {
      "latitude": "29.978606431550983",
      "longitude": "-90.06891560989456"
    }
  },
  {
    "service_request": "2022-911797",
    "request_type": "Trash/Recycling",
    "request_reason": "Replace Trash Cart",
    "date_created": "2022-08-20T07:54:39.000",
    "date_modified": "2022-08-20T07:54:40.000",
    "request_status": "Pending",
    "responsible_agency": "Department of Sanitation",
    "final_address": "264 Audubon St",
    "address_councildis": "A",
    "status": "Assigned to Contractor",
    "contractor": "Richards Disposal",
    "rowid": "911797",
    "final_x": "3661291.22355",
    "final_y": "521739.32985",
    "longitude": "-90.13220644398676",
    "latitude": "29.929200062486068",
    "geocoded_column": {
      "latitude": "29.929200062486068",
      "longitude": "-90.13220644398676"
    }
  },
  {
    "service_request": "2022-911796",
    "request_type": "Trash/Recycling",
    "request_reason": "MIssed Recycling Pick-Up",
    "date_created": "2022-08-20T07:52:42.000",
    "date_modified": "2022-08-20T09:03:53.000",
    "request_status": "Pending",
    "responsible_agency": "Department of Sanitation",
    "final_address": "New Orleans,LA",
    "address_councildis": "A",
    "status": "Assigned to Contractor",
    "contractor": "Richards Disposal",
    "rowid": "911796",
    "final_x": "3665269.46912",
    "final_y": "533553.965317",
    "longitude": "-90.1192526568307",
    "latitude": "29.961571239822813",
    "geocoded_column": {
      "latitude": "29.961571239822813",
      "longitude": "-90.1192526568307"
    }
  },
  {
    "service_request": "2022-911795",
    "request_type": "Trash/Recycling",
    "request_reason": "Replace Trash Cart",
    "date_created": "2022-08-20T07:17:40.000",
    "date_modified": "2022-08-20T07:17:41.000",
    "request_status": "Pending",
    "responsible_agency": "Department of Sanitation",
    "final_address": "1319 Burgundy St",
    "address_councildis": "C",
    "status": "Assigned to Contractor",
    "contractor": "Empire Services",
    "rowid": "911795",
    "final_x": "3683026.96028",
    "final_y": "534925.431174",
    "longitude": "-90.06312953442483",
    "latitude": "29.964813002856562",
    "geocoded_column": {
      "latitude": "29.964813002856562",
      "longitude": "-90.06312953442483"
    }
  },
  {
    "service_request": "2022-911794",
    "request_type": "Roads/Drainage",
    "request_reason": "Street Flooding / Drainage",
    "date_created": "2022-08-20T05:45:53.000",
    "date_modified": "2022-08-20T05:45:53.000",
    "request_status": "Pending",
    "responsible_agency": "Department of Public Works",
    "final_address": "136 S Broad St A",
    "address_councildis": "B",
    "status": "Pending",
    "rowid": "911794",
    "final_x": "3675189.29973",
    "final_y": "534773.932486",
    "longitude": "-90.0878855852009",
    "latitude": "29.964633004161673",
    "geocoded_column": {
      "latitude": "29.964633004161673",
      "longitude": "-90.0878855852009"
    }
  },
  {
    "service_request": "2022-911792",
    "request_type": "Safety & Permits",
    "request_reason": "Short term Rental (Enforcement)",
    "date_created": "2022-08-20T03:37:30.000",
    "date_modified": "2022-08-20T03:37:30.000",
    "request_status": "Pending",
    "responsible_agency": "Safety and Permits",
    "final_address": "201 N Rampart St",
    "address_councildis": "C",
    "status": "Pending",
    "rowid": "911792",
    "final_x": "3680252.24763",
    "final_y": "531998.461507",
    "longitude": "-90.0719936419936",
    "latitude": "29.95684911584148",
    "geocoded_column": {
      "latitude": "29.95684911584148",
      "longitude": "-90.0719936419936"
    }
  },
  {
    "service_request": "2022-911791",
    "request_type": "Roads/Drainage",
    "request_reason": "Pothole",
    "date_created": "2022-08-20T00:28:46.000",
    "date_modified": "2022-08-20T00:28:46.000",
    "request_status": "Pending",
    "responsible_agency": "Department of Public Works",
    "final_address": "4600 Cleveland Ave",
    "address_councildis": "A",
    "status": "Pending",
    "rowid": "911791",
    "final_x": "3669076.14049",
    "final_y": "539303.778698",
    "longitude": "-90.10703747282543",
    "latitude": "29.977269851412984",
    "geocoded_column": {
      "latitude": "29.977269851412984",
      "longitude": "-90.10703747282543"
    }
  },
  {
    "service_request": "2022-911790",
    "request_type": "Traffic Signals/Signs/Striping/Streetlights",
    "request_reason": "Street Light Outage/Malfunction",
    "date_created": "2022-08-20T00:24:40.000",
    "date_modified": "2022-08-20T00:24:41.000",
    "request_status": "Pending",
    "responsible_agency": "Department of Public Works",
    "final_address": "4600 Cleveland Ave",
    "address_councildis": "A",
    "status": "Pending",
    "contractor": "Legacy Professional Services",
    "rowid": "911790",
    "final_x": "3669076.14049",
    "final_y": "539303.778698",
    "longitude": "-90.10703747282543",
    "latitude": "29.977269851412984",
    "geocoded_column": {
      "latitude": "29.977269851412984",
      "longitude": "-90.10703747282543"
    }
  },
  {
    "service_request": "2022-911789",
    "request_type": "Traffic Signals/Signs/Striping/Streetlights",
    "request_reason": "Street Light Outage/Malfunction",
    "date_created": "2022-08-19T23:48:36.000",
    "date_modified": "2022-08-19T23:48:37.000",
    "request_status": "Pending",
    "responsible_agency": "Department of Public Works",
    "final_address": "2739 Danbury Dr",
    "address_councildis": "C",
    "status": "Pending",
    "contractor": "Legacy Professional Services",
    "rowid": "911789",
    "final_x": "3703593.14538",
    "final_y": "520650.471225",
    "longitude": "-89.99870841488634",
    "latitude": "29.924919014365543",
    "geocoded_column": {
      "latitude": "29.924919014365543",
      "longitude": "-89.99870841488634"
    }
  },
  {
    "service_request": "2022-911788",
    "request_type": "Traffic Signals/Signs/Striping/Streetlights",
    "request_reason": "Traffic Signal Malfunctioning/Damaged",
    "date_created": "2022-08-19T23:24:51.000",
    "date_modified": "2022-08-19T23:24:51.000",
    "request_status": "Pending",
    "responsible_agency": "Department of Public Works",
    "final_address": "TULANE AVE & S CLAIBORNE AVE",
    "address_councildis": "B",
    "status": "Pending",
    "rowid": "911788",
    "final_x": "3677827.0",
    "final_y": "531928.38",
    "longitude": "-90.07965422895589",
    "latitude": "29.956729600430034",
    "geocoded_column": {
      "latitude": "29.956729600430034",
      "longitude": "-90.07965422895589"
    }
  },
  {
    "service_request": "2022-911787",
    "request_type": "Health Related Questions",
    "request_reason": "Noise Ordinance Complaint",
    "date_created": "2022-08-19T23:10:29.000",
    "date_modified": "2022-08-19T23:10:29.000",
    "request_status": "Pending",
    "responsible_agency": "Health Department",
    "final_address": "2549 banks street.  Soule cafe ",
    "status": "Pending",
    "rowid": "911787",
    "longitude": "0.0",
    "latitude": "0.0",
    "geocoded_column": {
      "latitude": "0.0",
      "longitude": "0.0"
    }
  },